{"status":true,"message":"","result":[{"server_id":9,"name":"Uncletopia | Atlanta | 1 | All Maps","name_short":"atl-1","host":"atl-1.us.uncletopia.com","port":27015,"enabled":true,"region":"us-east","cc":"us","latitude":33.753746,"longitude":-84.38633,"reserved":0,"last_update":"0001-01-01T00:00:00Z","name_a2s":"Uncletopia | Atlanta | 1 | All Maps","protocol":17,"map":"pl_frontier_final","folder":"tf","game":"Team Fortress","app_id":440,"player_count":0,"max_players":24,"Bots":0,"server_type":"Dedicated","server_os":"Linux","password":true,"vac":true,"version":"7961495","steam_id":85568392924469982,"keywords":["nocrits","nodmgspread","payload","uncletopia"],"game_id":440,"stv_port":27016,"stv_name":"Uncletopia | Atlanta | 1 | All Maps | STV","players":null},{"server_id":104,"name":"Uncletopia | Atlanta | 2 | All Maps","name_short":"atl-2","host":"atl-1.us.uncletopia.com","port":27025,"enabled":true,"region":"us-east","cc":"us","latitude":33.753746,"longitude":-84.38633,"reserved":0,"last_update":"0001-01-01T00:00:00Z","name_a2s":"Uncletopia | Atlanta | 2 | All Maps","protocol":17,"map":"koth_viaduct","folder":"tf","game":"Team Fortress","app_id":440,"player_count":0,"max_players":24,"Bots":0,"server_type":"Dedicated","server_os":"Linux","password":true,"vac":true,"version":"7961495","steam_id":85568392924469983,"keywords":["cp","nocrits","nodmgspread","uncletopia"],"game_id":440,"stv_port":27026,"stv_name":"Uncletopia | Atlanta | 2 | All Maps | STV","players":null},{"server_id":400,"name":"Uncletopia | Atlanta | 3 | Stopwatch","name_short":"atl-3","host":"atl-1.us.uncletopia.com","port":27035,"enabled":true,"region":"us-east","cc":"us","latitude":33.753746,"longitude":-84.38633,"reserved":0,"last_update":"0001-01-01T00:00:00Z","name_a2s":"Uncletopia | Atlanta | 3 | Stopwatch","protocol":17,"map":"workshop/pl_badwater_pro_v12.ugc2142942074","folder":"tf","game":"Team Fortress","app_id":440,"player_count":0,"max_players":24,"Bots":0,"server_type":"Dedicated","server_os":"Linux","password":true,"vac":true,"version":"7961495","steam_id":85568392924515187,"keywords":["nocrits","nodmgspread","payload","uncletopia"],"game_id":440,"stv_port":27036,"stv_name":"Uncletopia | Atlanta | 3 | Stopwatch | STV","players":null},{"server_id":401,"name":"Uncletopia | Atlanta | 4 | Community","name_short":"atl-4","host":"atl-1.us.uncletopia.com","port":27045,"enabled":true,"region":"us-east","cc":"us","latitude":33.753746,"longitude":-84.38633,"reserved":0,"last_update":"0001-01-01T00:00:00Z","name_a2s":"Uncletopia | Atlanta | 4 | Community","protocol":17,"map":"workshop/cp_indulge.ugc528106646","folder":"tf","game":"Team Fortress","app_id":440,"player_count":0,"max_players":24,"Bots":0,"server_type":"Dedicated","server_os":"Linux","password":true,"vac":true,"version":"7961495","steam_id":85568392924515188,"keywords":["cp","nocrits","nodmgspread","uncletopia"],"game_id":440,"stv_port":27046,"stv_name":"Uncletopia | Atlanta | 4 | Community | STV","players":null},{"server_id":2,"name":"Uncletopia | Chicago | 1 | All Maps","name_short":"chi-1","host":"chi-1.us.uncletopia.com","port":27015,"enabled":true,"region":"us-central","cc":"us","latitude":41.881832,"longitude":-87.62318,"reserved":0,"last_update":"0001-01-01T00:00:00Z","name_a2s":"Uncletopia | Chicago | 1 | All Maps","protocol":17,"map":"pl_swiftwater_final1","folder":"tf","game":"Team Fortress","app_id":440,"player_count":21,"max_players":24,"Bots":0,"server_type":"Dedicated","server_os":"Linux","password":true,"vac":true,"version":"7961495","steam_id":85568392924469984,"keywords":["nocrits","nodmgspread","payload","uncletopia"],"game_id":440,"stv_port":27016,"stv_name":"Uncletopia | Chicago | 1 | All Maps | STV","players":[{"user_id":877,"name":"ShadozoneX","steam_id":76561198255452404,"connected_time":2029000000000,"state":"active","ping":78},{"user_id":878,"name":"playguy carter","steam_id":76561198080679337,"connected_time":1969000000000,"state":"active","ping":48},{"user_id":916,"name":"spongbob","steam_id":76561198132068284,"connected_time":151000000000,"state":"active","ping":73},{"user_id":917,"name":"AveMoSwag","steam_id":76561198261701911,"connected_time":35000000000,"state":"active","ping":50},{"user_id":915,"name":"Lana","steam_id":76561198127693473,"connected_time":229000000000,"state":"active","ping":98},{"user_id":918,"name":"sumga","steam_id":76561199176290258,"connected_time":13000000000,"state":"spawning","ping":49},{"user_id":907,"name":"Smooth, Refreshing Bleach™","steam_id":76561197981060504,"connected_time":420000000000,"state":"active","ping":49},{"user_id":828,"name":"Kantamoe","steam_id":76561198046661611,"connected_time":7386000000000,"state":"active","ping":84},{"user_id":852,"name":"Rat God","steam_id":76561198066161598,"connected_time":4686000000000,"state":"active","ping":60},{"user_id":908,"name":"level 2 sentry","steam_id":76561199096398754,"connected_time":417000000000,"state":"active","ping":132},{"user_id":890,"name":"leonardo doujinshi","steam_id":76561198025810326,"connected_time":1406000000000,"state":"active","ping":75},{"user_id":891,"name":"benny worm","steam_id":76561198163238434,"connected_time":1334000000000,"state":"active","ping":62},{"user_id":888,"name":"Ashton","steam_id":76561198300590302,"connected_time":1506000000000,"state":"active","ping":64},{"user_id":896,"name":"HOMIE","steam_id":76561198057325155,"connected_time":1172000000000,"state":"active","ping":59},{"user_id":905,"name":"SharkChapeau","steam_id":76561198111743234,"connected_time":624000000000,"state":"active","ping":78},{"user_id":919,"name":"fükit","steam_id":76561199145316220,"connected_time":12000000000,"state":"spawning","ping":117},{"user_id":910,"name":"incredirocks","steam_id":76561198061079993,"connected_time":373000000000,"state":"active","ping":46},{"user_id":911,"name":"Mint Jelly","steam_id":76561197991286751,"connected_time":360000000000,"state":"active","ping":45},{"user_id":869,"name":"Sky!","steam_id":76561198141953747,"connected_time":3174000000000,"state":"active","ping":66},{"user_id":912,"name":"paypur -rng","steam_id":76561198214370515,"connected_time":354000000000,"state":"active","ping":81},{"user_id":914,"name":"LatinRhythms - 5 ref","steam_id":76561198025110751,"connected_time":280000000000,"state":"active","ping":133}]},{"server_id":106,"name":"Uncletopia | Chicago | 2 | All Maps","name_short":"chi-2","host":"chi-1.us.uncletopia.com","port":27025,"enabled":true,"region":"us-central","cc":"us","latitude":41.881832,"longitude":-87.62318,"reserved":0,"last_update":"0001-01-01T00:00:00Z","name_a2s":"Uncletopia | Chicago | 2 | All Maps","protocol":17,"map":"pl_barnblitz","folder":"tf","game":"Team Fortress","app_id":440,"player_count":24,"max_players":24,"Bots":0,"server_type":"Dedicated","server_os":"Linux","password":true,"vac":true,"version":"7961495","steam_id":85568392924469985,"keywords":["nocrits","nodmgspread","payload","uncletopia"],"game_id":440,"stv_port":27026,"stv_name":"Uncletopia | Chicago | 2 | All Maps | STV","players":[{"user_id":744,"name":"pigswill","steam_id":76561197999081865,"connected_time":202000000000,"state":"active","ping":90},{"user_id":710,"name":"jayyteeAT","steam_id":76561198059575962,"connected_time":2614000000000,"state":"active","ping":60},{"user_id":737,"name":"Bippums","steam_id":76561198366406729,"connected_time":611000000000,"state":"active","ping":89},{"user_id":614,"name":"left 4 dead soker","steam_id":76561198066566813,"connected_time":7159000000000,"state":"active","ping":141},{"user_id":724,"name":"resh!","steam_id":76561198066619792,"connected_time":1591000000000,"state":"active","ping":60},{"user_id":735,"name":"Lore","steam_id":76561198098407538,"connected_time":1026000000000,"state":"active","ping":48},{"user_id":742,"name":"PTR","steam_id":76561198237253772,"connected_time":275000000000,"state":"active","ping":72},{"user_id":720,"name":"GOLDIE","steam_id":76561199375258674,"connected_time":2258000000000,"state":"active","ping":91},{"user_id":680,"name":"Flayre","steam_id":76561198803036389,"connected_time":5294000000000,"state":"active","ping":66},{"user_id":733,"name":"coda","steam_id":76561198092052685,"connected_time":1290000000000,"state":"active","ping":63},{"user_id":745,"name":"TechnoNeko22","steam_id":76561198335866466,"connected_time":177000000000,"state":"active","ping":81},{"user_id":740,"name":"Julian","steam_id":76561198975824400,"connected_time":436000000000,"state":"active","ping":35},{"user_id":686,"name":"big tiddy lamia gf","steam_id":76561198378537090,"connected_time":5092000000000,"state":"active","ping":80},{"user_id":595,"name":"BiggFoot","steam_id":76561197998605599,"connected_time":9226000000000,"state":"active","ping":76},{"user_id":746,"name":"crimson123dracon","steam_id":76561198350138715,"connected_time":172000000000,"state":"active","ping":186},{"user_id":718,"name":"Zesty Zucchini Ziti","steam_id":76561198092494136,"connected_time":2349000000000,"state":"active","ping":63},{"user_id":741,"name":"thundah!","steam_id":76561199159928133,"connected_time":314000000000,"state":"active","ping":75},{"user_id":747,"name":"Shalien","steam_id":76561198154432765,"connected_time":160000000000,"state":"active","ping":121},{"user_id":748,"name":"darkelaine227","steam_id":76561198097330521,"connected_time":154000000000,"state":"active","ping":156},{"user_id":711,"name":"alfredodan","steam_id":76561198025011044,"connected_time":2601000000000,"state":"active","ping":81},{"user_id":729,"name":"Monte","steam_id":76561198097499917,"connected_time":1465000000000,"state":"active","ping":102},{"user_id":749,"name":"car crash compilation #34","steam_id":76561198042773724,"connected_time":152000000000,"state":"active","ping":100},{"user_id":712,"name":"snail from ear AT(cochlea)","steam_id":76561198184900753,"connected_time":2599000000000,"state":"active","ping":46},{"user_id":723,"name":"Raccoon Wizard","steam_id":76561198072562591,"connected_time":1889000000000,"state":"active","ping":88}]},{"server_id":402,"name":"Uncletopia | Chicago | 3 | All Maps","name_short":"chi-3","host":"chi-1.us.uncletopia.com","port":27035,"enabled":true,"region":"us-central","cc":"us","latitude":41.881832,"longitude":-87.62318,"reserved":0,"last_update":"0001-01-01T00:00:00Z","name_a2s":"Uncletopia | Chicago | 3 | All Maps","protocol":17,"map":"cp_egypt_final","folder":"tf","game":"Team Fortress","app_id":440,"player_count":8,"max_players":24,"Bots":0,"server_type":"Dedicated","server_os":"Linux","password":true,"vac":true,"version":"7961495","steam_id":85568392924515191,"keywords":["cp","nocrits","nodmgspread","uncletopia"],"game_id":440,"stv_port":27036,"stv_name":"Uncletopia | Chicago | 3 | All Maps | STV","players":[{"user_id":509,"name":"Me when tryhards kill me","steam_id":76561199209207003,"connected_time":219000000000,"state":"active","ping":282},{"user_id":510,"name":"DogerBro","steam_id":76561198275457479,"connected_time":150000000000,"state":"active","ping":44},{"user_id":508,"name":"The Legendary Dappergrade","steam_id":76561198004238822,"connected_time":409000000000,"state":"active","ping":70},{"user_id":459,"name":"Foloan","steam_id":76561199229528791,"connected_time":4307000000000,"state":"active","ping":75},{"user_id":489,"name":"Hamz","steam_id":76561199287459211,"connected_time":2295000000000,"state":"active","ping":72},{"user_id":498,"name":"i've goneth","steam_id":76561198339644583,"connected_time":1514000000000,"state":"active","ping":55},{"user_id":493,"name":"☆ShinyMew112","steam_id":76561198042820161,"connected_time":2216000000000,"state":"active","ping":55},{"user_id":496,"name":"Bonk Nickeltoon","steam_id":76561198027738883,"connected_time":1780000000000,"state":"active","ping":46}]},{"server_id":403,"name":"Uncletopia | Chicago | 4 | All Maps","name_short":"chi-4","host":"chi-1.us.uncletopia.com","port":27045,"enabled":true,"region":"us-central","cc":"us","latitude":41.881832,"longitude":-87.62318,"reserved":0,"last_update":"0001-01-01T00:00:00Z","name_a2s":"Uncletopia | Chicago | 4 | All Maps","protocol":17,"map":"koth_viaduct","folder":"tf","game":"Team Fortress","app_id":440,"player_count":0,"max_players":24,"Bots":0,"server_type":"Dedicated","server_os":"Linux","password":true,"vac":true,"version":"7961495","steam_id":85568392924515193,"keywords":["cp","nocrits","nodmgspread","uncletopia"],"game_id":440,"stv_port":27046,"stv_name":"Uncletopia | Chicago | 4 | All Maps | STV","players":null},{"server_id":36,"name":"Uncletopia | Chicago | 5 | All Maps","name_short":"chi-5","host":"chi-2.us.uncletopia.com","port":27015,"enabled":true,"region":"us-central","cc":"us","latitude":41.881832,"longitude":-87.62318,"reserved":0,"last_update":"0001-01-01T00:00:00Z","name_a2s":"Uncletopia | Chicago | 5 | All Maps","protocol":17,"map":"pl_thundermountain","folder":"tf","game":"Team Fortress","app_id":440,"player_count":14,"max_players":24,"Bots":0,"server_type":"Dedicated","server_os":"Linux","password":true,"vac":true,"version":"7961495","steam_id":85568392924866362,"keywords":["nocrits","nodmgspread","payload","uncletopia"],"game_id":440,"stv_port":27016,"stv_name":"Uncletopia | Chicago | 5 | All Maps | STV","players":[{"user_id":351,"name":"BIG HOG","steam_id":76561198079923652,"connected_time":1139000000000,"state":"active","ping":74},{"user_id":346,"name":"CHIEF_JUSTICE_FUCKASS","steam_id":76561199261675844,"connected_time":1626000000000,"state":"active","ping":113},{"user_id":353,"name":"RodneyRimmings","steam_id":76561199500063868,"connected_time":905000000000,"state":"active","ping":73},{"user_id":317,"name":"SoldMyKidneyForCollege","steam_id":76561198096329559,"connected_time":4082000000000,"state":"active","ping":90},{"user_id":291,"name":"Raizen","steam_id":76561199092445367,"connected_time":5737000000000,"state":"active","ping":45},{"user_id":354,"name":"Joe Rogan's DMT Pipe","steam_id":76561198127165345,"connected_time":893000000000,"state":"active","ping":107},{"user_id":356,"name":"Engideer","steam_id":76561198145733164,"connected_time":686000000000,"state":"active","ping":74},{"user_id":358,"name":"stall","steam_id":76561199152861652,"connected_time":299000000000,"state":"active","ping":53},{"user_id":336,"name":"sum0","steam_id":76561198260451626,"connected_time":2808000000000,"state":"active","ping":88},{"user_id":337,"name":"/\\","steam_id":76561198045522596,"connected_time":2718000000000,"state":"active","ping":85},{"user_id":345,"name":"Albino Jellyfish","steam_id":76561198208561097,"connected_time":1831000000000,"state":"active","ping":59},{"user_id":347,"name":"lil hog","steam_id":76561199230929836,"connected_time":1606000000000,"state":"active","ping":85},{"user_id":280,"name":"zpalmtree","steam_id":76561198134307620,"connected_time":6454000000000,"state":"active","ping":55},{"user_id":277,"name":"Mufalito","steam_id":76561198951889482,"connected_time":6636000000000,"state":"active","ping":130}]},{"server_id":37,"name":"Uncletopia | Chicago | 6 | All Maps","name_short":"chi-6","host":"chi-2.us.uncletopia.com","port":27025,"enabled":true,"region":"us-central","cc":"us","latitude":41.881832,"longitude":-87.62318,"reserved":0,"last_update":"0001-01-01T00:00:00Z","name_a2s":"Uncletopia | Chicago | 6 | All Maps","protocol":17,"map":"pl_frontier_final","folder":"tf","game":"Team Fortress","app_id":440,"player_count":11,"max_players":24,"Bots":0,"server_type":"Dedicated","server_os":"Linux","password":true,"vac":true,"version":"7961495","steam_id":85568392924866363,"keywords":["nocrits","nodmgspread","payload","uncletopia"],"game_id":440,"stv_port":27026,"stv_name":"Uncletopia | Chicago | 6 | All Maps | STV","players":[{"user_id":374,"name":"Sephimoth","steam_id":76561198138690591,"connected_time":635000000000,"state":"active","ping":72},{"user_id":271,"name":"Kenn","steam_id":76561198061505015,"connected_time":11293000000000,"state":"active","ping":75},{"user_id":288,"name":"Unlimited_Trees","steam_id":76561198299141443,"connected_time":10205000000000,"state":"active","ping":110},{"user_id":263,"name":"ashelin praxis nude mod","steam_id":76561198167907089,"connected_time":11822000000000,"state":"active","ping":66},{"user_id":360,"name":"MilesFireStorm","steam_id":76561198078642820,"connected_time":2476000000000,"state":"active","ping":84},{"user_id":372,"name":"who ate the cheese","steam_id":76561198275408467,"connected_time":767000000000,"state":"active","ping":48},{"user_id":373,"name":"Emm","steam_id":76561198065545361,"connected_time":691000000000,"state":"active","ping":86},{"user_id":348,"name":"FluffyEzio123","steam_id":76561198125304761,"connected_time":3969000000000,"state":"active","ping":80},{"user_id":352,"name":"group fortification the second","steam_id":76561198986754793,"connected_time":3801000000000,"state":"active","ping":138},{"user_id":369,"name":"doinker","steam_id":76561198329067451,"connected_time":1829000000000,"state":"active","ping":68},{"user_id":367,"name":"Salad and Absinthe","steam_id":76561198169915227,"connected_time":2240000000000,"state":"active","ping":88}]},{"server_id":38,"name":"Uncletopia | Chicago | 7 | Stopwatch","name_short":"chi-7","host":"chi-2.us.uncletopia.com","port":27035,"enabled":true,"region":"us-central","cc":"us","latitude":41.881832,"longitude":-87.62318,"reserved":0,"last_update":"0001-01-01T00:00:00Z","name_a2s":"Uncletopia | Chicago | 7 | Stopwatch","protocol":17,"map":"koth_lakeside_final","folder":"tf","game":"Team Fortress","app_id":440,"player_count":0,"max_players":24,"Bots":0,"server_type":"Dedicated","server_os":"Linux","password":true,"vac":true,"version":"7961495","steam_id":85568392924866364,"keywords":["cp","nocrits","nodmgspread","uncletopia"],"game_id":440,"stv_port":27036,"stv_name":"Uncletopia | Chicago | 7 | Stopwatch | STV","players":null},{"server_id":39,"name":"Uncletopia | Chicago | 8 | Community","name_short":"chi-8","host":"chi-2.us.uncletopia.com","port":27045,"enabled":true,"region":"us-central","cc":"us","latitude":41.881832,"longitude":-87.62318,"reserved":0,"last_update":"0001-01-01T00:00:00Z","name_a2s":"Uncletopia | Chicago | 8 | Community","protocol":17,"map":"workshop/pl_fifthcurve_rc1.ugc648227046","folder":"tf","game":"Team Fortress","app_id":440,"player_count":0,"max_players":24,"Bots":0,"server_type":"Dedicated","server_os":"Linux","password":true,"vac":true,"version":"7961495","steam_id":85568392924866365,"keywords":["nocrits","nodmgspread","payload","uncletopia"],"game_id":440,"stv_port":27046,"stv_name":"Uncletopia | Chicago | 8 | Community | STV","players":null},{"server_id":8,"name":"Uncletopia | Dallas | 1 | All Maps","name_short":"dal-1","host":"dal-1.us.uncletopia.com","port":27015,"enabled":true,"region":"us-central","cc":"us","latitude":32.779167,"longitude":-96.80889,"reserved":0,"last_update":"0001-01-01T00:00:00Z","name_a2s":"Uncletopia | Dallas | 1 | All Maps","protocol":17,"map":"pl_pier","folder":"tf","game":"Team Fortress","app_id":440,"player_count":25,"max_players":24,"Bots":0,"server_type":"Dedicated","server_os":"Linux","password":true,"vac":true,"version":"7961495","steam_id":85568392924469986,"keywords":["nocrits","nodmgspread","payload","uncletopia"],"game_id":440,"stv_port":27016,"stv_name":"Uncletopia | Dallas | 1 | All Maps | STV","players":[{"user_id":720,"name":"canadian birds","steam_id":76561198059466588,"connected_time":3167000000000,"state":"active","ping":80},{"user_id":695,"name":"wugmup","steam_id":76561199096287734,"connected_time":4307000000000,"state":"active","ping":94},{"user_id":746,"name":"tsz","steam_id":76561199246231090,"connected_time":1274000000000,"state":"active","ping":83},{"user_id":752,"name":"Mads Mikkelsen","steam_id":76561198083482001,"connected_time":558000000000,"state":"active","ping":155},{"user_id":747,"name":"SHADOW","steam_id":76561198207768148,"connected_time":1189000000000,"state":"active","ping":99},{"user_id":735,"name":"Haven","steam_id":76561198087584756,"connected_time":1641000000000,"state":"active","ping":118},{"user_id":738,"name":"flame","steam_id":76561198079321914,"connected_time":1462000000000,"state":"active","ping":96},{"user_id":748,"name":"BACKSHOTG0D","steam_id":76561198201659457,"connected_time":1154000000000,"state":"active","ping":94},{"user_id":767,"name":"Klip","steam_id":76561198316254429,"connected_time":26000000000,"state":"active","ping":54},{"user_id":737,"name":"Mazdamundi!","steam_id":76561198044691081,"connected_time":1539000000000,"state":"active","ping":60},{"user_id":710,"name":"Projectrex","steam_id":76561198028223030,"connected_time":3570000000000,"state":"active","ping":90},{"user_id":739,"name":"frank n furter TF2EASY.COM","steam_id":76561198308883028,"connected_time":1452000000000,"state":"active","ping":88},{"user_id":765,"name":"The Horny","steam_id":76561198863639459,"connected_time":103000000000,"state":"active","ping":599},{"user_id":722,"name":"CowMilkingMoth","steam_id":76561198047607935,"connected_time":3133000000000,"state":"active","ping":72},{"user_id":741,"name":"Eloi","steam_id":76561198081193565,"connected_time":1381000000000,"state":"active","ping":58},{"user_id":723,"name":"bunnygirl gaming","steam_id":76561198036901822,"connected_time":3036000000000,"state":"active","ping":47},{"user_id":742,"name":"TruthHut","steam_id":76561198093452436,"connected_time":1371000000000,"state":"active","ping":102},{"user_id":743,"name":"Milk, Large","steam_id":76561198119621493,"connected_time":1354000000000,"state":"active","ping":86},{"user_id":728,"name":"START PRAYIN BOY","steam_id":76561198089173996,"connected_time":2653000000000,"state":"active","ping":95},{"user_id":703,"name":"MasterGeek.MX","steam_id":76561198063355220,"connected_time":4045000000000,"state":"active","ping":87},{"user_id":635,"name":"Locomotive","steam_id":76561199152926930,"connected_time":8631000000000,"state":"active","ping":70},{"user_id":744,"name":"GoldtoothFour","steam_id":76561198055529332,"connected_time":1344000000000,"state":"active","ping":78},{"user_id":731,"name":"Rafl","steam_id":76561198055222756,"connected_time":2560000000000,"state":"active","ping":46},{"user_id":745,"name":"RLLwB","steam_id":76561198021132868,"connected_time":1337000000000,"state":"active","ping":59},{"user_id":768,"name":"Lazy","steam_id":76561198798969701,"connected_time":0,"state":"spawning","ping":37}]},{"server_id":108,"name":"Uncletopia | Dallas | 2 | All Maps","name_short":"dal-2","host":"dal-1.us.uncletopia.com","port":27025,"enabled":true,"region":"us-central","cc":"us","latitude":32.779167,"longitude":-96.80889,"reserved":0,"last_update":"0001-01-01T00:00:00Z","name_a2s":"Uncletopia | Dallas | 2 | All Maps","protocol":17,"map":"pl_pier","folder":"tf","game":"Team Fortress","app_id":440,"player_count":11,"max_players":24,"Bots":0,"server_type":"Dedicated","server_os":"Linux","password":true,"vac":true,"version":"7961495","steam_id":85568392924469988,"keywords":["nocrits","nodmgspread","payload","uncletopia"],"game_id":440,"stv_port":27026,"stv_name":"Uncletopia | Dallas | 2 | All Maps | STV","players":[{"user_id":462,"name":"raya","steam_id":76561198051504581,"connected_time":1405000000000,"state":"active","ping":65},{"user_id":454,"name":"family-friendly chainsaw man","steam_id":76561198007464245,"connected_time":1800000000000,"state":"active","ping":77},{"user_id":455,"name":"⭐ aloha! :3 ⭐","steam_id":76561198148517055,"connected_time":1776000000000,"state":"active","ping":117},{"user_id":468,"name":"Under an Unquiet Skull","steam_id":76561198164782653,"connected_time":1021000000000,"state":"active","ping":82},{"user_id":403,"name":"gerg","steam_id":76561197997127387,"connected_time":6583000000000,"state":"active","ping":85},{"user_id":456,"name":"Part-Time Pybro","steam_id":76561198079508595,"connected_time":1725000000000,"state":"active","ping":112},{"user_id":405,"name":"social distance warrior","steam_id":76561198128992994,"connected_time":6572000000000,"state":"active","ping":88},{"user_id":459,"name":"gwen","steam_id":76561198046815360,"connected_time":1594000000000,"state":"active","ping":73},{"user_id":447,"name":"Cat on the Moon","steam_id":76561198272661627,"connected_time":2403000000000,"state":"active","ping":86},{"user_id":460,"name":"Train","steam_id":76561199105132740,"connected_time":1568000000000,"state":"active","ping":98},{"user_id":469,"name":"TF2 2023 SUMMER UPDATE","steam_id":76561198084982609,"connected_time":497000000000,"state":"active","ping":67}]},{"server_id":404,"name":"Uncletopia | Dallas | 3 | All Maps","name_short":"dal-3","host":"dal-1.us.uncletopia.com","port":27035,"enabled":true,"region":"us-central","cc":"us","latitude":32.779167,"longitude":-96.80889,"reserved":0,"last_update":"0001-01-01T00:00:00Z","name_a2s":"Uncletopia | Dallas | 3 | All Maps","protocol":17,"map":"pl_borneo","folder":"tf","game":"Team Fortress","app_id":440,"player_count":23,"max_players":24,"Bots":0,"server_type":"Dedicated","server_os":"Linux","password":true,"vac":true,"version":"7961495","steam_id":85568392924515219,"keywords":["nocrits","nodmgspread","payload","uncletopia"],"game_id":440,"stv_port":27036,"stv_name":"Uncletopia | Dallas | 3 | All Maps | STV","players":[{"user_id":383,"name":"da-me da-ne","steam_id":76561198186208857,"connected_time":2181000000000,"state":"active","ping":66},{"user_id":398,"name":"Octo","steam_id":76561198024056355,"connected_time":1270000000000,"state":"active","ping":86},{"user_id":395,"name":"twinblock","steam_id":76561198157414556,"connected_time":1385000000000,"state":"active","ping":89},{"user_id":426,"name":"bengineer","steam_id":76561198171912174,"connected_time":133000000000,"state":"active","ping":106},{"user_id":377,"name":"gooch_masta","steam_id":76561198151578423,"connected_time":2668000000000,"state":"active","ping":119},{"user_id":421,"name":"KickButtNess","steam_id":76561198093986236,"connected_time":321000000000,"state":"active","ping":85},{"user_id":382,"name":"Dagnasty","steam_id":76561198163651484,"connected_time":2354000000000,"state":"active","ping":104},{"user_id":401,"name":"Wikked","steam_id":76561198196149207,"connected_time":1172000000000,"state":"active","ping":132},{"user_id":358,"name":"woooflet","steam_id":76561199208387179,"connected_time":4532000000000,"state":"active","ping":44},{"user_id":402,"name":"Ghoulenoir","steam_id":76561198074314573,"connected_time":1160000000000,"state":"active","ping":61},{"user_id":372,"name":"IosephVII","steam_id":76561198101116197,"connected_time":3458000000000,"state":"active","ping":114},{"user_id":399,"name":"Fatass Hennessy Sargent","steam_id":76561198363267009,"connected_time":1258000000000,"state":"active","ping":47},{"user_id":406,"name":"Frost Paraselene","steam_id":76561198007332517,"connected_time":890000000000,"state":"active","ping":73},{"user_id":416,"name":"☂Bliffenstimmers☂","steam_id":76561198059984896,"connected_time":475000000000,"state":"active","ping":70},{"user_id":422,"name":"Rudy","steam_id":76561198013456828,"connected_time":285000000000,"state":"active","ping":87},{"user_id":367,"name":"gemsticks","steam_id":76561198442218271,"connected_time":3533000000000,"state":"active","ping":108},{"user_id":407,"name":"ButterNutz","steam_id":76561198122404516,"connected_time":838000000000,"state":"active","ping":97},{"user_id":412,"name":"buhn","steam_id":76561198106117196,"connected_time":625000000000,"state":"active","ping":82},{"user_id":423,"name":"cobalt","steam_id":76561198126982318,"connected_time":261000000000,"state":"active","ping":46},{"user_id":418,"name":"midgetgamer08","steam_id":76561198209191137,"connected_time":414000000000,"state":"active","ping":61},{"user_id":419,"name":"Hiryuu","steam_id":76561198025267260,"connected_time":400000000000,"state":"active","ping":81},{"user_id":397,"name":"james_bondage","steam_id":76561199476062624,"connected_time":1273000000000,"state":"active","ping":107},{"user_id":424,"name":"Doylin","steam_id":76561198113413927,"connected_time":255000000000,"state":"active","ping":116}]},{"server_id":405,"name":"Uncletopia | Dallas | 4 | Community","name_short":"dal-4","host":"dal-1.us.uncletopia.com","port":27045,"enabled":true,"region":"us-central","cc":"us","latitude":32.779167,"longitude":-96.80889,"reserved":0,"last_update":"0001-01-01T00:00:00Z","name_a2s":"Uncletopia | Dallas | 4 | Community","protocol":17,"map":"workshop/pl_cashworks_final1.ugc2904065412","folder":"tf","game":"Team Fortress","app_id":440,"player_count":0,"max_players":24,"Bots":0,"server_type":"Dedicated","server_os":"Linux","password":true,"vac":true,"version":"7961495","steam_id":85568392924515220,"keywords":["nocrits","nodmgspread","payload","uncletopia"],"game_id":440,"stv_port":27046,"stv_name":"Uncletopia | Dallas | 4 | Community | STV","players":null},{"server_id":5,"name":"Uncletopia | Frankfurt | 1 | All Maps","name_short":"frk-1","host":"frk-1.de.uncletopia.com","port":27015,"enabled":true,"region":"eu","cc":"de","latitude":50.110924,"longitude":8.682127,"reserved":0,"last_update":"0001-01-01T00:00:00Z","name_a2s":"Uncletopia | Frankfurt | 1 | All Maps","protocol":17,"map":"koth_highpass","folder":"tf","game":"Team Fortress","app_id":440,"player_count":0,"max_players":24,"Bots":0,"server_type":"Dedicated","server_os":"Linux","password":true,"vac":true,"version":"7961495","steam_id":85568392924469989,"keywords":["cp","nocrits","nodmgspread","uncletopia"],"game_id":440,"stv_port":27016,"stv_name":"Uncletopia | Frankfurt | 1 | All Maps | STV","players":null},{"server_id":110,"name":"Uncletopia | Frankfurt | 2 | All Maps","name_short":"frk-2","host":"frk-1.de.uncletopia.com","port":27025,"enabled":true,"region":"eu","cc":"de","latitude":50.110924,"longitude":8.682127,"reserved":0,"last_update":"0001-01-01T00:00:00Z","name_a2s":"Uncletopia | Frankfurt | 2 | All Maps","protocol":17,"map":"cp_dustbowl","folder":"tf","game":"Team Fortress","app_id":440,"player_count":0,"max_players":24,"Bots":0,"server_type":"Dedicated","server_os":"Linux","password":true,"vac":true,"version":"7961495","steam_id":85568392924469990,"keywords":["cp","nocrits","nodmgspread","uncletopia"],"game_id":440,"stv_port":27026,"stv_name":"Uncletopia | Frankfurt | 2 | All Maps | STV","players":null},{"server_id":308,"name":"Uncletopia | Frankfurt | 3 | All Maps","name_short":"frk-3","host":"frk-1.de.uncletopia.com","port":27035,"enabled":true,"region":"eu","cc":"de","latitude":50.110924,"longitude":8.682127,"reserved":0,"last_update":"0001-01-01T00:00:00Z","name_a2s":"Uncletopia | Frankfurt | 3 | All Maps","protocol":17,"map":"pl_barnblitz","folder":"tf","game":"Team Fortress","app_id":440,"player_count":0,"max_players":24,"Bots":0,"server_type":"Dedicated","server_os":"Linux","password":true,"vac":true,"version":"7961495","steam_id":85568392924504274,"keywords":["nocrits","nodmgspread","payload","uncletopia"],"game_id":440,"stv_port":27036,"stv_name":"Uncletopia | Frankfurt | 3 | All Maps | STV","players":null},{"server_id":309,"name":"Uncletopia | Frankfurt | 4 | All Maps","name_short":"frk-4","host":"frk-1.de.uncletopia.com","port":27045,"enabled":true,"region":"eu","cc":"de","latitude":50.110924,"longitude":8.682127,"reserved":0,"last_update":"0001-01-01T00:00:00Z","name_a2s":"Uncletopia | Frankfurt | 4 | All Maps","protocol":17,"map":"koth_highpass","folder":"tf","game":"Team Fortress","app_id":440,"player_count":0,"max_players":24,"Bots":0,"server_type":"Dedicated","server_os":"Linux","password":true,"vac":true,"version":"7961495","steam_id":85568392924504275,"keywords":["cp","nocrits","nodmgspread","uncletopia"],"game_id":440,"stv_port":27046,"stv_name":"Uncletopia | Frankfurt | 4 | All Maps | STV","players":null},{"server_id":310,"name":"Uncletopia | Frankfurt | 5 | All Maps","name_short":"frk-5","host":"frk-1.de.uncletopia.com","port":27055,"enabled":true,"region":"eu","cc":"de","latitude":50.110924,"longitude":8.682127,"reserved":0,"last_update":"0001-01-01T00:00:00Z","name_a2s":"Uncletopia | Frankfurt | 5 | All Maps","protocol":17,"map":"pl_badwater","folder":"tf","game":"Team Fortress","app_id":440,"player_count":0,"max_players":24,"Bots":0,"server_type":"Dedicated","server_os":"Linux","password":true,"vac":true,"version":"7961495","steam_id":85568392924504277,"keywords":["nocrits","nodmgspread","payload","uncletopia"],"game_id":440,"stv_port":27056,"stv_name":"Uncletopia | Frankfurt | 5 | All Maps | STV","players":null},{"server_id":311,"name":"Uncletopia | Frankfurt | 6 | All Maps","name_short":"frk-6","host":"frk-1.de.uncletopia.com","port":27065,"enabled":true,"region":"eu","cc":"de","latitude":50.110924,"longitude":8.682127,"reserved":0,"last_update":"0001-01-01T00:00:00Z","name_a2s":"Uncletopia | Frankfurt | 6 | All Maps","protocol":17,"map":"cp_altitude","folder":"tf","game":"Team Fortress","app_id":440,"player_count":0,"max_players":24,"Bots":0,"server_type":"Dedicated","server_os":"Linux","password":true,"vac":true,"version":"7961495","steam_id":85568392924504278,"keywords":["cp","nocrits","nodmgspread","uncletopia"],"game_id":440,"stv_port":27066,"stv_name":"Uncletopia | Frankfurt | 6 | All Maps | STV","players":null},{"server_id":23,"name":"Uncletopia | Frankfurt | 7 | Stopwatch","name_short":"frk-7","host":"frk-1.de.uncletopia.com","port":27075,"enabled":true,"region":"eu","cc":"de","latitude":50.110924,"longitude":8.682127,"reserved":0,"last_update":"0001-01-01T00:00:00Z","name_a2s":"Uncletopia | Frankfurt | 7 | Stopwatch","protocol":17,"map":"pl_frontier_final","folder":"tf","game":"Team Fortress","app_id":440,"player_count":0,"max_players":24,"Bots":0,"server_type":"Dedicated","server_os":"Linux","password":true,"vac":true,"version":"7961495","steam_id":85568392924742827,"keywords":["nocrits","nodmgspread","payload","uncletopia"],"game_id":440,"stv_port":27076,"stv_name":"Uncletopia | Frankfurt | 7 | Stopwatch | STV","players":null},{"server_id":24,"name":"Uncletopia | Frankfurt | 8 | Community","name_short":"frk-8","host":"frk-1.de.uncletopia.com","port":27085,"enabled":true,"region":"eu","cc":"de","latitude":50.110924,"longitude":8.682127,"reserved":0,"last_update":"0001-01-01T00:00:00Z","name_a2s":"Uncletopia | Frankfurt | 8 | Community","protocol":17,"map":"cp_mountainlab","folder":"tf","game":"Team Fortress","app_id":440,"player_count":0,"max_players":24,"Bots":0,"server_type":"Dedicated","server_os":"Linux","password":true,"vac":true,"version":"7961495","steam_id":85568392924742828,"keywords":["cp","nocrits","nodmgspread","uncletopia"],"game_id":440,"stv_port":27086,"stv_name":"Uncletopia | Frankfurt | 8 | Community | STV","players":null},{"server_id":202,"name":"Uncletopia | Hong Kong | 1 | All Maps","name_short":"hgk-1","host":"hgk-1.hk.uncletopia.com","port":27015,"enabled":true,"region":"asia","cc":"hk","latitude":22.302711,"longitude":114.177216,"reserved":0,"last_update":"0001-01-01T00:00:00Z","name_a2s":"Uncletopia | Hong Kong | 1 | All Maps","protocol":17,"map":"pl_borneo","folder":"tf","game":"Team Fortress","app_id":440,"player_count":24,"max_players":24,"Bots":0,"server_type":"Dedicated","server_os":"Linux","password":true,"vac":true,"version":"7961495","steam_id":85568392924494504,"keywords":["nocrits","nodmgspread","payload","uncletopia"],"game_id":440,"stv_port":27016,"stv_name":"Uncletopia | Hong Kong | 1 | All Maps | STV","players":[{"user_id":91,"name":"Sai","steam_id":76561199069225036,"connected_time":4623000000000,"state":"active","ping":38},{"user_id":123,"name":"allMAX","steam_id":76561198270980670,"connected_time":3150000000000,"state":"active","ping":103},{"user_id":140,"name":"ObscuroLucem","steam_id":76561198875037943,"connected_time":1360000000000,"state":"active","ping":83},{"user_id":83,"name":"[Sicky] I twin-charged your kid","steam_id":76561198228084940,"connected_time":5173000000000,"state":"active","ping":43},{"user_id":144,"name":"pyroman51","steam_id":76561198074339034,"connected_time":1108000000000,"state":"active","ping":75},{"user_id":81,"name":"Beef Wellington","steam_id":76561197995635241,"connected_time":5235000000000,"state":"active","ping":120},{"user_id":86,"name":"marisaloses","steam_id":76561199033032870,"connected_time":5028000000000,"state":"active","ping":116},{"user_id":127,"name":"2746","steam_id":76561199390507975,"connected_time":3006000000000,"state":"active","ping":55},{"user_id":138,"name":"1TOP_","steam_id":76561198123717811,"connected_time":1634000000000,"state":"active","ping":75},{"user_id":66,"name":"Shades on Goggles","steam_id":76561198406067629,"connected_time":6506000000000,"state":"active","ping":85},{"user_id":152,"name":"screaming sniper","steam_id":76561199085568674,"connected_time":44000000000,"state":"active","ping":96},{"user_id":70,"name":"toadツ","steam_id":76561198082199290,"connected_time":6184000000000,"state":"active","ping":41},{"user_id":145,"name":"GRim","steam_id":76561197998422082,"connected_time":995000000000,"state":"active","ping":105},{"user_id":76,"name":"i am a F2P and my aim is shit","steam_id":76561199475974790,"connected_time":5721000000000,"state":"active","ping":87},{"user_id":143,"name":"Alka","steam_id":76561198268872312,"connected_time":1146000000000,"state":"active","ping":77},{"user_id":118,"name":"14","steam_id":76561198113401862,"connected_time":3387000000000,"state":"active","ping":85},{"user_id":93,"name":"Dits","steam_id":76561198283833960,"connected_time":4449000000000,"state":"active","ping":45},{"user_id":142,"name":"06-32-03-36","steam_id":76561198997678151,"connected_time":1318000000000,"state":"active","ping":112},{"user_id":119,"name":"villy","steam_id":76561198169263597,"connected_time":3387000000000,"state":"active","ping":37},{"user_id":148,"name":"engineer gaming","steam_id":76561198386626651,"connected_time":669000000000,"state":"active","ping":65},{"user_id":90,"name":"MS PowerPoint","steam_id":76561198369523192,"connected_time":4806000000000,"state":"active","ping":67},{"user_id":150,"name":"dragsome9","steam_id":76561198166863244,"connected_time":546000000000,"state":"active","ping":101},{"user_id":132,"name":"skip","steam_id":76561198885117766,"connected_time":2561000000000,"state":"active","ping":69},{"user_id":136,"name":"Ivy","steam_id":76561198400698408,"connected_time":1744000000000,"state":"active","ping":93}]},{"server_id":1,"name":"Uncletopia | Los Angeles | 1 | All Maps","name_short":"lax-1","host":"lax-1.us.uncletopia.com","port":27015,"enabled":true,"region":"us-west","cc":"us","latitude":33.94279,"longitude":-118.41004,"reserved":0,"last_update":"0001-01-01T00:00:00Z","name_a2s":"Uncletopia | Los Angeles | 1 | All Maps","protocol":17,"map":"pl_upward","folder":"tf","game":"Team Fortress","app_id":440,"player_count":23,"max_players":24,"Bots":0,"server_type":"Dedicated","server_os":"Linux","password":true,"vac":true,"version":"7961495","steam_id":85568392924469991,"keywords":["nocrits","nodmgspread","payload","uncletopia"],"game_id":440,"stv_port":27016,"stv_name":"Uncletopia | Los Angeles | 1 | All Maps | STV","players":[{"user_id":234,"name":"BrightOrangeMango","steam_id":76561198023144607,"connected_time":1480000000000,"state":"active","ping":64},{"user_id":246,"name":"chesterwnimitz","steam_id":76561198062664377,"connected_time":625000000000,"state":"active","ping":84},{"user_id":244,"name":"Mickey","steam_id":76561198030895697,"connected_time":925000000000,"state":"active","ping":44},{"user_id":245,"name":"Frums","steam_id":76561198242915896,"connected_time":778000000000,"state":"active","ping":55},{"user_id":241,"name":"PS2","steam_id":76561198108799902,"connected_time":1153000000000,"state":"active","ping":122},{"user_id":236,"name":"awawa oyoyo awawa oyoyo","steam_id":76561198062263639,"connected_time":1313000000000,"state":"active","ping":83},{"user_id":211,"name":"EdxTheFig","steam_id":76561198108650109,"connected_time":4939000000000,"state":"active","ping":47},{"user_id":237,"name":"123","steam_id":76561198035655773,"connected_time":1285000000000,"state":"active","ping":72},{"user_id":250,"name":"netoc6","steam_id":76561199065312168,"connected_time":50000000000,"state":"active","ping":124},{"user_id":242,"name":"Ian","steam_id":76561198159334435,"connected_time":1141000000000,"state":"active","ping":165},{"user_id":177,"name":"soundcloud.com/cremexav","steam_id":76561198134544837,"connected_time":7046000000000,"state":"active","ping":51},{"user_id":235,"name":"roach","steam_id":76561198354811369,"connected_time":1365000000000,"state":"active","ping":50},{"user_id":247,"name":"Artic_Ryuu","steam_id":76561198182194918,"connected_time":480000000000,"state":"active","ping":71},{"user_id":224,"name":"Foreplay","steam_id":76561198097871363,"connected_time":2191000000000,"state":"active","ping":55},{"user_id":219,"name":"Larry Gooseman","steam_id":76561198018696922,"connected_time":2915000000000,"state":"active","ping":56},{"user_id":248,"name":"(° ͜   °)","steam_id":76561198064273568,"connected_time":324000000000,"state":"active","ping":45},{"user_id":166,"name":"Pyrotek⁴","steam_id":76561198072747672,"connected_time":8147000000000,"state":"active","ping":44},{"user_id":249,"name":"BLØRG","steam_id":76561198036126673,"connected_time":290000000000,"state":"active","ping":90},{"user_id":229,"name":"TheBrocklobster","steam_id":76561198039682984,"connected_time":1889000000000,"state":"active","ping":65},{"user_id":240,"name":"Whisper!","steam_id":76561198119609795,"connected_time":1203000000000,"state":"active","ping":54},{"user_id":226,"name":"Alf Creepypasta","steam_id":76561198841844093,"connected_time":2119000000000,"state":"active","ping":46},{"user_id":231,"name":"sHinstagram","steam_id":76561198133099582,"connected_time":1762000000000,"state":"active","ping":46},{"user_id":232,"name":"Username","steam_id":76561199033122306,"connected_time":1729000000000,"state":"active","ping":136}]},{"server_id":112,"name":"Uncletopia | Los Angeles | 2 | All Maps","name_short":"lax-2","host":"lax-1.us.uncletopia.com","port":27025,"enabled":true,"region":"us-west","cc":"us","latitude":33.94279,"longitude":-118.41004,"reserved":0,"last_update":"0001-01-01T00:00:00Z","name_a2s":"Uncletopia | Los Angeles | 2 | All Maps","protocol":17,"map":"pl_barnblitz","folder":"tf","game":"Team Fortress","app_id":440,"player_count":23,"max_players":24,"Bots":0,"server_type":"Dedicated","server_os":"Linux","password":true,"vac":true,"version":"7961495","steam_id":85568392924469992,"keywords":["nocrits","nodmgspread","payload","uncletopia"],"game_id":440,"stv_port":27026,"stv_name":"Uncletopia | Los Angeles | 2 | All Maps | STV","players":[{"user_id":632,"name":"Quetzalcoatl","steam_id":76561198094826250,"connected_time":952000000000,"state":"active","ping":45},{"user_id":627,"name":"AvapXia","steam_id":76561198147476096,"connected_time":1511000000000,"state":"active","ping":76},{"user_id":634,"name":"Invisible Teammate","steam_id":76561197986477544,"connected_time":786000000000,"state":"active","ping":105},{"user_id":620,"name":"basilberry","steam_id":76561198145275937,"connected_time":1873000000000,"state":"active","ping":118},{"user_id":633,"name":"Kamin","steam_id":76561198255299559,"connected_time":920000000000,"state":"active","ping":96},{"user_id":635,"name":"Lumberjane37 (She/Her)","steam_id":76561198014841793,"connected_time":777000000000,"state":"active","ping":64},{"user_id":555,"name":"Be Gay, Do Crimes, Smoke Weed!","steam_id":76561198092419868,"connected_time":8870000000000,"state":"active","ping":98},{"user_id":636,"name":"DV","steam_id":76561198295570806,"connected_time":762000000000,"state":"active","ping":57},{"user_id":645,"name":"Randle of John","steam_id":76561198328210524,"connected_time":474000000000,"state":"active","ping":54},{"user_id":617,"name":"Gamecmdr","steam_id":76561198001623218,"connected_time":2496000000000,"state":"active","ping":68},{"user_id":619,"name":"FriskyDemon","steam_id":76561198043684646,"connected_time":2275000000000,"state":"active","ping":71},{"user_id":638,"name":"sleepy⊹","steam_id":76561199200969139,"connected_time":615000000000,"state":"active","ping":108},{"user_id":609,"name":"Listen up, chopped salad","steam_id":76561198015440724,"connected_time":3522000000000,"state":"active","ping":82},{"user_id":581,"name":"Mario Barret","steam_id":76561198301353499,"connected_time":5687000000000,"state":"active","ping":48},{"user_id":646,"name":"MithStyck","steam_id":76561198071538489,"connected_time":415000000000,"state":"active","ping":79},{"user_id":641,"name":"HumbDoe","steam_id":76561198065556553,"connected_time":540000000000,"state":"active","ping":65},{"user_id":553,"name":"Drone #0432 (they/it)","steam_id":76561198027321950,"connected_time":9081000000000,"state":"active","ping":98},{"user_id":642,"name":"Sebster","steam_id":76561198356140395,"connected_time":526000000000,"state":"active","ping":50},{"user_id":643,"name":"Little Shuriken","steam_id":76561199020477560,"connected_time":522000000000,"state":"active","ping":42},{"user_id":589,"name":"blozet","steam_id":76561199120161035,"connected_time":5525000000000,"state":"active","ping":110},{"user_id":644,"name":"Boxcars","steam_id":76561198120978767,"connected_time":502000000000,"state":"active","ping":57},{"user_id":647,"name":"Meaty Ogre","steam_id":76561197970560951,"connected_time":342000000000,"state":"active","ping":47},{"user_id":599,"name":"Joe From Progressive","steam_id":76561198336597038,"connected_time":5175000000000,"state":"active","ping":48}]},{"server_id":324,"name":"Uncletopia | Los Angeles | 3 | All Maps","name_short":"lax-3","host":"lax-1.us.uncletopia.com","port":27035,"enabled":true,"region":"us-west","cc":"us","latitude":33.94279,"longitude":-118.41004,"reserved":0,"last_update":"0001-01-01T00:00:00Z","name_a2s":"Uncletopia | Los Angeles | 3 | All Maps","protocol":17,"map":"koth_viaduct","folder":"tf","game":"Team Fortress","app_id":440,"player_count":2,"max_players":24,"Bots":0,"server_type":"Dedicated","server_os":"Linux","password":true,"vac":true,"version":"7961495","steam_id":85568392924510198,"keywords":["cp","nocrits","nodmgspread","uncletopia"],"game_id":440,"stv_port":27036,"stv_name":"Uncletopia | Los Angeles | 3 | All Maps | STV","players":[{"user_id":22,"name":"Ebby","steam_id":76561198124284351,"connected_time":3129000000000,"state":"active","ping":102},{"user_id":23,"name":"XenPie","steam_id":76561198814382153,"connected_time":3128000000000,"state":"active","ping":54}]},{"server_id":25,"name":"Uncletopia | Los Angeles | 4 | Stopwatch","name_short":"lax-4","host":"lax-1.us.uncletopia.com","port":27045,"enabled":true,"region":"us-west","cc":"us","latitude":33.94279,"longitude":-118.41004,"reserved":0,"last_update":"0001-01-01T00:00:00Z","name_a2s":"Uncletopia | Los Angeles | 4 | Stopwatch","protocol":17,"map":"workshop/koth_bagel_rc6.ugc2514036946","folder":"tf","game":"Team Fortress","app_id":440,"player_count":0,"max_players":24,"Bots":0,"server_type":"Dedicated","server_os":"Linux","password":true,"vac":true,"version":"7961495","steam_id":85568392924510199,"keywords":["cp","nocrits","nodmgspread","uncletopia"],"game_id":440,"stv_port":27046,"stv_name":"Uncletopia | Los Angeles | 4 | Stopwatch | STV","players":null},{"server_id":11,"name":"Uncletopia | London | 1 | All Maps","name_short":"lon-1","host":"lon-1.uk.uncletopia.com","port":27015,"enabled":true,"region":"eu","cc":"gb","latitude":51.509865,"longitude":-0.118092,"reserved":0,"last_update":"0001-01-01T00:00:00Z","name_a2s":"Uncletopia | London | 1 | All Maps","protocol":17,"map":"cp_dustbowl","folder":"tf","game":"Team Fortress","app_id":440,"player_count":24,"max_players":24,"Bots":0,"server_type":"Dedicated","server_os":"Linux","password":true,"vac":true,"version":"7961495","steam_id":85568392924367362,"keywords":["cp","nocrits","nodmgspread","uncletopia"],"game_id":440,"stv_port":27016,"stv_name":"Uncletopia | London | 1 | All Maps | STV","players":[{"user_id":66,"name":"thog","steam_id":76561198219901556,"connected_time":1308000000000,"state":"active","ping":106},{"user_id":64,"name":"Barry Bee Benson","steam_id":76561198115199225,"connected_time":1714000000000,"state":"active","ping":50},{"user_id":62,"name":"aphextwinsucks","steam_id":76561198132185926,"connected_time":1791000000000,"state":"active","ping":71},{"user_id":24,"name":"Lewylow","steam_id":76561198005425686,"connected_time":4543000000000,"state":"active","ping":47},{"user_id":69,"name":"thekoolest88","steam_id":76561199022415672,"connected_time":980000000000,"state":"active","ping":142},{"user_id":63,"name":"MG","steam_id":76561197992591715,"connected_time":1790000000000,"state":"active","ping":69},{"user_id":67,"name":"dude m8","steam_id":76561198155649280,"connected_time":1297000000000,"state":"active","ping":57},{"user_id":12,"name":"jjkun786","steam_id":76561199438517484,"connected_time":5921000000000,"state":"active","ping":29},{"user_id":68,"name":"Ern(x)","steam_id":76561198141807070,"connected_time":1289000000000,"state":"active","ping":101},{"user_id":70,"name":":|","steam_id":76561198119247892,"connected_time":936000000000,"state":"active","ping":101},{"user_id":71,"name":"patrick","steam_id":76561198119167317,"connected_time":629000000000,"state":"active","ping":48},{"user_id":72,"name":"laza's","steam_id":76561199074095198,"connected_time":509000000000,"state":"active","ping":109},{"user_id":46,"name":"MastahDizzy","steam_id":76561198123024093,"connected_time":2901000000000,"state":"active","ping":49},{"user_id":42,"name":"Geeeny","steam_id":76561197981643120,"connected_time":3125000000000,"state":"active","ping":66},{"user_id":37,"name":"Ace","steam_id":76561198193179149,"connected_time":3479000000000,"state":"active","ping":114},{"user_id":73,"name":"no dm","steam_id":76561198031087615,"connected_time":505000000000,"state":"active","ping":104},{"user_id":74,"name":"Scobra","steam_id":76561198000734400,"connected_time":431000000000,"state":"active","ping":115},{"user_id":75,"name":"Bordzoo","steam_id":76561199230309281,"connected_time":380000000000,"state":"active","ping":105},{"user_id":76,"name":"Bahador","steam_id":76561198897378461,"connected_time":328000000000,"state":"active","ping":79},{"user_id":51,"name":"king k rool","steam_id":76561199179040672,"connected_time":2310000000000,"state":"active","ping":51},{"user_id":52,"name":"Jouppi","steam_id":76561198063725468,"connected_time":2247000000000,"state":"active","ping":105},{"user_id":77,"name":"Pepsii","steam_id":76561198145677550,"connected_time":282000000000,"state":"active","ping":44},{"user_id":78,"name":"Mébh Óg MacTíre","steam_id":76561198346399624,"connected_time":191000000000,"state":"active","ping":84},{"user_id":59,"name":"r^f butter","steam_id":76561198130814770,"connected_time":2037000000000,"state":"active","ping":62}]},{"server_id":114,"name":"Uncletopia | London | 2 | All Maps","name_short":"lon-2","host":"lon-1.uk.uncletopia.com","port":27025,"enabled":true,"region":"eu","cc":"gb","latitude":51.509865,"longitude":-0.118092,"reserved":0,"last_update":"0001-01-01T00:00:00Z","name_a2s":"Uncletopia | London | 2 | All Maps","protocol":17,"map":"koth_lakeside_final","folder":"tf","game":"Team Fortress","app_id":440,"player_count":0,"max_players":24,"Bots":0,"server_type":"Dedicated","server_os":"Linux","password":true,"vac":true,"version":"7961495","steam_id":85568392924470941,"keywords":["cp","nocrits","nodmgspread","uncletopia"],"game_id":440,"stv_port":27026,"stv_name":"Uncletopia | London | 2 | All Maps | STV","players":null},{"server_id":320,"name":"Uncletopia | London | 3 | All Maps","name_short":"lon-3","host":"lon-1.uk.uncletopia.com","port":27035,"enabled":true,"region":"eu","cc":"gb","latitude":51.509865,"longitude":-0.118092,"reserved":0,"last_update":"0001-01-01T00:00:00Z","name_a2s":"Uncletopia | London | 3 | All Maps","protocol":17,"map":"cp_process_final","folder":"tf","game":"Team Fortress","app_id":440,"player_count":0,"max_players":24,"Bots":0,"server_type":"Dedicated","server_os":"Linux","password":true,"vac":true,"version":"7961495","steam_id":85568392924510192,"keywords":["cp","nocrits","nodmgspread","uncletopia"],"game_id":440,"stv_port":27036,"stv_name":"Uncletopia | London | 3 | All Maps | STV","players":null},{"server_id":321,"name":"Uncletopia | London | 4 | All Maps","name_short":"lon-4","host":"lon-1.uk.uncletopia.com","port":27045,"enabled":true,"region":"eu","cc":"gb","latitude":51.509865,"longitude":-0.118092,"reserved":0,"last_update":"0001-01-01T00:00:00Z","name_a2s":"Uncletopia | London | 4 | All Maps","protocol":17,"map":"koth_cascade","folder":"tf","game":"Team Fortress","app_id":440,"player_count":0,"max_players":24,"Bots":0,"server_type":"Dedicated","server_os":"Linux","password":true,"vac":true,"version":"7961495","steam_id":85568392924510193,"keywords":["cp","nocrits","nodmgspread","uncletopia"],"game_id":440,"stv_port":27046,"stv_name":"Uncletopia | London | 4 | All Maps | STV","players":null},{"server_id":21,"name":"Uncletopia | London | 5 | All Maps","name_short":"lon-5","host":"lon-1.uk.uncletopia.com","port":27055,"enabled":true,"region":"eu","cc":"gb","latitude":51.509865,"longitude":-0.118092,"reserved":0,"last_update":"0001-01-01T00:00:00Z","name_a2s":"Uncletopia | London | 5 | All Maps","protocol":17,"map":"koth_lakeside_final","folder":"tf","game":"Team Fortress","app_id":440,"player_count":0,"max_players":24,"Bots":0,"server_type":"Dedicated","server_os":"Linux","password":true,"vac":true,"version":"7961495","steam_id":85568392924742829,"keywords":["cp","nocrits","nodmgspread","uncletopia"],"game_id":440,"stv_port":27056,"stv_name":"Uncletopia | London | 5 | All Maps | STV","players":null},{"server_id":22,"name":"Uncletopia | London | 6 | All Maps","name_short":"lon-6","host":"lon-1.uk.uncletopia.com","port":27065,"enabled":true,"region":"eu","cc":"gb","latitude":51.509865,"longitude":-0.118092,"reserved":0,"last_update":"0001-01-01T00:00:00Z","name_a2s":"Uncletopia | London | 6 | All Maps","protocol":17,"map":"cp_dustbowl","folder":"tf","game":"Team Fortress","app_id":440,"player_count":2,"max_players":24,"Bots":0,"server_type":"Dedicated","server_os":"Linux","password":true,"vac":true,"version":"7961495","steam_id":85568392924742830,"keywords":["cp","nocrits","nodmgspread","uncletopia"],"game_id":440,"stv_port":27066,"stv_name":"Uncletopia | London | 6 | All Maps | STV","players":[{"user_id":3,"name":"Bebra gaming","steam_id":76561198320344262,"connected_time":608000000000,"state":"active","ping":34},{"user_id":4,"name":"JOJOBISH","steam_id":76561198116933540,"connected_time":585000000000,"state":"active","ping":46}]},{"server_id":40,"name":"Uncletopia | London | 7 | Stopwatch","name_short":"lon-7","host":"lon-1.uk.uncletopia.com","port":27075,"enabled":true,"region":"eu","cc":"gb","latitude":51.509865,"longitude":-0.118092,"reserved":0,"last_update":"0001-01-01T00:00:00Z","name_a2s":"Uncletopia | London | 7 | Stopwatch","protocol":17,"map":"koth_lakeside_final","folder":"tf","game":"Team Fortress","app_id":440,"player_count":0,"max_players":24,"Bots":0,"server_type":"Dedicated","server_os":"Linux","password":true,"vac":true,"version":"7961495","steam_id":85568392924964314,"keywords":["cp","nocrits","nodmgspread","uncletopia"],"game_id":440,"stv_port":27076,"stv_name":"Uncletopia | London | 7 | Stopwatch | STV","players":null},{"server_id":41,"name":"Uncletopia | London | 8 | Community","name_short":"lon-8","host":"lon-1.uk.uncletopia.com","port":27085,"enabled":true,"region":"eu","cc":"gb","latitude":51.509865,"longitude":-0.118092,"reserved":0,"last_update":"0001-01-01T00:00:00Z","name_a2s":"Uncletopia | London | 8 | Community","protocol":17,"map":"workshop/pl_barnblitz_pro7.ugc582280235","folder":"tf","game":"Team Fortress","app_id":440,"player_count":0,"max_players":24,"Bots":0,"server_type":"Dedicated","server_os":"Linux","password":true,"vac":true,"version":"7961495","steam_id":85568392924964315,"keywords":["nocrits","nodmgspread","payload","uncletopia"],"game_id":440,"stv_port":27086,"stv_name":"Uncletopia | London | 8 | Community | STV","players":null},{"server_id":300,"name":"Uncletopia | Montréal | 1 | One Thousand Uncles","name_short":"mtl-1","host":"mtl-1.ca.uncletopia.com","port":27015,"enabled":true,"region":"us-east","cc":"ca","latitude":45.50889,"longitude":-73.56167,"reserved":0,"last_update":"0001-01-01T00:00:00Z","name_a2s":"","protocol":0,"map":"","folder":"","game":"","app_id":0,"player_count":0,"max_players":0,"Bots":0,"server_type":"","server_os":"","password":false,"vac":false,"version":"","steam_id":0,"keywords":null,"game_id":0,"stv_port":0,"stv_name":"","players":null},{"server_id":301,"name":"Uncletopia | Montréal | 2 | One Thousand Uncles","name_short":"mtl-2","host":"mtl-1.ca.uncletopia.com","port":27025,"enabled":true,"region":"us-east","cc":"ca","latitude":45.50889,"longitude":-73.56167,"reserved":0,"last_update":"0001-01-01T00:00:00Z","name_a2s":"","protocol":0,"map":"","folder":"","game":"","app_id":0,"player_count":1,"max_players":0,"Bots":0,"server_type":"","server_os":"","password":false,"vac":false,"version":"","steam_id":0,"keywords":null,"game_id":0,"stv_port":0,"stv_name":"","players":[{"user_id":466,"name":"Holiday Fartcruise","steam_id":76561198043851584,"connected_time":2208000000000,"state":"active","ping":128}]},{"server_id":302,"name":"Uncletopia | Montréal | 3 | One Thousand Uncles","name_short":"mtl-3","host":"mtl-1.ca.uncletopia.com","port":27035,"enabled":true,"region":"us-east","cc":"ca","latitude":45.50889,"longitude":-73.56167,"reserved":0,"last_update":"0001-01-01T00:00:00Z","name_a2s":"","protocol":0,"map":"","folder":"","game":"","app_id":0,"player_count":0,"max_players":0,"Bots":0,"server_type":"","server_os":"","password":false,"vac":false,"version":"","steam_id":0,"keywords":null,"game_id":0,"stv_port":0,"stv_name":"","players":null},{"server_id":13,"name":"Uncletopia | New York City | 1 | All Maps","name_short":"nyc-1","host":"nyc-1.us.uncletopia.com","port":27015,"enabled":true,"region":"us-east","cc":"us","latitude":40.73061,"longitude":-73.93524,"reserved":0,"last_update":"0001-01-01T00:00:00Z","name_a2s":"Uncletopia | New York City | 1 | All Maps","protocol":17,"map":"pl_barnblitz","folder":"tf","game":"Team Fortress","app_id":440,"player_count":24,"max_players":24,"Bots":0,"server_type":"Dedicated","server_os":"Linux","password":true,"vac":true,"version":"7961495","steam_id":85568392924469993,"keywords":["nocrits","nodmgspread","payload","uncletopia"],"game_id":440,"stv_port":27016,"stv_name":"Uncletopia | New York City | 1 | All Maps | STV","players":[{"user_id":740,"name":"Deluxe_Taco34","steam_id":76561199037653437,"connected_time":360000000000,"state":"active","ping":92},{"user_id":682,"name":"Buck","steam_id":76561198064244796,"connected_time":6111000000000,"state":"active","ping":45},{"user_id":736,"name":"Honey-Fox","steam_id":76561198133244742,"connected_time":1066000000000,"state":"active","ping":57},{"user_id":722,"name":"cat enjoyer","steam_id":76561198841284543,"connected_time":3037000000000,"state":"active","ping":86},{"user_id":658,"name":"Voracious Puma","steam_id":76561197963621649,"connected_time":7741000000000,"state":"active","ping":85},{"user_id":717,"name":"rubn","steam_id":76561198119586410,"connected_time":3392000000000,"state":"active","ping":136},{"user_id":723,"name":"Sputnuts","steam_id":76561198236857310,"connected_time":3025000000000,"state":"active","ping":43},{"user_id":664,"name":"Femboy Medic Main","steam_id":76561198268225109,"connected_time":7203000000000,"state":"active","ping":79},{"user_id":702,"name":"Stunner","steam_id":76561198063197896,"connected_time":4228000000000,"state":"active","ping":128},{"user_id":609,"name":"googa","steam_id":76561198133130452,"connected_time":13037000000000,"state":"active","ping":45},{"user_id":733,"name":"Wique","steam_id":76561198071217597,"connected_time":1567000000000,"state":"active","ping":75},{"user_id":734,"name":"Gentoo Linux Gaming","steam_id":76561197999657118,"connected_time":1131000000000,"state":"active","ping":88},{"user_id":585,"name":"ndvr","steam_id":76561199379200102,"connected_time":14849000000000,"state":"active","ping":55},{"user_id":743,"name":"Ether","steam_id":76561198054806528,"connected_time":180000000000,"state":"active","ping":62},{"user_id":741,"name":"Yandings","steam_id":76561198864521572,"connected_time":312000000000,"state":"active","ping":70},{"user_id":725,"name":"Kiril","steam_id":76561198051433762,"connected_time":2853000000000,"state":"active","ping":164},{"user_id":738,"name":"bocaJ","steam_id":76561198374535092,"connected_time":916000000000,"state":"active","ping":106},{"user_id":739,"name":"Scorp","steam_id":76561198070619615,"connected_time":513000000000,"state":"active","ping":77},{"user_id":744,"name":"honeyb","steam_id":76561198155394135,"connected_time":8000000000,"state":"spawning","ping":136},{"user_id":730,"name":"Crab","steam_id":76561198067628664,"connected_time":2454000000000,"state":"active","ping":99},{"user_id":732,"name":"SpaceSanctum","steam_id":76561198805242305,"connected_time":1806000000000,"state":"active","ping":45},{"user_id":715,"name":"Ludcmorais","steam_id":76561198359217809,"connected_time":3543000000000,"state":"active","ping":175},{"user_id":716,"name":"Kimmyera","steam_id":76561198060317191,"connected_time":3519000000000,"state":"active","ping":63},{"user_id":742,"name":"Franz","steam_id":76561198041929745,"connected_time":285000000000,"state":"active","ping":120}]},{"server_id":14,"name":"Uncletopia | New York City | 2 | All Maps","name_short":"nyc-2","host":"nyc-1.us.uncletopia.com","port":27025,"enabled":true,"region":"us-east","cc":"us","latitude":40.73061,"longitude":-73.93524,"reserved":0,"last_update":"0001-01-01T00:00:00Z","name_a2s":"Uncletopia | New York City | 2 | All Maps","protocol":17,"map":"koth_highpass","folder":"tf","game":"Team Fortress","app_id":440,"player_count":0,"max_players":24,"Bots":0,"server_type":"Dedicated","server_os":"Linux","password":true,"vac":true,"version":"7961495","steam_id":85568392924469994,"keywords":["cp","nocrits","nodmgspread","uncletopia"],"game_id":440,"stv_port":27026,"stv_name":"Uncletopia | New York City | 2 | All Maps | STV","players":null},{"server_id":15,"name":"Uncletopia | New York City | 3 | Stopwatch","name_short":"nyc-3","host":"nyc-1.us.uncletopia.com","port":27035,"enabled":true,"region":"us-east","cc":"us","latitude":40.73061,"longitude":-73.93524,"reserved":0,"last_update":"0001-01-01T00:00:00Z","name_a2s":"Uncletopia | New York City | 3 | Stopwatch","protocol":17,"map":"cp_gullywash_final1","folder":"tf","game":"Team Fortress","app_id":440,"player_count":0,"max_players":24,"Bots":0,"server_type":"Dedicated","server_os":"Linux","password":true,"vac":true,"version":"7961495","steam_id":85568392924742820,"keywords":["cp","nocrits","nodmgspread","uncletopia"],"game_id":440,"stv_port":27036,"stv_name":"Uncletopia | New York City | 3 | Stopwatch | STV","players":null},{"server_id":16,"name":"Uncletopia | New York City | 4 | Community","name_short":"nyc-4","host":"nyc-1.us.uncletopia.com","port":27045,"enabled":true,"region":"us-east","cc":"us","latitude":40.73061,"longitude":-73.93524,"reserved":0,"last_update":"0001-01-01T00:00:00Z","name_a2s":"Uncletopia | New York City | 4 | Community","protocol":17,"map":"workshop/cp_logjam_rc12.ugc454812035","folder":"tf","game":"Team Fortress","app_id":440,"player_count":0,"max_players":24,"Bots":0,"server_type":"Dedicated","server_os":"Linux","password":true,"vac":true,"version":"7961495","steam_id":85568392924742821,"keywords":["cp","nocrits","nodmgspread","uncletopia"],"game_id":440,"stv_port":27046,"stv_name":"Uncletopia | New York City | 4 | Community | STV","players":null},{"server_id":142,"name":"Uncletopia | São Paulo | 1 | All Maps","name_short":"sao-1","host":"sao-1.br.uncletopia.com","port":27015,"enabled":true,"region":"sa","cc":"br","latitude":-23.533773,"longitude":-46.62529,"reserved":0,"last_update":"0001-01-01T00:00:00Z","name_a2s":"Uncletopia | São Paulo | 1 | All Maps","protocol":17,"map":"koth_viaduct","folder":"tf","game":"Team Fortress","app_id":440,"player_count":0,"max_players":24,"Bots":0,"server_type":"Dedicated","server_os":"Linux","password":true,"vac":true,"version":"7961495","steam_id":85568392924469996,"keywords":["cp","nocrits","nodmgspread","uncletopia"],"game_id":440,"stv_port":27016,"stv_name":"Uncletopia | São Paulo | 1 | All Maps | STV","players":null},{"server_id":143,"name":"Uncletopia | São Paulo | 2 | Community","name_short":"sao-2","host":"sao-2.br.uncletopia.com","port":27015,"enabled":true,"region":"sa","cc":"br","latitude":-23.533773,"longitude":-46.62529,"reserved":0,"last_update":"0001-01-01T00:00:00Z","name_a2s":"Uncletopia | São Paulo | 2 | Community","protocol":17,"map":"workshop/koth_slaughter_rc1.ugc1712845210","folder":"tf","game":"Team Fortress","app_id":440,"player_count":0,"max_players":24,"Bots":0,"server_type":"Dedicated","server_os":"Linux","password":true,"vac":true,"version":"7961495","steam_id":85568392924485349,"keywords":["cp","nocrits","nodmgspread","uncletopia"],"game_id":440,"stv_port":27016,"stv_name":"Uncletopia | São Paulo | 2 | Community | STV","players":null},{"server_id":7,"name":"Uncletopia | Seattle | 1 | All Maps","name_short":"sea-1","host":"sea-1.us.uncletopia.com","port":27015,"enabled":true,"region":"us-west","cc":"us","latitude":47.608013,"longitude":-122.33517,"reserved":0,"last_update":"0001-01-01T00:00:00Z","name_a2s":"Uncletopia | Seattle | 1 | All Maps","protocol":17,"map":"pl_badwater","folder":"tf","game":"Team Fortress","app_id":440,"player_count":24,"max_players":24,"Bots":0,"server_type":"Dedicated","server_os":"Linux","password":true,"vac":true,"version":"7961495","steam_id":85568392924469997,"keywords":["nocrits","nodmgspread","payload","uncletopia"],"game_id":440,"stv_port":27016,"stv_name":"Uncletopia | Seattle | 1 | All Maps | STV","players":[{"user_id":562,"name":"toes","steam_id":76561198221151676,"connected_time":7340000000000,"state":"active","ping":60},{"user_id":618,"name":"NEBULA","steam_id":76561198086878595,"connected_time":975000000000,"state":"active","ping":69},{"user_id":617,"name":"owl","steam_id":76561198088403016,"connected_time":979000000000,"state":"active","ping":154},{"user_id":565,"name":"Ayayayayayahuasca","steam_id":76561199002906056,"connected_time":7291000000000,"state":"active","ping":48},{"user_id":601,"name":"twink in pastry flops","steam_id":76561198340646012,"connected_time":2900000000000,"state":"active","ping":42},{"user_id":621,"name":"slushy :))","steam_id":76561198135281802,"connected_time":952000000000,"state":"active","ping":45},{"user_id":597,"name":"PopcornBucketGames","steam_id":76561199089562026,"connected_time":3503000000000,"state":"active","ping":42},{"user_id":599,"name":"thats crazy","steam_id":76561198095480838,"connected_time":3156000000000,"state":"active","ping":46},{"user_id":544,"name":"Melly","steam_id":76561198045867175,"connected_time":8900000000000,"state":"active","ping":75},{"user_id":604,"name":"Daz","steam_id":76561198041431938,"connected_time":2867000000000,"state":"active","ping":51},{"user_id":622,"name":"rushy :))","steam_id":76561198065825165,"connected_time":449000000000,"state":"active","ping":113},{"user_id":593,"name":"blinkerton city","steam_id":76561198054270410,"connected_time":3722000000000,"state":"active","ping":57},{"user_id":569,"name":"chocky","steam_id":76561198057491296,"connected_time":6641000000000,"state":"active","ping":45},{"user_id":605,"name":":(){ :|:\u0026 };:","steam_id":76561198115242460,"connected_time":2864000000000,"state":"active","ping":74},{"user_id":558,"name":"Lily Thorn","steam_id":76561198305488625,"connected_time":7873000000000,"state":"active","ping":56},{"user_id":612,"name":"lavender","steam_id":76561199069518286,"connected_time":1986000000000,"state":"active","ping":71},{"user_id":614,"name":"Mitchell","steam_id":76561197972922328,"connected_time":1760000000000,"state":"active","ping":59},{"user_id":615,"name":"fragadelphia","steam_id":76561198066116363,"connected_time":1518000000000,"state":"active","ping":46},{"user_id":608,"name":"Sweets","steam_id":76561198998446307,"connected_time":2731000000000,"state":"active","ping":71},{"user_id":613,"name":"Dapper","steam_id":76561198103189993,"connected_time":1986000000000,"state":"active","ping":80},{"user_id":619,"name":"kill me","steam_id":76561198032625036,"connected_time":973000000000,"state":"active","ping":58},{"user_id":590,"name":"DragonJimmy","steam_id":76561198272966565,"connected_time":5099000000000,"state":"active","ping":90},{"user_id":588,"name":"Username","steam_id":76561198198918781,"connected_time":5152000000000,"state":"active","ping":87},{"user_id":620,"name":"gorlab","steam_id":76561198025089694,"connected_time":973000000000,"state":"active","ping":60}]},{"server_id":119,"name":"Uncletopia | Seattle | 2 | All Maps","name_short":"sea-2","host":"sea-1.us.uncletopia.com","port":27025,"enabled":true,"region":"us-west","cc":"us","latitude":47.608013,"longitude":-122.33517,"reserved":0,"last_update":"0001-01-01T00:00:00Z","name_a2s":"Uncletopia | Seattle | 2 | All Maps","protocol":17,"map":"pl_swiftwater_final1","folder":"tf","game":"Team Fortress","app_id":440,"player_count":18,"max_players":24,"Bots":0,"server_type":"Dedicated","server_os":"Linux","password":true,"vac":true,"version":"7961495","steam_id":85568392924469998,"keywords":["nocrits","nodmgspread","payload","uncletopia"],"game_id":440,"stv_port":27026,"stv_name":"Uncletopia | Seattle | 2 | All Maps | STV","players":[{"user_id":374,"name":"IonicMist","steam_id":76561198047105563,"connected_time":3068000000000,"state":"active","ping":47},{"user_id":405,"name":"^5t^6i^5n^6y","steam_id":76561198010743348,"connected_time":1672000000000,"state":"active","ping":89},{"user_id":423,"name":"Zebulon","steam_id":76561198025719753,"connected_time":398000000000,"state":"active","ping":36},{"user_id":411,"name":"ĐïɐȐɹɦɆa","steam_id":76561198981411945,"connected_time":1159000000000,"state":"active","ping":73},{"user_id":408,"name":"Cypress [ +/- ] ✔","steam_id":76561198067164431,"connected_time":1578000000000,"state":"active","ping":62},{"user_id":392,"name":"Donny Q","steam_id":76561198020901703,"connected_time":2315000000000,"state":"active","ping":43},{"user_id":409,"name":"Conseq","steam_id":76561198335652179,"connected_time":1534000000000,"state":"active","ping":47},{"user_id":381,"name":"Captain Keyes","steam_id":76561198434168606,"connected_time":2890000000000,"state":"active","ping":56},{"user_id":413,"name":"notkadenk","steam_id":76561198837454396,"connected_time":1110000000000,"state":"active","ping":46},{"user_id":415,"name":"cubibluer","steam_id":76561198197405295,"connected_time":867000000000,"state":"active","ping":59},{"user_id":424,"name":"Stev the Hypergamous Pebble","steam_id":76561197999442625,"connected_time":374000000000,"state":"active","ping":45},{"user_id":416,"name":"nat","steam_id":76561198179923093,"connected_time":836000000000,"state":"active","ping":88},{"user_id":429,"name":"moe","steam_id":76561198929586245,"connected_time":113000000000,"state":"active","ping":75},{"user_id":418,"name":"Some Dood on the Internet","steam_id":76561198054657687,"connected_time":708000000000,"state":"active","ping":60},{"user_id":430,"name":"femboy spy","steam_id":76561199338554815,"connected_time":104000000000,"state":"active","ping":87},{"user_id":431,"name":"AT✪MIC","steam_id":76561198100385184,"connected_time":95000000000,"state":"active","ping":83},{"user_id":427,"name":"BitPieStudios","steam_id":76561198059216393,"connected_time":198000000000,"state":"active","ping":66},{"user_id":396,"name":"pyrotechnic","steam_id":76561198043558709,"connected_time":2259000000000,"state":"active","ping":49}]},{"server_id":406,"name":"Uncletopia | Seattle | 3 | Stopwatch","name_short":"sea-3","host":"sea-1.us.uncletopia.com","port":27035,"enabled":true,"region":"us-west","cc":"us","latitude":47.608013,"longitude":-122.33517,"reserved":0,"last_update":"0001-01-01T00:00:00Z","name_a2s":"Uncletopia | Seattle | 3 | Stopwatch","protocol":17,"map":"pl_pier","folder":"tf","game":"Team Fortress","app_id":440,"player_count":0,"max_players":24,"Bots":0,"server_type":"Dedicated","server_os":"Linux","password":true,"vac":true,"version":"7961495","steam_id":85568392924515217,"keywords":["nocrits","nodmgspread","payload","uncletopia"],"game_id":440,"stv_port":27036,"stv_name":"Uncletopia | Seattle | 3 | Stopwatch | STV","players":null},{"server_id":17,"name":"Uncletopia | San Francisco | 1 | All Maps","name_short":"sfo-1","host":"sfo-1.us.uncletopia.com","port":27015,"enabled":true,"region":"us-west","cc":"us","latitude":37.77397,"longitude":-122.4313,"reserved":0,"last_update":"0001-01-01T00:00:00Z","name_a2s":"Uncletopia | San Francisco | 1 | All Maps","protocol":17,"map":"cp_process_final","folder":"tf","game":"Team Fortress","app_id":440,"player_count":0,"max_players":24,"Bots":0,"server_type":"Dedicated","server_os":"Linux","password":true,"vac":true,"version":"7961495","steam_id":85568392924469999,"keywords":["cp","nocrits","nodmgspread","uncletopia"],"game_id":440,"stv_port":27016,"stv_name":"Uncletopia | San Francisco | 1 | All Maps | STV","players":null},{"server_id":18,"name":"Uncletopia | San Francisco | 2 | All Maps","name_short":"sfo-2","host":"sfo-1.us.uncletopia.com","port":27025,"enabled":true,"region":"us-west","cc":"us","latitude":37.77397,"longitude":-122.4313,"reserved":0,"last_update":"0001-01-01T00:00:00Z","name_a2s":"Uncletopia | San Francisco | 2 | All Maps","protocol":17,"map":"cp_mountainlab","folder":"tf","game":"Team Fortress","app_id":440,"player_count":11,"max_players":24,"Bots":0,"server_type":"Dedicated","server_os":"Linux","password":true,"vac":true,"version":"7961495","steam_id":85568392924470000,"keywords":["cp","nocrits","nodmgspread","uncletopia"],"game_id":440,"stv_port":27026,"stv_name":"Uncletopia | San Francisco | 2 | All Maps | STV","players":[{"user_id":145,"name":"Chaptain","steam_id":76561198452725739,"connected_time":59000000000,"state":"active","ping":65},{"user_id":140,"name":"Seanvich","steam_id":76561198065805500,"connected_time":1128000000000,"state":"active","ping":102},{"user_id":141,"name":"lol","steam_id":76561198026491738,"connected_time":1090000000000,"state":"active","ping":56},{"user_id":142,"name":"A class hero","steam_id":76561198066091050,"connected_time":1070000000000,"state":"active","ping":76},{"user_id":41,"name":"eeellliii1","steam_id":76561198056261636,"connected_time":7898000000000,"state":"active","ping":74},{"user_id":42,"name":"Phrog","steam_id":76561198072975322,"connected_time":7880000000000,"state":"active","ping":78},{"user_id":45,"name":"Vrita","steam_id":76561198059483641,"connected_time":7653000000000,"state":"active","ping":47},{"user_id":136,"name":"Buswolley","steam_id":76561197995205571,"connected_time":1896000000000,"state":"active","ping":41},{"user_id":106,"name":"chimplicity","steam_id":76561198012097062,"connected_time":4764000000000,"state":"active","ping":73},{"user_id":138,"name":"sirFrost","steam_id":76561198072267177,"connected_time":1642000000000,"state":"active","ping":68},{"user_id":112,"name":"Bene Tlailax","steam_id":76561198131567365,"connected_time":4215000000000,"state":"active","ping":70}]},{"server_id":19,"name":"Uncletopia | San Francisco | 3 | Stopwatch","name_short":"sfo-3","host":"sfo-1.us.uncletopia.com","port":27035,"enabled":true,"region":"us-west","cc":"us","latitude":37.77397,"longitude":-122.4313,"reserved":0,"last_update":"0001-01-01T00:00:00Z","name_a2s":"Uncletopia | San Francisco | 3 | Stopwatch","protocol":17,"map":"workshop/koth_ramjam_rc1.ugc459778887","folder":"tf","game":"Team Fortress","app_id":440,"player_count":0,"max_players":24,"Bots":0,"server_type":"Dedicated","server_os":"Linux","password":true,"vac":true,"version":"7961495","steam_id":85568392924742824,"keywords":["cp","nocrits","nodmgspread","uncletopia"],"game_id":440,"stv_port":27036,"stv_name":"Uncletopia | San Francisco | 3 | Stopwatch | STV","players":null},{"server_id":20,"name":"Uncletopia | San Francisco | 4 | Community","name_short":"sfo-4","host":"sfo-1.us.uncletopia.com","port":27045,"enabled":true,"region":"us-west","cc":"us","latitude":37.77397,"longitude":-122.4313,"reserved":0,"last_update":"0001-01-01T00:00:00Z","name_a2s":"Uncletopia | San Francisco | 4 | Community","protocol":17,"map":"workshop/cp_villa_b19.ugc2113052569","folder":"tf","game":"Team Fortress","app_id":440,"player_count":0,"max_players":24,"Bots":0,"server_type":"Dedicated","server_os":"Linux","password":true,"vac":true,"version":"7961495","steam_id":85568392924742826,"keywords":["cp","nocrits","nodmgspread","uncletopia"],"game_id":440,"stv_port":27046,"stv_name":"Uncletopia | San Francisco | 4 | Community | STV","players":null},{"server_id":141,"name":"Uncletopia | Sydney | 1 | All Maps","name_short":"syd-1","host":"syd-1.au.uncletopia.com","port":27015,"enabled":true,"region":"au","cc":"au","latitude":-33.865143,"longitude":151.2099,"reserved":0,"last_update":"0001-01-01T00:00:00Z","name_a2s":"Uncletopia | Sydney | 1 | All Maps","protocol":17,"map":"pl_pier","folder":"tf","game":"Team Fortress","app_id":440,"player_count":24,"max_players":24,"Bots":0,"server_type":"Dedicated","server_os":"Linux","password":true,"vac":true,"version":"7961495","steam_id":85568392924470001,"keywords":["nocrits","nodmgspread","payload","uncletopia"],"game_id":440,"stv_port":27016,"stv_name":"Uncletopia | Sydney | 1 | All Maps | STV","players":[{"user_id":67,"name":"Mikey","steam_id":76561198438203131,"connected_time":863000000000,"state":"active","ping":60},{"user_id":65,"name":"Crucial","steam_id":76561198992582454,"connected_time":1010000000000,"state":"active","ping":44},{"user_id":27,"name":"Sezama [HF]","steam_id":76561198816829053,"connected_time":3406000000000,"state":"active","ping":61},{"user_id":68,"name":"FascismSalad","steam_id":76561198262410973,"connected_time":830000000000,"state":"active","ping":49},{"user_id":21,"name":"cakey","steam_id":76561198173746761,"connected_time":3939000000000,"state":"active","ping":45},{"user_id":35,"name":"HmmF","steam_id":76561198255886585,"connected_time":3086000000000,"state":"active","ping":49},{"user_id":69,"name":"Marzell","steam_id":76561198151276153,"connected_time":821000000000,"state":"active","ping":96},{"user_id":34,"name":"LaFleur","steam_id":76561198869499113,"connected_time":3088000000000,"state":"active","ping":54},{"user_id":25,"name":"Asl:3x","steam_id":76561198972095766,"connected_time":3601000000000,"state":"active","ping":37},{"user_id":58,"name":"THEBONEMUNCHER","steam_id":76561198094846610,"connected_time":1504000000000,"state":"active","ping":60},{"user_id":51,"name":"Brud","steam_id":76561198123542239,"connected_time":2333000000000,"state":"active","ping":50},{"user_id":80,"name":"Shaboi","steam_id":76561198048944885,"connected_time":119000000000,"state":"active","ping":41},{"user_id":71,"name":"Owlenstein™","steam_id":76561198093983826,"connected_time":703000000000,"state":"active","ping":116},{"user_id":32,"name":"CoolJosh3k .com","steam_id":76561197997407342,"connected_time":3142000000000,"state":"active","ping":50},{"user_id":52,"name":"aido","steam_id":76561198072397557,"connected_time":2075000000000,"state":"active","ping":68},{"user_id":72,"name":"1996 VHS Copy of Jumanji","steam_id":76561198140262325,"connected_time":700000000000,"state":"active","ping":51},{"user_id":54,"name":"precious.","steam_id":76561198054804209,"connected_time":1901000000000,"state":"active","ping":90},{"user_id":73,"name":"stinky poot","steam_id":76561198065742905,"connected_time":646000000000,"state":"active","ping":42},{"user_id":75,"name":"Fresh Produce Gaming","steam_id":76561198358483352,"connected_time":588000000000,"state":"active","ping":65},{"user_id":77,"name":"Sexy Turtle","steam_id":76561198256865969,"connected_time":387000000000,"state":"active","ping":46},{"user_id":47,"name":"Reefo","steam_id":76561198161626796,"connected_time":2663000000000,"state":"active","ping":76},{"user_id":49,"name":"Lincoln2603","steam_id":76561198170236666,"connected_time":2565000000000,"state":"active","ping":45},{"user_id":78,"name":"B. F. Bugleberry","steam_id":76561198137335569,"connected_time":315000000000,"state":"active","ping":55},{"user_id":79,"name":"T0vex","steam_id":76561198127222589,"connected_time":289000000000,"state":"active","ping":76}]},{"server_id":123,"name":"Uncletopia | Sydney | 2 | All Maps","name_short":"syd-2","host":"syd-1.au.uncletopia.com","port":27025,"enabled":true,"region":"au","cc":"au","latitude":-33.865143,"longitude":151.2099,"reserved":0,"last_update":"0001-01-01T00:00:00Z","name_a2s":"Uncletopia | Sydney | 2 | All Maps","protocol":17,"map":"koth_highpass","folder":"tf","game":"Team Fortress","app_id":440,"player_count":3,"max_players":24,"Bots":0,"server_type":"Dedicated","server_os":"Linux","password":true,"vac":true,"version":"7961495","steam_id":85568392924470002,"keywords":["cp","nocrits","nodmgspread","uncletopia"],"game_id":440,"stv_port":27026,"stv_name":"Uncletopia | Sydney | 2 | All Maps | STV","players":[{"user_id":12,"name":"Manusia Jawa","steam_id":76561199388042968,"connected_time":591000000000,"state":"active","ping":254},{"user_id":13,"name":"using a laptop","steam_id":76561199445302425,"connected_time":525000000000,"state":"active","ping":157},{"user_id":15,"name":"Bob","steam_id":76561198993654166,"connected_time":166000000000,"state":"active","ping":62}]},{"server_id":395,"name":"Uncletopia | Sydney | 3 | All Maps","name_short":"syd-3","host":"syd-1.au.uncletopia.com","port":27035,"enabled":true,"region":"au","cc":"au","latitude":-33.865143,"longitude":151.2099,"reserved":0,"last_update":"0001-01-01T00:00:00Z","name_a2s":"Uncletopia | Sydney | 3 | All Maps","protocol":17,"map":"pl_swiftwater_final1","folder":"tf","game":"Team Fortress","app_id":440,"player_count":0,"max_players":24,"Bots":0,"server_type":"Dedicated","server_os":"Linux","password":true,"vac":true,"version":"7961495","steam_id":85568392925194467,"keywords":["nocrits","nodmgspread","payload","uncletopia"],"game_id":440,"stv_port":27036,"stv_name":"Uncletopia | Sydney | 3 | All Maps | STV","players":null},{"server_id":396,"name":"Uncletopia | Sydney | 4 | All Maps","name_short":"syd-4","host":"syd-1.au.uncletopia.com","port":27045,"enabled":true,"region":"au","cc":"au","latitude":-33.865143,"longitude":151.2099,"reserved":0,"last_update":"0001-01-01T00:00:00Z","name_a2s":"Uncletopia | Sydney | 4 | All Maps","protocol":17,"map":"koth_lakeside_final","folder":"tf","game":"Team Fortress","app_id":440,"player_count":0,"max_players":24,"Bots":0,"server_type":"Dedicated","server_os":"Linux","password":true,"vac":true,"version":"7961495","steam_id":85568392925397958,"keywords":["cp","nocrits","nodmgspread","uncletopia"],"game_id":440,"stv_port":27046,"stv_name":"Uncletopia | Sydney | 4 | All Maps | STV","players":null},{"server_id":58,"name":"Uncletopia | Sydney | 5 | Stopwatch","name_short":"syd-5","host":"syd-1.au.uncletopia.com","port":27055,"enabled":true,"region":"au","cc":"au","latitude":-33.865143,"longitude":151.2099,"reserved":0,"last_update":"0001-01-01T00:00:00Z","name_a2s":"Uncletopia | Sydney | 5 | Stopwatch","protocol":17,"map":"pl_swiftwater_final1","folder":"tf","game":"Team Fortress","app_id":440,"player_count":0,"max_players":24,"Bots":0,"server_type":"Dedicated","server_os":"Linux","password":true,"vac":true,"version":"7961495","steam_id":85568392925397959,"keywords":["nocrits","nodmgspread","payload","uncletopia"],"game_id":440,"stv_port":27056,"stv_name":"Uncletopia | Sydney | 5 | Stopwatch | STV","players":null},{"server_id":59,"name":"Uncletopia | Sydney | 6 | Community","name_short":"syd-6","host":"syd-1.au.uncletopia.com","port":27065,"enabled":true,"region":"au","cc":"au","latitude":-33.865143,"longitude":151.2099,"reserved":0,"last_update":"0001-01-01T00:00:00Z","name_a2s":"Uncletopia | Sydney | 6 | Community","protocol":17,"map":"workshop/cp_fulgur_rc2a.ugc2068252300","folder":"tf","game":"Team Fortress","app_id":440,"player_count":0,"max_players":24,"Bots":0,"server_type":"Dedicated","server_os":"Linux","password":true,"vac":true,"version":"7961495","steam_id":85568392925397960,"keywords":["cp","nocrits","nodmgspread","uncletopia"],"game_id":440,"stv_port":27066,"stv_name":"Uncletopia | Sydney | 6 | Community | STV","players":null},{"server_id":49,"name":"Uncletopia | Warsaw | 1 | One Thousand Uncles","name_short":"waw-1","host":"waw-1.pl.uncletopia.com","port":27015,"enabled":true,"region":"eu","cc":"pl","latitude":52.2297,"longitude":21.017532,"reserved":0,"last_update":"0001-01-01T00:00:00Z","name_a2s":"Uncletopia | Warsaw | 1 | One Thousand Uncles","protocol":17,"map":"koth_highpass","folder":"tf","game":"Team Fortress","app_id":440,"player_count":0,"max_players":32,"Bots":0,"server_type":"Dedicated","server_os":"Linux","password":true,"vac":true,"version":"7961495","steam_id":85568392925397850,"keywords":["alltalk","cp","danepve","increased_maxplayers","nocrits","norespawntime","uncletopia"],"game_id":440,"stv_port":0,"stv_name":"","players":null},{"server_id":50,"name":"Uncletopia | Warsaw | 2 | One Thousand Uncles","name_short":"waw-2","host":"waw-1.pl.uncletopia.com","port":27025,"enabled":true,"region":"eu","cc":"pl","latitude":52.2297,"longitude":21.017532,"reserved":0,"last_update":"0001-01-01T00:00:00Z","name_a2s":"Uncletopia | Warsaw | 2 | One Thousand Uncles","protocol":17,"map":"cp_dustbowl","folder":"tf","game":"Team Fortress","app_id":440,"player_count":0,"max_players":32,"Bots":0,"server_type":"Dedicated","server_os":"Linux","password":true,"vac":true,"version":"7961495","steam_id":85568392925397851,"keywords":["alltalk","cp","danepve","increased_maxplayers","nocrits","norespawntime","uncletopia"],"game_id":440,"stv_port":0,"stv_name":"","players":null},{"server_id":51,"name":"Uncletopia | Warsaw | 3 | All Maps","name_short":"waw-3","host":"waw-1.pl.uncletopia.com","port":27035,"enabled":true,"region":"eu","cc":"pl","latitude":52.2297,"longitude":21.017532,"reserved":0,"last_update":"0001-01-01T00:00:00Z","name_a2s":"Uncletopia | Warsaw | 3 | All Maps","protocol":17,"map":"plr_pipeline","folder":"tf","game":"Team Fortress","app_id":440,"player_count":0,"max_players":24,"Bots":0,"server_type":"Dedicated","server_os":"Linux","password":true,"vac":true,"version":"7961495","steam_id":85568392925397852,"keywords":["nocrits","nodmgspread","payload","uncletopia"],"game_id":440,"stv_port":27036,"stv_name":"Uncletopia | Warsaw | 3 | All Maps | STV","players":null},{"server_id":52,"name":"Uncletopia | Warsaw | 4 | All Maps","name_short":"waw-4","host":"waw-1.pl.uncletopia.com","port":27045,"enabled":true,"region":"eu","cc":"pl","latitude":52.2297,"longitude":21.017532,"reserved":0,"last_update":"0001-01-01T00:00:00Z","name_a2s":"Uncletopia | Warsaw | 4 | All Maps","protocol":17,"map":"cp_coldfront","folder":"tf","game":"Team Fortress","app_id":440,"player_count":0,"max_players":24,"Bots":0,"server_type":"Dedicated","server_os":"Linux","password":true,"vac":true,"version":"7961495","steam_id":85568392925397853,"keywords":["cp","nocrits","nodmgspread","uncletopia"],"game_id":440,"stv_port":27046,"stv_name":"Uncletopia | Warsaw | 4 | All Maps | STV","players":null},{"server_id":53,"name":"Uncletopia | Warsaw | 5 | Stopwatch","name_short":"waw-5","host":"waw-1.pl.uncletopia.com","port":27055,"enabled":true,"region":"eu","cc":"pl","latitude":52.2297,"longitude":21.017532,"reserved":0,"last_update":"0001-01-01T00:00:00Z","name_a2s":"Uncletopia | Warsaw | 5 | Stopwatch","protocol":17,"map":"workshop/koth_bagel_rc6.ugc2514036946","folder":"tf","game":"Team Fortress","app_id":440,"player_count":0,"max_players":24,"Bots":0,"server_type":"Dedicated","server_os":"Linux","password":true,"vac":true,"version":"7961495","steam_id":85568392925397854,"keywords":["cp","nocrits","nodmgspread","uncletopia"],"game_id":440,"stv_port":27056,"stv_name":"Uncletopia | Warsaw | 5 | Stopwatch | STV","players":null},{"server_id":54,"name":"Uncletopia | Warsaw | 6 | Community","name_short":"waw-6","host":"waw-1.pl.uncletopia.com","port":27065,"enabled":true,"region":"eu","cc":"pl","latitude":52.2297,"longitude":21.017532,"reserved":0,"last_update":"0001-01-01T00:00:00Z","name_a2s":"Uncletopia | Warsaw | 6 | Community","protocol":17,"map":"workshop/pl_badwater_pro_v12.ugc2142942074","folder":"tf","game":"Team Fortress","app_id":440,"player_count":0,"max_players":24,"Bots":0,"server_type":"Dedicated","server_os":"Linux","password":true,"vac":true,"version":"7961495","steam_id":85568392925397856,"keywords":["nocrits","nodmgspread","payload","uncletopia"],"game_id":440,"stv_port":27066,"stv_name":"Uncletopia | Warsaw | 6 | Community | STV","players":null}]}