{"status":true,"message":"","result":[{"server_id":9,"name":"Uncletopia | Atlanta | 1 | All Maps","name_short":"atl-1","host":"atl-1.us.uncletopia.com","port":27015,"enabled":true,"region":"us-east","cc":"us","latitude":33.753746,"longitude":-84.38633,"reserved":0,"last_update":"0001-01-01T00:00:00Z","name_a2s":"Uncletopia | Atlanta | 1 | All Maps","protocol":17,"map":"pl_upward","folder":"tf","game":"Team Fortress","app_id":440,"player_count":24,"max_players":24,"Bots":0,"server_type":"Dedicated","server_os":"Linux","password":true,"vac":true,"version":"7723704","steam_id":85568392924469982,"keywords":["nocrits","nodmgspread","payload","uncletopia"],"game_id":440,"stv_port":27016,"stv_name":"Uncletopia | Atlanta | 1 | All Maps | STV","players":[{"user_id":262,"name":"you should recycle","steam_id":76561198119478199,"connected_time":1635000000000,"state":"active","ping":43},{"user_id":291,"name":"Nyle","steam_id":76561198045652639,"connected_time":941000000000,"state":"active","ping":111},{"user_id":298,"name":"ATL1 | Dec the halls","steam_id":76561199045608372,"connected_time":199000000000,"state":"active","ping":70},{"user_id":253,"name":"ATL1 | Crystron","steam_id":76561198880437428,"connected_time":1879000000000,"state":"active","ping":83},{"user_id":302,"name":"Mr. Morrow","steam_id":76561198011333701,"connected_time":151000000000,"state":"active","ping":78},{"user_id":204,"name":"FancyBones","steam_id":76561198180198885,"connected_time":3094000000000,"state":"active","ping":62},{"user_id":205,"name":"Casper","steam_id":76561198012055967,"connected_time":3068000000000,"state":"active","ping":57},{"user_id":239,"name":"ATL1 | merryy","steam_id":76561198968001329,"connected_time":2125000000000,"state":"active","ping":47},{"user_id":294,"name":"ATL1 | Kramer","steam_id":76561198083595936,"connected_time":515000000000,"state":"active","ping":82},{"user_id":207,"name":"Trinima","steam_id":76561198359215935,"connected_time":3052000000000,"state":"active","ping":80},{"user_id":300,"name":"Kevin","steam_id":76561198035625423,"connected_time":172000000000,"state":"active","ping":171},{"user_id":301,"name":"Gary Budussy","steam_id":76561197969793969,"connected_time":171000000000,"state":"active","ping":63},{"user_id":198,"name":"mommy claus","steam_id":76561199230929836,"connected_time":3847000000000,"state":"active","ping":84},{"user_id":303,"name":"DeltaTroopa","steam_id":76561197969922298,"connected_time":148000000000,"state":"active","ping":90},{"user_id":295,"name":"sweaterfan","steam_id":76561199389567214,"connected_time":439000000000,"state":"active","ping":58},{"user_id":292,"name":"RIT Obelix","steam_id":76561198274715109,"connected_time":860000000000,"state":"active","ping":43},{"user_id":89,"name":"Probably P3","steam_id":76561198000127035,"connected_time":8425000000000,"state":"active","ping":60},{"user_id":209,"name":"Luucyf3r","steam_id":76561198141820085,"connected_time":3037000000000,"state":"active","ping":62},{"user_id":210,"name":"Eins","steam_id":76561199030343810,"connected_time":3030000000000,"state":"active","ping":40},{"user_id":304,"name":"sevanial","steam_id":76561198071532126,"connected_time":146000000000,"state":"active","ping":75},{"user_id":293,"name":"Festive Fire Starting Rock","steam_id":76561198066547582,"connected_time":792000000000,"state":"active","ping":112},{"user_id":212,"name":"Jeff","steam_id":76561198094572694,"connected_time":3020000000000,"state":"active","ping":103},{"user_id":297,"name":"Oddball","steam_id":76561198040440984,"connected_time":331000000000,"state":"active","ping":94},{"user_id":220,"name":"ATL1 | Lancer Fan Club","steam_id":76561198355495948,"connected_time":2577000000000,"state":"active","ping":83}]},{"server_id":400,"name":"Uncletopia | Atlanta | 3 | All Maps","name_short":"atl-3","host":"atl-1.us.uncletopia.com","port":27035,"enabled":true,"region":"us-east","cc":"us","latitude":33.753746,"longitude":-84.38633,"reserved":0,"last_update":"0001-01-01T00:00:00Z","name_a2s":"Uncletopia | Atlanta | 3 | All Maps","protocol":17,"map":"cp_dustbowl","folder":"tf","game":"Team Fortress","app_id":440,"player_count":0,"max_players":24,"Bots":0,"server_type":"Dedicated","server_os":"Linux","password":true,"vac":true,"version":"7723704","steam_id":85568392924515187,"keywords":["cp","nocrits","nodmgspread","uncletopia"],"game_id":440,"stv_port":27036,"stv_name":"Uncletopia | Atlanta | 3 | All Maps | STV","players":null},{"server_id":401,"name":"Uncletopia | Atlanta | 4 | No Payload","name_short":"atl-4","host":"atl-1.us.uncletopia.com","port":27045,"enabled":true,"region":"us-east","cc":"us","latitude":33.753746,"longitude":-84.38633,"reserved":0,"last_update":"0001-01-01T00:00:00Z","name_a2s":"Uncletopia | Atlanta | 4 | No Payload","protocol":17,"map":"cp_mercenarypark","folder":"tf","game":"Team Fortress","app_id":440,"player_count":0,"max_players":24,"Bots":0,"server_type":"Dedicated","server_os":"Linux","password":true,"vac":true,"version":"7723704","steam_id":85568392924515188,"keywords":["cp","nocrits","nodmgspread","uncletopia"],"game_id":440,"stv_port":27046,"stv_name":"Uncletopia | Atlanta | 4 | No Payload | STV","players":null},{"server_id":2,"name":"Uncletopia | Chicago | 1 | All Maps","name_short":"chi-1","host":"chi-1.us.uncletopia.com","port":27015,"enabled":true,"region":"us-central","cc":"us","latitude":41.881832,"longitude":-87.62318,"reserved":0,"last_update":"0001-01-01T00:00:00Z","name_a2s":"Uncletopia | Chicago | 1 | All Maps","protocol":17,"map":"pl_frontier_final","folder":"tf","game":"Team Fortress","app_id":440,"player_count":24,"max_players":24,"Bots":0,"server_type":"Dedicated","server_os":"Linux","password":true,"vac":true,"version":"7723704","steam_id":85568392924469984,"keywords":["nocrits","nodmgspread","payload","uncletopia"],"game_id":440,"stv_port":27016,"stv_name":"Uncletopia | Chicago | 1 | All Maps | STV","players":[{"user_id":3,"name":"ÒwÓ","steam_id":76561197997304387,"connected_time":30183000000000,"state":"active","ping":64},{"user_id":265,"name":"Michaelpc1","steam_id":76561198088365519,"connected_time":7638000000000,"state":"active","ping":80},{"user_id":349,"name":"Merchants of Misery","steam_id":76561199188142396,"connected_time":477000000000,"state":"active","ping":83},{"user_id":347,"name":"Big Tobacco","steam_id":76561198130165656,"connected_time":489000000000,"state":"active","ping":46},{"user_id":302,"name":"C papi","steam_id":76561198027779564,"connected_time":4718000000000,"state":"active","ping":56},{"user_id":346,"name":"poorman #1 sniper","steam_id":76561198447884169,"connected_time":813000000000,"state":"active","ping":47},{"user_id":321,"name":"Squishybrick","steam_id":76561198029526606,"connected_time":3406000000000,"state":"active","ping":86},{"user_id":350,"name":"Dumpy","steam_id":76561198067167895,"connected_time":462000000000,"state":"active","ping":66},{"user_id":351,"name":"NoShen","steam_id":76561198147434663,"connected_time":453000000000,"state":"active","ping":67},{"user_id":278,"name":"weeb_whacker #Jenius","steam_id":76561198187098041,"connected_time":6513000000000,"state":"active","ping":58},{"user_id":325,"name":"abomination","steam_id":76561198167974713,"connected_time":2855000000000,"state":"active","ping":65},{"user_id":286,"name":"Alfonso Molestro","steam_id":76561197998677099,"connected_time":5839000000000,"state":"active","ping":86},{"user_id":258,"name":"ccog","steam_id":76561198009314845,"connected_time":8247000000000,"state":"active","ping":105},{"user_id":318,"name":"harry","steam_id":76561198263271697,"connected_time":3620000000000,"state":"active","ping":45},{"user_id":333,"name":"lu","steam_id":76561198080731872,"connected_time":2038000000000,"state":"active","ping":75},{"user_id":342,"name":"A Sun","steam_id":76561198142545364,"connected_time":1292000000000,"state":"active","ping":64},{"user_id":339,"name":"Bird","steam_id":76561198247484514,"connected_time":1333000000000,"state":"active","ping":75},{"user_id":336,"name":"Tyco","steam_id":76561197978414167,"connected_time":1538000000000,"state":"active","ping":75},{"user_id":353,"name":"kablong","steam_id":76561199094392047,"connected_time":298000000000,"state":"active","ping":76},{"user_id":352,"name":"clavin_","steam_id":76561198046398447,"connected_time":448000000000,"state":"active","ping":55},{"user_id":326,"name":"Rappitor","steam_id":76561198105613110,"connected_time":2749000000000,"state":"active","ping":64},{"user_id":328,"name":"Kevin Y.","steam_id":76561198364331423,"connected_time":2452000000000,"state":"active","ping":79},{"user_id":338,"name":"Raniel Dicciardo","steam_id":76561198053859538,"connected_time":1346000000000,"state":"active","ping":67},{"user_id":313,"name":"jt","steam_id":76561198059575962,"connected_time":3945000000000,"state":"active","ping":59}]},{"server_id":106,"name":"Uncletopia | Chicago | 2 | All Maps","name_short":"chi-2","host":"chi-1.us.uncletopia.com","port":27025,"enabled":true,"region":"us-central","cc":"us","latitude":41.881832,"longitude":-87.62318,"reserved":0,"last_update":"0001-01-01T00:00:00Z","name_a2s":"Uncletopia | Chicago | 2 | All Maps","protocol":17,"map":"cp_sunshine","folder":"tf","game":"Team Fortress","app_id":440,"player_count":0,"max_players":24,"Bots":0,"server_type":"Dedicated","server_os":"Linux","password":true,"vac":true,"version":"7723704","steam_id":85568392924469985,"keywords":["cp","nocrits","nodmgspread","uncletopia"],"game_id":440,"stv_port":27026,"stv_name":"Uncletopia | Chicago | 2 | All Maps | STV","players":null},{"server_id":402,"name":"Uncletopia | Chicago | 3 | All Maps","name_short":"chi-3","host":"chi-1.us.uncletopia.com","port":27035,"enabled":true,"region":"us-central","cc":"us","latitude":41.881832,"longitude":-87.62318,"reserved":0,"last_update":"0001-01-01T00:00:00Z","name_a2s":"Uncletopia | Chicago | 3 | All Maps","protocol":17,"map":"cp_dustbowl","folder":"tf","game":"Team Fortress","app_id":440,"player_count":24,"max_players":24,"Bots":0,"server_type":"Dedicated","server_os":"Linux","password":true,"vac":true,"version":"7723704","steam_id":85568392924515191,"keywords":["cp","nocrits","nodmgspread","uncletopia"],"game_id":440,"stv_port":27036,"stv_name":"Uncletopia | Chicago | 3 | All Maps | STV","players":[{"user_id":191,"name":"vcx","steam_id":76561198139371143,"connected_time":1677000000000,"state":"active","ping":58},{"user_id":201,"name":"Huge","steam_id":76561199030987614,"connected_time":783000000000,"state":"active","ping":61},{"user_id":213,"name":"stop","steam_id":76561198268686419,"connected_time":75000000000,"state":"active","ping":49},{"user_id":181,"name":"Jade Greenleaf","steam_id":76561198304845413,"connected_time":2349000000000,"state":"active","ping":72},{"user_id":195,"name":"Nefy","steam_id":76561198030017316,"connected_time":1107000000000,"state":"active","ping":81},{"user_id":186,"name":"bladeefan17","steam_id":76561198239286750,"connected_time":1909000000000,"state":"active","ping":62},{"user_id":150,"name":"me me bad at game","steam_id":76561198230211816,"connected_time":4536000000000,"state":"active","ping":111},{"user_id":185,"name":"reiidaya","steam_id":76561198325306660,"connected_time":2065000000000,"state":"active","ping":98},{"user_id":199,"name":"Crowmancer","steam_id":76561198056707334,"connected_time":894000000000,"state":"active","ping":71},{"user_id":203,"name":"sinisterMayo","steam_id":76561198087244649,"connected_time":755000000000,"state":"active","ping":73},{"user_id":212,"name":"Gibby","steam_id":76561199336569123,"connected_time":195000000000,"state":"active","ping":106},{"user_id":211,"name":"Owixan","steam_id":76561198074990070,"connected_time":216000000000,"state":"active","ping":38},{"user_id":200,"name":"Jacklackz (fumo fan)","steam_id":76561199120063501,"connected_time":811000000000,"state":"active","ping":113},{"user_id":202,"name":"turnip","steam_id":76561197999375941,"connected_time":778000000000,"state":"active","ping":75},{"user_id":205,"name":"Pep Seeman","steam_id":76561198038393007,"connected_time":678000000000,"state":"active","ping":75},{"user_id":80,"name":"Satori Komeiji","steam_id":76561198158211423,"connected_time":8674000000000,"state":"active","ping":94},{"user_id":184,"name":"rat gets the cheese","steam_id":76561198031234032,"connected_time":2252000000000,"state":"active","ping":56},{"user_id":206,"name":"motorized bar of soap","steam_id":76561198882404753,"connected_time":623000000000,"state":"active","ping":75},{"user_id":133,"name":"jerma enthusiast","steam_id":76561198359466264,"connected_time":5473000000000,"state":"active","ping":72},{"user_id":172,"name":"Marie","steam_id":76561198056104899,"connected_time":3205000000000,"state":"active","ping":85},{"user_id":176,"name":"AncientBag","steam_id":76561198349204830,"connected_time":2612000000000,"state":"active","ping":53},{"user_id":126,"name":"greenpeace","steam_id":76561197983221708,"connected_time":5927000000000,"state":"active","ping":93},{"user_id":207,"name":"Kora","steam_id":76561198000344974,"connected_time":588000000000,"state":"active","ping":76},{"user_id":210,"name":"HexT","steam_id":76561199085359931,"connected_time":478000000000,"state":"active","ping":56}]},{"server_id":403,"name":"Uncletopia | Chicago | 4 | All Maps","name_short":"chi-4","host":"chi-1.us.uncletopia.com","port":27045,"enabled":true,"region":"us-central","cc":"us","latitude":41.881832,"longitude":-87.62318,"reserved":0,"last_update":"0001-01-01T00:00:00Z","name_a2s":"Uncletopia | Chicago | 4 | All Maps","protocol":17,"map":"pl_swiftwater_final1","folder":"tf","game":"Team Fortress","app_id":440,"player_count":24,"max_players":24,"Bots":0,"server_type":"Dedicated","server_os":"Linux","password":true,"vac":true,"version":"7723704","steam_id":85568392924515193,"keywords":["nocrits","nodmgspread","payload","uncletopia"],"game_id":440,"stv_port":27046,"stv_name":"Uncletopia | Chicago | 4 | All Maps | STV","players":[{"user_id":444,"name":"God of bread","steam_id":76561198373688035,"connected_time":1012000000000,"state":"active","ping":61},{"user_id":439,"name":"177013","steam_id":76561198072303290,"connected_time":2202000000000,"state":"active","ping":63},{"user_id":441,"name":"jpuck","steam_id":76561198025018960,"connected_time":1117000000000,"state":"active","ping":66},{"user_id":426,"name":"Beanboi","steam_id":76561198977881677,"connected_time":3405000000000,"state":"active","ping":67},{"user_id":425,"name":"Bysig_ttv #savetf2","steam_id":76561198086422663,"connected_time":3538000000000,"state":"active","ping":74},{"user_id":464,"name":"rubb3r","steam_id":76561198096874230,"connected_time":35000000000,"state":"active","ping":85},{"user_id":456,"name":"bane","steam_id":76561198196769297,"connected_time":698000000000,"state":"active","ping":58},{"user_id":463,"name":"Brandino!","steam_id":76561198000446932,"connected_time":70000000000,"state":"active","ping":121},{"user_id":430,"name":"cosmik","steam_id":76561198071193180,"connected_time":3384000000000,"state":"active","ping":55},{"user_id":393,"name":"ÜberBurst inVinci","steam_id":76561198044470684,"connected_time":6676000000000,"state":"active","ping":68},{"user_id":416,"name":"Wang of Wall St","steam_id":76561198047460598,"connected_time":5019000000000,"state":"active","ping":73},{"user_id":452,"name":"Crunchy Pancake","steam_id":76561198002555973,"connected_time":888000000000,"state":"active","ping":68},{"user_id":446,"name":"Wug","steam_id":76561198084112264,"connected_time":991000000000,"state":"active","ping":75},{"user_id":433,"name":"Jolly evil little man","steam_id":76561198311053471,"connected_time":3313000000000,"state":"active","ping":77},{"user_id":438,"name":"Albino Jellyfish","steam_id":76561198208561097,"connected_time":2216000000000,"state":"active","ping":63},{"user_id":461,"name":"extinct111","steam_id":76561199013696367,"connected_time":261000000000,"state":"active","ping":55},{"user_id":462,"name":"erwebomio","steam_id":76561198071152924,"connected_time":217000000000,"state":"active","ping":118},{"user_id":459,"name":"StormForce","steam_id":76561198343451685,"connected_time":314000000000,"state":"active","ping":78},{"user_id":449,"name":"Salad Days","steam_id":76561198110323694,"connected_time":942000000000,"state":"active","ping":79},{"user_id":457,"name":"Meatyy","steam_id":76561198371782893,"connected_time":579000000000,"state":"active","ping":75},{"user_id":458,"name":"Wild_Rumpus","steam_id":76561198066393719,"connected_time":512000000000,"state":"active","ping":66},{"user_id":302,"name":"ItsRoy","steam_id":76561198119525485,"connected_time":12703000000000,"state":"active","ping":55},{"user_id":421,"name":"The Goat","steam_id":76561197960432083,"connected_time":4316000000000,"state":"active","ping":74},{"user_id":398,"name":"MitcheyHD","steam_id":76561198066489645,"connected_time":6258000000000,"state":"active","ping":77}]},{"server_id":36,"name":"Uncletopia | Chicago | 5 | All Maps","name_short":"chi-5","host":"chi-2.us.uncletopia.com","port":27015,"enabled":true,"region":"us-central","cc":"us","latitude":41.881832,"longitude":-87.62318,"reserved":0,"last_update":"0001-01-01T00:00:00Z","name_a2s":"Uncletopia | Chicago | 5 | All Maps","protocol":17,"map":"koth_cascade","folder":"tf","game":"Team Fortress","app_id":440,"player_count":0,"max_players":24,"Bots":0,"server_type":"Dedicated","server_os":"Linux","password":true,"vac":true,"version":"7723704","steam_id":85568392924866362,"keywords":["cp","nocrits","nodmgspread","uncletopia"],"game_id":440,"stv_port":27016,"stv_name":"Uncletopia | Chicago | 5 | All Maps | STV","players":null},{"server_id":37,"name":"Uncletopia | Chicago | 6 | All Maps","name_short":"chi-6","host":"chi-2.us.uncletopia.com","port":27025,"enabled":true,"region":"us-central","cc":"us","latitude":41.881832,"longitude":-87.62318,"reserved":0,"last_update":"0001-01-01T00:00:00Z","name_a2s":"Uncletopia | Chicago | 6 | All Maps","protocol":17,"map":"cp_altitude","folder":"tf","game":"Team Fortress","app_id":440,"player_count":0,"max_players":24,"Bots":0,"server_type":"Dedicated","server_os":"Linux","password":true,"vac":true,"version":"7723704","steam_id":85568392924866363,"keywords":["cp","nocrits","nodmgspread","uncletopia"],"game_id":440,"stv_port":27026,"stv_name":"Uncletopia | Chicago | 6 | All Maps | STV","players":null},{"server_id":38,"name":"Uncletopia | Chicago | 7 | Stopwatch (test)","name_short":"chi-7","host":"chi-2.us.uncletopia.com","port":27035,"enabled":true,"region":"us-central","cc":"us","latitude":41.881832,"longitude":-87.62318,"reserved":0,"last_update":"0001-01-01T00:00:00Z","name_a2s":"Uncletopia | Chicago | 7 | Stopwatch (test)","protocol":17,"map":"workshop/koth_clearcut_b15.ugc2107050255","folder":"tf","game":"Team Fortress","app_id":440,"player_count":0,"max_players":24,"Bots":0,"server_type":"Dedicated","server_os":"Linux","password":true,"vac":true,"version":"7723704","steam_id":85568392924866364,"keywords":["cp","nocrits","nodmgspread","uncletopia"],"game_id":440,"stv_port":27036,"stv_name":"Uncletopia | Chicago | 7 | Stopwatch (test) | STV","players":null},{"server_id":39,"name":"Uncletopia | Chicago | 8 | Community","name_short":"chi-8","host":"chi-2.us.uncletopia.com","port":27045,"enabled":true,"region":"us-central","cc":"us","latitude":41.881832,"longitude":-87.62318,"reserved":0,"last_update":"0001-01-01T00:00:00Z","name_a2s":"Uncletopia | Chicago | 8 | Community","protocol":17,"map":"pl_frontier_final","folder":"tf","game":"Team Fortress","app_id":440,"player_count":0,"max_players":24,"Bots":0,"server_type":"Dedicated","server_os":"Linux","password":true,"vac":true,"version":"7723704","steam_id":85568392924866365,"keywords":["nocrits","nodmgspread","payload","uncletopia"],"game_id":440,"stv_port":27046,"stv_name":"Uncletopia | Chicago | 8 | Community | STV","players":null},{"server_id":8,"name":"Uncletopia | Dallas | 1 | All Maps","name_short":"dal-1","host":"dal-1.us.uncletopia.com","port":27015,"enabled":true,"region":"us-central","cc":"us","latitude":32.779167,"longitude":-96.80889,"reserved":0,"last_update":"0001-01-01T00:00:00Z","name_a2s":"Uncletopia | Dallas | 1 | All Maps","protocol":17,"map":"cp_altitude","folder":"tf","game":"Team Fortress","app_id":440,"player_count":24,"max_players":24,"Bots":0,"server_type":"Dedicated","server_os":"Linux","password":true,"vac":true,"version":"7723704","steam_id":85568392924469986,"keywords":["cp","nocrits","nodmgspread","uncletopia"],"game_id":440,"stv_port":27016,"stv_name":"Uncletopia | Dallas | 1 | All Maps | STV","players":[{"user_id":487,"name":"William Murdoch","steam_id":76561198031394373,"connected_time":669000000000,"state":"active","ping":74},{"user_id":472,"name":"Kawflynn","steam_id":76561198029885678,"connected_time":1064000000000,"state":"active","ping":97},{"user_id":473,"name":"Aster","steam_id":76561198037920420,"connected_time":1056000000000,"state":"active","ping":64},{"user_id":454,"name":"Power With Flower","steam_id":76561198798123834,"connected_time":2592000000000,"state":"active","ping":86},{"user_id":417,"name":"SmokeyGalaxy","steam_id":76561198118780516,"connected_time":4668000000000,"state":"active","ping":43},{"user_id":474,"name":"TC_Zephyr","steam_id":76561199059189394,"connected_time":1048000000000,"state":"active","ping":75},{"user_id":475,"name":"dumbass engineer","steam_id":76561198003593070,"connected_time":1048000000000,"state":"active","ping":86},{"user_id":491,"name":"xbox record that","steam_id":76561198150117455,"connected_time":545000000000,"state":"active","ping":69},{"user_id":446,"name":"Nanochip","steam_id":76561198042248451,"connected_time":3117000000000,"state":"active","ping":41},{"user_id":476,"name":"Heida","steam_id":76561198298468550,"connected_time":1001000000000,"state":"active","ping":73},{"user_id":382,"name":"Octoblue64","steam_id":76561198388997283,"connected_time":6097000000000,"state":"active","ping":158},{"user_id":466,"name":"real life cartoon being","steam_id":76561198068958789,"connected_time":2027000000000,"state":"active","ping":55},{"user_id":348,"name":"Bubbles","steam_id":76561198812361950,"connected_time":8035000000000,"state":"active","ping":95},{"user_id":492,"name":"Ripheart","steam_id":76561198089661561,"connected_time":473000000000,"state":"active","ping":70},{"user_id":489,"name":"swagmaster1000","steam_id":76561198992069646,"connected_time":614000000000,"state":"active","ping":87},{"user_id":468,"name":"Ultra\u003c3","steam_id":76561198352021493,"connected_time":1447000000000,"state":"active","ping":76},{"user_id":452,"name":"Kracken","steam_id":76561198843862421,"connected_time":2679000000000,"state":"active","ping":83},{"user_id":450,"name":"Blink","steam_id":76561197986181277,"connected_time":2804000000000,"state":"active","ping":45},{"user_id":470,"name":"ice cream (冰淇淋)","steam_id":76561198976530881,"connected_time":1195000000000,"state":"active","ping":60},{"user_id":490,"name":"ultrax.extremex","steam_id":76561199201770653,"connected_time":572000000000,"state":"active","ping":81},{"user_id":481,"name":"hellohello","steam_id":76561198094058177,"connected_time":915000000000,"state":"active","ping":62},{"user_id":493,"name":"Mellou","steam_id":76561198212048740,"connected_time":77000000000,"state":"active","ping":59},{"user_id":460,"name":"XIV Hyena","steam_id":76561198256653428,"connected_time":2454000000000,"state":"active","ping":65},{"user_id":431,"name":"gordon freeman christmas","steam_id":76561198367735460,"connected_time":4234000000000,"state":"active","ping":78}]},{"server_id":108,"name":"Uncletopia | Dallas | 2 | All Maps","name_short":"dal-2","host":"dal-1.us.uncletopia.com","port":27025,"enabled":true,"region":"us-central","cc":"us","latitude":32.779167,"longitude":-96.80889,"reserved":0,"last_update":"0001-01-01T00:00:00Z","name_a2s":"Uncletopia | Dallas | 2 | All Maps","protocol":17,"map":"cp_process_final","folder":"tf","game":"Team Fortress","app_id":440,"player_count":0,"max_players":24,"Bots":0,"server_type":"Dedicated","server_os":"Linux","password":true,"vac":true,"version":"7723704","steam_id":85568392924469988,"keywords":["cp","nocrits","nodmgspread","uncletopia"],"game_id":440,"stv_port":27026,"stv_name":"Uncletopia | Dallas | 2 | All Maps | STV","players":null},{"server_id":5,"name":"Uncletopia | Frankfurt | 1 | All Maps","name_short":"frk-1","host":"frk-1.de.uncletopia.com","port":27015,"enabled":true,"region":"eu","cc":"de","latitude":50.110924,"longitude":8.682127,"reserved":0,"last_update":"0001-01-01T00:00:00Z","name_a2s":"Uncletopia | Frankfurt | 1 | All Maps","protocol":17,"map":"pl_swiftwater_final1","folder":"tf","game":"Team Fortress","app_id":440,"player_count":16,"max_players":24,"Bots":0,"server_type":"Dedicated","server_os":"Linux","password":true,"vac":true,"version":"7723704","steam_id":85568392924469989,"keywords":["nocrits","nodmgspread","payload","uncletopia"],"game_id":440,"stv_port":27016,"stv_name":"Uncletopia | Frankfurt | 1 | All Maps | STV","players":[{"user_id":418,"name":"MatesThePlayer","steam_id":76561198066156449,"connected_time":1599000000000,"state":"active","ping":53},{"user_id":411,"name":"Ross from F.R.I.E.N.D.S.","steam_id":76561198008511665,"connected_time":1708000000000,"state":"active","ping":60},{"user_id":412,"name":"kotamine","steam_id":76561198068907991,"connected_time":1694000000000,"state":"active","ping":66},{"user_id":436,"name":"Thors","steam_id":76561197968739075,"connected_time":479000000000,"state":"active","ping":45},{"user_id":434,"name":"vuggie","steam_id":76561198042227249,"connected_time":841000000000,"state":"active","ping":56},{"user_id":408,"name":"Mor'du","steam_id":76561198274105878,"connected_time":1833000000000,"state":"active","ping":74},{"user_id":107,"name":"Ｒ Ｏ Ｂ Ｂ Ｅ Ｒ Ｔ","steam_id":76561198134404830,"connected_time":23446000000000,"state":"active","ping":106},{"user_id":441,"name":"jerry (:","steam_id":76561198205668108,"connected_time":5000000000,"state":"spawning","ping":48},{"user_id":406,"name":"Shawty","steam_id":76561198256704286,"connected_time":1961000000000,"state":"active","ping":60},{"user_id":440,"name":"SimplePig","steam_id":76561198071862153,"connected_time":146000000000,"state":"active","ping":122},{"user_id":404,"name":"Prox","steam_id":76561198351490981,"connected_time":2456000000000,"state":"active","ping":55},{"user_id":429,"name":"Cillian","steam_id":76561199046965320,"connected_time":1294000000000,"state":"active","ping":75},{"user_id":426,"name":"lugi","steam_id":76561199020785925,"connected_time":1333000000000,"state":"active","ping":70},{"user_id":425,"name":"Sabour","steam_id":76561197963965445,"connected_time":1373000000000,"state":"active","ping":52},{"user_id":368,"name":"bigwish | bmod.tf","steam_id":76561197997859723,"connected_time":5953000000000,"state":"active","ping":74},{"user_id":439,"name":"cazador","steam_id":76561198123096922,"connected_time":159000000000,"state":"active","ping":94}]},{"server_id":110,"name":"Uncletopia | Frankfurt | 2 | All Maps","name_short":"frk-2","host":"frk-1.de.uncletopia.com","port":27025,"enabled":true,"region":"eu","cc":"de","latitude":50.110924,"longitude":8.682127,"reserved":0,"last_update":"0001-01-01T00:00:00Z","name_a2s":"Uncletopia | Frankfurt | 2 | All Maps","protocol":17,"map":"pl_badwater","folder":"tf","game":"Team Fortress","app_id":440,"player_count":24,"max_players":24,"Bots":0,"server_type":"Dedicated","server_os":"Linux","password":true,"vac":true,"version":"7723704","steam_id":85568392924469990,"keywords":["nocrits","nodmgspread","payload","uncletopia"],"game_id":440,"stv_port":27026,"stv_name":"Uncletopia | Frankfurt | 2 | All Maps | STV","players":[{"user_id":710,"name":"Sweetcheesus","steam_id":76561198022299033,"connected_time":394000000000,"state":"active","ping":60},{"user_id":712,"name":"the joy of recycling","steam_id":76561198415564349,"connected_time":317000000000,"state":"active","ping":61},{"user_id":685,"name":"Kili","steam_id":76561198138456346,"connected_time":2125000000000,"state":"active","ping":61},{"user_id":644,"name":"The gordon Ramsay of sex","steam_id":76561198173218318,"connected_time":4174000000000,"state":"active","ping":69},{"user_id":633,"name":"Fran","steam_id":76561199070516960,"connected_time":5702000000000,"state":"active","ping":71},{"user_id":714,"name":"ndy","steam_id":76561198269047549,"connected_time":229000000000,"state":"active","ping":61},{"user_id":704,"name":"Sylbar","steam_id":76561198065379590,"connected_time":1249000000000,"state":"active","ping":67},{"user_id":711,"name":"Senator Armstrong","steam_id":76561198984346408,"connected_time":377000000000,"state":"active","ping":74},{"user_id":715,"name":"Kali","steam_id":76561198070745106,"connected_time":229000000000,"state":"active","ping":60},{"user_id":716,"name":"DERBY FRANCE FINALE","steam_id":76561198084056439,"connected_time":197000000000,"state":"active","ping":58},{"user_id":665,"name":"Fat Pigeon","steam_id":76561198817940142,"connected_time":3046000000000,"state":"active","ping":58},{"user_id":705,"name":"Dacrylis","steam_id":76561198090803893,"connected_time":965000000000,"state":"active","ping":68},{"user_id":690,"name":"Sunkerdink","steam_id":76561197996757446,"connected_time":2076000000000,"state":"active","ping":59},{"user_id":676,"name":"nemil","steam_id":76561198090733505,"connected_time":2808000000000,"state":"active","ping":40},{"user_id":708,"name":"elchi","steam_id":76561198009531752,"connected_time":634000000000,"state":"active","ping":46},{"user_id":717,"name":"-TA- skai","steam_id":76561198184881255,"connected_time":178000000000,"state":"active","ping":75},{"user_id":720,"name":"avnya","steam_id":76561198863728032,"connected_time":141000000000,"state":"active","ping":88},{"user_id":709,"name":"TaiDni","steam_id":76561198087750392,"connected_time":595000000000,"state":"active","ping":65},{"user_id":719,"name":"relaxtionfuel","steam_id":76561198868673990,"connected_time":166000000000,"state":"active","ping":167},{"user_id":721,"name":"Krabs","steam_id":76561198161679477,"connected_time":58000000000,"state":"active","ping":58},{"user_id":722,"name":"lvl. 50 honkler","steam_id":76561198061688660,"connected_time":51000000000,"state":"active","ping":102},{"user_id":723,"name":"timothytreestand-041165","steam_id":76561197995676953,"connected_time":46000000000,"state":"active","ping":47},{"user_id":695,"name":"Frog","steam_id":76561198043981067,"connected_time":2008000000000,"state":"active","ping":74},{"user_id":707,"name":"glyph","steam_id":76561197980736364,"connected_time":653000000000,"state":"active","ping":79}]},{"server_id":308,"name":"Uncletopia | Frankfurt | 3 | All Maps","name_short":"frk-3","host":"frk-1.de.uncletopia.com","port":27035,"enabled":true,"region":"eu","cc":"de","latitude":50.110924,"longitude":8.682127,"reserved":0,"last_update":"0001-01-01T00:00:00Z","name_a2s":"Uncletopia | Frankfurt | 3 | All Maps","protocol":17,"map":"pl_pier","folder":"tf","game":"Team Fortress","app_id":440,"player_count":24,"max_players":24,"Bots":0,"server_type":"Dedicated","server_os":"Linux","password":true,"vac":true,"version":"7723704","steam_id":85568392924504274,"keywords":["nocrits","nodmgspread","payload","uncletopia"],"game_id":440,"stv_port":27036,"stv_name":"Uncletopia | Frankfurt | 3 | All Maps | STV","players":[{"user_id":558,"name":"Gurgula","steam_id":76561198021253678,"connected_time":1930000000000,"state":"active","ping":86},{"user_id":540,"name":"Piki","steam_id":76561199209287968,"connected_time":3101000000000,"state":"active","ping":92},{"user_id":584,"name":"Estamie","steam_id":76561198058527691,"connected_time":204000000000,"state":"active","ping":74},{"user_id":546,"name":"AoA Charger","steam_id":76561198838291029,"connected_time":2241000000000,"state":"active","ping":58},{"user_id":570,"name":"goblin","steam_id":76561199010825303,"connected_time":663000000000,"state":"active","ping":78},{"user_id":571,"name":"TerriblePerson","steam_id":76561198045280510,"connected_time":647000000000,"state":"active","ping":84},{"user_id":572,"name":"rosepinkyfuzz","steam_id":76561198018546334,"connected_time":586000000000,"state":"active","ping":74},{"user_id":573,"name":"murf","steam_id":76561199184831395,"connected_time":581000000000,"state":"active","ping":60},{"user_id":536,"name":"Plop_","steam_id":76561198112567921,"connected_time":3405000000000,"state":"active","ping":45},{"user_id":548,"name":"Harpenden, Harpenden, Harpenden","steam_id":76561198118138546,"connected_time":2229000000000,"state":"active","ping":59},{"user_id":585,"name":"Unsinn","steam_id":76561198301141748,"connected_time":196000000000,"state":"active","ping":81},{"user_id":589,"name":"Germanium_Ge","steam_id":76561198130561775,"connected_time":123000000000,"state":"active","ping":49},{"user_id":550,"name":"Lux","steam_id":76561198060417740,"connected_time":2192000000000,"state":"active","ping":58},{"user_id":575,"name":"medick","steam_id":76561199380849468,"connected_time":555000000000,"state":"active","ping":62},{"user_id":551,"name":"billy benadryl","steam_id":76561198112817599,"connected_time":2192000000000,"state":"active","ping":90},{"user_id":562,"name":"Space Ace","steam_id":76561198032808751,"connected_time":1611000000000,"state":"active","ping":69},{"user_id":581,"name":"Clamor_","steam_id":76561198104368295,"connected_time":386000000000,"state":"active","ping":84},{"user_id":583,"name":"DDUUCCKK","steam_id":76561198141953050,"connected_time":304000000000,"state":"active","ping":70},{"user_id":590,"name":"Mr. Hunts","steam_id":76561197981910397,"connected_time":103000000000,"state":"active","ping":75},{"user_id":577,"name":"TwOne","steam_id":76561198042918856,"connected_time":537000000000,"state":"active","ping":47},{"user_id":586,"name":"Dr. WAH","steam_id":76561198297778149,"connected_time":188000000000,"state":"active","ping":85},{"user_id":580,"name":"Gnarville","steam_id":76561198006373329,"connected_time":429000000000,"state":"active","ping":61},{"user_id":542,"name":"mt","steam_id":76561197961319303,"connected_time":2450000000000,"state":"active","ping":45},{"user_id":564,"name":"Zembis","steam_id":76561198008017918,"connected_time":1548000000000,"state":"active","ping":96}]},{"server_id":309,"name":"Uncletopia | Frankfurt | 4 | All Maps","name_short":"frk-4","host":"frk-1.de.uncletopia.com","port":27045,"enabled":true,"region":"eu","cc":"de","latitude":50.110924,"longitude":8.682127,"reserved":0,"last_update":"0001-01-01T00:00:00Z","name_a2s":"Uncletopia | Frankfurt | 4 | All Maps","protocol":17,"map":"koth_lakeside_final","folder":"tf","game":"Team Fortress","app_id":440,"player_count":0,"max_players":24,"Bots":0,"server_type":"Dedicated","server_os":"Linux","password":true,"vac":true,"version":"7723704","steam_id":85568392924504275,"keywords":["cp","nocrits","nodmgspread","uncletopia"],"game_id":440,"stv_port":27046,"stv_name":"Uncletopia | Frankfurt | 4 | All Maps | STV","players":null},{"server_id":310,"name":"Uncletopia | Frankfurt | 5 | All Maps","name_short":"frk-5","host":"frk-1.de.uncletopia.com","port":27055,"enabled":true,"region":"eu","cc":"de","latitude":50.110924,"longitude":8.682127,"reserved":0,"last_update":"0001-01-01T00:00:00Z","name_a2s":"Uncletopia | Frankfurt | 5 | All Maps","protocol":17,"map":"cp_dustbowl","folder":"tf","game":"Team Fortress","app_id":440,"player_count":24,"max_players":24,"Bots":0,"server_type":"Dedicated","server_os":"Linux","password":true,"vac":true,"version":"7723704","steam_id":85568392924504277,"keywords":["cp","nocrits","nodmgspread","uncletopia"],"game_id":440,"stv_port":27056,"stv_name":"Uncletopia | Frankfurt | 5 | All Maps | STV","players":[{"user_id":528,"name":"Dominus.","steam_id":76561199065917088,"connected_time":442000000000,"state":"active","ping":73},{"user_id":357,"name":"Him","steam_id":76561198086400484,"connected_time":9206000000000,"state":"active","ping":73},{"user_id":490,"name":"XantaToast","steam_id":76561198066158468,"connected_time":2652000000000,"state":"active","ping":63},{"user_id":510,"name":"4","steam_id":76561197964945192,"connected_time":1477000000000,"state":"active","ping":58},{"user_id":518,"name":"Yelowchy","steam_id":76561198199416121,"connected_time":1279000000000,"state":"active","ping":116},{"user_id":532,"name":"Light601","steam_id":76561198134998492,"connected_time":326000000000,"state":"active","ping":94},{"user_id":531,"name":"MaxEn","steam_id":76561198855161048,"connected_time":338000000000,"state":"active","ping":56},{"user_id":507,"name":"Tweehoek","steam_id":76561197993796913,"connected_time":1540000000000,"state":"active","ping":70},{"user_id":465,"name":"soulja boy face reveal","steam_id":76561198097820508,"connected_time":3674000000000,"state":"active","ping":52},{"user_id":511,"name":"Pahlberg","steam_id":76561198208547929,"connected_time":1474000000000,"state":"active","ping":84},{"user_id":492,"name":"Españaa","steam_id":76561198879587832,"connected_time":2617000000000,"state":"active","ping":98},{"user_id":486,"name":"JoJo","steam_id":76561198296920548,"connected_time":2698000000000,"state":"active","ping":93},{"user_id":360,"name":"DeepBlue","steam_id":76561198140075795,"connected_time":9142000000000,"state":"active","ping":52},{"user_id":520,"name":"Gearslut","steam_id":76561198114601678,"connected_time":1065000000000,"state":"active","ping":70},{"user_id":537,"name":"RIFT","steam_id":76561198991622379,"connected_time":152000000000,"state":"active","ping":59},{"user_id":500,"name":"tshirt","steam_id":76561198040757844,"connected_time":2001000000000,"state":"active","ping":78},{"user_id":515,"name":"Retarded Asian Programmer","steam_id":76561198852826853,"connected_time":1389000000000,"state":"active","ping":63},{"user_id":538,"name":"foo","steam_id":76561198042000263,"connected_time":85000000000,"state":"active","ping":68},{"user_id":534,"name":"Bobo","steam_id":76561198052308399,"connected_time":298000000000,"state":"active","ping":55},{"user_id":533,"name":"steven","steam_id":76561198028240570,"connected_time":317000000000,"state":"active","ping":60},{"user_id":512,"name":"jarrupoljin","steam_id":76561198131551315,"connected_time":1466000000000,"state":"active","ping":60},{"user_id":513,"name":"snazyyy","steam_id":76561198143529110,"connected_time":1466000000000,"state":"active","ping":52},{"user_id":479,"name":"LVNDMARK※","steam_id":76561198200151459,"connected_time":2855000000000,"state":"active","ping":92},{"user_id":536,"name":"sex","steam_id":76561198151311150,"connected_time":199000000000,"state":"active","ping":70}]},{"server_id":311,"name":"Uncletopia | Frankfurt | 6 | All Maps","name_short":"frk-6","host":"frk-1.de.uncletopia.com","port":27065,"enabled":true,"region":"eu","cc":"de","latitude":50.110924,"longitude":8.682127,"reserved":0,"last_update":"0001-01-01T00:00:00Z","name_a2s":"Uncletopia | Frankfurt | 6 | All Maps","protocol":17,"map":"pl_thundermountain","folder":"tf","game":"Team Fortress","app_id":440,"player_count":24,"max_players":24,"Bots":0,"server_type":"Dedicated","server_os":"Linux","password":true,"vac":true,"version":"7723704","steam_id":85568392924504278,"keywords":["nocrits","nodmgspread","payload","uncletopia"],"game_id":440,"stv_port":27066,"stv_name":"Uncletopia | Frankfurt | 6 | All Maps | STV","players":[{"user_id":406,"name":"Larry Penus","steam_id":76561198207546233,"connected_time":660000000000,"state":"active","ping":60},{"user_id":396,"name":"TheArchitect2207","steam_id":76561199136784800,"connected_time":970000000000,"state":"active","ping":73},{"user_id":388,"name":"Yxel","steam_id":76561198123982890,"connected_time":2192000000000,"state":"active","ping":58},{"user_id":391,"name":"macauw","steam_id":76561198010467088,"connected_time":1757000000000,"state":"active","ping":62},{"user_id":400,"name":"raz","steam_id":76561198147277460,"connected_time":909000000000,"state":"active","ping":59},{"user_id":407,"name":"Tomfool","steam_id":76561197993256481,"connected_time":638000000000,"state":"active","ping":76},{"user_id":409,"name":"pavlik rohlik","steam_id":76561198110544279,"connected_time":359000000000,"state":"active","ping":46},{"user_id":377,"name":"Diana Ball","steam_id":76561198382533813,"connected_time":3026000000000,"state":"active","ping":65},{"user_id":404,"name":"Adam","steam_id":76561198062388802,"connected_time":847000000000,"state":"active","ping":49},{"user_id":378,"name":"lego napoleon movie","steam_id":76561198153796107,"connected_time":3006000000000,"state":"active","ping":77},{"user_id":393,"name":"Pico","steam_id":76561198063552545,"connected_time":1269000000000,"state":"active","ping":105},{"user_id":333,"name":"***** ***","steam_id":76561198048037379,"connected_time":5314000000000,"state":"active","ping":74},{"user_id":392,"name":"Dolphin2011","steam_id":76561197997323419,"connected_time":1613000000000,"state":"active","ping":96},{"user_id":408,"name":"makso","steam_id":76561198929491723,"connected_time":385000000000,"state":"active","ping":87},{"user_id":335,"name":"FaceShackle","steam_id":76561198038371397,"connected_time":5255000000000,"state":"active","ping":48},{"user_id":411,"name":"Vince","steam_id":76561199103000131,"connected_time":164000000000,"state":"active","ping":71},{"user_id":401,"name":"big naked bruh","steam_id":76561199179040672,"connected_time":886000000000,"state":"active","ping":75},{"user_id":412,"name":"meriones","steam_id":76561198034234373,"connected_time":19000000000,"state":"active","ping":119},{"user_id":340,"name":"Blazmobins","steam_id":76561198082899401,"connected_time":5177000000000,"state":"active","ping":62},{"user_id":380,"name":"dinger","steam_id":76561198038748489,"connected_time":2954000000000,"state":"active","ping":74},{"user_id":402,"name":"Coyote29","steam_id":76561198344502070,"connected_time":881000000000,"state":"active","ping":89},{"user_id":387,"name":"Shucks","steam_id":76561198247688216,"connected_time":2208000000000,"state":"active","ping":78},{"user_id":356,"name":"hushhx","steam_id":76561198216200092,"connected_time":4782000000000,"state":"active","ping":65},{"user_id":398,"name":"noot","steam_id":76561198148074472,"connected_time":965000000000,"state":"active","ping":44}]},{"server_id":23,"name":"Uncletopia | Frankfurt | 7 | No Payload","name_short":"frk-7","host":"frk-1.de.uncletopia.com","port":27075,"enabled":true,"region":"eu","cc":"de","latitude":50.110924,"longitude":8.682127,"reserved":0,"last_update":"0001-01-01T00:00:00Z","name_a2s":"Uncletopia | Frankfurt | 7 | No Payload","protocol":17,"map":"cp_mountainlab","folder":"tf","game":"Team Fortress","app_id":440,"player_count":0,"max_players":24,"Bots":0,"server_type":"Dedicated","server_os":"Linux","password":true,"vac":true,"version":"7723704","steam_id":85568392924742827,"keywords":["cp","nocrits","nodmgspread","uncletopia"],"game_id":440,"stv_port":27076,"stv_name":"Uncletopia | Frankfurt | 7 | No Payload | STV","players":null},{"server_id":24,"name":"Uncletopia | Frankfurt | 8 | Community","name_short":"frk-8","host":"frk-1.de.uncletopia.com","port":27085,"enabled":true,"region":"eu","cc":"de","latitude":50.110924,"longitude":8.682127,"reserved":0,"last_update":"0001-01-01T00:00:00Z","name_a2s":"Uncletopia | Frankfurt | 8 | Community","protocol":17,"map":"workshop/koth_synthetic_rc6a.ugc1549817316","folder":"tf","game":"Team Fortress","app_id":440,"player_count":23,"max_players":24,"Bots":0,"server_type":"Dedicated","server_os":"Linux","password":true,"vac":true,"version":"7723704","steam_id":85568392924742828,"keywords":["cp","nocrits","nodmgspread","uncletopia"],"game_id":440,"stv_port":27086,"stv_name":"Uncletopia | Frankfurt | 8 | Community | STV","players":[{"user_id":147,"name":"Lemonady","steam_id":76561198378349222,"connected_time":232000000000,"state":"active","ping":75},{"user_id":148,"name":"HYA HYA FOOWAAH!","steam_id":76561198193357946,"connected_time":226000000000,"state":"active","ping":98},{"user_id":90,"name":"Acid","steam_id":76561198102110680,"connected_time":2113000000000,"state":"active","ping":88},{"user_id":149,"name":"Axel_Mars","steam_id":76561198205873739,"connected_time":81000000000,"state":"active","ping":49},{"user_id":87,"name":"lisivi","steam_id":76561198365503306,"connected_time":2339000000000,"state":"active","ping":59},{"user_id":133,"name":"[GC]Kimo","steam_id":76561197992327511,"connected_time":595000000000,"state":"active","ping":62},{"user_id":145,"name":"|Bobby|","steam_id":76561198154208319,"connected_time":291000000000,"state":"active","ping":51},{"user_id":139,"name":"pjena","steam_id":76561198207643025,"connected_time":394000000000,"state":"active","ping":56},{"user_id":134,"name":"GZimmer","steam_id":76561198088794767,"connected_time":551000000000,"state":"active","ping":47},{"user_id":150,"name":"geezer","steam_id":76561198116981188,"connected_time":67000000000,"state":"active","ping":81},{"user_id":118,"name":"Flex Finster","steam_id":76561198061632224,"connected_time":1212000000000,"state":"active","ping":45},{"user_id":156,"name":"Mimic","steam_id":76561198064890253,"connected_time":3000000000,"state":"spawning","ping":135},{"user_id":135,"name":"Nicaea Sera","steam_id":76561198805876471,"connected_time":518000000000,"state":"active","ping":84},{"user_id":127,"name":"fruit bowl","steam_id":76561198232398568,"connected_time":775000000000,"state":"active","ping":76},{"user_id":143,"name":"hexerii","steam_id":76561198149967445,"connected_time":347000000000,"state":"active","ping":50},{"user_id":146,"name":"david.klemen","steam_id":76561198382246222,"connected_time":256000000000,"state":"active","ping":74},{"user_id":151,"name":"MR.BLOTTO","steam_id":76561198067920111,"connected_time":67000000000,"state":"active","ping":52},{"user_id":120,"name":"Akubpl","steam_id":76561198453017176,"connected_time":1192000000000,"state":"active","ping":72},{"user_id":155,"name":"Chronos","steam_id":76561198153700504,"connected_time":10000000000,"state":"active","ping":60},{"user_id":130,"name":"player","steam_id":76561198054474684,"connected_time":666000000000,"state":"active","ping":75},{"user_id":152,"name":"Kamil","steam_id":76561198271798119,"connected_time":52000000000,"state":"spawning","ping":210},{"user_id":153,"name":"Veri-merry-tasket","steam_id":76561198090074093,"connected_time":18000000000,"state":"spawning","ping":92},{"user_id":154,"name":"Minister of cocks","steam_id":76561198829740342,"connected_time":17000000000,"state":"spawning","ping":1162}]},{"server_id":202,"name":"Uncletopia | Hong Kong | 1 | All Maps","name_short":"hgk-1","host":"hgk-1.hk.uncletopia.com","port":27015,"enabled":true,"region":"asia","cc":"hk","latitude":22.302711,"longitude":114.177216,"reserved":0,"last_update":"0001-01-01T00:00:00Z","name_a2s":"Uncletopia | Hong Kong | 1 | All Maps","protocol":17,"map":"koth_highpass","folder":"tf","game":"Team Fortress","app_id":440,"player_count":0,"max_players":24,"Bots":0,"server_type":"Dedicated","server_os":"Linux","password":true,"vac":true,"version":"7723704","steam_id":85568392924494504,"keywords":["cp","nocrits","nodmgspread","uncletopia"],"game_id":440,"stv_port":27016,"stv_name":"Uncletopia | Hong Kong | 1 | All Maps | STV","players":null},{"server_id":1,"name":"Uncletopia | Los Angeles | 1 | All Maps","name_short":"lax-1","host":"lax-1.us.uncletopia.com","port":27015,"enabled":true,"region":"us-west","cc":"us","latitude":33.94279,"longitude":-118.41004,"reserved":0,"last_update":"0001-01-01T00:00:00Z","name_a2s":"Uncletopia | Los Angeles | 1 | All Maps","protocol":17,"map":"pl_upward","folder":"tf","game":"Team Fortress","app_id":440,"player_count":4,"max_players":24,"Bots":0,"server_type":"Dedicated","server_os":"Linux","password":true,"vac":true,"version":"7723704","steam_id":85568392924469991,"keywords":["nocrits","nodmgspread","payload","uncletopia"],"game_id":440,"stv_port":27016,"stv_name":"Uncletopia | Los Angeles | 1 | All Maps | STV","players":[{"user_id":6,"name":"Noxus","steam_id":76561199009820852,"connected_time":560000000000,"state":"active","ping":61},{"user_id":7,"name":"Nibotshooter","steam_id":76561199284825579,"connected_time":543000000000,"state":"active","ping":65},{"user_id":11,"name":"dominosgangster","steam_id":76561199095680478,"connected_time":398000000000,"state":"active","ping":60},{"user_id":10,"name":"The Squid Gamer™","steam_id":76561198340621517,"connected_time":427000000000,"state":"active","ping":67}]},{"server_id":112,"name":"Uncletopia | Los Angeles | 2 | All Maps","name_short":"lax-2","host":"lax-1.us.uncletopia.com","port":27025,"enabled":true,"region":"us-west","cc":"us","latitude":33.94279,"longitude":-118.41004,"reserved":0,"last_update":"0001-01-01T00:00:00Z","name_a2s":"Uncletopia | Los Angeles | 2 | All Maps","protocol":17,"map":"pl_pier","folder":"tf","game":"Team Fortress","app_id":440,"player_count":0,"max_players":24,"Bots":0,"server_type":"Dedicated","server_os":"Linux","password":true,"vac":true,"version":"7723704","steam_id":85568392924469992,"keywords":["nocrits","nodmgspread","payload","uncletopia"],"game_id":440,"stv_port":27026,"stv_name":"Uncletopia | Los Angeles | 2 | All Maps | STV","players":null},{"server_id":324,"name":"Uncletopia | Los Angeles | 3 | All Maps","name_short":"lax-3","host":"lax-1.us.uncletopia.com","port":27035,"enabled":true,"region":"us-west","cc":"us","latitude":33.94279,"longitude":-118.41004,"reserved":0,"last_update":"0001-01-01T00:00:00Z","name_a2s":"Uncletopia | Los Angeles | 3 | All Maps","protocol":17,"map":"koth_highpass","folder":"tf","game":"Team Fortress","app_id":440,"player_count":0,"max_players":24,"Bots":0,"server_type":"Dedicated","server_os":"Linux","password":true,"vac":true,"version":"7723704","steam_id":85568392924510198,"keywords":["cp","nocrits","nodmgspread","uncletopia"],"game_id":440,"stv_port":27036,"stv_name":"Uncletopia | Los Angeles | 3 | All Maps | STV","players":null},{"server_id":25,"name":"Uncletopia | Los Angeles | 4 | No Payload","name_short":"lax-4","host":"lax-1.us.uncletopia.com","port":27045,"enabled":true,"region":"us-west","cc":"us","latitude":33.94279,"longitude":-118.41004,"reserved":0,"last_update":"0001-01-01T00:00:00Z","name_a2s":"Uncletopia | Los Angeles | 4 | No Payload","protocol":17,"map":"cp_mountainlab","folder":"tf","game":"Team Fortress","app_id":440,"player_count":0,"max_players":24,"Bots":0,"server_type":"Dedicated","server_os":"Linux","password":true,"vac":true,"version":"7723704","steam_id":85568392924510199,"keywords":["cp","nocrits","nodmgspread","uncletopia"],"game_id":440,"stv_port":27046,"stv_name":"Uncletopia | Los Angeles | 4 | No Payload | STV","players":null},{"server_id":11,"name":"Uncletopia | London | 1 | All Maps","name_short":"lon-1","host":"lon-1.uk.uncletopia.com","port":27015,"enabled":true,"region":"eu","cc":"gb","latitude":51.509865,"longitude":-0.118092,"reserved":0,"last_update":"0001-01-01T00:00:00Z","name_a2s":"Uncletopia | London | 1 | All Maps","protocol":17,"map":"pl_barnblitz","folder":"tf","game":"Team Fortress","app_id":440,"player_count":24,"max_players":24,"Bots":0,"server_type":"Dedicated","server_os":"Linux","password":true,"vac":true,"version":"7723704","steam_id":85568392924367362,"keywords":["nocrits","nodmgspread","payload","uncletopia"],"game_id":440,"stv_port":27016,"stv_name":"Uncletopia | London | 1 | All Maps | STV","players":[{"user_id":376,"name":"waffle toaster","steam_id":76561198799089628,"connected_time":4191000000000,"state":"active","ping":49},{"user_id":440,"name":"torn","steam_id":76561198223003236,"connected_time":1918000000000,"state":"active","ping":31},{"user_id":459,"name":"C1nnamon_cookie","steam_id":76561199155374388,"connected_time":661000000000,"state":"active","ping":87},{"user_id":464,"name":"spilskinanka","steam_id":76561198047390799,"connected_time":110000000000,"state":"active","ping":55},{"user_id":448,"name":"♥ඞlilyඞ♥","steam_id":76561198049840460,"connected_time":1395000000000,"state":"active","ping":49},{"user_id":454,"name":"Evix","steam_id":76561198418450671,"connected_time":1033000000000,"state":"active","ping":58},{"user_id":436,"name":"chachiply","steam_id":76561198316355509,"connected_time":2305000000000,"state":"active","ping":71},{"user_id":452,"name":"shin","steam_id":76561198039757757,"connected_time":1047000000000,"state":"active","ping":44},{"user_id":460,"name":"Tazza","steam_id":76561198159811050,"connected_time":488000000000,"state":"active","ping":55},{"user_id":379,"name":"The Erotic Barber","steam_id":76561198423902979,"connected_time":4143000000000,"state":"active","ping":49},{"user_id":434,"name":"Hkitchen","steam_id":76561198194779526,"connected_time":2344000000000,"state":"active","ping":35},{"user_id":439,"name":"davlevan","steam_id":76561198090848620,"connected_time":2266000000000,"state":"active","ping":76},{"user_id":362,"name":"sniff","steam_id":76561198259668029,"connected_time":4374000000000,"state":"active","ping":50},{"user_id":427,"name":"SOPHIIEE","steam_id":76561198443798981,"connected_time":3044000000000,"state":"active","ping":61},{"user_id":388,"name":"KPhii","steam_id":76561198970587061,"connected_time":4057000000000,"state":"active","ping":57},{"user_id":430,"name":"Thesis","steam_id":76561199308784371,"connected_time":2600000000000,"state":"active","ping":63},{"user_id":435,"name":"Инспектор Атас","steam_id":76561199175688390,"connected_time":2343000000000,"state":"active","ping":90},{"user_id":455,"name":"juJu","steam_id":76561198049343793,"connected_time":1026000000000,"state":"active","ping":71},{"user_id":456,"name":"MAKENTAKEN","steam_id":76561199127359587,"connected_time":1026000000000,"state":"active","ping":97},{"user_id":458,"name":"Banjo","steam_id":76561198206218496,"connected_time":812000000000,"state":"active","ping":50},{"user_id":465,"name":"stupidugly","steam_id":76561198914610283,"connected_time":54000000000,"state":"spawning","ping":86},{"user_id":462,"name":"ULTIMATE_GORDON","steam_id":76561198044470038,"connected_time":179000000000,"state":"active","ping":38},{"user_id":451,"name":"Bonca","steam_id":76561198137503531,"connected_time":1175000000000,"state":"active","ping":73},{"user_id":419,"name":"Syd","steam_id":76561198020515027,"connected_time":3716000000000,"state":"active","ping":91}]},{"server_id":114,"name":"Uncletopia | London | 2 | All Maps","name_short":"lon-2","host":"lon-1.uk.uncletopia.com","port":27025,"enabled":true,"region":"eu","cc":"gb","latitude":51.509865,"longitude":-0.118092,"reserved":0,"last_update":"0001-01-01T00:00:00Z","name_a2s":"Uncletopia | London | 2 | All Maps","protocol":17,"map":"pl_pier","folder":"tf","game":"Team Fortress","app_id":440,"player_count":15,"max_players":24,"Bots":0,"server_type":"Dedicated","server_os":"Linux","password":true,"vac":true,"version":"7723704","steam_id":85568392924470941,"keywords":["nocrits","nodmgspread","payload","uncletopia"],"game_id":440,"stv_port":27026,"stv_name":"Uncletopia | London | 2 | All Maps | STV","players":[{"user_id":147,"name":"kritzspam harder better faster","steam_id":76561198378235611,"connected_time":136000000000,"state":"connecting","ping":105},{"user_id":144,"name":"Uncle Lame","steam_id":76561198089003514,"connected_time":668000000000,"state":"connecting","ping":78},{"user_id":120,"name":"name","steam_id":76561198152620745,"connected_time":2879000000000,"state":"connecting","ping":57},{"user_id":121,"name":"firenickblood","steam_id":76561199302529256,"connected_time":2867000000000,"state":"connecting","ping":79},{"user_id":101,"name":"|20BB)\u003eMach","steam_id":76561198952487564,"connected_time":5211000000000,"state":"connecting","ping":105},{"user_id":40,"name":"Krismas","steam_id":76561198021772843,"connected_time":8136000000000,"state":"connecting","ping":72},{"user_id":135,"name":"Frothy Milkshake™","steam_id":76561198058727934,"connected_time":1142000000000,"state":"connecting","ping":67},{"user_id":132,"name":".Aq","steam_id":76561198043376092,"connected_time":1435000000000,"state":"connecting","ping":116},{"user_id":46,"name":"Frazzles","steam_id":76561199228009586,"connected_time":7961000000000,"state":"connecting","ping":65},{"user_id":75,"name":"Aspartus","steam_id":76561198101385763,"connected_time":6754000000000,"state":"connecting","ping":64},{"user_id":130,"name":"Cum flicker","steam_id":76561198304771597,"connected_time":2185000000000,"state":"connecting","ping":99},{"user_id":143,"name":"Persephone \u003c3","steam_id":76561198045694137,"connected_time":678000000000,"state":"connecting","ping":85},{"user_id":137,"name":"R A S M U S","steam_id":76561198279799226,"connected_time":1100000000000,"state":"connecting","ping":85},{"user_id":145,"name":"zero","steam_id":76561198055365234,"connected_time":295000000000,"state":"connecting","ping":98},{"user_id":140,"name":"dotdotdot","steam_id":76561198057628751,"connected_time":1036000000000,"state":"connecting","ping":78}]},{"server_id":320,"name":"Uncletopia | London | 3 | All Maps","name_short":"lon-3","host":"lon-1.uk.uncletopia.com","port":27035,"enabled":true,"region":"eu","cc":"gb","latitude":51.509865,"longitude":-0.118092,"reserved":0,"last_update":"0001-01-01T00:00:00Z","name_a2s":"Uncletopia | London | 3 | All Maps","protocol":17,"map":"cp_snakewater_final1","folder":"tf","game":"Team Fortress","app_id":440,"player_count":0,"max_players":24,"Bots":0,"server_type":"Dedicated","server_os":"Linux","password":true,"vac":true,"version":"7723704","steam_id":85568392924510192,"keywords":["cp","nocrits","nodmgspread","uncletopia"],"game_id":440,"stv_port":27036,"stv_name":"Uncletopia | London | 3 | All Maps | STV","players":null},{"server_id":321,"name":"Uncletopia | London | 4 | All Maps","name_short":"lon-4","host":"lon-1.uk.uncletopia.com","port":27045,"enabled":true,"region":"eu","cc":"gb","latitude":51.509865,"longitude":-0.118092,"reserved":0,"last_update":"0001-01-01T00:00:00Z","name_a2s":"Uncletopia | London | 4 | All Maps","protocol":17,"map":"cp_dustbowl","folder":"tf","game":"Team Fortress","app_id":440,"player_count":0,"max_players":24,"Bots":0,"server_type":"Dedicated","server_os":"Linux","password":true,"vac":true,"version":"7723704","steam_id":85568392924510193,"keywords":["cp","nocrits","nodmgspread","uncletopia"],"game_id":440,"stv_port":27046,"stv_name":"Uncletopia | London | 4 | All Maps | STV","players":null},{"server_id":21,"name":"Uncletopia | London | 5 | All Maps","name_short":"lon-5","host":"lon-1.uk.uncletopia.com","port":27055,"enabled":true,"region":"eu","cc":"gb","latitude":51.509865,"longitude":-0.118092,"reserved":0,"last_update":"0001-01-01T00:00:00Z","name_a2s":"Uncletopia | London | 5 | All Maps","protocol":17,"map":"koth_lakeside_final","folder":"tf","game":"Team Fortress","app_id":440,"player_count":0,"max_players":24,"Bots":0,"server_type":"Dedicated","server_os":"Linux","password":true,"vac":true,"version":"7723704","steam_id":85568392924742829,"keywords":["cp","nocrits","nodmgspread","uncletopia"],"game_id":440,"stv_port":27056,"stv_name":"Uncletopia | London | 5 | All Maps | STV","players":null},{"server_id":22,"name":"Uncletopia | London | 6 | All Maps","name_short":"lon-6","host":"lon-1.uk.uncletopia.com","port":27065,"enabled":true,"region":"eu","cc":"gb","latitude":51.509865,"longitude":-0.118092,"reserved":0,"last_update":"0001-01-01T00:00:00Z","name_a2s":"Uncletopia | London | 6 | All Maps","protocol":17,"map":"koth_viaduct","folder":"tf","game":"Team Fortress","app_id":440,"player_count":19,"max_players":24,"Bots":0,"server_type":"Dedicated","server_os":"Linux","password":true,"vac":true,"version":"7723704","steam_id":85568392924742830,"keywords":["cp","nocrits","nodmgspread","uncletopia"],"game_id":440,"stv_port":27066,"stv_name":"Uncletopia | London | 6 | All Maps | STV","players":[{"user_id":227,"name":"Clitorina","steam_id":76561198077570815,"connected_time":2424000000000,"state":"active","ping":39},{"user_id":240,"name":"Cpt. Spice","steam_id":76561198002278580,"connected_time":1629000000000,"state":"active","ping":65},{"user_id":221,"name":"Kurage","steam_id":76561198021221288,"connected_time":2874000000000,"state":"active","ping":70},{"user_id":265,"name":"Pinkchup","steam_id":76561198106802803,"connected_time":152000000000,"state":"active","ping":75},{"user_id":256,"name":"The Terminator","steam_id":76561198027307745,"connected_time":965000000000,"state":"active","ping":47},{"user_id":262,"name":"LasagnaLarry22","steam_id":76561198089478290,"connected_time":339000000000,"state":"active","ping":42},{"user_id":246,"name":"Diamhair","steam_id":76561198109020178,"connected_time":1214000000000,"state":"active","ping":57},{"user_id":263,"name":"Salesman","steam_id":76561198045527771,"connected_time":292000000000,"state":"active","ping":50},{"user_id":257,"name":"IceWolf","steam_id":76561198134807461,"connected_time":951000000000,"state":"active","ping":84},{"user_id":194,"name":"Scrubbey","steam_id":76561197962091948,"connected_time":3705000000000,"state":"active","ping":60},{"user_id":261,"name":"Sir_LewdCow","steam_id":76561198200079686,"connected_time":484000000000,"state":"active","ping":44},{"user_id":259,"name":"Pauler le one","steam_id":76561198398152855,"connected_time":749000000000,"state":"active","ping":91},{"user_id":245,"name":"Max Andrew","steam_id":76561198158955194,"connected_time":1253000000000,"state":"active","ping":57},{"user_id":250,"name":"MyDude","steam_id":76561198795433411,"connected_time":1138000000000,"state":"active","ping":96},{"user_id":260,"name":"SillyPantalones","steam_id":76561198012001764,"connected_time":485000000000,"state":"active","ping":95},{"user_id":252,"name":"[MNI]Dazed\u0026Confused666","steam_id":76561198015151235,"connected_time":1101000000000,"state":"active","ping":48},{"user_id":253,"name":"MeBandae","steam_id":76561198910770432,"connected_time":1092000000000,"state":"active","ping":66},{"user_id":255,"name":"SuntanPikachu","steam_id":76561198121242476,"connected_time":993000000000,"state":"active","ping":79},{"user_id":243,"name":"öööö✪","steam_id":76561198181645822,"connected_time":1492000000000,"state":"active","ping":92}]},{"server_id":40,"name":"Uncletopia | London | 7 | No Payload","name_short":"lon-7","host":"lon-1.uk.uncletopia.com","port":27075,"enabled":true,"region":"eu","cc":"gb","latitude":51.509865,"longitude":-0.118092,"reserved":0,"last_update":"0001-01-01T00:00:00Z","name_a2s":"Uncletopia | London | 7 | No Payload","protocol":17,"map":"koth_cascade","folder":"tf","game":"Team Fortress","app_id":440,"player_count":0,"max_players":24,"Bots":0,"server_type":"Dedicated","server_os":"Linux","password":true,"vac":true,"version":"7723704","steam_id":85568392924964314,"keywords":["cp","nocrits","nodmgspread","uncletopia"],"game_id":440,"stv_port":27076,"stv_name":"Uncletopia | London | 7 | No Payload | STV","players":null},{"server_id":41,"name":"Uncletopia | London | 8 | Community","name_short":"lon-8","host":"lon-1.uk.uncletopia.com","port":27085,"enabled":true,"region":"eu","cc":"gb","latitude":51.509865,"longitude":-0.118092,"reserved":0,"last_update":"0001-01-01T00:00:00Z","name_a2s":"Uncletopia | London | 8 | Community","protocol":17,"map":"workshop/koth_ramjam_v2_b2.ugc2865676487","folder":"tf","game":"Team Fortress","app_id":440,"player_count":0,"max_players":24,"Bots":0,"server_type":"Dedicated","server_os":"Linux","password":true,"vac":true,"version":"7723704","steam_id":85568392924964315,"keywords":["cp","nocrits","nodmgspread","uncletopia"],"game_id":440,"stv_port":27086,"stv_name":"Uncletopia | London | 8 | Community | STV","players":null},{"server_id":300,"name":"Uncletopia | Montréal | 1 | All Maps","name_short":"mtl-1","host":"mtl-1.ca.uncletopia.com","port":27015,"enabled":true,"region":"us-east","cc":"ca","latitude":45.50889,"longitude":-73.56167,"reserved":0,"last_update":"0001-01-01T00:00:00Z","name_a2s":"Uncletopia | Montréal | 1 | All Maps","protocol":17,"map":"cp_mountainlab","folder":"tf","game":"Team Fortress","app_id":440,"player_count":0,"max_players":24,"Bots":0,"server_type":"Dedicated","server_os":"Linux","password":true,"vac":true,"version":"7723704","steam_id":85568392924500087,"keywords":["cp","nocrits","nodmgspread","uncletopia"],"game_id":440,"stv_port":27016,"stv_name":"Uncletopia | Montréal | 1 | All Maps | STV","players":null},{"server_id":301,"name":"Uncletopia | Montréal | 2 | All Maps","name_short":"mtl-2","host":"mtl-1.ca.uncletopia.com","port":27025,"enabled":true,"region":"us-east","cc":"ca","latitude":45.50889,"longitude":-73.56167,"reserved":0,"last_update":"0001-01-01T00:00:00Z","name_a2s":"Uncletopia | Montréal | 2 | All Maps","protocol":17,"map":"cp_sunshine","folder":"tf","game":"Team Fortress","app_id":440,"player_count":0,"max_players":24,"Bots":0,"server_type":"Dedicated","server_os":"Linux","password":true,"vac":true,"version":"7723704","steam_id":85568392924500088,"keywords":["cp","nocrits","nodmgspread","uncletopia"],"game_id":440,"stv_port":27026,"stv_name":"Uncletopia | Montréal | 2 | All Maps | STV","players":null},{"server_id":302,"name":"Uncletopia | Montréal | 3 | All Maps","name_short":"mtl-3","host":"mtl-1.ca.uncletopia.com","port":27035,"enabled":true,"region":"us-east","cc":"ca","latitude":45.50889,"longitude":-73.56167,"reserved":0,"last_update":"0001-01-01T00:00:00Z","name_a2s":"Uncletopia | Montréal | 3 | All Maps","protocol":17,"map":"cp_dustbowl","folder":"tf","game":"Team Fortress","app_id":440,"player_count":0,"max_players":24,"Bots":0,"server_type":"Dedicated","server_os":"Linux","password":true,"vac":true,"version":"7723704","steam_id":85568392924500089,"keywords":["cp","nocrits","nodmgspread","uncletopia"],"game_id":440,"stv_port":27036,"stv_name":"Uncletopia | Montréal | 3 | All Maps | STV","players":null},{"server_id":303,"name":"Uncletopia | Montréal | 4 | No Payload","name_short":"mtl-4","host":"mtl-1.ca.uncletopia.com","port":27045,"enabled":true,"region":"us-east","cc":"ca","latitude":45.50889,"longitude":-73.56167,"reserved":0,"last_update":"0001-01-01T00:00:00Z","name_a2s":"Uncletopia | Montréal | 4 | No Payload","protocol":17,"map":"koth_nucleus","folder":"tf","game":"Team Fortress","app_id":440,"player_count":0,"max_players":24,"Bots":0,"server_type":"Dedicated","server_os":"Linux","password":true,"vac":true,"version":"7723704","steam_id":85568392924500090,"keywords":["cp","nocrits","nodmgspread","uncletopia"],"game_id":440,"stv_port":27046,"stv_name":"Uncletopia | Montréal | 4 | No Payload | STV","players":null},{"server_id":13,"name":"Uncletopia | New York City | 1 | All Maps","name_short":"nyc-1","host":"nyc-1.us.uncletopia.com","port":27015,"enabled":true,"region":"us-east","cc":"us","latitude":40.73061,"longitude":-73.93524,"reserved":0,"last_update":"0001-01-01T00:00:00Z","name_a2s":"Uncletopia | New York City | 1 | All Maps","protocol":17,"map":"pl_upward","folder":"tf","game":"Team Fortress","app_id":440,"player_count":21,"max_players":24,"Bots":0,"server_type":"Dedicated","server_os":"Linux","password":true,"vac":true,"version":"7723704","steam_id":85568392924469993,"keywords":["nocrits","nodmgspread","payload","uncletopia"],"game_id":440,"stv_port":27016,"stv_name":"Uncletopia | New York City | 1 | All Maps | STV","players":[{"user_id":223,"name":"OddShadow","steam_id":76561199230502274,"connected_time":3878000000000,"state":"active","ping":95},{"user_id":244,"name":"SE X","steam_id":76561198094525829,"connected_time":2734000000000,"state":"active","ping":55},{"user_id":276,"name":"ungr8t","steam_id":76561198063521721,"connected_time":205000000000,"state":"active","ping":94},{"user_id":277,"name":"Myn","steam_id":76561198055438857,"connected_time":173000000000,"state":"active","ping":66},{"user_id":264,"name":"BaguetteThief","steam_id":76561197962257656,"connected_time":1467000000000,"state":"active","ping":61},{"user_id":273,"name":"Bart simpson","steam_id":76561198380666998,"connected_time":699000000000,"state":"active","ping":109},{"user_id":278,"name":"stunt or die","steam_id":76561198449857428,"connected_time":127000000000,"state":"active","ping":49},{"user_id":279,"name":"Sleepy Brady","steam_id":76561198867378129,"connected_time":91000000000,"state":"active","ping":81},{"user_id":256,"name":"CHKR","steam_id":76561198366790166,"connected_time":1938000000000,"state":"active","ping":44},{"user_id":271,"name":"Gamer Man","steam_id":76561198983776208,"connected_time":730000000000,"state":"active","ping":57},{"user_id":274,"name":"ryssaleigh.mc","steam_id":76561199163270868,"connected_time":597000000000,"state":"active","ping":68},{"user_id":280,"name":"doomsday gaming","steam_id":76561198348308711,"connected_time":24000000000,"state":"active","ping":54},{"user_id":245,"name":"holden ford","steam_id":76561198124810219,"connected_time":2685000000000,"state":"active","ping":105},{"user_id":259,"name":"Young-OG","steam_id":76561198058800479,"connected_time":1775000000000,"state":"active","ping":86},{"user_id":281,"name":"Asanez3","steam_id":76561198037381436,"connected_time":18000000000,"state":"active","ping":57},{"user_id":272,"name":"Fudge_Cake","steam_id":76561198059218167,"connected_time":728000000000,"state":"active","ping":81},{"user_id":247,"name":"Genuine_Angus_B33F","steam_id":76561198115577047,"connected_time":2436000000000,"state":"active","ping":57},{"user_id":243,"name":"Horse","steam_id":76561199112075552,"connected_time":2938000000000,"state":"active","ping":53},{"user_id":251,"name":"Ballin \u0026 Can't Get Up","steam_id":76561198047394013,"connected_time":2105000000000,"state":"active","ping":68},{"user_id":242,"name":"meowfang","steam_id":76561198123056791,"connected_time":2960000000000,"state":"active","ping":48},{"user_id":263,"name":"tabbymei","steam_id":76561199437351945,"connected_time":1546000000000,"state":"active","ping":78}]},{"server_id":14,"name":"Uncletopia | New York City | 2 | All Maps","name_short":"nyc-2","host":"nyc-1.us.uncletopia.com","port":27025,"enabled":true,"region":"us-east","cc":"us","latitude":40.73061,"longitude":-73.93524,"reserved":0,"last_update":"0001-01-01T00:00:00Z","name_a2s":"Uncletopia | New York City | 2 | All Maps","protocol":17,"map":"pl_upward","folder":"tf","game":"Team Fortress","app_id":440,"player_count":24,"max_players":24,"Bots":0,"server_type":"Dedicated","server_os":"Linux","password":true,"vac":true,"version":"7723704","steam_id":85568392924469994,"keywords":["nocrits","nodmgspread","payload","uncletopia"],"game_id":440,"stv_port":27026,"stv_name":"Uncletopia | New York City | 2 | All Maps | STV","players":[{"user_id":64,"name":"Vobo","steam_id":76561199159418598,"connected_time":285000000000,"state":"active","ping":131},{"user_id":60,"name":"sansa musa","steam_id":76561198163723555,"connected_time":504000000000,"state":"active","ping":58},{"user_id":62,"name":"Omeg123","steam_id":76561198101234232,"connected_time":418000000000,"state":"active","ping":53},{"user_id":30,"name":"Froggie.","steam_id":76561198059098649,"connected_time":1695000000000,"state":"active","ping":64},{"user_id":28,"name":"cedarisnotbook","steam_id":76561198356522924,"connected_time":1714000000000,"state":"active","ping":64},{"user_id":11,"name":"crunchy and spicy wasp snack","steam_id":76561199322728703,"connected_time":4160000000000,"state":"active","ping":57},{"user_id":71,"name":"Sharper Spoon","steam_id":76561198877130687,"connected_time":46000000000,"state":"active","ping":89},{"user_id":32,"name":"Slondermin","steam_id":76561198320301349,"connected_time":1645000000000,"state":"active","ping":50},{"user_id":19,"name":"M249 | Spectre","steam_id":76561198118334485,"connected_time":2229000000000,"state":"active","ping":73},{"user_id":55,"name":"BB Lorexav","steam_id":76561198207565988,"connected_time":687000000000,"state":"active","ping":72},{"user_id":59,"name":"Avg. Hastune Miku enjoyer","steam_id":76561198055970193,"connected_time":584000000000,"state":"active","ping":43},{"user_id":65,"name":"Goku™ From Disney©","steam_id":76561198015327152,"connected_time":251000000000,"state":"active","ping":42},{"user_id":49,"name":"Teidan","steam_id":76561198391486271,"connected_time":1223000000000,"state":"active","ping":100},{"user_id":27,"name":"GuyGoom","steam_id":76561198254522178,"connected_time":1852000000000,"state":"active","ping":74},{"user_id":56,"name":"Chronos","steam_id":76561198126625623,"connected_time":678000000000,"state":"active","ping":65},{"user_id":57,"name":"medic bag enjoyer","steam_id":76561198958115026,"connected_time":669000000000,"state":"active","ping":71},{"user_id":58,"name":"coffee bagel","steam_id":76561198141198352,"connected_time":667000000000,"state":"active","ping":62},{"user_id":66,"name":"festive klevin","steam_id":76561198799106535,"connected_time":229000000000,"state":"active","ping":114},{"user_id":67,"name":"AceofSpadesCard","steam_id":76561197992403458,"connected_time":227000000000,"state":"active","ping":81},{"user_id":40,"name":"nhbiker","steam_id":76561198081277675,"connected_time":1382000000000,"state":"active","ping":45},{"user_id":70,"name":"Ladd","steam_id":76561198868542660,"connected_time":82000000000,"state":"active","ping":80},{"user_id":68,"name":"A Glazed Donut","steam_id":76561198297536267,"connected_time":189000000000,"state":"active","ping":123},{"user_id":44,"name":"็","steam_id":76561199372405984,"connected_time":1335000000000,"state":"active","ping":112},{"user_id":69,"name":"PeopleOrderOurPatties","steam_id":76561198323144922,"connected_time":182000000000,"state":"active","ping":70}]},{"server_id":15,"name":"Uncletopia | New York City | 3 | All Maps","name_short":"nyc-3","host":"nyc-1.us.uncletopia.com","port":27035,"enabled":true,"region":"us-east","cc":"us","latitude":40.73061,"longitude":-73.93524,"reserved":0,"last_update":"0001-01-01T00:00:00Z","name_a2s":"Uncletopia | New York City | 3 | All Maps","protocol":17,"map":"cp_altitude","folder":"tf","game":"Team Fortress","app_id":440,"player_count":1,"max_players":24,"Bots":0,"server_type":"Dedicated","server_os":"Linux","password":true,"vac":true,"version":"7723704","steam_id":85568392924742820,"keywords":["cp","nocrits","nodmgspread","uncletopia"],"game_id":440,"stv_port":27036,"stv_name":"Uncletopia | New York City | 3 | All Maps | STV","players":[{"user_id":5,"name":"BFRXCRPGFHANZUX","steam_id":76561199065983842,"connected_time":479000000000,"state":"active","ping":94}]},{"server_id":16,"name":"Uncletopia | New York City | 4 | Community","name_short":"nyc-4","host":"nyc-1.us.uncletopia.com","port":27045,"enabled":true,"region":"us-east","cc":"us","latitude":40.73061,"longitude":-73.93524,"reserved":0,"last_update":"0001-01-01T00:00:00Z","name_a2s":"Uncletopia | New York City | 4 | Community","protocol":17,"map":"workshop/koth_product_final.ugc454272353","folder":"tf","game":"Team Fortress","app_id":440,"player_count":0,"max_players":24,"Bots":0,"server_type":"Dedicated","server_os":"Linux","password":true,"vac":true,"version":"7723704","steam_id":85568392924742821,"keywords":["cp","nocrits","nodmgspread","uncletopia"],"game_id":440,"stv_port":27046,"stv_name":"Uncletopia | New York City | 4 | Community | STV","players":null},{"server_id":142,"name":"Uncletopia | São Paulo | 1 | All Maps","name_short":"sao-1","host":"sao-1.br.uncletopia.com","port":27015,"enabled":true,"region":"sa","cc":"br","latitude":-23.533773,"longitude":-46.62529,"reserved":0,"last_update":"0001-01-01T00:00:00Z","name_a2s":"Uncletopia | São Paulo | 1 | All Maps","protocol":17,"map":"pl_snowycoast","folder":"tf","game":"Team Fortress","app_id":440,"player_count":24,"max_players":24,"Bots":0,"server_type":"Dedicated","server_os":"Linux","password":true,"vac":true,"version":"7723704","steam_id":85568392924469996,"keywords":["nocrits","nodmgspread","payload","uncletopia"],"game_id":440,"stv_port":27016,"stv_name":"Uncletopia | São Paulo | 1 | All Maps | STV","players":[{"user_id":112,"name":"YekkuUwU","steam_id":76561199349215012,"connected_time":1110000000000,"state":"active","ping":43},{"user_id":120,"name":"[EIST] milanesa2013","steam_id":76561198126042757,"connected_time":679000000000,"state":"active","ping":96},{"user_id":41,"name":"Zoom!","steam_id":76561198289562649,"connected_time":5341000000000,"state":"active","ping":45},{"user_id":105,"name":"Emisu","steam_id":76561198278086794,"connected_time":1599000000000,"state":"active","ping":67},{"user_id":39,"name":"Lan","steam_id":76561198263163492,"connected_time":5635000000000,"state":"active","ping":63},{"user_id":42,"name":"Taka Okunavara","steam_id":76561198055681296,"connected_time":5314000000000,"state":"active","ping":84},{"user_id":125,"name":"delta","steam_id":76561198288966901,"connected_time":113000000000,"state":"active","ping":52},{"user_id":97,"name":"Stalin","steam_id":76561198073356694,"connected_time":2048000000000,"state":"active","ping":66},{"user_id":116,"name":"---------------------------jao","steam_id":76561198408082822,"connected_time":943000000000,"state":"active","ping":45},{"user_id":114,"name":"Daelm","steam_id":76561198063381258,"connected_time":1018000000000,"state":"active","ping":43},{"user_id":76,"name":"siirtyaoliveira","steam_id":76561199176805537,"connected_time":2936000000000,"state":"active","ping":48},{"user_id":123,"name":"zReaperBR","steam_id":76561198430902334,"connected_time":580000000000,"state":"active","ping":64},{"user_id":64,"name":"burghley","steam_id":76561199148843299,"connected_time":3769000000000,"state":"active","ping":87},{"user_id":73,"name":"ohStucky","steam_id":76561198136845622,"connected_time":3214000000000,"state":"active","ping":54},{"user_id":45,"name":"Sanches","steam_id":76561198006932156,"connected_time":5252000000000,"state":"active","ping":85},{"user_id":46,"name":"manihoT","steam_id":76561198298416173,"connected_time":5213000000000,"state":"active","ping":107},{"user_id":47,"name":"V̴̢̘͕͛̒̓_Rupt","steam_id":76561198056688070,"connected_time":5179000000000,"state":"active","ping":59},{"user_id":107,"name":"vinisaurus","steam_id":76561198112127509,"connected_time":1287000000000,"state":"active","ping":68},{"user_id":124,"name":"ayumi","steam_id":76561197977365746,"connected_time":275000000000,"state":"active","ping":45},{"user_id":83,"name":"Jumpman","steam_id":76561198069655588,"connected_time":2723000000000,"state":"active","ping":109},{"user_id":95,"name":"NenF | Yatosemtato","steam_id":76561199066360306,"connected_time":2319000000000,"state":"active","ping":75},{"user_id":98,"name":"Vic Rattlehead","steam_id":76561199232899925,"connected_time":1994000000000,"state":"active","ping":58},{"user_id":117,"name":"Perão","steam_id":76561198044655726,"connected_time":921000000000,"state":"active","ping":56},{"user_id":109,"name":"CHAOSzeraas","steam_id":76561198045068934,"connected_time":1188000000000,"state":"active","ping":45}]},{"server_id":143,"name":"Uncletopia | São Paulo | 2 | All Maps","name_short":"sao-2","host":"sao-2.br.uncletopia.com","port":27015,"enabled":true,"region":"sa","cc":"br","latitude":-23.533773,"longitude":-46.62529,"reserved":0,"last_update":"0001-01-01T00:00:00Z","name_a2s":"Uncletopia | São Paulo | 2 | All Maps","protocol":17,"map":"cp_mountainlab","folder":"tf","game":"Team Fortress","app_id":440,"player_count":0,"max_players":24,"Bots":0,"server_type":"Dedicated","server_os":"Linux","password":true,"vac":true,"version":"7723704","steam_id":85568392924485349,"keywords":["cp","nocrits","nodmgspread","uncletopia"],"game_id":440,"stv_port":27016,"stv_name":"Uncletopia | São Paulo | 2 | All Maps | STV","players":null},{"server_id":7,"name":"Uncletopia | Seattle | 1 | All Maps","name_short":"sea-1","host":"sea-1.us.uncletopia.com","port":27015,"enabled":true,"region":"us-west","cc":"us","latitude":47.608013,"longitude":-122.33517,"reserved":0,"last_update":"0001-01-01T00:00:00Z","name_a2s":"Uncletopia | Seattle | 1 | All Maps","protocol":17,"map":"pl_badwater","folder":"tf","game":"Team Fortress","app_id":440,"player_count":24,"max_players":24,"Bots":0,"server_type":"Dedicated","server_os":"Linux","password":true,"vac":true,"version":"7723704","steam_id":85568392924469997,"keywords":["nocrits","nodmgspread","payload","uncletopia"],"game_id":440,"stv_port":27016,"stv_name":"Uncletopia | Seattle | 1 | All Maps | STV","players":[{"user_id":72,"name":"The Collective","steam_id":76561198170423483,"connected_time":1072000000000,"state":"active","ping":124},{"user_id":21,"name":"flood_escape","steam_id":76561199228698404,"connected_time":2168000000000,"state":"active","ping":106},{"user_id":87,"name":"CrackedSanity","steam_id":76561198279841251,"connected_time":232000000000,"state":"active","ping":78},{"user_id":88,"name":"floppy muppet","steam_id":76561198003076261,"connected_time":121000000000,"state":"active","ping":144},{"user_id":16,"name":"chompmastr","steam_id":76561199121805899,"connected_time":2713000000000,"state":"active","ping":49},{"user_id":78,"name":"poogetisi","steam_id":76561198262572343,"connected_time":974000000000,"state":"active","ping":75},{"user_id":84,"name":"boo","steam_id":76561198046073848,"connected_time":445000000000,"state":"active","ping":49},{"user_id":89,"name":"RYMAXRULES","steam_id":76561198841603682,"connected_time":116000000000,"state":"active","ping":88},{"user_id":80,"name":"ivan","steam_id":76561199017754044,"connected_time":883000000000,"state":"active","ping":62},{"user_id":64,"name":"math","steam_id":76561198092542997,"connected_time":1286000000000,"state":"active","ping":108},{"user_id":90,"name":"Shark Sandwich","steam_id":76561198025007938,"connected_time":107000000000,"state":"active","ping":92},{"user_id":83,"name":"Lets dance to the real thing","steam_id":76561198175955138,"connected_time":489000000000,"state":"active","ping":79},{"user_id":27,"name":"ms. anthrope","steam_id":76561198063533082,"connected_time":1885000000000,"state":"active","ping":44},{"user_id":91,"name":"bleh","steam_id":76561198398383076,"connected_time":91000000000,"state":"active","ping":101},{"user_id":33,"name":"krootonitron","steam_id":76561198114113037,"connected_time":1756000000000,"state":"active","ping":61},{"user_id":31,"name":"Oomitch","steam_id":76561198071702759,"connected_time":1846000000000,"state":"active","ping":46},{"user_id":69,"name":"Person","steam_id":76561198073885832,"connected_time":1158000000000,"state":"active","ping":86},{"user_id":81,"name":"Strikerbolt","steam_id":76561199095622897,"connected_time":855000000000,"state":"active","ping":91},{"user_id":48,"name":"Honeybunch","steam_id":76561198014850580,"connected_time":1470000000000,"state":"active","ping":45},{"user_id":40,"name":"Gilgamesh","steam_id":76561198317113179,"connected_time":1644000000000,"state":"active","ping":104},{"user_id":41,"name":"Mr. Ruckus","steam_id":76561198339566190,"connected_time":1598000000000,"state":"active","ping":121},{"user_id":79,"name":"BleeboBleebo","steam_id":76561198151549658,"connected_time":966000000000,"state":"active","ping":123},{"user_id":71,"name":"Fribas","steam_id":76561198138502813,"connected_time":1098000000000,"state":"active","ping":135},{"user_id":63,"name":"Whorenet","steam_id":76561198090433209,"connected_time":1321000000000,"state":"active","ping":166}]},{"server_id":119,"name":"Uncletopia | Seattle | 2 | All Maps","name_short":"sea-2","host":"sea-1.us.uncletopia.com","port":27025,"enabled":true,"region":"us-west","cc":"us","latitude":47.608013,"longitude":-122.33517,"reserved":0,"last_update":"0001-01-01T00:00:00Z","name_a2s":"Uncletopia | Seattle | 2 | All Maps","protocol":17,"map":"koth_lakeside_final","folder":"tf","game":"Team Fortress","app_id":440,"player_count":3,"max_players":24,"Bots":0,"server_type":"Dedicated","server_os":"Linux","password":true,"vac":true,"version":"7723704","steam_id":85568392924469998,"keywords":["cp","nocrits","nodmgspread","uncletopia"],"game_id":440,"stv_port":27026,"stv_name":"Uncletopia | Seattle | 2 | All Maps | STV","players":[{"user_id":9,"name":"Lumi♡","steam_id":76561198133342164,"connected_time":1072000000000,"state":"active","ping":126},{"user_id":10,"name":"Reb","steam_id":76561198062752902,"connected_time":1039000000000,"state":"active","ping":44},{"user_id":11,"name":"Space bar ©","steam_id":76561199405318831,"connected_time":141000000000,"state":"active","ping":98}]},{"server_id":17,"name":"Uncletopia | San Francisco | 1 | All Maps","name_short":"sfo-1","host":"sfo-1.us.uncletopia.com","port":27015,"enabled":true,"region":"us-west","cc":"us","latitude":37.77397,"longitude":-122.4313,"reserved":0,"last_update":"0001-01-01T00:00:00Z","name_a2s":"Uncletopia | San Francisco | 1 | All Maps","protocol":17,"map":"koth_viaduct","folder":"tf","game":"Team Fortress","app_id":440,"player_count":0,"max_players":24,"Bots":0,"server_type":"Dedicated","server_os":"Linux","password":true,"vac":true,"version":"7723704","steam_id":85568392924469999,"keywords":["cp","nocrits","nodmgspread","uncletopia"],"game_id":440,"stv_port":27016,"stv_name":"Uncletopia | San Francisco | 1 | All Maps | STV","players":null},{"server_id":18,"name":"Uncletopia | San Francisco | 2 | All Maps","name_short":"sfo-2","host":"sfo-1.us.uncletopia.com","port":27025,"enabled":true,"region":"us-west","cc":"us","latitude":37.77397,"longitude":-122.4313,"reserved":0,"last_update":"0001-01-01T00:00:00Z","name_a2s":"Uncletopia | San Francisco | 2 | All Maps","protocol":17,"map":"cp_dustbowl","folder":"tf","game":"Team Fortress","app_id":440,"player_count":0,"max_players":24,"Bots":0,"server_type":"Dedicated","server_os":"Linux","password":true,"vac":true,"version":"7723704","steam_id":85568392924470000,"keywords":["cp","nocrits","nodmgspread","uncletopia"],"game_id":440,"stv_port":27026,"stv_name":"Uncletopia | San Francisco | 2 | All Maps | STV","players":null},{"server_id":19,"name":"Uncletopia | San Francisco | 3 | No Payload","name_short":"sfo-3","host":"sfo-1.us.uncletopia.com","port":27035,"enabled":true,"region":"us-west","cc":"us","latitude":37.77397,"longitude":-122.4313,"reserved":0,"last_update":"0001-01-01T00:00:00Z","name_a2s":"Uncletopia | San Francisco | 3 | No Payload","protocol":17,"map":"cp_mercenarypark","folder":"tf","game":"Team Fortress","app_id":440,"player_count":0,"max_players":24,"Bots":0,"server_type":"Dedicated","server_os":"Linux","password":true,"vac":true,"version":"7723704","steam_id":85568392924742824,"keywords":["cp","nocrits","nodmgspread","uncletopia"],"game_id":440,"stv_port":27036,"stv_name":"Uncletopia | San Francisco | 3 | No Payload | STV","players":null},{"server_id":20,"name":"Uncletopia | San Francisco | 4 | Community","name_short":"sfo-4","host":"sfo-1.us.uncletopia.com","port":27045,"enabled":true,"region":"us-west","cc":"us","latitude":37.77397,"longitude":-122.4313,"reserved":0,"last_update":"0001-01-01T00:00:00Z","name_a2s":"Uncletopia | San Francisco | 4 | Community","protocol":17,"map":"workshop/pl_cactuscanyon_redux_rc4b.ugc2579644293","folder":"tf","game":"Team Fortress","app_id":440,"player_count":22,"max_players":24,"Bots":0,"server_type":"Dedicated","server_os":"Linux","password":true,"vac":true,"version":"7723704","steam_id":85568392924742826,"keywords":["nocrits","nodmgspread","payload","uncletopia"],"game_id":440,"stv_port":27046,"stv_name":"Uncletopia | San Francisco | 4 | Community | STV","players":[{"user_id":103,"name":"The Sinister Potion","steam_id":76561198131280715,"connected_time":1530000000000,"state":"active","ping":125},{"user_id":122,"name":"Marv_L","steam_id":76561198035709541,"connected_time":651000000000,"state":"active","ping":48},{"user_id":61,"name":"Frank Accardi","steam_id":76561198017275707,"connected_time":3938000000000,"state":"active","ping":69},{"user_id":64,"name":"Cactus™ ♥","steam_id":76561198036441270,"connected_time":3632000000000,"state":"active","ping":118},{"user_id":91,"name":"dodecadron","steam_id":76561198027397222,"connected_time":2375000000000,"state":"active","ping":87},{"user_id":14,"name":"oo","steam_id":76561198119626492,"connected_time":7492000000000,"state":"active","ping":115},{"user_id":120,"name":"Coolidge","steam_id":76561198352198467,"connected_time":846000000000,"state":"active","ping":84},{"user_id":121,"name":"earthbound393","steam_id":76561199444276547,"connected_time":834000000000,"state":"active","ping":142},{"user_id":106,"name":"Hindmost","steam_id":76561199081837220,"connected_time":1415000000000,"state":"active","ping":90},{"user_id":131,"name":"Cletus","steam_id":76561198065529310,"connected_time":118000000000,"state":"active","ping":71},{"user_id":111,"name":"EatSomeBEES","steam_id":76561198047334307,"connected_time":1310000000000,"state":"active","ping":61},{"user_id":127,"name":"grumbo","steam_id":76561198428029447,"connected_time":238000000000,"state":"active","ping":47},{"user_id":52,"name":"oil","steam_id":76561198099980149,"connected_time":4605000000000,"state":"active","ping":49},{"user_id":92,"name":"holymoly1645 TWITCH","steam_id":76561198079009899,"connected_time":2362000000000,"state":"active","ping":68},{"user_id":130,"name":"just jazz","steam_id":76561198010637797,"connected_time":139000000000,"state":"active","ping":146},{"user_id":128,"name":"Team Fortress 2","steam_id":76561198334059206,"connected_time":232000000000,"state":"active","ping":59},{"user_id":57,"name":"aeseu","steam_id":76561198066319618,"connected_time":4372000000000,"state":"active","ping":103},{"user_id":132,"name":"Toasterduds","steam_id":76561198163477584,"connected_time":33000000000,"state":"active","ping":59},{"user_id":82,"name":"Daddy","steam_id":76561199380536155,"connected_time":2555000000000,"state":"active","ping":119},{"user_id":51,"name":"nAk","steam_id":76561198151387942,"connected_time":4801000000000,"state":"active","ping":54},{"user_id":129,"name":"ehs","steam_id":76561198431048339,"connected_time":223000000000,"state":"active","ping":52},{"user_id":50,"name":"Sex Haver","steam_id":76561198168989022,"connected_time":4846000000000,"state":"active","ping":53}]},{"server_id":141,"name":"Uncletopia | Sydney | 1 | All Maps","name_short":"syd-1","host":"syd-1.au.uncletopia.com","port":27015,"enabled":true,"region":"au","cc":"au","latitude":-33.865143,"longitude":151.2099,"reserved":0,"last_update":"0001-01-01T00:00:00Z","name_a2s":"Uncletopia | Sydney | 1 | All Maps","protocol":17,"map":"pl_wutville_event","folder":"tf","game":"Team Fortress","app_id":440,"player_count":2,"max_players":24,"Bots":0,"server_type":"Dedicated","server_os":"Linux","password":true,"vac":true,"version":"7723704","steam_id":85568392924470001,"keywords":["nocrits","nodmgspread","payload","uncletopia"],"game_id":440,"stv_port":27016,"stv_name":"Uncletopia | Sydney | 1 | All Maps | STV","players":[{"user_id":5,"name":"Winky","steam_id":76561199059450243,"connected_time":148000000000,"state":"active","ping":43},{"user_id":6,"name":"b","steam_id":76561199102724122,"connected_time":107000000000,"state":"active","ping":127}]},{"server_id":123,"name":"Uncletopia | Sydney | 2 | All Maps","name_short":"syd-2","host":"syd-1.au.uncletopia.com","port":27025,"enabled":true,"region":"au","cc":"au","latitude":-33.865143,"longitude":151.2099,"reserved":0,"last_update":"0001-01-01T00:00:00Z","name_a2s":"Uncletopia | Sydney | 2 | All Maps","protocol":17,"map":"pl_wutville_event","folder":"tf","game":"Team Fortress","app_id":440,"player_count":0,"max_players":24,"Bots":0,"server_type":"Dedicated","server_os":"Linux","password":true,"vac":true,"version":"7723704","steam_id":85568392924470002,"keywords":["nocrits","nodmgspread","payload","uncletopia"],"game_id":440,"stv_port":27026,"stv_name":"Uncletopia | Sydney | 2 | All Maps | STV","players":null},{"server_id":395,"name":"Uncletopia | Sydney | 3 | All Maps","name_short":"syd-3","host":"syd-1.au.uncletopia.com","port":27035,"enabled":true,"region":"au","cc":"au","latitude":-33.865143,"longitude":151.2099,"reserved":0,"last_update":"0001-01-01T00:00:00Z","name_a2s":"Uncletopia | Sydney | 3 | All Maps","protocol":17,"map":"pl_wutville_event","folder":"tf","game":"Team Fortress","app_id":440,"player_count":0,"max_players":24,"Bots":0,"server_type":"Dedicated","server_os":"Linux","password":true,"vac":true,"version":"7723704","steam_id":85568392925194467,"keywords":["nocrits","nodmgspread","payload","uncletopia"],"game_id":440,"stv_port":27036,"stv_name":"Uncletopia | Sydney | 3 | All Maps | STV","players":null},{"server_id":396,"name":"Uncletopia | Sydney | 4 | All Maps","name_short":"syd-4","host":"syd-1.au.uncletopia.com","port":27045,"enabled":true,"region":"au","cc":"au","latitude":-33.865143,"longitude":151.2099,"reserved":0,"last_update":"0001-01-01T00:00:00Z","name_a2s":"Uncletopia | Sydney | 4 | All Maps","protocol":17,"map":"pl_wutville_event","folder":"tf","game":"Team Fortress","app_id":440,"player_count":0,"max_players":24,"Bots":0,"server_type":"Dedicated","server_os":"Linux","password":true,"vac":true,"version":"7723704","steam_id":85568392925397958,"keywords":["nocrits","nodmgspread","payload","uncletopia"],"game_id":440,"stv_port":27046,"stv_name":"Uncletopia | Sydney | 4 | All Maps | STV","players":null},{"server_id":58,"name":"Uncletopia | Sydney | 5 | No Payload","name_short":"syd-5","host":"syd-1.au.uncletopia.com","port":27055,"enabled":true,"region":"au","cc":"au","latitude":-33.865143,"longitude":151.2099,"reserved":0,"last_update":"0001-01-01T00:00:00Z","name_a2s":"Uncletopia | Sydney | 5 | No Payload","protocol":17,"map":"ctf_2fort","folder":"tf","game":"Team Fortress","app_id":440,"player_count":0,"max_players":24,"Bots":0,"server_type":"Dedicated","server_os":"Linux","password":true,"vac":true,"version":"7723704","steam_id":85568392925397959,"keywords":["ctf","nocrits","nodmgspread","uncletopia"],"game_id":440,"stv_port":27056,"stv_name":"Uncletopia | Sydney | 5 | No Payload | STV","players":null},{"server_id":59,"name":"Uncletopia | Sydney | 6 | Community","name_short":"syd-6","host":"syd-1.au.uncletopia.com","port":27065,"enabled":true,"region":"au","cc":"au","latitude":-33.865143,"longitude":151.2099,"reserved":0,"last_update":"0001-01-01T00:00:00Z","name_a2s":"Uncletopia | Sydney | 6 | Community","protocol":17,"map":"workshop/rd_asteroid_redux_rc9.ugc2154902912","folder":"tf","game":"Team Fortress","app_id":440,"player_count":0,"max_players":24,"Bots":0,"server_type":"Dedicated","server_os":"Linux","password":true,"vac":true,"version":"7723704","steam_id":85568392925397960,"keywords":["beta","nocrits","nodmgspread","rd","uncletopia"],"game_id":440,"stv_port":27066,"stv_name":"Uncletopia | Sydney | 6 | Community | STV","players":null},{"server_id":49,"name":"Uncletopia | Warsaw | 1 | All Maps","name_short":"waw-1","host":"waw-1.pl.uncletopia.com","port":27015,"enabled":true,"region":"eu","cc":"pl","latitude":52.2297,"longitude":21.017532,"reserved":0,"last_update":"0001-01-01T00:00:00Z","name_a2s":"Uncletopia | Warsaw | 1 | All Maps","protocol":17,"map":"cp_process_final","folder":"tf","game":"Team Fortress","app_id":440,"player_count":0,"max_players":24,"Bots":0,"server_type":"Dedicated","server_os":"Linux","password":true,"vac":true,"version":"7723704","steam_id":85568392925397850,"keywords":["cp","nocrits","nodmgspread","uncletopia"],"game_id":440,"stv_port":27016,"stv_name":"Uncletopia | Warsaw | 1 | All Maps | STV","players":null},{"server_id":50,"name":"Uncletopia | Warsaw | 2 | All Maps","name_short":"waw-2","host":"waw-1.pl.uncletopia.com","port":27025,"enabled":true,"region":"eu","cc":"pl","latitude":52.2297,"longitude":21.017532,"reserved":0,"last_update":"0001-01-01T00:00:00Z","name_a2s":"Uncletopia | Warsaw | 2 | All Maps","protocol":17,"map":"cp_snakewater_final1","folder":"tf","game":"Team Fortress","app_id":440,"player_count":2,"max_players":24,"Bots":0,"server_type":"Dedicated","server_os":"Linux","password":true,"vac":true,"version":"7723704","steam_id":85568392925397851,"keywords":["cp","nocrits","nodmgspread","uncletopia"],"game_id":440,"stv_port":27026,"stv_name":"Uncletopia | Warsaw | 2 | All Maps | STV","players":[{"user_id":7,"name":"Companion cube","steam_id":76561199045758699,"connected_time":1066000000000,"state":"active","ping":57},{"user_id":8,"name":"СуньхуйВМарка","steam_id":76561199073248641,"connected_time":1016000000000,"state":"active","ping":60}]},{"server_id":51,"name":"Uncletopia | Warsaw | 3 | All Maps","name_short":"waw-3","host":"waw-1.pl.uncletopia.com","port":27035,"enabled":true,"region":"eu","cc":"pl","latitude":52.2297,"longitude":21.017532,"reserved":0,"last_update":"0001-01-01T00:00:00Z","name_a2s":"Uncletopia | Warsaw | 3 | All Maps","protocol":17,"map":"koth_lakeside_final","folder":"tf","game":"Team Fortress","app_id":440,"player_count":0,"max_players":24,"Bots":0,"server_type":"Dedicated","server_os":"Linux","password":true,"vac":true,"version":"7723704","steam_id":85568392925397852,"keywords":["cp","nocrits","nodmgspread","uncletopia"],"game_id":440,"stv_port":27036,"stv_name":"Uncletopia | Warsaw | 3 | All Maps | STV","players":null},{"server_id":52,"name":"Uncletopia | Warsaw | 4 | All Maps","name_short":"waw-4","host":"waw-1.pl.uncletopia.com","port":27045,"enabled":true,"region":"eu","cc":"pl","latitude":52.2297,"longitude":21.017532,"reserved":0,"last_update":"0001-01-01T00:00:00Z","name_a2s":"Uncletopia | Warsaw | 4 | All Maps","protocol":17,"map":"pl_frontier_final","folder":"tf","game":"Team Fortress","app_id":440,"player_count":0,"max_players":24,"Bots":0,"server_type":"Dedicated","server_os":"Linux","password":true,"vac":true,"version":"7723704","steam_id":85568392925397853,"keywords":["nocrits","nodmgspread","payload","uncletopia"],"game_id":440,"stv_port":27046,"stv_name":"Uncletopia | Warsaw | 4 | All Maps | STV","players":null},{"server_id":53,"name":"Uncletopia | Warsaw | 5 | No Payload","name_short":"waw-5","host":"waw-1.pl.uncletopia.com","port":27055,"enabled":true,"region":"eu","cc":"pl","latitude":52.2297,"longitude":21.017532,"reserved":0,"last_update":"0001-01-01T00:00:00Z","name_a2s":"Uncletopia | Warsaw | 5 | No Payload","protocol":17,"map":"koth_highpass","folder":"tf","game":"Team Fortress","app_id":440,"player_count":0,"max_players":24,"Bots":0,"server_type":"Dedicated","server_os":"Linux","password":true,"vac":true,"version":"7723704","steam_id":85568392925397854,"keywords":["cp","nocrits","nodmgspread","uncletopia"],"game_id":440,"stv_port":27056,"stv_name":"Uncletopia | Warsaw | 5 | No Payload | STV","players":null},{"server_id":54,"name":"Uncletopia | Warsaw | 6 | Community","name_short":"waw-6","host":"waw-1.pl.uncletopia.com","port":27065,"enabled":true,"region":"eu","cc":"pl","latitude":52.2297,"longitude":21.017532,"reserved":0,"last_update":"0001-01-01T00:00:00Z","name_a2s":"Uncletopia | Warsaw | 6 | Community","protocol":17,"map":"workshop/rd_asteroid_redux_rc9.ugc2154902912","folder":"tf","game":"Team Fortress","app_id":440,"player_count":2,"max_players":24,"Bots":0,"server_type":"Dedicated","server_os":"Linux","password":true,"vac":true,"version":"7723704","steam_id":85568392925397856,"keywords":["beta","nocrits","nodmgspread","rd","uncletopia"],"game_id":440,"stv_port":27066,"stv_name":"Uncletopia | Warsaw | 6 | Community | STV","players":[{"user_id":12,"name":"Dave Hamburger","steam_id":76561199229416475,"connected_time":6005000000000,"state":"active","ping":91},{"user_id":16,"name":"big rat in ur toitlet haha","steam_id":76561198242095536,"connected_time":5704000000000,"state":"active","ping":87}]}]}