{"status":true,"message":"","result":[{"server_id":9,"name":"Uncletopia | Atlanta | 1 | All Maps","name_short":"atl-1","host":"atl-1.us.uncletopia.com","port":27015,"enabled":true,"region":"us-east","cc":"us","latitude":33.753746,"longitude":-84.38633,"reserved":0,"last_update":"0001-01-01T00:00:00Z","name_a2s":"Uncletopia | Atlanta | 1 | All Maps","protocol":17,"map":"pl_pier","folder":"tf","game":"Team Fortress","app_id":440,"player_count":24,"max_players":24,"Bots":0,"server_type":"Dedicated","server_os":"Linux","password":true,"vac":true,"version":"7742253","steam_id":85568392924469982,"keywords":["nocrits","nodmgspread","payload","uncletopia"],"game_id":440,"stv_port":27016,"stv_name":"Uncletopia | Atlanta | 1 | All Maps | STV","players":[{"user_id":76,"name":"Heartgold","steam_id":76561199062592062,"connected_time":2902000000000,"state":"active","ping":88},{"user_id":7,"name":"JimmySquid","steam_id":76561198254242530,"connected_time":7434000000000,"state":"active","ping":70},{"user_id":80,"name":"des","steam_id":76561198079226634,"connected_time":2559000000000,"state":"active","ping":77},{"user_id":86,"name":"HARRY","steam_id":76561198842067238,"connected_time":2002000000000,"state":"active","ping":60},{"user_id":87,"name":"Rockhead","steam_id":76561197995196535,"connected_time":1981000000000,"state":"active","ping":66},{"user_id":66,"name":"hoboways","steam_id":76561198168035195,"connected_time":3580000000000,"state":"active","ping":78},{"user_id":88,"name":"Ch4n","steam_id":76561198797670090,"connected_time":1944000000000,"state":"active","ping":53},{"user_id":14,"name":"500,000 Monkies in Uncletopia","steam_id":76561198829607485,"connected_time":7143000000000,"state":"active","ping":45},{"user_id":90,"name":"The Caretaker","steam_id":76561198125241411,"connected_time":1617000000000,"state":"active","ping":125},{"user_id":56,"name":"Epifiny","steam_id":76561198027958086,"connected_time":3910000000000,"state":"active","ping":83},{"user_id":91,"name":"BangusHonkle","steam_id":76561198218887511,"connected_time":1611000000000,"state":"active","ping":65},{"user_id":102,"name":"Flint","steam_id":76561198066547582,"connected_time":196000000000,"state":"active","ping":109},{"user_id":100,"name":"garmonbozia","steam_id":76561198287124402,"connected_time":506000000000,"state":"active","ping":61},{"user_id":22,"name":"500,000 monkeys in Uncletopia","steam_id":76561198130772096,"connected_time":7039000000000,"state":"active","ping":75},{"user_id":95,"name":"DuckKey","steam_id":76561198904477889,"connected_time":1526000000000,"state":"active","ping":58},{"user_id":93,"name":"Winter the Witchie","steam_id":76561198151971178,"connected_time":1547000000000,"state":"active","ping":71},{"user_id":101,"name":"SWAGMUNCHER","steam_id":76561198101664559,"connected_time":505000000000,"state":"active","ping":57},{"user_id":104,"name":"Burger King Foot Lettuce","steam_id":76561198044331477,"connected_time":107000000000,"state":"active","ping":61},{"user_id":41,"name":"Adolf Critler","steam_id":76561199099633054,"connected_time":6210000000000,"state":"active","ping":74},{"user_id":69,"name":"mr falls down the stairs","steam_id":76561199156428309,"connected_time":3344000000000,"state":"active","ping":48},{"user_id":98,"name":"ATL1 | Pango","steam_id":76561198069811545,"connected_time":1007000000000,"state":"active","ping":50},{"user_id":44,"name":"Yimi","steam_id":76561198097984345,"connected_time":5888000000000,"state":"active","ping":88},{"user_id":96,"name":"Ribbert","steam_id":76561199118194937,"connected_time":1525000000000,"state":"active","ping":75},{"user_id":105,"name":"mousejumper","steam_id":76561198220181353,"connected_time":37000000000,"state":"active","ping":69}]},{"server_id":400,"name":"Uncletopia | Atlanta | 3 | Stopwatch Beta","name_short":"atl-3","host":"atl-1.us.uncletopia.com","port":27035,"enabled":true,"region":"us-east","cc":"us","latitude":33.753746,"longitude":-84.38633,"reserved":0,"last_update":"0001-01-01T00:00:00Z","name_a2s":"Uncletopia | Atlanta | 3 | Stopwatch Beta","protocol":17,"map":"pl_pier","folder":"tf","game":"Team Fortress","app_id":440,"player_count":0,"max_players":24,"Bots":0,"server_type":"Dedicated","server_os":"Linux","password":true,"vac":true,"version":"7742253","steam_id":85568392924515187,"keywords":["nocrits","nodmgspread","payload","uncletopia"],"game_id":440,"stv_port":27036,"stv_name":"Uncletopia | Atlanta | 3 | Stopwatch Beta | STV","players":null},{"server_id":401,"name":"Uncletopia | Atlanta | 4 | No Payload","name_short":"atl-4","host":"atl-1.us.uncletopia.com","port":27045,"enabled":true,"region":"us-east","cc":"us","latitude":33.753746,"longitude":-84.38633,"reserved":0,"last_update":"0001-01-01T00:00:00Z","name_a2s":"Uncletopia | Atlanta | 4 | No Payload","protocol":17,"map":"pl_pier","folder":"tf","game":"Team Fortress","app_id":440,"player_count":0,"max_players":24,"Bots":0,"server_type":"Dedicated","server_os":"Linux","password":true,"vac":true,"version":"7723704","steam_id":85568392924515188,"keywords":["nocrits","nodmgspread","payload","uncletopia"],"game_id":440,"stv_port":27046,"stv_name":"Uncletopia | Atlanta | 4 | No Payload | STV","players":null},{"server_id":2,"name":"Uncletopia | Chicago | 1 | All Maps","name_short":"chi-1","host":"chi-1.us.uncletopia.com","port":27015,"enabled":true,"region":"us-central","cc":"us","latitude":41.881832,"longitude":-87.62318,"reserved":0,"last_update":"0001-01-01T00:00:00Z","name_a2s":"Uncletopia | Chicago | 1 | All Maps","protocol":17,"map":"koth_viaduct","folder":"tf","game":"Team Fortress","app_id":440,"player_count":0,"max_players":24,"Bots":0,"server_type":"Dedicated","server_os":"Linux","password":true,"vac":true,"version":"7742253","steam_id":85568392924469984,"keywords":["cp","nocrits","nodmgspread","uncletopia"],"game_id":440,"stv_port":27016,"stv_name":"Uncletopia | Chicago | 1 | All Maps | STV","players":null},{"server_id":106,"name":"Uncletopia | Chicago | 2 | All Maps","name_short":"chi-2","host":"chi-1.us.uncletopia.com","port":27025,"enabled":true,"region":"us-central","cc":"us","latitude":41.881832,"longitude":-87.62318,"reserved":0,"last_update":"0001-01-01T00:00:00Z","name_a2s":"Uncletopia | Chicago | 2 | All Maps","protocol":17,"map":"pl_upward","folder":"tf","game":"Team Fortress","app_id":440,"player_count":24,"max_players":24,"Bots":0,"server_type":"Dedicated","server_os":"Linux","password":true,"vac":true,"version":"7742253","steam_id":85568392924469985,"keywords":["nocrits","nodmgspread","payload","uncletopia"],"game_id":440,"stv_port":27026,"stv_name":"Uncletopia | Chicago | 2 | All Maps | STV","players":[{"user_id":6,"name":"Super Noob","steam_id":76561199179611350,"connected_time":4282000000000,"state":"active","ping":56},{"user_id":48,"name":"Sluggzma","steam_id":76561198062956313,"connected_time":1787000000000,"state":"active","ping":70},{"user_id":30,"name":"bustam0v","steam_id":76561198062001355,"connected_time":2333000000000,"state":"active","ping":63},{"user_id":66,"name":"Penrose42","steam_id":76561198288577396,"connected_time":192000000000,"state":"active","ping":88},{"user_id":32,"name":"15 INCH TGIRL SCHLONG","steam_id":76561198122059018,"connected_time":2243000000000,"state":"active","ping":65},{"user_id":27,"name":"I Know Right!","steam_id":76561198203817936,"connected_time":2429000000000,"state":"active","ping":45},{"user_id":53,"name":"Dictatorial Karelian","steam_id":76561198196736457,"connected_time":1505000000000,"state":"active","ping":153},{"user_id":63,"name":"Aster","steam_id":76561198037920420,"connected_time":449000000000,"state":"active","ping":105},{"user_id":28,"name":"Menachem","steam_id":76561198041226420,"connected_time":2421000000000,"state":"active","ping":48},{"user_id":54,"name":"Smet19","steam_id":76561198118455606,"connected_time":1484000000000,"state":"active","ping":49},{"user_id":23,"name":"Dumbus Denny","steam_id":76561198052328616,"connected_time":2600000000000,"state":"active","ping":57},{"user_id":67,"name":"I am gonne boop your nose","steam_id":76561199142504017,"connected_time":116000000000,"state":"active","ping":153},{"user_id":65,"name":"Manly Emerald","steam_id":76561198245838476,"connected_time":274000000000,"state":"active","ping":60},{"user_id":69,"name":"Yukon Cornelius","steam_id":76561198261512781,"connected_time":65000000000,"state":"active","ping":76},{"user_id":68,"name":"dildo gaggins","steam_id":76561199059257565,"connected_time":109000000000,"state":"active","ping":89},{"user_id":58,"name":"O D J","steam_id":76561198071254599,"connected_time":1453000000000,"state":"active","ping":95},{"user_id":70,"name":"craxy fucking tavi","steam_id":76561198050192689,"connected_time":60000000000,"state":"active","ping":101},{"user_id":71,"name":"Lance blue dragon","steam_id":76561199277820128,"connected_time":42000000000,"state":"active","ping":91},{"user_id":41,"name":"if watermelons were human","steam_id":76561199044624946,"connected_time":2000000000000,"state":"active","ping":66},{"user_id":59,"name":"NerdCuddles","steam_id":76561198078915242,"connected_time":1446000000000,"state":"active","ping":51},{"user_id":43,"name":"doctor sex md","steam_id":76561198150678175,"connected_time":1918000000000,"state":"active","ping":104},{"user_id":44,"name":"Veir≈´ Viseris","steam_id":76561197989857176,"connected_time":1895000000000,"state":"active","ping":165},{"user_id":47,"name":"kiwi borb","steam_id":76561199013588062,"connected_time":1808000000000,"state":"active","ping":54},{"user_id":50,"name":"Arttur","steam_id":76561199080503175,"connected_time":1745000000000,"state":"active","ping":171}]},{"server_id":402,"name":"Uncletopia | Chicago | 3 | All Maps","name_short":"chi-3","host":"chi-1.us.uncletopia.com","port":27035,"enabled":true,"region":"us-central","cc":"us","latitude":41.881832,"longitude":-87.62318,"reserved":0,"last_update":"0001-01-01T00:00:00Z","name_a2s":"Uncletopia | Chicago | 3 | All Maps","protocol":17,"map":"pl_upward","folder":"tf","game":"Team Fortress","app_id":440,"player_count":23,"max_players":24,"Bots":0,"server_type":"Dedicated","server_os":"Linux","password":true,"vac":true,"version":"7742253","steam_id":85568392924515191,"keywords":["nocrits","nodmgspread","payload","uncletopia"],"game_id":440,"stv_port":27036,"stv_name":"Uncletopia | Chicago | 3 | All Maps | STV","players":[{"user_id":3,"name":"Sir Loincloth","steam_id":76561198033073991,"connected_time":6294000000000,"state":"active","ping":71},{"user_id":48,"name":"RingAroundMe she/they","steam_id":76561199010126042,"connected_time":4114000000000,"state":"active","ping":114},{"user_id":94,"name":"Mae The Porn Addict","steam_id":76561198410011711,"connected_time":71000000000,"state":"active","ping":76},{"user_id":80,"name":"[slug]","steam_id":76561197989592178,"connected_time":1127000000000,"state":"active","ping":71},{"user_id":83,"name":"Ripheart","steam_id":76561198089661561,"connected_time":652000000000,"state":"active","ping":53},{"user_id":11,"name":"Space‚≠êTaffy","steam_id":76561198002271720,"connected_time":5689000000000,"state":"active","ping":56},{"user_id":79,"name":"IGotTheLettuce","steam_id":76561198062473897,"connected_time":1166000000000,"state":"active","ping":77},{"user_id":69,"name":"TheAceDefiant","steam_id":76561198133264734,"connected_time":1914000000000,"state":"active","ping":57},{"user_id":85,"name":"Muffin","steam_id":76561199064341106,"connected_time":527000000000,"state":"active","ping":102},{"user_id":70,"name":"baldingmagician","steam_id":76561198047312936,"connected_time":1903000000000,"state":"active","ping":67},{"user_id":93,"name":"AUVDEL","steam_id":76561198119289244,"connected_time":105000000000,"state":"active","ping":66},{"user_id":17,"name":"who ate the cheese","steam_id":76561198275408467,"connected_time":5524000000000,"state":"active","ping":45},{"user_id":90,"name":"Magneto","steam_id":76561199151206130,"connected_time":335000000000,"state":"active","ping":58},{"user_id":88,"name":"SkarloeyFell","steam_id":76561199183127174,"connected_time":384000000000,"state":"active","ping":55},{"user_id":89,"name":"Salixiola","steam_id":76561198042177809,"connected_time":381000000000,"state":"active","ping":92},{"user_id":91,"name":"Lady Duckland","steam_id":76561198077092840,"connected_time":319000000000,"state":"active","ping":60},{"user_id":72,"name":"TATARA","steam_id":76561199098759517,"connected_time":1584000000000,"state":"active","ping":128},{"user_id":24,"name":"Pisser12434","steam_id":76561198835144780,"connected_time":5457000000000,"state":"active","ping":72},{"user_id":84,"name":"TYL‚òÅR","steam_id":76561198082995812,"connected_time":581000000000,"state":"active","ping":70},{"user_id":27,"name":"River Rat","steam_id":76561198116383976,"connected_time":5411000000000,"state":"active","ping":112},{"user_id":92,"name":"Poopy Joe","steam_id":76561198855376206,"connected_time":318000000000,"state":"active","ping":61},{"user_id":52,"name":"Stew Eater","steam_id":76561198978307159,"connected_time":4086000000000,"state":"active","ping":63},{"user_id":78,"name":"Solaris","steam_id":76561198309135987,"connected_time":1240000000000,"state":"active","ping":82}]},{"server_id":403,"name":"Uncletopia | Chicago | 4 | All Maps","name_short":"chi-4","host":"chi-1.us.uncletopia.com","port":27045,"enabled":true,"region":"us-central","cc":"us","latitude":41.881832,"longitude":-87.62318,"reserved":0,"last_update":"0001-01-01T00:00:00Z","name_a2s":"Uncletopia | Chicago | 4 | All Maps","protocol":17,"map":"koth_lakeside_final","folder":"tf","game":"Team Fortress","app_id":440,"player_count":0,"max_players":24,"Bots":0,"server_type":"Dedicated","server_os":"Linux","password":true,"vac":true,"version":"7742253","steam_id":85568392924515193,"keywords":["cp","nocrits","nodmgspread","uncletopia"],"game_id":440,"stv_port":27046,"stv_name":"Uncletopia | Chicago | 4 | All Maps | STV","players":null},{"server_id":36,"name":"Uncletopia | Chicago | 5 | All Maps","name_short":"chi-5","host":"chi-2.us.uncletopia.com","port":27015,"enabled":true,"region":"us-central","cc":"us","latitude":41.881832,"longitude":-87.62318,"reserved":0,"last_update":"0001-01-01T00:00:00Z","name_a2s":"Uncletopia | Chicago | 5 | All Maps","protocol":17,"map":"plr_pipeline","folder":"tf","game":"Team Fortress","app_id":440,"player_count":24,"max_players":24,"Bots":0,"server_type":"Dedicated","server_os":"Linux","password":true,"vac":true,"version":"7742253","steam_id":85568392924866362,"keywords":["nocrits","nodmgspread","payload","uncletopia"],"game_id":440,"stv_port":27016,"stv_name":"Uncletopia | Chicago | 5 | All Maps | STV","players":[{"user_id":323,"name":"Rappitor","steam_id":76561198105613110,"connected_time":1435000000000,"state":"active","ping":61},{"user_id":333,"name":"C papi","steam_id":76561198027779564,"connected_time":993000000000,"state":"active","ping":56},{"user_id":288,"name":"nalezinik","steam_id":76561198030026119,"connected_time":3628000000000,"state":"active","ping":60},{"user_id":295,"name":"Koishi","steam_id":76561198054541054,"connected_time":3434000000000,"state":"active","ping":54},{"user_id":341,"name":"Not Purple","steam_id":76561199015025033,"connected_time":189000000000,"state":"active","ping":60},{"user_id":336,"name":"Missing Minus","steam_id":76561198120822928,"connected_time":869000000000,"state":"active","ping":62},{"user_id":314,"name":"Dr Pepper To The Moon","steam_id":76561199121320640,"connected_time":2010000000000,"state":"active","ping":58},{"user_id":331,"name":"no","steam_id":76561198248853140,"connected_time":1197000000000,"state":"active","ping":87},{"user_id":329,"name":"mentzer","steam_id":76561198232617936,"connected_time":1250000000000,"state":"active","ping":58},{"user_id":316,"name":"catgirl giantess in heat","steam_id":76561198439042583,"connected_time":1879000000000,"state":"active","ping":85},{"user_id":322,"name":"abomination","steam_id":76561198167974713,"connected_time":1461000000000,"state":"active","ping":74},{"user_id":320,"name":"--_Cook_--","steam_id":76561198080855748,"connected_time":1486000000000,"state":"active","ping":76},{"user_id":342,"name":"LobsterPot","steam_id":76561198072225973,"connected_time":145000000000,"state":"active","ping":60},{"user_id":343,"name":"Whoa","steam_id":76561197970353496,"connected_time":50000000000,"state":"active","ping":76},{"user_id":330,"name":"forklift circumcised","steam_id":76561198278756087,"connected_time":1228000000000,"state":"active","ping":81},{"user_id":321,"name":"Skenzer","steam_id":76561197973560424,"connected_time":1479000000000,"state":"active","ping":61},{"user_id":297,"name":"RedMustrd","steam_id":76561199246218857,"connected_time":3403000000000,"state":"active","ping":74},{"user_id":334,"name":"Nassu","steam_id":76561198147367577,"connected_time":931000000000,"state":"active","ping":65},{"user_id":307,"name":"t.tv/ibbKitty ‚àë:3","steam_id":76561198110858518,"connected_time":3048000000000,"state":"active","ping":62},{"user_id":332,"name":"Orkin","steam_id":76561198091538914,"connected_time":1051000000000,"state":"active","ping":84},{"user_id":260,"name":"Drachma","steam_id":76561198007310514,"connected_time":6417000000000,"state":"active","ping":61},{"user_id":337,"name":"ItzzDibly","steam_id":76561197970733021,"connected_time":831000000000,"state":"active","ping":46},{"user_id":328,"name":"BlazeHX","steam_id":76561198827408017,"connected_time":1400000000000,"state":"active","ping":92},{"user_id":340,"name":"ExplosiveGamer21","steam_id":76561198132370955,"connected_time":301000000000,"state":"active","ping":106}]},{"server_id":37,"name":"Uncletopia | Chicago | 6 | All Maps","name_short":"chi-6","host":"chi-2.us.uncletopia.com","port":27025,"enabled":true,"region":"us-central","cc":"us","latitude":41.881832,"longitude":-87.62318,"reserved":0,"last_update":"0001-01-01T00:00:00Z","name_a2s":"Uncletopia | Chicago | 6 | All Maps","protocol":17,"map":"pl_barnblitz","folder":"tf","game":"Team Fortress","app_id":440,"player_count":0,"max_players":24,"Bots":0,"server_type":"Dedicated","server_os":"Linux","password":true,"vac":true,"version":"7742253","steam_id":85568392924866363,"keywords":["nocrits","nodmgspread","payload","uncletopia"],"game_id":440,"stv_port":27026,"stv_name":"Uncletopia | Chicago | 6 | All Maps | STV","players":null},{"server_id":38,"name":"Uncletopia | Chicago | 7 | Stopwatch Beta","name_short":"chi-7","host":"chi-2.us.uncletopia.com","port":27035,"enabled":true,"region":"us-central","cc":"us","latitude":41.881832,"longitude":-87.62318,"reserved":0,"last_update":"0001-01-01T00:00:00Z","name_a2s":"Uncletopia | Chicago | 7 | Stopwatch Beta","protocol":17,"map":"workshop/pl_summercoast_rc8e.ugc1761528829","folder":"tf","game":"Team Fortress","app_id":440,"player_count":0,"max_players":24,"Bots":0,"server_type":"Dedicated","server_os":"Linux","password":true,"vac":true,"version":"7742253","steam_id":85568392924866364,"keywords":["nocrits","nodmgspread","payload","uncletopia"],"game_id":440,"stv_port":27036,"stv_name":"Uncletopia | Chicago | 7 | Stopwatch Beta | STV","players":null},{"server_id":39,"name":"Uncletopia | Chicago | 8 | Community","name_short":"chi-8","host":"chi-2.us.uncletopia.com","port":27045,"enabled":true,"region":"us-central","cc":"us","latitude":41.881832,"longitude":-87.62318,"reserved":0,"last_update":"0001-01-01T00:00:00Z","name_a2s":"Uncletopia | Chicago | 8 | Community","protocol":17,"map":"koth_lakeside_final","folder":"tf","game":"Team Fortress","app_id":440,"player_count":0,"max_players":24,"Bots":0,"server_type":"Dedicated","server_os":"Linux","password":true,"vac":true,"version":"7742253","steam_id":85568392924866365,"keywords":["cp","nocrits","nodmgspread","uncletopia"],"game_id":440,"stv_port":27046,"stv_name":"Uncletopia | Chicago | 8 | Community | STV","players":null},{"server_id":8,"name":"Uncletopia | Dallas | 1 | All Maps","name_short":"dal-1","host":"dal-1.us.uncletopia.com","port":27015,"enabled":true,"region":"us-central","cc":"us","latitude":32.779167,"longitude":-96.80889,"reserved":0,"last_update":"0001-01-01T00:00:00Z","name_a2s":"Uncletopia | Dallas | 1 | All Maps","protocol":17,"map":"pl_snowycoast","folder":"tf","game":"Team Fortress","app_id":440,"player_count":22,"max_players":24,"Bots":0,"server_type":"Dedicated","server_os":"Linux","password":true,"vac":true,"version":"7742253","steam_id":85568392924469986,"keywords":["nocrits","nodmgspread","payload","uncletopia"],"game_id":440,"stv_port":27016,"stv_name":"Uncletopia | Dallas | 1 | All Maps | STV","players":[{"user_id":216,"name":"Awildrock","steam_id":76561198040401086,"connected_time":2397000000000,"state":"active","ping":46},{"user_id":205,"name":"[LINUX] F2P=S*(M/B)+H || Spy!","steam_id":76561198093538786,"connected_time":3754000000000,"state":"active","ping":85},{"user_id":233,"name":"go back to assville","steam_id":76561198004882625,"connected_time":917000000000,"state":"active","ping":100},{"user_id":226,"name":"Aglow","steam_id":76561199438754251,"connected_time":1691000000000,"state":"active","ping":61},{"user_id":165,"name":"carrot cake","steam_id":76561198055174915,"connected_time":8611000000000,"state":"active","ping":115},{"user_id":227,"name":"Silver Bullet","steam_id":76561198310792140,"connected_time":1029000000000,"state":"active","ping":80},{"user_id":192,"name":"Pixler544","steam_id":76561198240575132,"connected_time":4782000000000,"state":"spawning","ping":63},{"user_id":133,"name":"Fishstall","steam_id":76561198038126034,"connected_time":9490000000000,"state":"active","ping":87},{"user_id":214,"name":"FG7","steam_id":76561198381197197,"connected_time":2524000000000,"state":"active","ping":142},{"user_id":238,"name":"Papa Terry","steam_id":76561198092457944,"connected_time":42000000000,"state":"spawning","ping":940},{"user_id":217,"name":"MONSTER GIRL","steam_id":76561198265633146,"connected_time":2158000000000,"state":"active","ping":76},{"user_id":239,"name":"Baby","steam_id":76561198947323052,"connected_time":18000000000,"state":"spawning","ping":99},{"user_id":236,"name":"Bubbles","steam_id":76561198812361950,"connected_time":492000000000,"state":"spawning","ping":101},{"user_id":211,"name":"5yt","steam_id":76561198041643833,"connected_time":3004000000000,"state":"active","ping":58},{"user_id":228,"name":"MeKaso TropStar","steam_id":76561199109895840,"connected_time":1006000000000,"state":"active","ping":80},{"user_id":237,"name":"iluvtoust","steam_id":76561198869269207,"connected_time":466000000000,"state":"active","ping":48},{"user_id":224,"name":"king in the north!","steam_id":76561198035780415,"connected_time":1832000000000,"state":"active","ping":99},{"user_id":210,"name":"Camfour","steam_id":76561198083090140,"connected_time":3028000000000,"state":"active","ping":77},{"user_id":208,"name":"Faust main","steam_id":76561198971799149,"connected_time":3535000000000,"state":"spawning","ping":54},{"user_id":230,"name":"Len","steam_id":76561199141913673,"connected_time":988000000000,"state":"spawning","ping":82},{"user_id":235,"name":"Mikey","steam_id":76561199027332418,"connected_time":651000000000,"state":"spawning","ping":72},{"user_id":187,"name":"SmokeyGalaxy","steam_id":76561198118780516,"connected_time":5713000000000,"state":"spawning","ping":59}]},{"server_id":108,"name":"Uncletopia | Dallas | 2 | All Maps","name_short":"dal-2","host":"dal-1.us.uncletopia.com","port":27025,"enabled":true,"region":"us-central","cc":"us","latitude":32.779167,"longitude":-96.80889,"reserved":0,"last_update":"0001-01-01T00:00:00Z","name_a2s":"Uncletopia | Dallas | 2 | All Maps","protocol":17,"map":"pl_borneo","folder":"tf","game":"Team Fortress","app_id":440,"player_count":24,"max_players":24,"Bots":0,"server_type":"Dedicated","server_os":"Linux","password":true,"vac":true,"version":"7742253","steam_id":85568392924469988,"keywords":["nocrits","nodmgspread","payload","uncletopia"],"game_id":440,"stv_port":27026,"stv_name":"Uncletopia | Dallas | 2 | All Maps | STV","players":[{"user_id":63,"name":"James","steam_id":76561198041578404,"connected_time":316000000000,"state":"active","ping":68},{"user_id":11,"name":"Jailbreak","steam_id":76561198802085218,"connected_time":3357000000000,"state":"active","ping":52},{"user_id":10,"name":"ebbaxter13","steam_id":76561198839647688,"connected_time":3712000000000,"state":"active","ping":96},{"user_id":49,"name":"Commissar","steam_id":76561198137223253,"connected_time":1657000000000,"state":"active","ping":49},{"user_id":69,"name":"EmilyChains\u003c3","steam_id":76561198132008027,"connected_time":120000000000,"state":"active","ping":75},{"user_id":47,"name":"ozymandias","steam_id":76561198983415087,"connected_time":1751000000000,"state":"active","ping":59},{"user_id":64,"name":"ChebJeb","steam_id":76561198981377081,"connected_time":273000000000,"state":"active","ping":98},{"user_id":62,"name":"pt","steam_id":76561198143023330,"connected_time":340000000000,"state":"active","ping":73},{"user_id":65,"name":"sheep","steam_id":76561198172943006,"connected_time":257000000000,"state":"active","ping":74},{"user_id":19,"name":"The Fonz","steam_id":76561198164040707,"connected_time":2478000000000,"state":"active","ping":94},{"user_id":66,"name":"Luxeia","steam_id":76561198101450925,"connected_time":192000000000,"state":"active","ping":56},{"user_id":61,"name":"A Gallon of PCP","steam_id":76561198958460901,"connected_time":486000000000,"state":"active","ping":65},{"user_id":22,"name":"Hobocop","steam_id":76561198076321907,"connected_time":2370000000000,"state":"active","ping":101},{"user_id":26,"name":"The Grimlobbler","steam_id":76561198059039470,"connected_time":2284000000000,"state":"active","ping":41},{"user_id":44,"name":"trashboat","steam_id":76561199067882406,"connected_time":1913000000000,"state":"active","ping":107},{"user_id":27,"name":"thecpg","steam_id":76561198216448919,"connected_time":2238000000000,"state":"active","ping":143},{"user_id":28,"name":"SaltySeaBiscuts","steam_id":76561199204549005,"connected_time":2209000000000,"state":"active","ping":79},{"user_id":71,"name":"‡∞ú‡±ç‡∞û‡∞æ‡∞ú‡±ç‡∞û‡∞æ","steam_id":76561198176618461,"connected_time":29000000000,"state":"active","ping":95},{"user_id":50,"name":"Special","steam_id":76561198070380404,"connected_time":1641000000000,"state":"active","ping":90},{"user_id":56,"name":"BigBubble42","steam_id":76561198136286123,"connected_time":956000000000,"state":"active","ping":36},{"user_id":51,"name":"swat aaa","steam_id":76561199099843307,"connected_time":1396000000000,"state":"active","ping":53},{"user_id":53,"name":"Andro","steam_id":76561198149936388,"connected_time":1261000000000,"state":"active","ping":58},{"user_id":67,"name":"mikey | I'm Burning Bright!","steam_id":76561198985847893,"connected_time":190000000000,"state":"active","ping":50},{"user_id":68,"name":"[]{}#^*+=","steam_id":76561198127039453,"connected_time":188000000000,"state":"active","ping":66}]},{"server_id":5,"name":"Uncletopia | Frankfurt | 1 | All Maps","name_short":"frk-1","host":"frk-1.de.uncletopia.com","port":27015,"enabled":true,"region":"eu","cc":"de","latitude":50.110924,"longitude":8.682127,"reserved":0,"last_update":"0001-01-01T00:00:00Z","name_a2s":"Uncletopia | Frankfurt | 1 | All Maps","protocol":17,"map":"pl_badwater","folder":"tf","game":"Team Fortress","app_id":440,"player_count":24,"max_players":24,"Bots":0,"server_type":"Dedicated","server_os":"Linux","password":true,"vac":true,"version":"7742253","steam_id":85568392924469989,"keywords":["nocrits","nodmgspread","payload","uncletopia"],"game_id":440,"stv_port":27016,"stv_name":"Uncletopia | Frankfurt | 1 | All Maps | STV","players":[{"user_id":477,"name":"W√ºstenfuchs","steam_id":76561198453885708,"connected_time":2268000000000,"state":"active","ping":58},{"user_id":500,"name":"–ì–¥–µ –º–æ—Ä–µ?","steam_id":76561197979625544,"connected_time":824000000000,"state":"active","ping":86},{"user_id":497,"name":"..","steam_id":76561198380752444,"connected_time":942000000000,"state":"active","ping":61},{"user_id":499,"name":"Ascendary","steam_id":76561198036267241,"connected_time":864000000000,"state":"active","ping":75},{"user_id":504,"name":"beeb","steam_id":76561198033460021,"connected_time":699000000000,"state":"active","ping":87},{"user_id":505,"name":"uNem0_","steam_id":76561198836442412,"connected_time":609000000000,"state":"active","ping":95},{"user_id":502,"name":"FoxRealGaming","steam_id":76561199363992142,"connected_time":793000000000,"state":"active","ping":70},{"user_id":503,"name":"yuo","steam_id":76561198106624157,"connected_time":780000000000,"state":"active","ping":74},{"user_id":521,"name":"ùñâùñóùñÜùñåùñîùñì","steam_id":76561199436349867,"connected_time":231000000000,"state":"active","ping":96},{"user_id":507,"name":"DoctorPacman","steam_id":76561198065740324,"connected_time":580000000000,"state":"active","ping":111},{"user_id":508,"name":"James May","steam_id":76561198077308505,"connected_time":566000000000,"state":"active","ping":81},{"user_id":400,"name":"11037","steam_id":76561198351154533,"connected_time":4706000000000,"state":"active","ping":68},{"user_id":520,"name":"Explosive-Legend #savetf2","steam_id":76561199126827973,"connected_time":265000000000,"state":"active","ping":135},{"user_id":483,"name":"MarioThePlumber","steam_id":76561198314229530,"connected_time":1862000000000,"state":"active","ping":72},{"user_id":496,"name":"PabloGamerPro5000","steam_id":76561198358173553,"connected_time":1060000000000,"state":"active","ping":77},{"user_id":511,"name":"Tarixxiv","steam_id":76561198084365415,"connected_time":496000000000,"state":"active","ping":84},{"user_id":512,"name":"X-tis","steam_id":76561198043837480,"connected_time":476000000000,"state":"active","ping":76},{"user_id":513,"name":"TheShadowScribe","steam_id":76561199037525945,"connected_time":462000000000,"state":"active","ping":86},{"user_id":514,"name":"Cherax","steam_id":76561198089170314,"connected_time":439000000000,"state":"active","ping":65},{"user_id":515,"name":"Chang supremacy","steam_id":76561198179324075,"connected_time":437000000000,"state":"active","ping":72},{"user_id":516,"name":"Chilchang Billing","steam_id":76561197993300020,"connected_time":429000000000,"state":"active","ping":61},{"user_id":517,"name":"Torrii","steam_id":76561198307916635,"connected_time":428000000000,"state":"active","ping":96},{"user_id":518,"name":"leonardini.w #SaveTF2","steam_id":76561199097963071,"connected_time":427000000000,"state":"active","ping":84},{"user_id":519,"name":"jolie rouge","steam_id":76561197988085026,"connected_time":415000000000,"state":"active","ping":74}]},{"server_id":110,"name":"Uncletopia | Frankfurt | 2 | All Maps","name_short":"frk-2","host":"frk-1.de.uncletopia.com","port":27025,"enabled":true,"region":"eu","cc":"de","latitude":50.110924,"longitude":8.682127,"reserved":0,"last_update":"0001-01-01T00:00:00Z","name_a2s":"Uncletopia | Frankfurt | 2 | All Maps","protocol":17,"map":"pl_pier","folder":"tf","game":"Team Fortress","app_id":440,"player_count":24,"max_players":24,"Bots":0,"server_type":"Dedicated","server_os":"Linux","password":true,"vac":true,"version":"7742253","steam_id":85568392924469990,"keywords":["nocrits","nodmgspread","payload","uncletopia"],"game_id":440,"stv_port":27026,"stv_name":"Uncletopia | Frankfurt | 2 | All Maps | STV","players":[{"user_id":187,"name":"real human bean","steam_id":76561198059535856,"connected_time":1111000000000,"state":"active","ping":163},{"user_id":196,"name":"SilverWaif4","steam_id":76561198852641475,"connected_time":162000000000,"state":"active","ping":109},{"user_id":191,"name":"FishNachoz","steam_id":76561198026519426,"connected_time":999000000000,"state":"active","ping":66},{"user_id":192,"name":"anson2623","steam_id":76561198147658525,"connected_time":610000000000,"state":"active","ping":62},{"user_id":189,"name":"maakgis","steam_id":76561198851703804,"connected_time":1035000000000,"state":"active","ping":114},{"user_id":134,"name":"0xDEADBEEF","steam_id":76561199075416111,"connected_time":4074000000000,"state":"active","ping":90},{"user_id":181,"name":"NALA","steam_id":76561198039806469,"connected_time":1410000000000,"state":"active","ping":67},{"user_id":177,"name":".::[SerafeTTiN]::.","steam_id":76561198009471724,"connected_time":1781000000000,"state":"active","ping":113},{"user_id":197,"name":"Samus","steam_id":76561198045943019,"connected_time":109000000000,"state":"active","ping":45},{"user_id":150,"name":"Lewylow","steam_id":76561198005425686,"connected_time":3365000000000,"state":"active","ping":73},{"user_id":198,"name":"TurboTabs","steam_id":76561198009785131,"connected_time":101000000000,"state":"active","ping":63},{"user_id":194,"name":"Little boy from RIZZario","steam_id":76561198157406151,"connected_time":264000000000,"state":"active","ping":59},{"user_id":161,"name":"Accident","steam_id":76561198115160396,"connected_time":2558000000000,"state":"active","ping":73},{"user_id":180,"name":"—É–±–∏–π—Ü–∞_–≥–æ–º–∏–∫–æ–≤256","steam_id":76561198129314304,"connected_time":1476000000000,"state":"active","ping":137},{"user_id":136,"name":":)","steam_id":76561198039964082,"connected_time":4029000000000,"state":"active","ping":58},{"user_id":200,"name":"mcsm‚ô¶","steam_id":76561198850691862,"connected_time":40000000000,"state":"active","ping":108},{"user_id":105,"name":"[Insert Oneshot refrence]","steam_id":76561198951206047,"connected_time":5821000000000,"state":"active","ping":90},{"user_id":164,"name":"EmissaryOfTheLord","steam_id":76561199130305263,"connected_time":2454000000000,"state":"active","ping":60},{"user_id":195,"name":"wasabi bobby","steam_id":76561199235435358,"connected_time":263000000000,"state":"active","ping":87},{"user_id":93,"name":"waluigi","steam_id":76561198215809251,"connected_time":6354000000000,"state":"active","ping":53},{"user_id":199,"name":"CarBombEnthusiast","steam_id":76561199448185434,"connected_time":97000000000,"state":"active","ping":59},{"user_id":193,"name":"System","steam_id":76561199442503973,"connected_time":350000000000,"state":"active","ping":47},{"user_id":184,"name":"Vikud","steam_id":76561199110575856,"connected_time":1179000000000,"state":"active","ping":139},{"user_id":186,"name":"yuh","steam_id":76561199005555839,"connected_time":1143000000000,"state":"active","ping":74}]},{"server_id":308,"name":"Uncletopia | Frankfurt | 3 | All Maps","name_short":"frk-3","host":"frk-1.de.uncletopia.com","port":27035,"enabled":true,"region":"eu","cc":"de","latitude":50.110924,"longitude":8.682127,"reserved":0,"last_update":"0001-01-01T00:00:00Z","name_a2s":"Uncletopia | Frankfurt | 3 | All Maps","protocol":17,"map":"cp_snakewater_final1","folder":"tf","game":"Team Fortress","app_id":440,"player_count":0,"max_players":24,"Bots":0,"server_type":"Dedicated","server_os":"Linux","password":true,"vac":true,"version":"7742253","steam_id":85568392924504274,"keywords":["cp","nocrits","nodmgspread","uncletopia"],"game_id":440,"stv_port":27036,"stv_name":"Uncletopia | Frankfurt | 3 | All Maps | STV","players":null},{"server_id":309,"name":"Uncletopia | Frankfurt | 4 | All Maps","name_short":"frk-4","host":"frk-1.de.uncletopia.com","port":27045,"enabled":true,"region":"eu","cc":"de","latitude":50.110924,"longitude":8.682127,"reserved":0,"last_update":"0001-01-01T00:00:00Z","name_a2s":"Uncletopia | Frankfurt | 4 | All Maps","protocol":17,"map":"pl_goldrush","folder":"tf","game":"Team Fortress","app_id":440,"player_count":22,"max_players":24,"Bots":0,"server_type":"Dedicated","server_os":"Linux","password":true,"vac":true,"version":"7742253","steam_id":85568392924504275,"keywords":["nocrits","nodmgspread","payload","uncletopia"],"game_id":440,"stv_port":27046,"stv_name":"Uncletopia | Frankfurt | 4 | All Maps | STV","players":[{"user_id":228,"name":"AforeKingDwarf","steam_id":76561198043562926,"connected_time":2519000000000,"state":"active","ping":58},{"user_id":282,"name":"clraffell","steam_id":76561198904469197,"connected_time":339000000000,"state":"active","ping":68},{"user_id":283,"name":"Rodia","steam_id":76561197968293161,"connected_time":260000000000,"state":"active","ping":60},{"user_id":241,"name":"Jacek Jaworek","steam_id":76561198340344220,"connected_time":2018000000000,"state":"active","ping":63},{"user_id":219,"name":"YMC agent_richi","steam_id":76561199218542987,"connected_time":2680000000000,"state":"active","ping":46},{"user_id":194,"name":"Axter","steam_id":76561198118747192,"connected_time":4028000000000,"state":"active","ping":77},{"user_id":269,"name":"Noob_with_source","steam_id":76561198870362103,"connected_time":1099000000000,"state":"active","ping":60},{"user_id":196,"name":"Family guy try not to laugh","steam_id":76561198031455800,"connected_time":4015000000000,"state":"active","ping":75},{"user_id":289,"name":"adam","steam_id":76561199024816404,"connected_time":71000000000,"state":"active","ping":76},{"user_id":248,"name":"Th√§as","steam_id":76561198264708239,"connected_time":1794000000000,"state":"active","ping":48},{"user_id":255,"name":"Sara Rem","steam_id":76561198889728504,"connected_time":1691000000000,"state":"active","ping":91},{"user_id":239,"name":"romaingallo","steam_id":76561198268112907,"connected_time":2287000000000,"state":"active","ping":72},{"user_id":133,"name":"Daddy Donovan","steam_id":76561198140938904,"connected_time":8980000000000,"state":"active","ping":67},{"user_id":275,"name":"Wololo","steam_id":76561197972235375,"connected_time":916000000000,"state":"active","ping":54},{"user_id":227,"name":"Dakeyras","steam_id":76561198057069564,"connected_time":2562000000000,"state":"active","ping":104},{"user_id":279,"name":"no_name.dll","steam_id":76561199011969062,"connected_time":608000000000,"state":"active","ping":49},{"user_id":285,"name":"...","steam_id":76561198969234594,"connected_time":209000000000,"state":"active","ping":71},{"user_id":277,"name":"guiseppe","steam_id":76561198046129681,"connected_time":861000000000,"state":"active","ping":102},{"user_id":288,"name":"Acxsa","steam_id":76561198098979449,"connected_time":113000000000,"state":"active","ping":63},{"user_id":271,"name":"orangetimeOT","steam_id":76561199114900319,"connected_time":1079000000000,"state":"active","ping":76},{"user_id":256,"name":"Hedgehogdude‚Ö¢","steam_id":76561198305290568,"connected_time":1666000000000,"state":"active","ping":98},{"user_id":260,"name":"MAJAX","steam_id":76561198254828632,"connected_time":1567000000000,"state":"active","ping":68}]},{"server_id":310,"name":"Uncletopia | Frankfurt | 5 | All Maps","name_short":"frk-5","host":"frk-1.de.uncletopia.com","port":27055,"enabled":true,"region":"eu","cc":"de","latitude":50.110924,"longitude":8.682127,"reserved":0,"last_update":"0001-01-01T00:00:00Z","name_a2s":"Uncletopia | Frankfurt | 5 | All Maps","protocol":17,"map":"cp_freight_final1","folder":"tf","game":"Team Fortress","app_id":440,"player_count":5,"max_players":24,"Bots":0,"server_type":"Dedicated","server_os":"Linux","password":true,"vac":true,"version":"7742253","steam_id":85568392924504277,"keywords":["cp","nocrits","nodmgspread","uncletopia"],"game_id":440,"stv_port":27056,"stv_name":"Uncletopia | Frankfurt | 5 | All Maps | STV","players":[{"user_id":26,"name":"Rimx","steam_id":76561198053034840,"connected_time":2636000000000,"state":"active","ping":84},{"user_id":27,"name":"Toasty5050","steam_id":76561198073540881,"connected_time":2594000000000,"state":"active","ping":35},{"user_id":36,"name":"dell guy from tf2","steam_id":76561198260332420,"connected_time":1750000000000,"state":"active","ping":165},{"user_id":40,"name":"mintbignoob64","steam_id":76561199181417898,"connected_time":629000000000,"state":"active","ping":59},{"user_id":38,"name":"Kili","steam_id":76561198138456346,"connected_time":1134000000000,"state":"active","ping":56}]},{"server_id":311,"name":"Uncletopia | Frankfurt | 6 | All Maps","name_short":"frk-6","host":"frk-1.de.uncletopia.com","port":27065,"enabled":true,"region":"eu","cc":"de","latitude":50.110924,"longitude":8.682127,"reserved":0,"last_update":"0001-01-01T00:00:00Z","name_a2s":"Uncletopia | Frankfurt | 6 | All Maps","protocol":17,"map":"pl_badwater","folder":"tf","game":"Team Fortress","app_id":440,"player_count":24,"max_players":24,"Bots":0,"server_type":"Dedicated","server_os":"Linux","password":true,"vac":true,"version":"7742253","steam_id":85568392924504278,"keywords":["nocrits","nodmgspread","payload","uncletopia"],"game_id":440,"stv_port":27066,"stv_name":"Uncletopia | Frankfurt | 6 | All Maps | STV","players":[{"user_id":407,"name":"Nobody","steam_id":76561198151116796,"connected_time":1058000000000,"state":"active","ping":110},{"user_id":411,"name":"dempsey","steam_id":76561198049405872,"connected_time":545000000000,"state":"active","ping":41},{"user_id":412,"name":"JohnTraveltime","steam_id":76561199244281754,"connected_time":545000000000,"state":"active","ping":75},{"user_id":427,"name":"vi hava en usel regering","steam_id":76561198037978654,"connected_time":57000000000,"state":"active","ping":75},{"user_id":389,"name":"Lyra","steam_id":76561198043601838,"connected_time":2574000000000,"state":"active","ping":61},{"user_id":419,"name":"mountaindrill","steam_id":76561198864327475,"connected_time":249000000000,"state":"active","ping":44},{"user_id":418,"name":"–°—ã–Ω","steam_id":76561198931350666,"connected_time":381000000000,"state":"active","ping":126},{"user_id":420,"name":"twitch.tv/vision515","steam_id":76561198065293729,"connected_time":207000000000,"state":"active","ping":181},{"user_id":406,"name":"Coac","steam_id":76561198085265740,"connected_time":1122000000000,"state":"active","ping":63},{"user_id":417,"name":"Lewee","steam_id":76561198058828018,"connected_time":484000000000,"state":"active","ping":59},{"user_id":328,"name":"Fat Pigeon","steam_id":76561198817940142,"connected_time":6082000000000,"state":"active","ping":55},{"user_id":409,"name":"murderwow","steam_id":76561198024566944,"connected_time":630000000000,"state":"active","ping":106},{"user_id":382,"name":"night.s","steam_id":76561198326287823,"connected_time":2874000000000,"state":"active","ping":76},{"user_id":336,"name":"SirNeeco \u003c3","steam_id":76561198103014203,"connected_time":5899000000000,"state":"active","ping":60},{"user_id":404,"name":"ZeeRoll","steam_id":76561198131129970,"connected_time":1368000000000,"state":"active","ping":80},{"user_id":380,"name":"Bonca","steam_id":76561198137503531,"connected_time":2913000000000,"state":"active","ping":83},{"user_id":399,"name":"askulap","steam_id":76561197992018795,"connected_time":1937000000000,"state":"active","ping":75},{"user_id":415,"name":"DoctorTopLeL","steam_id":76561198088533595,"connected_time":524000000000,"state":"active","ping":112},{"user_id":392,"name":"LasagnaLarry22","steam_id":76561198089478290,"connected_time":2402000000000,"state":"active","ping":52},{"user_id":405,"name":"Mal ‚òÖ","steam_id":76561198262337669,"connected_time":1354000000000,"state":"active","ping":70},{"user_id":416,"name":"bean.ie","steam_id":76561198259076060,"connected_time":521000000000,"state":"active","ping":84},{"user_id":393,"name":"üéÑTwitch:RyukGhostlxrdüéÑ","steam_id":76561198042545324,"connected_time":2186000000000,"state":"active","ping":94},{"user_id":391,"name":"coin dexter","steam_id":76561198092376975,"connected_time":2499000000000,"state":"active","ping":48},{"user_id":423,"name":"Vinhal Keller","steam_id":76561198145589528,"connected_time":148000000000,"state":"active","ping":52}]},{"server_id":23,"name":"Uncletopia | Frankfurt | 7 | Stopwatch Beta","name_short":"frk-7","host":"frk-1.de.uncletopia.com","port":27075,"enabled":true,"region":"eu","cc":"de","latitude":50.110924,"longitude":8.682127,"reserved":0,"last_update":"0001-01-01T00:00:00Z","name_a2s":"Uncletopia | Frankfurt | 7 | Stopwatch Beta","protocol":17,"map":"pl_upward","folder":"tf","game":"Team Fortress","app_id":440,"player_count":0,"max_players":24,"Bots":0,"server_type":"Dedicated","server_os":"Linux","password":true,"vac":true,"version":"7742253","steam_id":85568392924742827,"keywords":["nocrits","nodmgspread","payload","uncletopia"],"game_id":440,"stv_port":27076,"stv_name":"Uncletopia | Frankfurt | 7 | Stopwatch Beta | STV","players":null},{"server_id":24,"name":"Uncletopia | Frankfurt | 8 | Community","name_short":"frk-8","host":"frk-1.de.uncletopia.com","port":27085,"enabled":true,"region":"eu","cc":"de","latitude":50.110924,"longitude":8.682127,"reserved":0,"last_update":"0001-01-01T00:00:00Z","name_a2s":"Uncletopia | Frankfurt | 8 | Community","protocol":17,"map":"workshop/koth_slaughter_rc1.ugc1712845210","folder":"tf","game":"Team Fortress","app_id":440,"player_count":2,"max_players":24,"Bots":0,"server_type":"Dedicated","server_os":"Linux","password":true,"vac":true,"version":"7742253","steam_id":85568392924742828,"keywords":["cp","nocrits","nodmgspread","uncletopia"],"game_id":440,"stv_port":27086,"stv_name":"Uncletopia | Frankfurt | 8 | Community | STV","players":[{"user_id":31,"name":"KaiserCat","steam_id":76561198119223212,"connected_time":1542000000000,"state":"active","ping":107},{"user_id":32,"name":"Spreewald","steam_id":76561198380013533,"connected_time":1520000000000,"state":"active","ping":45}]},{"server_id":202,"name":"Uncletopia | Hong Kong | 1 | All Maps","name_short":"hgk-1","host":"hgk-1.hk.uncletopia.com","port":27015,"enabled":true,"region":"asia","cc":"hk","latitude":22.302711,"longitude":114.177216,"reserved":0,"last_update":"0001-01-01T00:00:00Z","name_a2s":"Uncletopia | Hong Kong | 1 | All Maps","protocol":17,"map":"cp_dustbowl","folder":"tf","game":"Team Fortress","app_id":440,"player_count":7,"max_players":24,"Bots":0,"server_type":"Dedicated","server_os":"Linux","password":true,"vac":true,"version":"7742253","steam_id":85568392924494504,"keywords":["cp","nocrits","nodmgspread","uncletopia"],"game_id":440,"stv_port":27016,"stv_name":"Uncletopia | Hong Kong | 1 | All Maps | STV","players":[{"user_id":1300,"name":"CroJio","steam_id":76561198334634172,"connected_time":5119000000000,"state":"active","ping":132},{"user_id":1297,"name":"PINKMAN!!!","steam_id":76561198347997204,"connected_time":5472000000000,"state":"active","ping":168},{"user_id":1323,"name":"ivaylopetrov1044","steam_id":76561199121557088,"connected_time":352000000000,"state":"active","ping":314},{"user_id":1301,"name":"fuck you ^.^","steam_id":76561198141630395,"connected_time":4997000000000,"state":"active","ping":120},{"user_id":1319,"name":"lilac - whitearmor","steam_id":76561198306834480,"connected_time":1539000000000,"state":"active","ping":86},{"user_id":1311,"name":"June Frits","steam_id":76561199422972321,"connected_time":3006000000000,"state":"active","ping":67},{"user_id":1312,"name":"Jack Of All Trades","steam_id":76561199273837625,"connected_time":2963000000000,"state":"active","ping":112}]},{"server_id":1,"name":"Uncletopia | Los Angeles | 1 | All Maps","name_short":"lax-1","host":"lax-1.us.uncletopia.com","port":27015,"enabled":true,"region":"us-west","cc":"us","latitude":33.94279,"longitude":-118.41004,"reserved":0,"last_update":"0001-01-01T00:00:00Z","name_a2s":"Uncletopia | Los Angeles | 1 | All Maps","protocol":17,"map":"cp_dustbowl","folder":"tf","game":"Team Fortress","app_id":440,"player_count":0,"max_players":24,"Bots":0,"server_type":"Dedicated","server_os":"Linux","password":true,"vac":true,"version":"7742253","steam_id":85568392924469991,"keywords":["cp","nocrits","nodmgspread","uncletopia"],"game_id":440,"stv_port":27016,"stv_name":"Uncletopia | Los Angeles | 1 | All Maps | STV","players":null},{"server_id":112,"name":"Uncletopia | Los Angeles | 2 | All Maps","name_short":"lax-2","host":"lax-1.us.uncletopia.com","port":27025,"enabled":true,"region":"us-west","cc":"us","latitude":33.94279,"longitude":-118.41004,"reserved":0,"last_update":"0001-01-01T00:00:00Z","name_a2s":"Uncletopia | Los Angeles | 2 | All Maps","protocol":17,"map":"pl_frontier_final","folder":"tf","game":"Team Fortress","app_id":440,"player_count":0,"max_players":24,"Bots":0,"server_type":"Dedicated","server_os":"Linux","password":true,"vac":true,"version":"7742253","steam_id":85568392924469992,"keywords":["nocrits","nodmgspread","payload","uncletopia"],"game_id":440,"stv_port":27026,"stv_name":"Uncletopia | Los Angeles | 2 | All Maps | STV","players":null},{"server_id":324,"name":"Uncletopia | Los Angeles | 3 | All Maps","name_short":"lax-3","host":"lax-1.us.uncletopia.com","port":27035,"enabled":true,"region":"us-west","cc":"us","latitude":33.94279,"longitude":-118.41004,"reserved":0,"last_update":"0001-01-01T00:00:00Z","name_a2s":"Uncletopia | Los Angeles | 3 | All Maps","protocol":17,"map":"cp_snakewater_final1","folder":"tf","game":"Team Fortress","app_id":440,"player_count":0,"max_players":24,"Bots":0,"server_type":"Dedicated","server_os":"Linux","password":true,"vac":true,"version":"7742253","steam_id":85568392924510198,"keywords":["cp","nocrits","nodmgspread","uncletopia"],"game_id":440,"stv_port":27036,"stv_name":"Uncletopia | Los Angeles | 3 | All Maps | STV","players":null},{"server_id":25,"name":"Uncletopia | Los Angeles | 4 | Stopwatch Beta","name_short":"lax-4","host":"lax-1.us.uncletopia.com","port":27045,"enabled":true,"region":"us-west","cc":"us","latitude":33.94279,"longitude":-118.41004,"reserved":0,"last_update":"0001-01-01T00:00:00Z","name_a2s":"Uncletopia | Los Angeles | 4 | Stopwatch Beta","protocol":17,"map":"cp_snakewater_final1","folder":"tf","game":"Team Fortress","app_id":440,"player_count":0,"max_players":24,"Bots":0,"server_type":"Dedicated","server_os":"Linux","password":true,"vac":true,"version":"7742253","steam_id":85568392924510199,"keywords":["cp","nocrits","nodmgspread","uncletopia"],"game_id":440,"stv_port":27046,"stv_name":"Uncletopia | Los Angeles | 4 | Stopwatch Beta | STV","players":null},{"server_id":11,"name":"Uncletopia | London | 1 | All Maps","name_short":"lon-1","host":"lon-1.uk.uncletopia.com","port":27015,"enabled":true,"region":"eu","cc":"gb","latitude":51.509865,"longitude":-0.118092,"reserved":0,"last_update":"0001-01-01T00:00:00Z","name_a2s":"Uncletopia | London | 1 | All Maps","protocol":17,"map":"pl_upward","folder":"tf","game":"Team Fortress","app_id":440,"player_count":24,"max_players":24,"Bots":0,"server_type":"Dedicated","server_os":"Linux","password":true,"vac":true,"version":"7742253","steam_id":85568392924367362,"keywords":["nocrits","nodmgspread","payload","uncletopia"],"game_id":440,"stv_port":27016,"stv_name":"Uncletopia | London | 1 | All Maps | STV","players":[{"user_id":433,"name":"Zateske","steam_id":76561198047446276,"connected_time":3085000000000,"state":"active","ping":70},{"user_id":456,"name":"Artemis","steam_id":76561198199091801,"connected_time":2035000000000,"state":"active","ping":46},{"user_id":440,"name":"Akvo","steam_id":76561198122584358,"connected_time":3036000000000,"state":"active","ping":46},{"user_id":469,"name":"Orange Cube","steam_id":76561198132134056,"connected_time":616000000000,"state":"active","ping":63},{"user_id":470,"name":"monikka","steam_id":76561198297003397,"connected_time":616000000000,"state":"active","ping":65},{"user_id":473,"name":"OnniVonManni","steam_id":76561198012236005,"connected_time":494000000000,"state":"active","ping":100},{"user_id":434,"name":"holmes6007","steam_id":76561198200075734,"connected_time":3080000000000,"state":"active","ping":61},{"user_id":474,"name":"Son Goku","steam_id":76561199383437138,"connected_time":487000000000,"state":"active","ping":120},{"user_id":84,"name":"BarrackOmaha","steam_id":76561198027922724,"connected_time":20174000000000,"state":"active","ping":70},{"user_id":416,"name":"Tasukeru","steam_id":76561198011909704,"connected_time":3947000000000,"state":"active","ping":58},{"user_id":478,"name":"Relocation Agent","steam_id":76561198026133917,"connected_time":163000000000,"state":"active","ping":104},{"user_id":425,"name":"hello my name is devil may cry","steam_id":76561198115106008,"connected_time":3406000000000,"state":"active","ping":52},{"user_id":444,"name":"non_ai","steam_id":76561198270951938,"connected_time":2909000000000,"state":"active","ping":110},{"user_id":475,"name":"wolfgang","steam_id":76561199111818670,"connected_time":407000000000,"state":"active","ping":92},{"user_id":457,"name":"‚ú™ J4Ck0","steam_id":76561198094911581,"connected_time":2035000000000,"state":"active","ping":49},{"user_id":459,"name":"jones","steam_id":76561198073975078,"connected_time":1989000000000,"state":"active","ping":51},{"user_id":443,"name":"Madetter_","steam_id":76561198067838929,"connected_time":2953000000000,"state":"active","ping":78},{"user_id":462,"name":"Shabab","steam_id":76561198095932210,"connected_time":1293000000000,"state":"active","ping":60},{"user_id":318,"name":"Real (Real)","steam_id":76561198323425034,"connected_time":6571000000000,"state":"active","ping":65},{"user_id":476,"name":"swueuws","steam_id":76561198020716743,"connected_time":239000000000,"state":"active","ping":60},{"user_id":477,"name":"VioBeeyo ‚ô•","steam_id":76561198066258544,"connected_time":197000000000,"state":"active","ping":90},{"user_id":321,"name":"galad.game","steam_id":76561198336324159,"connected_time":6530000000000,"state":"active","ping":57},{"user_id":468,"name":"heatburn","steam_id":76561198019001992,"connected_time":983000000000,"state":"active","ping":52},{"user_id":450,"name":"kreeekz","steam_id":76561198014431602,"connected_time":2654000000000,"state":"active","ping":80}]},{"server_id":114,"name":"Uncletopia | London | 2 | All Maps","name_short":"lon-2","host":"lon-1.uk.uncletopia.com","port":27025,"enabled":true,"region":"eu","cc":"gb","latitude":51.509865,"longitude":-0.118092,"reserved":0,"last_update":"0001-01-01T00:00:00Z","name_a2s":"Uncletopia | London | 2 | All Maps","protocol":17,"map":"pl_upward","folder":"tf","game":"Team Fortress","app_id":440,"player_count":24,"max_players":24,"Bots":0,"server_type":"Dedicated","server_os":"Linux","password":true,"vac":true,"version":"7742253","steam_id":85568392924470941,"keywords":["nocrits","nodmgspread","payload","uncletopia"],"game_id":440,"stv_port":27026,"stv_name":"Uncletopia | London | 2 | All Maps | STV","players":[{"user_id":266,"name":"your opinion \u003c my shit after a ","steam_id":76561198152620745,"connected_time":884000000000,"state":"active","ping":52},{"user_id":274,"name":"PuregoldSTF","steam_id":76561198220182655,"connected_time":203000000000,"state":"active","ping":34},{"user_id":275,"name":"Chad IV","steam_id":76561198107767058,"connected_time":107000000000,"state":"active","ping":88},{"user_id":267,"name":"chickenoidi0DEMDb","steam_id":76561198449498382,"connected_time":677000000000,"state":"active","ping":77},{"user_id":187,"name":"Sipsu","steam_id":76561198059424107,"connected_time":6491000000000,"state":"active","ping":88},{"user_id":255,"name":"dairy","steam_id":76561198117033273,"connected_time":1238000000000,"state":"active","ping":62},{"user_id":244,"name":"Curlew","steam_id":76561198075884540,"connected_time":1482000000000,"state":"active","ping":77},{"user_id":273,"name":"mangoface","steam_id":76561199028760996,"connected_time":268000000000,"state":"active","ping":77},{"user_id":261,"name":"Amtonb","steam_id":76561198804301043,"connected_time":1031000000000,"state":"active","ping":59},{"user_id":259,"name":"Jamie Hyneman","steam_id":76561198364121077,"connected_time":1067000000000,"state":"active","ping":90},{"user_id":254,"name":"xiiski","steam_id":76561198152387747,"connected_time":1296000000000,"state":"active","ping":107},{"user_id":232,"name":"tactical783","steam_id":76561199051688560,"connected_time":2751000000000,"state":"active","ping":62},{"user_id":242,"name":"Jan „Ç∏„É£„É≥","steam_id":76561198030180053,"connected_time":1499000000000,"state":"active","ping":89},{"user_id":268,"name":"Jyghc\u003c/3","steam_id":76561198405980575,"connected_time":491000000000,"state":"active","ping":78},{"user_id":264,"name":"brtaba","steam_id":76561198796334790,"connected_time":975000000000,"state":"active","ping":67},{"user_id":265,"name":"Max „ÉÑ","steam_id":76561198060678812,"connected_time":944000000000,"state":"active","ping":85},{"user_id":249,"name":"TylowStar","steam_id":76561198357107806,"connected_time":1413000000000,"state":"active","ping":75},{"user_id":262,"name":"Xydran","steam_id":76561198042397402,"connected_time":1031000000000,"state":"active","ping":69},{"user_id":263,"name":"Bluetooth Headphones gaming","steam_id":76561198848650365,"connected_time":1011000000000,"state":"active","ping":78},{"user_id":270,"name":"THG l B√∂rni(GER)","steam_id":76561198040938112,"connected_time":365000000000,"state":"active","ping":54},{"user_id":217,"name":"Butt Hurling","steam_id":76561198093229786,"connected_time":4580000000000,"state":"active","ping":82},{"user_id":256,"name":"Shima","steam_id":76561199042470246,"connected_time":1233000000000,"state":"active","ping":69},{"user_id":89,"name":"Sneaky boi","steam_id":76561199195985387,"connected_time":12757000000000,"state":"active","ping":97},{"user_id":210,"name":"Tort","steam_id":76561198329646769,"connected_time":5155000000000,"state":"active","ping":48}]},{"server_id":320,"name":"Uncletopia | London | 3 | All Maps","name_short":"lon-3","host":"lon-1.uk.uncletopia.com","port":27035,"enabled":true,"region":"eu","cc":"gb","latitude":51.509865,"longitude":-0.118092,"reserved":0,"last_update":"0001-01-01T00:00:00Z","name_a2s":"Uncletopia | London | 3 | All Maps","protocol":17,"map":"pl_badwater","folder":"tf","game":"Team Fortress","app_id":440,"player_count":4,"max_players":24,"Bots":0,"server_type":"Dedicated","server_os":"Linux","password":true,"vac":true,"version":"7742253","steam_id":85568392924510192,"keywords":["nocrits","nodmgspread","payload","uncletopia"],"game_id":440,"stv_port":27036,"stv_name":"Uncletopia | London | 3 | All Maps | STV","players":[{"user_id":41,"name":"clems17","steam_id":76561199420685482,"connected_time":566000000000,"state":"active","ping":58},{"user_id":42,"name":"Yony","steam_id":76561199070569941,"connected_time":548000000000,"state":"active","ping":61},{"user_id":43,"name":"i love tf2!!!!!!!!","steam_id":76561198861222638,"connected_time":515000000000,"state":"active","ping":104},{"user_id":40,"name":"Artock","steam_id":76561198808599713,"connected_time":745000000000,"state":"active","ping":89}]},{"server_id":321,"name":"Uncletopia | London | 4 | All Maps","name_short":"lon-4","host":"lon-1.uk.uncletopia.com","port":27045,"enabled":true,"region":"eu","cc":"gb","latitude":51.509865,"longitude":-0.118092,"reserved":0,"last_update":"0001-01-01T00:00:00Z","name_a2s":"Uncletopia | London | 4 | All Maps","protocol":17,"map":"pl_borneo","folder":"tf","game":"Team Fortress","app_id":440,"player_count":24,"max_players":24,"Bots":0,"server_type":"Dedicated","server_os":"Linux","password":true,"vac":true,"version":"7742253","steam_id":85568392924510193,"keywords":["nocrits","nodmgspread","payload","uncletopia"],"game_id":440,"stv_port":27046,"stv_name":"Uncletopia | London | 4 | All Maps | STV","players":[{"user_id":601,"name":"Toaster1337","steam_id":76561198103706881,"connected_time":613000000000,"state":"active","ping":62},{"user_id":536,"name":"blstd","steam_id":76561199224409545,"connected_time":4271000000000,"state":"active","ping":66},{"user_id":564,"name":"battlekruiser","steam_id":76561198061907053,"connected_time":3619000000000,"state":"active","ping":88},{"user_id":566,"name":"ViktorYoshi","steam_id":76561199157555246,"connected_time":3589000000000,"state":"active","ping":64},{"user_id":556,"name":"Henk_de_Patatman","steam_id":76561198070103191,"connected_time":3722000000000,"state":"active","ping":42},{"user_id":603,"name":"KhorneBread Ô∏ª„Éá ‰∏Ä","steam_id":76561198097069958,"connected_time":575000000000,"state":"active","ping":127},{"user_id":558,"name":"average f2p","steam_id":76561199136308055,"connected_time":3692000000000,"state":"active","ping":57},{"user_id":586,"name":"gucci faceslap","steam_id":76561198174946801,"connected_time":2433000000000,"state":"active","ping":95},{"user_id":578,"name":"wickEd_","steam_id":76561198048068999,"connected_time":3102000000000,"state":"active","ping":139},{"user_id":590,"name":"Julez","steam_id":76561198045505082,"connected_time":2223000000000,"state":"active","ping":79},{"user_id":609,"name":"nuggets","steam_id":76561199040253415,"connected_time":213000000000,"state":"active","ping":33},{"user_id":610,"name":"Millzy","steam_id":76561198282704851,"connected_time":152000000000,"state":"active","ping":40},{"user_id":591,"name":"ShoobyDooby","steam_id":76561198118473910,"connected_time":1906000000000,"state":"active","ping":49},{"user_id":579,"name":"Richard Hammond","steam_id":76561199223016965,"connected_time":3077000000000,"state":"active","ping":51},{"user_id":611,"name":"JaZx_","steam_id":76561198377400273,"connected_time":105000000000,"state":"active","ping":57},{"user_id":604,"name":"cheezy27","steam_id":76561198071067236,"connected_time":564000000000,"state":"active","ping":80},{"user_id":595,"name":"p!ke","steam_id":76561198416081952,"connected_time":1277000000000,"state":"active","ping":64},{"user_id":563,"name":"Urantij","steam_id":76561198047920299,"connected_time":3628000000000,"state":"active","ping":129},{"user_id":565,"name":"Haru","steam_id":76561198201880564,"connected_time":3604000000000,"state":"active","ping":45},{"user_id":533,"name":"Soldier","steam_id":76561198970762992,"connected_time":4688000000000,"state":"active","ping":70},{"user_id":602,"name":"Nnyllazxz","steam_id":76561198247797436,"connected_time":613000000000,"state":"active","ping":130},{"user_id":608,"name":"–®–∞–ø–∫–∞ #TeamComtress","steam_id":76561198368792603,"connected_time":285000000000,"state":"active","ping":76},{"user_id":593,"name":"Ivun","steam_id":76561198250199228,"connected_time":1586000000000,"state":"active","ping":137},{"user_id":606,"name":":)","steam_id":76561198103988618,"connected_time":560000000000,"state":"active","ping":59}]},{"server_id":21,"name":"Uncletopia | London | 5 | All Maps","name_short":"lon-5","host":"lon-1.uk.uncletopia.com","port":27055,"enabled":true,"region":"eu","cc":"gb","latitude":51.509865,"longitude":-0.118092,"reserved":0,"last_update":"0001-01-01T00:00:00Z","name_a2s":"Uncletopia | London | 5 | All Maps","protocol":17,"map":"cp_mountainlab","folder":"tf","game":"Team Fortress","app_id":440,"player_count":0,"max_players":24,"Bots":0,"server_type":"Dedicated","server_os":"Linux","password":true,"vac":true,"version":"7742253","steam_id":85568392924742829,"keywords":["cp","nocrits","nodmgspread","uncletopia"],"game_id":440,"stv_port":27056,"stv_name":"Uncletopia | London | 5 | All Maps | STV","players":null},{"server_id":22,"name":"Uncletopia | London | 6 | All Maps","name_short":"lon-6","host":"lon-1.uk.uncletopia.com","port":27065,"enabled":true,"region":"eu","cc":"gb","latitude":51.509865,"longitude":-0.118092,"reserved":0,"last_update":"0001-01-01T00:00:00Z","name_a2s":"Uncletopia | London | 6 | All Maps","protocol":17,"map":"cp_dustbowl","folder":"tf","game":"Team Fortress","app_id":440,"player_count":24,"max_players":24,"Bots":0,"server_type":"Dedicated","server_os":"Linux","password":true,"vac":true,"version":"7742253","steam_id":85568392924742830,"keywords":["cp","nocrits","nodmgspread","uncletopia"],"game_id":440,"stv_port":27066,"stv_name":"Uncletopia | London | 6 | All Maps | STV","players":[{"user_id":236,"name":"Uncle Lame","steam_id":76561198089003514,"connected_time":341000000000,"state":"active","ping":60},{"user_id":233,"name":"Ecton","steam_id":76561198025103720,"connected_time":522000000000,"state":"active","ping":56},{"user_id":237,"name":"Aphex triplet","steam_id":76561198047725816,"connected_time":323000000000,"state":"active","ping":57},{"user_id":220,"name":"bubblojoe","steam_id":76561198044534119,"connected_time":839000000000,"state":"active","ping":46},{"user_id":238,"name":"Ender w","steam_id":76561198160747515,"connected_time":316000000000,"state":"active","ping":82},{"user_id":209,"name":"Micha≈Ç","steam_id":76561198320346362,"connected_time":1511000000000,"state":"active","ping":71},{"user_id":154,"name":"i am bread","steam_id":76561199180277321,"connected_time":5797000000000,"state":"active","ping":42},{"user_id":239,"name":"ribs","steam_id":76561198354735240,"connected_time":315000000000,"state":"active","ping":53},{"user_id":225,"name":"Nyanzey","steam_id":76561198872362188,"connected_time":775000000000,"state":"active","ping":57},{"user_id":224,"name":"\u003e////\u003c","steam_id":76561199216923710,"connected_time":793000000000,"state":"active","ping":138},{"user_id":199,"name":"She/They Nasty","steam_id":76561198164590576,"connected_time":1895000000000,"state":"active","ping":34},{"user_id":229,"name":"Yume","steam_id":76561198296383562,"connected_time":721000000000,"state":"active","ping":49},{"user_id":240,"name":"„Äå‚óÜRaku‚Ä¢ „Äç","steam_id":76561198059283183,"connected_time":259000000000,"state":"active","ping":82},{"user_id":196,"name":"top 5 trol (you wont believe #2","steam_id":76561198203486600,"connected_time":1975000000000,"state":"active","ping":46},{"user_id":241,"name":"Pain in a Box","steam_id":76561197990777173,"connected_time":238000000000,"state":"active","ping":75},{"user_id":234,"name":"Branide pirate","steam_id":76561198133716900,"connected_time":502000000000,"state":"active","ping":45},{"user_id":191,"name":"Kiki Mac","steam_id":76561198007462534,"connected_time":2527000000000,"state":"active","ping":52},{"user_id":235,"name":"EIGHT PACK","steam_id":76561198445705497,"connected_time":493000000000,"state":"active","ping":55},{"user_id":230,"name":"Osmo","steam_id":76561199286764992,"connected_time":629000000000,"state":"active","ping":94},{"user_id":242,"name":"SK:NaikoN Piss|xit?","steam_id":76561199033423134,"connected_time":221000000000,"state":"active","ping":76},{"user_id":194,"name":"Big They/Them is watching YOU","steam_id":76561198307598168,"connected_time":1998000000000,"state":"active","ping":52},{"user_id":232,"name":"Marc","steam_id":76561198869851742,"connected_time":615000000000,"state":"active","ping":75},{"user_id":193,"name":"LOBZIK","steam_id":76561198114830120,"connected_time":2191000000000,"state":"active","ping":78},{"user_id":204,"name":"Sunshine Moon","steam_id":76561198022604491,"connected_time":1806000000000,"state":"active","ping":43}]},{"server_id":40,"name":"Uncletopia | London | 7 | No Payload","name_short":"lon-7","host":"lon-1.uk.uncletopia.com","port":27075,"enabled":true,"region":"eu","cc":"gb","latitude":51.509865,"longitude":-0.118092,"reserved":0,"last_update":"0001-01-01T00:00:00Z","name_a2s":"Uncletopia | London | 7 | No Payload","protocol":17,"map":"koth_suijin","folder":"tf","game":"Team Fortress","app_id":440,"player_count":18,"max_players":24,"Bots":0,"server_type":"Dedicated","server_os":"Linux","password":true,"vac":true,"version":"7742253","steam_id":85568392924964314,"keywords":["cp","nocrits","nodmgspread","uncletopia"],"game_id":440,"stv_port":27076,"stv_name":"Uncletopia | London | 7 | No Payload | STV","players":[{"user_id":170,"name":"–†—É–∏–Ω–µ—Ä","steam_id":76561198166980992,"connected_time":651000000000,"state":"active","ping":109},{"user_id":167,"name":"YourDoom","steam_id":76561198080790857,"connected_time":860000000000,"state":"active","ping":45},{"user_id":173,"name":"woogle","steam_id":76561198324301046,"connected_time":621000000000,"state":"active","ping":139},{"user_id":180,"name":"Zose","steam_id":76561198027731451,"connected_time":209000000000,"state":"active","ping":61},{"user_id":174,"name":"—Ç–æ–ª—è","steam_id":76561199098518615,"connected_time":609000000000,"state":"active","ping":85},{"user_id":176,"name":"MyFirstTimeeeeelel","steam_id":76561199235376543,"connected_time":563000000000,"state":"active","ping":70},{"user_id":182,"name":"eemau","steam_id":76561198018770588,"connected_time":192000000000,"state":"active","ping":71},{"user_id":184,"name":"Lupo Lycanth","steam_id":76561198006472956,"connected_time":128000000000,"state":"active","ping":53},{"user_id":61,"name":"Welder","steam_id":76561198355300561,"connected_time":5953000000000,"state":"active","ping":70},{"user_id":185,"name":"Summers","steam_id":76561199161028679,"connected_time":63000000000,"state":"active","ping":66},{"user_id":186,"name":"MR_JONHSON","steam_id":76561199198894168,"connected_time":45000000000,"state":"active","ping":60},{"user_id":187,"name":"pumba","steam_id":76561198033024111,"connected_time":19000000000,"state":"active","ping":55},{"user_id":118,"name":"Munibe","steam_id":76561198107967904,"connected_time":3224000000000,"state":"active","ping":67},{"user_id":154,"name":"high priest","steam_id":76561198344887031,"connected_time":1589000000000,"state":"active","ping":59},{"user_id":157,"name":"Rat, the ungodly rat #SaveTF2","steam_id":76561199126577423,"connected_time":1291000000000,"state":"active","ping":69},{"user_id":158,"name":"Nobaddy","steam_id":76561198037871007,"connected_time":1268000000000,"state":"active","ping":69},{"user_id":159,"name":"Ice Tea","steam_id":76561199180744278,"connected_time":1255000000000,"state":"active","ping":73},{"user_id":160,"name":"D-113CR","steam_id":76561198219174052,"connected_time":1248000000000,"state":"active","ping":56}]},{"server_id":41,"name":"Uncletopia | London | 8 | Community","name_short":"lon-8","host":"lon-1.uk.uncletopia.com","port":27085,"enabled":true,"region":"eu","cc":"gb","latitude":51.509865,"longitude":-0.118092,"reserved":0,"last_update":"0001-01-01T00:00:00Z","name_a2s":"Uncletopia | London | 8 | Community","protocol":17,"map":"workshop/koth_ashville_final.ugc2130459942","folder":"tf","game":"Team Fortress","app_id":440,"player_count":0,"max_players":24,"Bots":0,"server_type":"Dedicated","server_os":"Linux","password":true,"vac":true,"version":"7742253","steam_id":85568392924964315,"keywords":["cp","nocrits","nodmgspread","uncletopia"],"game_id":440,"stv_port":27086,"stv_name":"Uncletopia | London | 8 | Community | STV","players":null},{"server_id":300,"name":"Uncletopia | Montr√©al | 1 | All Maps","name_short":"mtl-1","host":"mtl-1.ca.uncletopia.com","port":27015,"enabled":true,"region":"us-east","cc":"ca","latitude":45.50889,"longitude":-73.56167,"reserved":0,"last_update":"0001-01-01T00:00:00Z","name_a2s":"Uncletopia | Montr√©al | 1 | All Maps","protocol":17,"map":"cp_snakewater_final1","folder":"tf","game":"Team Fortress","app_id":440,"player_count":0,"max_players":24,"Bots":0,"server_type":"Dedicated","server_os":"Linux","password":true,"vac":true,"version":"7742253","steam_id":85568392924500087,"keywords":["cp","nocrits","nodmgspread","uncletopia"],"game_id":440,"stv_port":27016,"stv_name":"Uncletopia | Montr√©al | 1 | All Maps | STV","players":null},{"server_id":301,"name":"Uncletopia | Montr√©al | 2 | All Maps","name_short":"mtl-2","host":"mtl-1.ca.uncletopia.com","port":27025,"enabled":true,"region":"us-east","cc":"ca","latitude":45.50889,"longitude":-73.56167,"reserved":0,"last_update":"0001-01-01T00:00:00Z","name_a2s":"Uncletopia | Montr√©al | 2 | All Maps","protocol":17,"map":"koth_highpass","folder":"tf","game":"Team Fortress","app_id":440,"player_count":0,"max_players":24,"Bots":0,"server_type":"Dedicated","server_os":"Linux","password":true,"vac":true,"version":"7742253","steam_id":85568392924500088,"keywords":["cp","nocrits","nodmgspread","uncletopia"],"game_id":440,"stv_port":27026,"stv_name":"Uncletopia | Montr√©al | 2 | All Maps | STV","players":null},{"server_id":302,"name":"Uncletopia | Montr√©al | 3 | All Maps","name_short":"mtl-3","host":"mtl-1.ca.uncletopia.com","port":27035,"enabled":true,"region":"us-east","cc":"ca","latitude":45.50889,"longitude":-73.56167,"reserved":0,"last_update":"0001-01-01T00:00:00Z","name_a2s":"Uncletopia | Montr√©al | 3 | All Maps","protocol":17,"map":"cp_mountainlab","folder":"tf","game":"Team Fortress","app_id":440,"player_count":0,"max_players":24,"Bots":0,"server_type":"Dedicated","server_os":"Linux","password":true,"vac":true,"version":"7742253","steam_id":85568392924500089,"keywords":["cp","nocrits","nodmgspread","uncletopia"],"game_id":440,"stv_port":27036,"stv_name":"Uncletopia | Montr√©al | 3 | All Maps | STV","players":null},{"server_id":303,"name":"Uncletopia | Montr√©al | 4 | No Payload","name_short":"mtl-4","host":"mtl-1.ca.uncletopia.com","port":27045,"enabled":true,"region":"us-east","cc":"ca","latitude":45.50889,"longitude":-73.56167,"reserved":0,"last_update":"0001-01-01T00:00:00Z","name_a2s":"Uncletopia | Montr√©al | 4 | No Payload","protocol":17,"map":"cp_snakewater_final1","folder":"tf","game":"Team Fortress","app_id":440,"player_count":0,"max_players":24,"Bots":0,"server_type":"Dedicated","server_os":"Linux","password":true,"vac":true,"version":"7742253","steam_id":85568392924500090,"keywords":["cp","nocrits","nodmgspread","uncletopia"],"game_id":440,"stv_port":27046,"stv_name":"Uncletopia | Montr√©al | 4 | No Payload | STV","players":null},{"server_id":13,"name":"Uncletopia | New York City | 1 | All Maps","name_short":"nyc-1","host":"nyc-1.us.uncletopia.com","port":27015,"enabled":true,"region":"us-east","cc":"us","latitude":40.73061,"longitude":-73.93524,"reserved":0,"last_update":"0001-01-01T00:00:00Z","name_a2s":"Uncletopia | New York City | 1 | All Maps","protocol":17,"map":"koth_highpass","folder":"tf","game":"Team Fortress","app_id":440,"player_count":0,"max_players":24,"Bots":0,"server_type":"Dedicated","server_os":"Linux","password":true,"vac":true,"version":"7742253","steam_id":85568392924469993,"keywords":["cp","nocrits","nodmgspread","uncletopia"],"game_id":440,"stv_port":27016,"stv_name":"Uncletopia | New York City | 1 | All Maps | STV","players":null},{"server_id":14,"name":"Uncletopia | New York City | 2 | All Maps","name_short":"nyc-2","host":"nyc-1.us.uncletopia.com","port":27025,"enabled":true,"region":"us-east","cc":"us","latitude":40.73061,"longitude":-73.93524,"reserved":0,"last_update":"0001-01-01T00:00:00Z","name_a2s":"Uncletopia | New York City | 2 | All Maps","protocol":17,"map":"cp_altitude","folder":"tf","game":"Team Fortress","app_id":440,"player_count":0,"max_players":24,"Bots":0,"server_type":"Dedicated","server_os":"Linux","password":true,"vac":true,"version":"7742253","steam_id":85568392924469994,"keywords":["cp","nocrits","nodmgspread","uncletopia"],"game_id":440,"stv_port":27026,"stv_name":"Uncletopia | New York City | 2 | All Maps | STV","players":null},{"server_id":15,"name":"Uncletopia | New York City | 3 | Stopwatch Beta","name_short":"nyc-3","host":"nyc-1.us.uncletopia.com","port":27035,"enabled":true,"region":"us-east","cc":"us","latitude":40.73061,"longitude":-73.93524,"reserved":0,"last_update":"0001-01-01T00:00:00Z","name_a2s":"Uncletopia | New York City | 3 | Stopwatch Beta","protocol":17,"map":"pl_pier","folder":"tf","game":"Team Fortress","app_id":440,"player_count":0,"max_players":24,"Bots":0,"server_type":"Dedicated","server_os":"Linux","password":true,"vac":true,"version":"7742253","steam_id":85568392924742820,"keywords":["nocrits","nodmgspread","payload","uncletopia"],"game_id":440,"stv_port":27036,"stv_name":"Uncletopia | New York City | 3 | Stopwatch Beta | STV","players":null},{"server_id":16,"name":"Uncletopia | New York City | 4 | Community","name_short":"nyc-4","host":"nyc-1.us.uncletopia.com","port":27045,"enabled":true,"region":"us-east","cc":"us","latitude":40.73061,"longitude":-73.93524,"reserved":0,"last_update":"0001-01-01T00:00:00Z","name_a2s":"Uncletopia | New York City | 4 | Community","protocol":17,"map":"koth_viaduct","folder":"tf","game":"Team Fortress","app_id":440,"player_count":0,"max_players":24,"Bots":0,"server_type":"Dedicated","server_os":"Linux","password":true,"vac":true,"version":"7742253","steam_id":85568392924742821,"keywords":["cp","nocrits","nodmgspread","uncletopia"],"game_id":440,"stv_port":27046,"stv_name":"Uncletopia | New York City | 4 | Community | STV","players":null},{"server_id":142,"name":"Uncletopia | S√£o Paulo | 1 | All Maps","name_short":"sao-1","host":"sao-1.br.uncletopia.com","port":27015,"enabled":true,"region":"sa","cc":"br","latitude":-23.533773,"longitude":-46.62529,"reserved":0,"last_update":"0001-01-01T00:00:00Z","name_a2s":"Uncletopia | S√£o Paulo | 1 | All Maps","protocol":17,"map":"koth_lakeside_final","folder":"tf","game":"Team Fortress","app_id":440,"player_count":0,"max_players":24,"Bots":0,"server_type":"Dedicated","server_os":"Linux","password":true,"vac":true,"version":"7742253","steam_id":85568392924469996,"keywords":["cp","nocrits","nodmgspread","uncletopia"],"game_id":440,"stv_port":27016,"stv_name":"Uncletopia | S√£o Paulo | 1 | All Maps | STV","players":null},{"server_id":143,"name":"Uncletopia | S√£o Paulo | 2 | All Maps","name_short":"sao-2","host":"sao-2.br.uncletopia.com","port":27015,"enabled":true,"region":"sa","cc":"br","latitude":-23.533773,"longitude":-46.62529,"reserved":0,"last_update":"0001-01-01T00:00:00Z","name_a2s":"Uncletopia | S√£o Paulo | 2 | All Maps","protocol":17,"map":"koth_viaduct","folder":"tf","game":"Team Fortress","app_id":440,"player_count":0,"max_players":24,"Bots":0,"server_type":"Dedicated","server_os":"Linux","password":true,"vac":true,"version":"7742253","steam_id":85568392924485349,"keywords":["cp","nocrits","nodmgspread","uncletopia"],"game_id":440,"stv_port":27016,"stv_name":"Uncletopia | S√£o Paulo | 2 | All Maps | STV","players":null},{"server_id":7,"name":"Uncletopia | Seattle | 1 | All Maps","name_short":"sea-1","host":"sea-1.us.uncletopia.com","port":27015,"enabled":true,"region":"us-west","cc":"us","latitude":47.608013,"longitude":-122.33517,"reserved":0,"last_update":"0001-01-01T00:00:00Z","name_a2s":"Uncletopia | Seattle | 1 | All Maps","protocol":17,"map":"pl_frontier_final","folder":"tf","game":"Team Fortress","app_id":440,"player_count":0,"max_players":24,"Bots":0,"server_type":"Dedicated","server_os":"Linux","password":true,"vac":true,"version":"7742253","steam_id":85568392924469997,"keywords":["nocrits","nodmgspread","payload","uncletopia"],"game_id":440,"stv_port":27016,"stv_name":"Uncletopia | Seattle | 1 | All Maps | STV","players":null},{"server_id":119,"name":"Uncletopia | Seattle | 2 | All Maps","name_short":"sea-2","host":"sea-1.us.uncletopia.com","port":27025,"enabled":true,"region":"us-west","cc":"us","latitude":47.608013,"longitude":-122.33517,"reserved":0,"last_update":"0001-01-01T00:00:00Z","name_a2s":"Uncletopia | Seattle | 2 | All Maps","protocol":17,"map":"cp_sunshine","folder":"tf","game":"Team Fortress","app_id":440,"player_count":0,"max_players":24,"Bots":0,"server_type":"Dedicated","server_os":"Linux","password":true,"vac":true,"version":"7742253","steam_id":85568392924469998,"keywords":["cp","nocrits","nodmgspread","uncletopia"],"game_id":440,"stv_port":27026,"stv_name":"Uncletopia | Seattle | 2 | All Maps | STV","players":null},{"server_id":406,"name":"Uncletopia | Seattle | 3 | Stopwatch Beta","name_short":"sea-3","host":"sea-1.us.uncletopia.com","port":27035,"enabled":true,"region":"us-west","cc":"us","latitude":47.608013,"longitude":-122.33517,"reserved":0,"last_update":"0001-01-01T00:00:00Z","name_a2s":"Uncletopia | Seattle | 3 | Stopwatch Beta","protocol":17,"map":"cp_altitude","folder":"tf","game":"Team Fortress","app_id":440,"player_count":0,"max_players":24,"Bots":0,"server_type":"Dedicated","server_os":"Linux","password":true,"vac":true,"version":"7742253","steam_id":85568392924515217,"keywords":["cp","nocrits","nodmgspread","uncletopia"],"game_id":440,"stv_port":27036,"stv_name":"Uncletopia | Seattle | 3 | Stopwatch Beta | STV","players":null},{"server_id":17,"name":"Uncletopia | San Francisco | 1 | All Maps","name_short":"sfo-1","host":"sfo-1.us.uncletopia.com","port":27015,"enabled":true,"region":"us-west","cc":"us","latitude":37.77397,"longitude":-122.4313,"reserved":0,"last_update":"0001-01-01T00:00:00Z","name_a2s":"Uncletopia | San Francisco | 1 | All Maps","protocol":17,"map":"pl_snowycoast","folder":"tf","game":"Team Fortress","app_id":440,"player_count":0,"max_players":24,"Bots":0,"server_type":"Dedicated","server_os":"Linux","password":true,"vac":true,"version":"7742253","steam_id":85568392924469999,"keywords":["nocrits","nodmgspread","payload","uncletopia"],"game_id":440,"stv_port":27016,"stv_name":"Uncletopia | San Francisco | 1 | All Maps | STV","players":null},{"server_id":18,"name":"Uncletopia | San Francisco | 2 | All Maps","name_short":"sfo-2","host":"sfo-1.us.uncletopia.com","port":27025,"enabled":true,"region":"us-west","cc":"us","latitude":37.77397,"longitude":-122.4313,"reserved":0,"last_update":"0001-01-01T00:00:00Z","name_a2s":"Uncletopia | San Francisco | 2 | All Maps","protocol":17,"map":"cp_mountainlab","folder":"tf","game":"Team Fortress","app_id":440,"player_count":0,"max_players":24,"Bots":0,"server_type":"Dedicated","server_os":"Linux","password":true,"vac":true,"version":"7742253","steam_id":85568392924470000,"keywords":["cp","nocrits","nodmgspread","uncletopia"],"game_id":440,"stv_port":27026,"stv_name":"Uncletopia | San Francisco | 2 | All Maps | STV","players":null},{"server_id":19,"name":"Uncletopia | San Francisco | 3 | Stopwatch Beta","name_short":"sfo-3","host":"sfo-1.us.uncletopia.com","port":27035,"enabled":true,"region":"us-west","cc":"us","latitude":37.77397,"longitude":-122.4313,"reserved":0,"last_update":"0001-01-01T00:00:00Z","name_a2s":"Uncletopia | San Francisco | 3 | Stopwatch Beta","protocol":17,"map":"koth_lakeside_final","folder":"tf","game":"Team Fortress","app_id":440,"player_count":0,"max_players":24,"Bots":0,"server_type":"Dedicated","server_os":"Linux","password":true,"vac":true,"version":"7742253","steam_id":85568392924742824,"keywords":["cp","nocrits","nodmgspread","uncletopia"],"game_id":440,"stv_port":27036,"stv_name":"Uncletopia | San Francisco | 3 | Stopwatch Beta | STV","players":null},{"server_id":20,"name":"Uncletopia | San Francisco | 4 | Community","name_short":"sfo-4","host":"sfo-1.us.uncletopia.com","port":27045,"enabled":true,"region":"us-west","cc":"us","latitude":37.77397,"longitude":-122.4313,"reserved":0,"last_update":"0001-01-01T00:00:00Z","name_a2s":"Uncletopia | San Francisco | 4 | Community","protocol":17,"map":"cp_dustbowl","folder":"tf","game":"Team Fortress","app_id":440,"player_count":0,"max_players":24,"Bots":0,"server_type":"Dedicated","server_os":"Linux","password":true,"vac":true,"version":"7742253","steam_id":85568392924742826,"keywords":["cp","nocrits","nodmgspread","uncletopia"],"game_id":440,"stv_port":27046,"stv_name":"Uncletopia | San Francisco | 4 | Community | STV","players":null},{"server_id":141,"name":"Uncletopia | Sydney | 1 | All Maps","name_short":"syd-1","host":"syd-1.au.uncletopia.com","port":27015,"enabled":true,"region":"au","cc":"au","latitude":-33.865143,"longitude":151.2099,"reserved":0,"last_update":"0001-01-01T00:00:00Z","name_a2s":"Uncletopia | Sydney | 1 | All Maps","protocol":17,"map":"pl_badwater","folder":"tf","game":"Team Fortress","app_id":440,"player_count":0,"max_players":24,"Bots":0,"server_type":"Dedicated","server_os":"Linux","password":true,"vac":true,"version":"7742253","steam_id":85568392924470001,"keywords":["nocrits","nodmgspread","payload","uncletopia"],"game_id":440,"stv_port":27016,"stv_name":"Uncletopia | Sydney | 1 | All Maps | STV","players":null},{"server_id":123,"name":"Uncletopia | Sydney | 2 | All Maps","name_short":"syd-2","host":"syd-1.au.uncletopia.com","port":27025,"enabled":true,"region":"au","cc":"au","latitude":-33.865143,"longitude":151.2099,"reserved":0,"last_update":"0001-01-01T00:00:00Z","name_a2s":"Uncletopia | Sydney | 2 | All Maps","protocol":17,"map":"koth_viaduct","folder":"tf","game":"Team Fortress","app_id":440,"player_count":0,"max_players":24,"Bots":0,"server_type":"Dedicated","server_os":"Linux","password":true,"vac":true,"version":"7742253","steam_id":85568392924470002,"keywords":["cp","nocrits","nodmgspread","uncletopia"],"game_id":440,"stv_port":27026,"stv_name":"Uncletopia | Sydney | 2 | All Maps | STV","players":null},{"server_id":395,"name":"Uncletopia | Sydney | 3 | All Maps","name_short":"syd-3","host":"syd-1.au.uncletopia.com","port":27035,"enabled":true,"region":"au","cc":"au","latitude":-33.865143,"longitude":151.2099,"reserved":0,"last_update":"0001-01-01T00:00:00Z","name_a2s":"Uncletopia | Sydney | 3 | All Maps","protocol":17,"map":"cp_snakewater_final1","folder":"tf","game":"Team Fortress","app_id":440,"player_count":0,"max_players":24,"Bots":0,"server_type":"Dedicated","server_os":"Linux","password":true,"vac":true,"version":"7742253","steam_id":85568392925194467,"keywords":["cp","nocrits","nodmgspread","uncletopia"],"game_id":440,"stv_port":27036,"stv_name":"Uncletopia | Sydney | 3 | All Maps | STV","players":null},{"server_id":396,"name":"Uncletopia | Sydney | 4 | All Maps","name_short":"syd-4","host":"syd-1.au.uncletopia.com","port":27045,"enabled":true,"region":"au","cc":"au","latitude":-33.865143,"longitude":151.2099,"reserved":0,"last_update":"0001-01-01T00:00:00Z","name_a2s":"Uncletopia | Sydney | 4 | All Maps","protocol":17,"map":"ctf_2fort","folder":"tf","game":"Team Fortress","app_id":440,"player_count":0,"max_players":24,"Bots":0,"server_type":"Dedicated","server_os":"Linux","password":true,"vac":true,"version":"7742253","steam_id":85568392925397958,"keywords":["ctf","nocrits","nodmgspread","uncletopia"],"game_id":440,"stv_port":27046,"stv_name":"Uncletopia | Sydney | 4 | All Maps | STV","players":null},{"server_id":58,"name":"Uncletopia | Sydney | 5 | Stopwatch Beta","name_short":"syd-5","host":"syd-1.au.uncletopia.com","port":27055,"enabled":true,"region":"au","cc":"au","latitude":-33.865143,"longitude":151.2099,"reserved":0,"last_update":"0001-01-01T00:00:00Z","name_a2s":"Uncletopia | Sydney | 5 | Stopwatch Beta","protocol":17,"map":"workshop/koth_bagel_rc5.ugc2514036946","folder":"tf","game":"Team Fortress","app_id":440,"player_count":0,"max_players":24,"Bots":0,"server_type":"Dedicated","server_os":"Linux","password":true,"vac":true,"version":"7742253","steam_id":85568392925397959,"keywords":["cp","nocrits","nodmgspread","uncletopia"],"game_id":440,"stv_port":27056,"stv_name":"Uncletopia | Sydney | 5 | Stopwatch Beta | STV","players":null},{"server_id":59,"name":"Uncletopia | Sydney | 6 | Community","name_short":"syd-6","host":"syd-1.au.uncletopia.com","port":27065,"enabled":true,"region":"au","cc":"au","latitude":-33.865143,"longitude":151.2099,"reserved":0,"last_update":"0001-01-01T00:00:00Z","name_a2s":"Uncletopia | Sydney | 6 | Community","protocol":17,"map":"workshop/pl_cactuscanyon_redux_rc4b.ugc2579644293","folder":"tf","game":"Team Fortress","app_id":440,"player_count":0,"max_players":24,"Bots":0,"server_type":"Dedicated","server_os":"Linux","password":true,"vac":true,"version":"7742253","steam_id":85568392925397960,"keywords":["nocrits","nodmgspread","payload","uncletopia"],"game_id":440,"stv_port":27066,"stv_name":"Uncletopia | Sydney | 6 | Community | STV","players":null},{"server_id":49,"name":"Uncletopia | Warsaw | 1 | All Maps","name_short":"waw-1","host":"waw-1.pl.uncletopia.com","port":27015,"enabled":true,"region":"eu","cc":"pl","latitude":52.2297,"longitude":21.017532,"reserved":0,"last_update":"0001-01-01T00:00:00Z","name_a2s":"","protocol":0,"map":"","folder":"","game":"","app_id":0,"player_count":0,"max_players":0,"Bots":0,"server_type":"","server_os":"","password":false,"vac":false,"version":"","steam_id":0,"keywords":null,"game_id":0,"stv_port":0,"stv_name":"","players":null},{"server_id":50,"name":"Uncletopia | Warsaw | 2 | All Maps","name_short":"waw-2","host":"waw-1.pl.uncletopia.com","port":27025,"enabled":true,"region":"eu","cc":"pl","latitude":52.2297,"longitude":21.017532,"reserved":0,"last_update":"0001-01-01T00:00:00Z","name_a2s":"Uncletopia | Warsaw | 2 | All Maps","protocol":17,"map":"koth_lakeside_final","folder":"tf","game":"Team Fortress","app_id":440,"player_count":0,"max_players":24,"Bots":0,"server_type":"Dedicated","server_os":"Linux","password":true,"vac":true,"version":"7742253","steam_id":85568392925397851,"keywords":["cp","nocrits","nodmgspread","uncletopia"],"game_id":440,"stv_port":27026,"stv_name":"Uncletopia | Warsaw | 2 | All Maps | STV","players":null},{"server_id":51,"name":"Uncletopia | Warsaw | 3 | All Maps","name_short":"waw-3","host":"waw-1.pl.uncletopia.com","port":27035,"enabled":true,"region":"eu","cc":"pl","latitude":52.2297,"longitude":21.017532,"reserved":0,"last_update":"0001-01-01T00:00:00Z","name_a2s":"Uncletopia | Warsaw | 3 | All Maps","protocol":17,"map":"koth_cascade","folder":"tf","game":"Team Fortress","app_id":440,"player_count":0,"max_players":24,"Bots":0,"server_type":"Dedicated","server_os":"Linux","password":true,"vac":true,"version":"7742253","steam_id":85568392925397852,"keywords":["cp","nocrits","nodmgspread","uncletopia"],"game_id":440,"stv_port":27036,"stv_name":"Uncletopia | Warsaw | 3 | All Maps | STV","players":null},{"server_id":52,"name":"Uncletopia | Warsaw | 4 | All Maps","name_short":"waw-4","host":"waw-1.pl.uncletopia.com","port":27045,"enabled":true,"region":"eu","cc":"pl","latitude":52.2297,"longitude":21.017532,"reserved":0,"last_update":"0001-01-01T00:00:00Z","name_a2s":"Uncletopia | Warsaw | 4 | All Maps","protocol":17,"map":"pl_swiftwater_final1","folder":"tf","game":"Team Fortress","app_id":440,"player_count":0,"max_players":24,"Bots":0,"server_type":"Dedicated","server_os":"Linux","password":true,"vac":true,"version":"7742253","steam_id":85568392925397853,"keywords":["nocrits","nodmgspread","payload","uncletopia"],"game_id":440,"stv_port":27046,"stv_name":"Uncletopia | Warsaw | 4 | All Maps | STV","players":null},{"server_id":53,"name":"Uncletopia | Warsaw | 5 | Stopwatch Beta","name_short":"waw-5","host":"waw-1.pl.uncletopia.com","port":27055,"enabled":true,"region":"eu","cc":"pl","latitude":52.2297,"longitude":21.017532,"reserved":0,"last_update":"0001-01-01T00:00:00Z","name_a2s":"Uncletopia | Warsaw | 5 | Stopwatch Beta","protocol":17,"map":"pl_swiftwater_final1","folder":"tf","game":"Team Fortress","app_id":440,"player_count":0,"max_players":24,"Bots":0,"server_type":"Dedicated","server_os":"Linux","password":true,"vac":true,"version":"7742253","steam_id":85568392925397854,"keywords":["nocrits","nodmgspread","payload","uncletopia"],"game_id":440,"stv_port":27056,"stv_name":"Uncletopia | Warsaw | 5 | Stopwatch Beta | STV","players":null},{"server_id":54,"name":"Uncletopia | Warsaw | 6 | Community","name_short":"waw-6","host":"waw-1.pl.uncletopia.com","port":27065,"enabled":true,"region":"eu","cc":"pl","latitude":52.2297,"longitude":21.017532,"reserved":0,"last_update":"0001-01-01T00:00:00Z","name_a2s":"Uncletopia | Warsaw | 6 | Community","protocol":17,"map":"workshop/koth_ashville_final.ugc2130459942","folder":"tf","game":"Team Fortress","app_id":440,"player_count":0,"max_players":24,"Bots":0,"server_type":"Dedicated","server_os":"Linux","password":true,"vac":true,"version":"7742253","steam_id":85568392925397856,"keywords":["cp","nocrits","nodmgspread","uncletopia"],"game_id":440,"stv_port":27066,"stv_name":"Uncletopia | Warsaw | 6 | Community | STV","players":null}]}