{"status":true,"message":"","result":[{"server_id":9,"name":"Uncletopia | Atlanta | 1 | All Maps","name_short":"atl-1","host":"atl-1.us.uncletopia.com","port":27015,"enabled":true,"region":"us-east","cc":"us","latitude":33.753746,"longitude":-84.38633,"reserved":0,"last_update":"0001-01-01T00:00:00Z","name_a2s":"Uncletopia | Atlanta | 1 | All Maps","protocol":17,"map":"pl_borneo","folder":"tf","game":"Team Fortress","app_id":440,"player_count":0,"max_players":24,"Bots":0,"server_type":"Dedicated","server_os":"Linux","password":true,"vac":true,"version":"7932396","steam_id":85568392924469982,"keywords":["nocrits","nodmgspread","payload","uncletopia"],"game_id":440,"stv_port":27016,"stv_name":"Uncletopia | Atlanta | 1 | All Maps | STV","players":null},{"server_id":104,"name":"Uncletopia | Atlanta | 2 | All Maps","name_short":"atl-2","host":"atl-1.us.uncletopia.com","port":27025,"enabled":true,"region":"us-east","cc":"us","latitude":33.753746,"longitude":-84.38633,"reserved":0,"last_update":"0001-01-01T00:00:00Z","name_a2s":"Uncletopia | Atlanta | 2 | All Maps","protocol":17,"map":"cp_altitude","folder":"tf","game":"Team Fortress","app_id":440,"player_count":0,"max_players":24,"Bots":0,"server_type":"Dedicated","server_os":"Linux","password":true,"vac":true,"version":"7932396","steam_id":85568392924469983,"keywords":["cp","nocrits","nodmgspread","uncletopia"],"game_id":440,"stv_port":27026,"stv_name":"Uncletopia | Atlanta | 2 | All Maps | STV","players":null},{"server_id":400,"name":"Uncletopia | Atlanta | 3 | Community","name_short":"atl-3","host":"atl-1.us.uncletopia.com","port":27035,"enabled":true,"region":"us-east","cc":"us","latitude":33.753746,"longitude":-84.38633,"reserved":0,"last_update":"0001-01-01T00:00:00Z","name_a2s":"Uncletopia | Atlanta | 3 | Community","protocol":17,"map":"pl_badwater","folder":"tf","game":"Team Fortress","app_id":440,"player_count":0,"max_players":24,"Bots":0,"server_type":"Dedicated","server_os":"Linux","password":true,"vac":true,"version":"7932396","steam_id":85568392924515187,"keywords":["nocrits","nodmgspread","payload","uncletopia"],"game_id":440,"stv_port":27036,"stv_name":"Uncletopia | Atlanta | 3 | Community | STV","players":null},{"server_id":401,"name":"Uncletopia | Atlanta | 4 | No Payload","name_short":"atl-4","host":"atl-1.us.uncletopia.com","port":27045,"enabled":true,"region":"us-east","cc":"us","latitude":33.753746,"longitude":-84.38633,"reserved":0,"last_update":"0001-01-01T00:00:00Z","name_a2s":"","protocol":0,"map":"","folder":"","game":"","app_id":0,"player_count":0,"max_players":0,"Bots":0,"server_type":"","server_os":"","password":false,"vac":false,"version":"","steam_id":0,"keywords":null,"game_id":0,"stv_port":0,"stv_name":"","players":null},{"server_id":2,"name":"Uncletopia | Chicago | 1 | All Maps","name_short":"chi-1","host":"chi-1.us.uncletopia.com","port":27015,"enabled":true,"region":"us-central","cc":"us","latitude":41.881832,"longitude":-87.62318,"reserved":0,"last_update":"0001-01-01T00:00:00Z","name_a2s":"Uncletopia | Chicago | 1 | All Maps","protocol":17,"map":"cp_mountainlab","folder":"tf","game":"Team Fortress","app_id":440,"player_count":0,"max_players":24,"Bots":0,"server_type":"Dedicated","server_os":"Linux","password":true,"vac":true,"version":"7932396","steam_id":85568392924469984,"keywords":["cp","nocrits","nodmgspread","uncletopia"],"game_id":440,"stv_port":27016,"stv_name":"Uncletopia | Chicago | 1 | All Maps | STV","players":null},{"server_id":106,"name":"Uncletopia | Chicago | 2 | All Maps","name_short":"chi-2","host":"chi-1.us.uncletopia.com","port":27025,"enabled":true,"region":"us-central","cc":"us","latitude":41.881832,"longitude":-87.62318,"reserved":0,"last_update":"0001-01-01T00:00:00Z","name_a2s":"Uncletopia | Chicago | 2 | All Maps","protocol":17,"map":"pl_barnblitz","folder":"tf","game":"Team Fortress","app_id":440,"player_count":8,"max_players":24,"Bots":0,"server_type":"Dedicated","server_os":"Linux","password":true,"vac":true,"version":"7932396","steam_id":85568392924469985,"keywords":["nocrits","nodmgspread","payload","uncletopia"],"game_id":440,"stv_port":27026,"stv_name":"Uncletopia | Chicago | 2 | All Maps | STV","players":[{"user_id":3,"name":"The Barnyard","steam_id":76561199062074592,"connected_time":932000000000,"state":"active","ping":43},{"user_id":6,"name":"asbestos","steam_id":76561198079178866,"connected_time":150000000000,"state":"active","ping":60},{"user_id":7,"name":"William Wallace","steam_id":76561199343316814,"connected_time":93000000000,"state":"active","ping":74},{"user_id":8,"name":"Crutchletopia","steam_id":76561198046526036,"connected_time":74000000000,"state":"active","ping":103},{"user_id":9,"name":"{Arp} Ðesider","steam_id":76561198046754508,"connected_time":62000000000,"state":"active","ping":80},{"user_id":10,"name":"Chaotic Rushu","steam_id":76561198170054407,"connected_time":61000000000,"state":"active","ping":74},{"user_id":11,"name":"indi","steam_id":76561198045917538,"connected_time":42000000000,"state":"active","ping":47},{"user_id":12,"name":"Fishmonger","steam_id":76561198372237027,"connected_time":14000000000,"state":"spawning","ping":88}]},{"server_id":402,"name":"Uncletopia | Chicago | 3 | All Maps","name_short":"chi-3","host":"chi-1.us.uncletopia.com","port":27035,"enabled":true,"region":"us-central","cc":"us","latitude":41.881832,"longitude":-87.62318,"reserved":0,"last_update":"0001-01-01T00:00:00Z","name_a2s":"Uncletopia | Chicago | 3 | All Maps","protocol":17,"map":"cp_snakewater_final1","folder":"tf","game":"Team Fortress","app_id":440,"player_count":0,"max_players":24,"Bots":0,"server_type":"Dedicated","server_os":"Linux","password":true,"vac":true,"version":"7932396","steam_id":85568392924515191,"keywords":["cp","nocrits","nodmgspread","uncletopia"],"game_id":440,"stv_port":27036,"stv_name":"Uncletopia | Chicago | 3 | All Maps | STV","players":null},{"server_id":403,"name":"Uncletopia | Chicago | 4 | All Maps","name_short":"chi-4","host":"chi-1.us.uncletopia.com","port":27045,"enabled":true,"region":"us-central","cc":"us","latitude":41.881832,"longitude":-87.62318,"reserved":0,"last_update":"0001-01-01T00:00:00Z","name_a2s":"Uncletopia | Chicago | 4 | All Maps","protocol":17,"map":"pl_borneo","folder":"tf","game":"Team Fortress","app_id":440,"player_count":0,"max_players":24,"Bots":0,"server_type":"Dedicated","server_os":"Linux","password":true,"vac":true,"version":"7932396","steam_id":85568392924515193,"keywords":["nocrits","nodmgspread","payload","uncletopia"],"game_id":440,"stv_port":27046,"stv_name":"Uncletopia | Chicago | 4 | All Maps | STV","players":null},{"server_id":36,"name":"Uncletopia | Chicago | 5 | All Maps","name_short":"chi-5","host":"chi-2.us.uncletopia.com","port":27015,"enabled":true,"region":"us-central","cc":"us","latitude":41.881832,"longitude":-87.62318,"reserved":0,"last_update":"0001-01-01T00:00:00Z","name_a2s":"Uncletopia | Chicago | 5 | All Maps","protocol":17,"map":"pl_upward","folder":"tf","game":"Team Fortress","app_id":440,"player_count":24,"max_players":24,"Bots":0,"server_type":"Dedicated","server_os":"Linux","password":true,"vac":true,"version":"7932396","steam_id":85568392924866362,"keywords":["nocrits","nodmgspread","payload","uncletopia"],"game_id":440,"stv_port":27016,"stv_name":"Uncletopia | Chicago | 5 | All Maps | STV","players":[{"user_id":47,"name":"Pourpel","steam_id":76561198059125470,"connected_time":99000000000,"state":"active","ping":69},{"user_id":32,"name":"LactationStation","steam_id":76561198025855758,"connected_time":1076000000000,"state":"active","ping":90},{"user_id":21,"name":"evolutionary sleeper","steam_id":76561198125328737,"connected_time":1403000000000,"state":"active","ping":64},{"user_id":22,"name":"shadow elite","steam_id":76561198165212575,"connected_time":1393000000000,"state":"active","ping":61},{"user_id":41,"name":"AlmondMilk","steam_id":76561198151229725,"connected_time":489000000000,"state":"active","ping":62},{"user_id":24,"name":"Auto_Correct","steam_id":76561198254988078,"connected_time":1323000000000,"state":"active","ping":77},{"user_id":23,"name":"Slasher69","steam_id":76561198027679752,"connected_time":1388000000000,"state":"active","ping":79},{"user_id":25,"name":"SleepyCanary","steam_id":76561198071770434,"connected_time":1228000000000,"state":"active","ping":113},{"user_id":29,"name":"wugmup","steam_id":76561199096287734,"connected_time":1166000000000,"state":"active","ping":120},{"user_id":42,"name":"toadlover600","steam_id":76561198141642930,"connected_time":302000000000,"state":"active","ping":66},{"user_id":15,"name":"TheMrJai","steam_id":76561198123238953,"connected_time":1671000000000,"state":"active","ping":171},{"user_id":16,"name":"big cheese big boss big bro","steam_id":76561199100342013,"connected_time":1583000000000,"state":"active","ping":90},{"user_id":46,"name":"gun_slinger","steam_id":76561199052123458,"connected_time":247000000000,"state":"active","ping":96},{"user_id":28,"name":"Za Zombie","steam_id":76561198055545262,"connected_time":1172000000000,"state":"active","ping":70},{"user_id":19,"name":"Scientist005","steam_id":76561198117825609,"connected_time":1496000000000,"state":"active","ping":62},{"user_id":20,"name":"Luigi Jackson","steam_id":76561198267877246,"connected_time":1488000000000,"state":"active","ping":78},{"user_id":39,"name":"frank","steam_id":76561198045499333,"connected_time":794000000000,"state":"active","ping":60},{"user_id":31,"name":"bobbington","steam_id":76561198130086000,"connected_time":1132000000000,"state":"active","ping":105},{"user_id":49,"name":"Chorizo","steam_id":76561198208080773,"connected_time":47000000000,"state":"active","ping":116},{"user_id":34,"name":"(◎﹏◎)","steam_id":76561198007464245,"connected_time":997000000000,"state":"active","ping":72},{"user_id":44,"name":"BIGGEST MAC","steam_id":76561198847517098,"connected_time":273000000000,"state":"active","ping":85},{"user_id":37,"name":"Zero","steam_id":76561198033384990,"connected_time":843000000000,"state":"active","ping":57},{"user_id":45,"name":"|AG| Level","steam_id":76561198063633592,"connected_time":270000000000,"state":"active","ping":112}]},{"server_id":37,"name":"Uncletopia | Chicago | 6 | All Maps","name_short":"chi-6","host":"chi-2.us.uncletopia.com","port":27025,"enabled":true,"region":"us-central","cc":"us","latitude":41.881832,"longitude":-87.62318,"reserved":0,"last_update":"0001-01-01T00:00:00Z","name_a2s":"Uncletopia | Chicago | 6 | All Maps","protocol":17,"map":"pl_borneo","folder":"tf","game":"Team Fortress","app_id":440,"player_count":24,"max_players":24,"Bots":0,"server_type":"Dedicated","server_os":"Linux","password":true,"vac":true,"version":"7932396","steam_id":85568392924866363,"keywords":["nocrits","nodmgspread","payload","uncletopia"],"game_id":440,"stv_port":27026,"stv_name":"Uncletopia | Chicago | 6 | All Maps | STV","players":[{"user_id":3,"name":"daemon","steam_id":76561198001541433,"connected_time":8009000000000,"state":"active","ping":47},{"user_id":4,"name":"BenBigBalls","steam_id":76561198047389266,"connected_time":8008000000000,"state":"active","ping":102},{"user_id":103,"name":"Cruisin'","steam_id":76561199245457119,"connected_time":867000000000,"state":"active","ping":75},{"user_id":104,"name":"Starkiller","steam_id":76561198101643120,"connected_time":794000000000,"state":"active","ping":74},{"user_id":113,"name":"Shaunt","steam_id":76561198171551057,"connected_time":529000000000,"state":"active","ping":49},{"user_id":8,"name":"jooby","steam_id":76561198131065492,"connected_time":8003000000000,"state":"active","ping":60},{"user_id":105,"name":"Mog","steam_id":76561198025575870,"connected_time":773000000000,"state":"active","ping":53},{"user_id":107,"name":"Vriska Serket Liker","steam_id":76561198052017573,"connected_time":681000000000,"state":"active","ping":108},{"user_id":87,"name":"Loaf","steam_id":76561198446378419,"connected_time":3205000000000,"state":"active","ping":83},{"user_id":32,"name":"Mank","steam_id":76561198189421005,"connected_time":7026000000000,"state":"active","ping":48},{"user_id":121,"name":"Phocae {She/Her}","steam_id":76561199317584594,"connected_time":120000000000,"state":"active","ping":62},{"user_id":96,"name":"DinoGoof","steam_id":76561198998427283,"connected_time":1511000000000,"state":"active","ping":73},{"user_id":108,"name":"Imabee","steam_id":76561198032523749,"connected_time":620000000000,"state":"active","ping":116},{"user_id":120,"name":"Crunchy","steam_id":76561198240523882,"connected_time":131000000000,"state":"active","ping":100},{"user_id":100,"name":"meowfang","steam_id":76561198123056791,"connected_time":1423000000000,"state":"active","ping":66},{"user_id":111,"name":"The Great Eagle Scourge of 1822","steam_id":76561198325086209,"connected_time":549000000000,"state":"active","ping":112},{"user_id":119,"name":"35 years without a footjob...","steam_id":76561198799299193,"connected_time":154000000000,"state":"active","ping":89},{"user_id":114,"name":"Lazy_Vex","steam_id":76561198287661985,"connected_time":473000000000,"state":"active","ping":165},{"user_id":85,"name":"devmunk","steam_id":76561198090807130,"connected_time":3268000000000,"state":"active","ping":75},{"user_id":115,"name":"jalapeno handjob","steam_id":76561198123298824,"connected_time":463000000000,"state":"active","ping":93},{"user_id":116,"name":"Snake Handler","steam_id":76561198027198306,"connected_time":446000000000,"state":"active","ping":59},{"user_id":60,"name":"Freddie Mercury's Ghost","steam_id":76561198140320704,"connected_time":5043000000000,"state":"active","ping":65},{"user_id":117,"name":"CreativeUsername","steam_id":76561198186045503,"connected_time":414000000000,"state":"active","ping":59},{"user_id":118,"name":"mikey","steam_id":76561198095803763,"connected_time":293000000000,"state":"active","ping":77}]},{"server_id":38,"name":"Uncletopia | Chicago | 7 | Stopwatch Beta","name_short":"chi-7","host":"chi-2.us.uncletopia.com","port":27035,"enabled":true,"region":"us-central","cc":"us","latitude":41.881832,"longitude":-87.62318,"reserved":0,"last_update":"0001-01-01T00:00:00Z","name_a2s":"Uncletopia | Chicago | 7 | Stopwatch Beta","protocol":17,"map":"koth_highpass","folder":"tf","game":"Team Fortress","app_id":440,"player_count":0,"max_players":24,"Bots":0,"server_type":"Dedicated","server_os":"Linux","password":true,"vac":true,"version":"7932396","steam_id":85568392924866364,"keywords":["cp","nocrits","nodmgspread","uncletopia"],"game_id":440,"stv_port":27036,"stv_name":"Uncletopia | Chicago | 7 | Stopwatch Beta | STV","players":null},{"server_id":39,"name":"Uncletopia | Chicago | 8 | Community","name_short":"chi-8","host":"chi-2.us.uncletopia.com","port":27045,"enabled":true,"region":"us-central","cc":"us","latitude":41.881832,"longitude":-87.62318,"reserved":0,"last_update":"0001-01-01T00:00:00Z","name_a2s":"Uncletopia | Chicago | 8 | Community","protocol":17,"map":"pl_frontier_final","folder":"tf","game":"Team Fortress","app_id":440,"player_count":0,"max_players":24,"Bots":0,"server_type":"Dedicated","server_os":"Linux","password":true,"vac":true,"version":"7932396","steam_id":85568392924866365,"keywords":["nocrits","nodmgspread","payload","uncletopia"],"game_id":440,"stv_port":27046,"stv_name":"Uncletopia | Chicago | 8 | Community | STV","players":null},{"server_id":8,"name":"Uncletopia | Dallas | 1 | All Maps","name_short":"dal-1","host":"dal-1.us.uncletopia.com","port":27015,"enabled":true,"region":"us-central","cc":"us","latitude":32.779167,"longitude":-96.80889,"reserved":0,"last_update":"0001-01-01T00:00:00Z","name_a2s":"Uncletopia | Dallas | 1 | All Maps","protocol":17,"map":"koth_viaduct","folder":"tf","game":"Team Fortress","app_id":440,"player_count":0,"max_players":24,"Bots":0,"server_type":"Dedicated","server_os":"Linux","password":true,"vac":true,"version":"7932396","steam_id":85568392924469986,"keywords":["cp","nocrits","nodmgspread","uncletopia"],"game_id":440,"stv_port":27016,"stv_name":"Uncletopia | Dallas | 1 | All Maps | STV","players":null},{"server_id":108,"name":"Uncletopia | Dallas | 2 | All Maps","name_short":"dal-2","host":"dal-1.us.uncletopia.com","port":27025,"enabled":true,"region":"us-central","cc":"us","latitude":32.779167,"longitude":-96.80889,"reserved":0,"last_update":"0001-01-01T00:00:00Z","name_a2s":"Uncletopia | Dallas | 2 | All Maps","protocol":17,"map":"koth_lakeside_final","folder":"tf","game":"Team Fortress","app_id":440,"player_count":0,"max_players":24,"Bots":0,"server_type":"Dedicated","server_os":"Linux","password":true,"vac":true,"version":"7932396","steam_id":85568392924469988,"keywords":["cp","nocrits","nodmgspread","uncletopia"],"game_id":440,"stv_port":27026,"stv_name":"Uncletopia | Dallas | 2 | All Maps | STV","players":null},{"server_id":5,"name":"Uncletopia | Frankfurt | 1 | All Maps","name_short":"frk-1","host":"frk-1.de.uncletopia.com","port":27015,"enabled":true,"region":"eu","cc":"de","latitude":50.110924,"longitude":8.682127,"reserved":0,"last_update":"0001-01-01T00:00:00Z","name_a2s":"Uncletopia | Frankfurt | 1 | All Maps","protocol":17,"map":"pl_upward","folder":"tf","game":"Team Fortress","app_id":440,"player_count":25,"max_players":24,"Bots":0,"server_type":"Dedicated","server_os":"Linux","password":true,"vac":true,"version":"7932396","steam_id":85568392924469989,"keywords":["nocrits","nodmgspread","payload","uncletopia"],"game_id":440,"stv_port":27016,"stv_name":"Uncletopia | Frankfurt | 1 | All Maps | STV","players":[{"user_id":159,"name":"teehee","steam_id":76561198046280845,"connected_time":1859000000000,"state":"active","ping":52},{"user_id":51,"name":"す LightFlight し (she/her)","steam_id":76561198079007530,"connected_time":8811000000000,"state":"active","ping":66},{"user_id":161,"name":"eva.","steam_id":76561198054474684,"connected_time":1753000000000,"state":"active","ping":74},{"user_id":152,"name":"XxSuperPenisxX","steam_id":76561199089532056,"connected_time":2484000000000,"state":"active","ping":56},{"user_id":125,"name":"AestheticalZ","steam_id":76561198269554197,"connected_time":4363000000000,"state":"active","ping":71},{"user_id":177,"name":"Xyner","steam_id":76561199379588053,"connected_time":607000000000,"state":"active","ping":140},{"user_id":142,"name":"After8","steam_id":76561198090750865,"connected_time":2949000000000,"state":"active","ping":60},{"user_id":178,"name":"Hedge Knight","steam_id":76561198989449047,"connected_time":562000000000,"state":"active","ping":119},{"user_id":131,"name":"Suspicious Viktor","steam_id":76561198136496249,"connected_time":3773000000000,"state":"active","ping":70},{"user_id":169,"name":"Cars","steam_id":76561198173329977,"connected_time":1422000000000,"state":"active","ping":61},{"user_id":129,"name":"Daruun","steam_id":76561198019068781,"connected_time":3850000000000,"state":"active","ping":70},{"user_id":145,"name":"Jácint","steam_id":76561198118501005,"connected_time":2687000000000,"state":"active","ping":72},{"user_id":174,"name":"volkiano","steam_id":76561198319802031,"connected_time":752000000000,"state":"active","ping":60},{"user_id":137,"name":"dankerghost","steam_id":76561198838761959,"connected_time":3458000000000,"state":"active","ping":133},{"user_id":171,"name":"Urfangonultasadana","steam_id":76561199389286151,"connected_time":1210000000000,"state":"active","ping":97},{"user_id":150,"name":"vdl","steam_id":76561198044583116,"connected_time":2542000000000,"state":"active","ping":90},{"user_id":158,"name":"Gene Takovic","steam_id":76561198202990635,"connected_time":1874000000000,"state":"active","ping":60},{"user_id":179,"name":"Engi-nearingMyFcknLimit","steam_id":76561198165732391,"connected_time":549000000000,"state":"active","ping":94},{"user_id":180,"name":"Bomb Voyage","steam_id":76561198079564625,"connected_time":547000000000,"state":"active","ping":63},{"user_id":165,"name":"fernandobmwm355555","steam_id":76561198086609447,"connected_time":1665000000000,"state":"active","ping":59},{"user_id":181,"name":"QR code 78","steam_id":76561198073749509,"connected_time":479000000000,"state":"active","ping":59},{"user_id":134,"name":"njits23","steam_id":76561198031194977,"connected_time":3597000000000,"state":"active","ping":65},{"user_id":133,"name":"sunshine (he/him)","steam_id":76561198084597975,"connected_time":3691000000000,"state":"active","ping":66},{"user_id":201,"name":"Mph mmphmph","steam_id":76561198024101086,"connected_time":37000000000,"state":"spawning","ping":82},{"user_id":183,"name":"Ptahotep","steam_id":76561198008708645,"connected_time":453000000000,"state":"active","ping":57}]},{"server_id":110,"name":"Uncletopia | Frankfurt | 2 | All Maps","name_short":"frk-2","host":"frk-1.de.uncletopia.com","port":27025,"enabled":true,"region":"eu","cc":"de","latitude":50.110924,"longitude":8.682127,"reserved":0,"last_update":"0001-01-01T00:00:00Z","name_a2s":"Uncletopia | Frankfurt | 2 | All Maps","protocol":17,"map":"koth_nucleus","folder":"tf","game":"Team Fortress","app_id":440,"player_count":24,"max_players":24,"Bots":0,"server_type":"Dedicated","server_os":"Linux","password":true,"vac":true,"version":"7932396","steam_id":85568392924469990,"keywords":["cp","nocrits","nodmgspread","uncletopia"],"game_id":440,"stv_port":27026,"stv_name":"Uncletopia | Frankfurt | 2 | All Maps | STV","players":[{"user_id":180,"name":"Rezolt","steam_id":76561198069074807,"connected_time":591000000000,"state":"active","ping":115},{"user_id":146,"name":"e9","steam_id":76561198890193313,"connected_time":2308000000000,"state":"active","ping":58},{"user_id":158,"name":"soup","steam_id":76561198386933065,"connected_time":1448000000000,"state":"active","ping":63},{"user_id":182,"name":"Dr. Le Quack","steam_id":76561197995711176,"connected_time":503000000000,"state":"active","ping":76},{"user_id":184,"name":"Anzurin","steam_id":76561198043953503,"connected_time":125000000000,"state":"active","ping":63},{"user_id":183,"name":"maakgis","steam_id":76561198851703804,"connected_time":481000000000,"state":"active","ping":127},{"user_id":177,"name":"Alice","steam_id":76561198208927047,"connected_time":660000000000,"state":"active","ping":59},{"user_id":172,"name":"RiX","steam_id":76561197969053733,"connected_time":950000000000,"state":"active","ping":63},{"user_id":162,"name":"piss citizen of urk","steam_id":76561198137997056,"connected_time":1314000000000,"state":"active","ping":73},{"user_id":135,"name":"something","steam_id":76561198198581615,"connected_time":2897000000000,"state":"active","ping":72},{"user_id":100,"name":"Aubribac","steam_id":76561198057689763,"connected_time":6088000000000,"state":"active","ping":53},{"user_id":185,"name":"Captain Brexit","steam_id":76561199025230103,"connected_time":56000000000,"state":"active","ping":79},{"user_id":144,"name":"vadim_kotler","steam_id":76561199016634369,"connected_time":2463000000000,"state":"active","ping":121},{"user_id":163,"name":".::[SerafeTTiN]::.","steam_id":76561198009471724,"connected_time":1297000000000,"state":"active","ping":89},{"user_id":178,"name":"Ем щебенку","steam_id":76561198110470565,"connected_time":653000000000,"state":"active","ping":102},{"user_id":157,"name":"Asmodeus","steam_id":76561198283156425,"connected_time":1525000000000,"state":"active","ping":69},{"user_id":173,"name":"Teacup","steam_id":76561198190654091,"connected_time":949000000000,"state":"active","ping":69},{"user_id":165,"name":"Umbro","steam_id":76561198087930438,"connected_time":1283000000000,"state":"active","ping":75},{"user_id":138,"name":"[KoN] Prepare for trouble","steam_id":76561198055930135,"connected_time":2735000000000,"state":"active","ping":68},{"user_id":179,"name":"derocrecors","steam_id":76561199097905153,"connected_time":605000000000,"state":"active","ping":85},{"user_id":181,"name":"Mr.Schnittlauch","steam_id":76561198295868113,"connected_time":583000000000,"state":"active","ping":59},{"user_id":174,"name":".apo","steam_id":76561198003042239,"connected_time":931000000000,"state":"active","ping":56},{"user_id":186,"name":"Мяско","steam_id":76561198016648154,"connected_time":41000000000,"state":"active","ping":71},{"user_id":136,"name":"poika^_^","steam_id":76561199057953617,"connected_time":2858000000000,"state":"active","ping":60}]},{"server_id":308,"name":"Uncletopia | Frankfurt | 3 | All Maps","name_short":"frk-3","host":"frk-1.de.uncletopia.com","port":27035,"enabled":true,"region":"eu","cc":"de","latitude":50.110924,"longitude":8.682127,"reserved":0,"last_update":"0001-01-01T00:00:00Z","name_a2s":"Uncletopia | Frankfurt | 3 | All Maps","protocol":17,"map":"pl_borneo","folder":"tf","game":"Team Fortress","app_id":440,"player_count":24,"max_players":24,"Bots":0,"server_type":"Dedicated","server_os":"Linux","password":true,"vac":true,"version":"7932396","steam_id":85568392924504274,"keywords":["nocrits","nodmgspread","payload","uncletopia"],"game_id":440,"stv_port":27036,"stv_name":"Uncletopia | Frankfurt | 3 | All Maps | STV","players":[{"user_id":153,"name":"Happy Cat","steam_id":76561198405359788,"connected_time":943000000000,"state":"active","ping":91},{"user_id":163,"name":"dorak","steam_id":76561198818037965,"connected_time":96000000000,"state":"active","ping":111},{"user_id":97,"name":"Hexagon","steam_id":76561198151205758,"connected_time":4691000000000,"state":"active","ping":45},{"user_id":156,"name":"tonidayo","steam_id":76561198024939370,"connected_time":418000000000,"state":"active","ping":152},{"user_id":130,"name":"tl.rybar","steam_id":76561197960377282,"connected_time":2338000000000,"state":"active","ping":60},{"user_id":158,"name":"Dude Time","steam_id":76561198092991160,"connected_time":235000000000,"state":"active","ping":167},{"user_id":150,"name":"Wacht","steam_id":76561199033018467,"connected_time":1281000000000,"state":"active","ping":42},{"user_id":152,"name":"The Communist","steam_id":76561199099995357,"connected_time":1102000000000,"state":"active","ping":81},{"user_id":134,"name":"wide","steam_id":76561198875441652,"connected_time":1868000000000,"state":"active","ping":84},{"user_id":106,"name":"Dolcelatte","steam_id":76561198038501770,"connected_time":3531000000000,"state":"active","ping":58},{"user_id":127,"name":"Porridge Moisturizer","steam_id":76561198336523288,"connected_time":2981000000000,"state":"active","ping":121},{"user_id":120,"name":"Merca #savetf2","steam_id":76561198088782472,"connected_time":3214000000000,"state":"active","ping":55},{"user_id":154,"name":"Bobo","steam_id":76561198052308399,"connected_time":782000000000,"state":"active","ping":66},{"user_id":149,"name":"Watermelon","steam_id":76561198078349914,"connected_time":1352000000000,"state":"active","ping":77},{"user_id":155,"name":"Alx2k1","steam_id":76561198051544601,"connected_time":696000000000,"state":"active","ping":84},{"user_id":122,"name":"Maks","steam_id":76561198315278876,"connected_time":3114000000000,"state":"active","ping":71},{"user_id":90,"name":"beurgeur","steam_id":76561198872426314,"connected_time":5303000000000,"state":"active","ping":45},{"user_id":113,"name":":::::::::::::::::::::::::::","steam_id":76561198093458326,"connected_time":3477000000000,"state":"active","ping":60},{"user_id":161,"name":"Jonek","steam_id":76561198138529972,"connected_time":128000000000,"state":"active","ping":54},{"user_id":140,"name":"My Wife Beats Me","steam_id":76561198070137469,"connected_time":1617000000000,"state":"active","ping":87},{"user_id":162,"name":"C.H.E.R.E.P.","steam_id":76561198026938595,"connected_time":121000000000,"state":"active","ping":75},{"user_id":144,"name":"Hussain_144","steam_id":76561198346029208,"connected_time":1496000000000,"state":"active","ping":174},{"user_id":143,"name":"thicc boi","steam_id":76561198358870490,"connected_time":1550000000000,"state":"active","ping":95},{"user_id":47,"name":"fifrok","steam_id":76561198799267621,"connected_time":8207000000000,"state":"active","ping":76}]},{"server_id":309,"name":"Uncletopia | Frankfurt | 4 | All Maps","name_short":"frk-4","host":"frk-1.de.uncletopia.com","port":27045,"enabled":true,"region":"eu","cc":"de","latitude":50.110924,"longitude":8.682127,"reserved":0,"last_update":"0001-01-01T00:00:00Z","name_a2s":"Uncletopia | Frankfurt | 4 | All Maps","protocol":17,"map":"koth_lakeside_final","folder":"tf","game":"Team Fortress","app_id":440,"player_count":0,"max_players":24,"Bots":0,"server_type":"Dedicated","server_os":"Linux","password":true,"vac":true,"version":"7932396","steam_id":85568392924504275,"keywords":["cp","nocrits","nodmgspread","uncletopia"],"game_id":440,"stv_port":27046,"stv_name":"Uncletopia | Frankfurt | 4 | All Maps | STV","players":null},{"server_id":310,"name":"Uncletopia | Frankfurt | 5 | All Maps","name_short":"frk-5","host":"frk-1.de.uncletopia.com","port":27055,"enabled":true,"region":"eu","cc":"de","latitude":50.110924,"longitude":8.682127,"reserved":0,"last_update":"0001-01-01T00:00:00Z","name_a2s":"Uncletopia | Frankfurt | 5 | All Maps","protocol":17,"map":"koth_viaduct","folder":"tf","game":"Team Fortress","app_id":440,"player_count":5,"max_players":24,"Bots":0,"server_type":"Dedicated","server_os":"Linux","password":true,"vac":true,"version":"7932396","steam_id":85568392924504277,"keywords":["cp","nocrits","nodmgspread","uncletopia"],"game_id":440,"stv_port":27056,"stv_name":"Uncletopia | Frankfurt | 5 | All Maps | STV","players":[{"user_id":13,"name":"EtoGeek","steam_id":76561198020304242,"connected_time":80000000000,"state":"active","ping":54},{"user_id":4,"name":"Minister of cocks","steam_id":76561198829740342,"connected_time":1800000000000,"state":"active","ping":85},{"user_id":5,"name":"FanFish","steam_id":76561199389558024,"connected_time":1385000000000,"state":"active","ping":67},{"user_id":14,"name":"mau","steam_id":76561198389493098,"connected_time":38000000000,"state":"active","ping":141},{"user_id":10,"name":"laza's boy","steam_id":76561199074095198,"connected_time":861000000000,"state":"active","ping":154}]},{"server_id":311,"name":"Uncletopia | Frankfurt | 6 | All Maps","name_short":"frk-6","host":"frk-1.de.uncletopia.com","port":27065,"enabled":true,"region":"eu","cc":"de","latitude":50.110924,"longitude":8.682127,"reserved":0,"last_update":"0001-01-01T00:00:00Z","name_a2s":"Uncletopia | Frankfurt | 6 | All Maps","protocol":17,"map":"pl_badwater","folder":"tf","game":"Team Fortress","app_id":440,"player_count":0,"max_players":24,"Bots":0,"server_type":"Dedicated","server_os":"Linux","password":true,"vac":true,"version":"7932396","steam_id":85568392924504278,"keywords":["nocrits","nodmgspread","payload","uncletopia"],"game_id":440,"stv_port":27066,"stv_name":"Uncletopia | Frankfurt | 6 | All Maps | STV","players":null},{"server_id":23,"name":"Uncletopia | Frankfurt | 7 | Stopwatch Beta","name_short":"frk-7","host":"frk-1.de.uncletopia.com","port":27075,"enabled":true,"region":"eu","cc":"de","latitude":50.110924,"longitude":8.682127,"reserved":0,"last_update":"0001-01-01T00:00:00Z","name_a2s":"Uncletopia | Frankfurt | 7 | Stopwatch Beta","protocol":17,"map":"cp_snakewater_final1","folder":"tf","game":"Team Fortress","app_id":440,"player_count":0,"max_players":24,"Bots":0,"server_type":"Dedicated","server_os":"Linux","password":true,"vac":true,"version":"7932396","steam_id":85568392924742827,"keywords":["cp","nocrits","nodmgspread","uncletopia"],"game_id":440,"stv_port":27076,"stv_name":"Uncletopia | Frankfurt | 7 | Stopwatch Beta | STV","players":null},{"server_id":24,"name":"Uncletopia | Frankfurt | 8 | Community","name_short":"frk-8","host":"frk-1.de.uncletopia.com","port":27085,"enabled":true,"region":"eu","cc":"de","latitude":50.110924,"longitude":8.682127,"reserved":0,"last_update":"0001-01-01T00:00:00Z","name_a2s":"Uncletopia | Frankfurt | 8 | Community","protocol":17,"map":"workshop/cp_croissant_final.ugc458840209","folder":"tf","game":"Team Fortress","app_id":440,"player_count":0,"max_players":24,"Bots":0,"server_type":"Dedicated","server_os":"Linux","password":true,"vac":true,"version":"7932396","steam_id":85568392924742828,"keywords":["cp","nocrits","nodmgspread","uncletopia"],"game_id":440,"stv_port":27086,"stv_name":"Uncletopia | Frankfurt | 8 | Community | STV","players":null},{"server_id":202,"name":"Uncletopia | Hong Kong | 1 | All Maps","name_short":"hgk-1","host":"hgk-1.hk.uncletopia.com","port":27015,"enabled":true,"region":"asia","cc":"hk","latitude":22.302711,"longitude":114.177216,"reserved":0,"last_update":"0001-01-01T00:00:00Z","name_a2s":"Uncletopia | Hong Kong | 1 | All Maps","protocol":17,"map":"pl_barnblitz","folder":"tf","game":"Team Fortress","app_id":440,"player_count":24,"max_players":24,"Bots":0,"server_type":"Dedicated","server_os":"Linux","password":true,"vac":true,"version":"7932396","steam_id":85568392924494504,"keywords":["nocrits","nodmgspread","payload","uncletopia"],"game_id":440,"stv_port":27016,"stv_name":"Uncletopia | Hong Kong | 1 | All Maps | STV","players":[{"user_id":195,"name":"Ai Ohto Gaming","steam_id":76561198972625527,"connected_time":2724000000000,"state":"active","ping":75},{"user_id":212,"name":"MySejahtera","steam_id":76561198331763015,"connected_time":1511000000000,"state":"active","ping":141},{"user_id":172,"name":"Uhoh","steam_id":76561198115788773,"connected_time":3823000000000,"state":"active","ping":133},{"user_id":173,"name":"AND IT WILL COME","steam_id":76561198318126190,"connected_time":3809000000000,"state":"active","ping":99},{"user_id":218,"name":"trcs","steam_id":76561198125946388,"connected_time":1203000000000,"state":"active","ping":83},{"user_id":200,"name":"Potatoe_Saled_1717","steam_id":76561198205229052,"connected_time":2111000000000,"state":"active","ping":99},{"user_id":225,"name":"Samoyed","steam_id":76561198299150410,"connected_time":813000000000,"state":"active","ping":98},{"user_id":184,"name":"Stupid B","steam_id":76561198131423270,"connected_time":3273000000000,"state":"active","ping":124},{"user_id":202,"name":"junbi OK","steam_id":76561198116387218,"connected_time":1984000000000,"state":"active","ping":133},{"user_id":226,"name":"stupendous sycophant","steam_id":76561198055553140,"connected_time":740000000000,"state":"active","ping":78},{"user_id":208,"name":"DarkGamer TF2","steam_id":76561199234460334,"connected_time":1662000000000,"state":"active","ping":96},{"user_id":220,"name":"Flutters","steam_id":76561199199846767,"connected_time":1110000000000,"state":"active","ping":56},{"user_id":209,"name":"TheOneWhoIsDogwater","steam_id":76561199287754329,"connected_time":1641000000000,"state":"active","ping":71},{"user_id":217,"name":"GendeneiBoi","steam_id":76561199034134639,"connected_time":1211000000000,"state":"active","ping":107},{"user_id":230,"name":"nanau","steam_id":76561199166938276,"connected_time":556000000000,"state":"active","ping":53},{"user_id":221,"name":"The CEO of sex","steam_id":76561198982848427,"connected_time":1037000000000,"state":"active","ping":97},{"user_id":210,"name":"Winters_†","steam_id":76561198109283358,"connected_time":1533000000000,"state":"active","ping":89},{"user_id":211,"name":"3rwynM","steam_id":76561198288311270,"connected_time":1515000000000,"state":"active","ping":124},{"user_id":190,"name":"KimvyKinsley","steam_id":76561198859745304,"connected_time":2894000000000,"state":"active","ping":107},{"user_id":194,"name":"ArcticDolphin","steam_id":76561198203626319,"connected_time":2785000000000,"state":"active","ping":159},{"user_id":228,"name":"Fxros","steam_id":76561198100335095,"connected_time":676000000000,"state":"active","ping":112},{"user_id":229,"name":"Stan","steam_id":76561198065671595,"connected_time":586000000000,"state":"active","ping":42},{"user_id":199,"name":"Drutzhfer","steam_id":76561198299948446,"connected_time":2552000000000,"state":"active","ping":107},{"user_id":171,"name":"itsDoodlez","steam_id":76561198131684887,"connected_time":3837000000000,"state":"active","ping":92}]},{"server_id":1,"name":"Uncletopia | Los Angeles | 1 | All Maps","name_short":"lax-1","host":"lax-1.us.uncletopia.com","port":27015,"enabled":true,"region":"us-west","cc":"us","latitude":33.94279,"longitude":-118.41004,"reserved":0,"last_update":"0001-01-01T00:00:00Z","name_a2s":"Uncletopia | Los Angeles | 1 | All Maps","protocol":17,"map":"cp_sunshine","folder":"tf","game":"Team Fortress","app_id":440,"player_count":0,"max_players":24,"Bots":0,"server_type":"Dedicated","server_os":"Linux","password":true,"vac":true,"version":"7932396","steam_id":85568392924469991,"keywords":["cp","nocrits","nodmgspread","uncletopia"],"game_id":440,"stv_port":27016,"stv_name":"Uncletopia | Los Angeles | 1 | All Maps | STV","players":null},{"server_id":112,"name":"Uncletopia | Los Angeles | 2 | All Maps","name_short":"lax-2","host":"lax-1.us.uncletopia.com","port":27025,"enabled":true,"region":"us-west","cc":"us","latitude":33.94279,"longitude":-118.41004,"reserved":0,"last_update":"0001-01-01T00:00:00Z","name_a2s":"Uncletopia | Los Angeles | 2 | All Maps","protocol":17,"map":"cp_dustbowl","folder":"tf","game":"Team Fortress","app_id":440,"player_count":0,"max_players":24,"Bots":0,"server_type":"Dedicated","server_os":"Linux","password":true,"vac":true,"version":"7932396","steam_id":85568392924469992,"keywords":["cp","nocrits","nodmgspread","uncletopia"],"game_id":440,"stv_port":27026,"stv_name":"Uncletopia | Los Angeles | 2 | All Maps | STV","players":null},{"server_id":324,"name":"Uncletopia | Los Angeles | 3 | All Maps","name_short":"lax-3","host":"lax-1.us.uncletopia.com","port":27035,"enabled":true,"region":"us-west","cc":"us","latitude":33.94279,"longitude":-118.41004,"reserved":0,"last_update":"0001-01-01T00:00:00Z","name_a2s":"Uncletopia | Los Angeles | 3 | All Maps","protocol":17,"map":"koth_cascade","folder":"tf","game":"Team Fortress","app_id":440,"player_count":0,"max_players":24,"Bots":0,"server_type":"Dedicated","server_os":"Linux","password":true,"vac":true,"version":"7932396","steam_id":85568392924510198,"keywords":["cp","nocrits","nodmgspread","uncletopia"],"game_id":440,"stv_port":27036,"stv_name":"Uncletopia | Los Angeles | 3 | All Maps | STV","players":null},{"server_id":25,"name":"Uncletopia | Los Angeles | 4 | Stopwatch Beta","name_short":"lax-4","host":"lax-1.us.uncletopia.com","port":27045,"enabled":true,"region":"us-west","cc":"us","latitude":33.94279,"longitude":-118.41004,"reserved":0,"last_update":"0001-01-01T00:00:00Z","name_a2s":"Uncletopia | Los Angeles | 4 | Stopwatch Beta","protocol":17,"map":"koth_viaduct","folder":"tf","game":"Team Fortress","app_id":440,"player_count":0,"max_players":24,"Bots":0,"server_type":"Dedicated","server_os":"Linux","password":true,"vac":true,"version":"7932396","steam_id":85568392924510199,"keywords":["cp","nocrits","nodmgspread","uncletopia"],"game_id":440,"stv_port":27046,"stv_name":"Uncletopia | Los Angeles | 4 | Stopwatch Beta | STV","players":null},{"server_id":11,"name":"Uncletopia | London | 1 | All Maps","name_short":"lon-1","host":"lon-1.uk.uncletopia.com","port":27015,"enabled":true,"region":"eu","cc":"gb","latitude":51.509865,"longitude":-0.118092,"reserved":0,"last_update":"0001-01-01T00:00:00Z","name_a2s":"Uncletopia | London | 1 | All Maps","protocol":17,"map":"pl_frontier_final","folder":"tf","game":"Team Fortress","app_id":440,"player_count":24,"max_players":24,"Bots":0,"server_type":"Dedicated","server_os":"Linux","password":true,"vac":true,"version":"7932396","steam_id":85568392924367362,"keywords":["nocrits","nodmgspread","payload","uncletopia"],"game_id":440,"stv_port":27016,"stv_name":"Uncletopia | London | 1 | All Maps | STV","players":[{"user_id":180,"name":"ossop","steam_id":76561198045271499,"connected_time":802000000000,"state":"active","ping":76},{"user_id":187,"name":"cl","steam_id":76561199436640904,"connected_time":344000000000,"state":"active","ping":85},{"user_id":171,"name":"PASTAMAN!!!","steam_id":76561198995641765,"connected_time":1215000000000,"state":"active","ping":60},{"user_id":182,"name":"boi","steam_id":76561199443930358,"connected_time":751000000000,"state":"active","ping":169},{"user_id":175,"name":"Prome","steam_id":76561199050383942,"connected_time":1024000000000,"state":"active","ping":56},{"user_id":73,"name":"Mr.O #deletesniper","steam_id":76561198039567498,"connected_time":4757000000000,"state":"active","ping":56},{"user_id":192,"name":"Purpurea","steam_id":76561198075376419,"connected_time":8000000000,"state":"spawning","ping":76},{"user_id":184,"name":"DJPNK","steam_id":76561197989948420,"connected_time":669000000000,"state":"active","ping":54},{"user_id":85,"name":"dogs_drink_water","steam_id":76561198296630670,"connected_time":4163000000000,"state":"active","ping":76},{"user_id":181,"name":"YoHn","steam_id":76561199178079625,"connected_time":794000000000,"state":"active","ping":113},{"user_id":92,"name":"Gubbly Bubbins","steam_id":76561198101451654,"connected_time":3737000000000,"state":"active","ping":45},{"user_id":84,"name":"ja","steam_id":76561199228540618,"connected_time":4190000000000,"state":"active","ping":67},{"user_id":178,"name":"Fred","steam_id":76561198107137362,"connected_time":839000000000,"state":"active","ping":51},{"user_id":191,"name":"Phloggers","steam_id":76561199241354828,"connected_time":122000000000,"state":"active","ping":130},{"user_id":162,"name":"Vel0city","steam_id":76561198049687798,"connected_time":1464000000000,"state":"active","ping":48},{"user_id":173,"name":"Borat","steam_id":76561198122226417,"connected_time":1164000000000,"state":"active","ping":45},{"user_id":154,"name":"Acbh","steam_id":76561198158271672,"connected_time":1825000000000,"state":"active","ping":75},{"user_id":189,"name":"Jeppe","steam_id":76561198036055494,"connected_time":149000000000,"state":"active","ping":66},{"user_id":144,"name":"Milca_11 [Ham Stand User]","steam_id":76561198848650365,"connected_time":2763000000000,"state":"active","ping":72},{"user_id":151,"name":"Zlyron","steam_id":76561198951447833,"connected_time":2288000000000,"state":"active","ping":89},{"user_id":168,"name":"terr0r","steam_id":76561199140561302,"connected_time":1296000000000,"state":"active","ping":60},{"user_id":186,"name":"assistance bitte","steam_id":76561198180361759,"connected_time":424000000000,"state":"active","ping":44},{"user_id":169,"name":"Sandshee","steam_id":76561198088574666,"connected_time":1273000000000,"state":"active","ping":30},{"user_id":170,"name":"Mimosa Samosa","steam_id":76561198435782222,"connected_time":1237000000000,"state":"active","ping":59}]},{"server_id":114,"name":"Uncletopia | London | 2 | All Maps","name_short":"lon-2","host":"lon-1.uk.uncletopia.com","port":27025,"enabled":true,"region":"eu","cc":"gb","latitude":51.509865,"longitude":-0.118092,"reserved":0,"last_update":"0001-01-01T00:00:00Z","name_a2s":"Uncletopia | London | 2 | All Maps","protocol":17,"map":"koth_cascade","folder":"tf","game":"Team Fortress","app_id":440,"player_count":0,"max_players":24,"Bots":0,"server_type":"Dedicated","server_os":"Linux","password":true,"vac":true,"version":"7932396","steam_id":85568392924470941,"keywords":["cp","nocrits","nodmgspread","uncletopia"],"game_id":440,"stv_port":27026,"stv_name":"Uncletopia | London | 2 | All Maps | STV","players":null},{"server_id":320,"name":"Uncletopia | London | 3 | All Maps","name_short":"lon-3","host":"lon-1.uk.uncletopia.com","port":27035,"enabled":true,"region":"eu","cc":"gb","latitude":51.509865,"longitude":-0.118092,"reserved":0,"last_update":"0001-01-01T00:00:00Z","name_a2s":"Uncletopia | London | 3 | All Maps","protocol":17,"map":"pl_swiftwater_final1","folder":"tf","game":"Team Fortress","app_id":440,"player_count":0,"max_players":24,"Bots":0,"server_type":"Dedicated","server_os":"Linux","password":true,"vac":true,"version":"7932396","steam_id":85568392924510192,"keywords":["nocrits","nodmgspread","payload","uncletopia"],"game_id":440,"stv_port":27036,"stv_name":"Uncletopia | London | 3 | All Maps | STV","players":null},{"server_id":321,"name":"Uncletopia | London | 4 | All Maps","name_short":"lon-4","host":"lon-1.uk.uncletopia.com","port":27045,"enabled":true,"region":"eu","cc":"gb","latitude":51.509865,"longitude":-0.118092,"reserved":0,"last_update":"0001-01-01T00:00:00Z","name_a2s":"Uncletopia | London | 4 | All Maps","protocol":17,"map":"pl_swiftwater_final1","folder":"tf","game":"Team Fortress","app_id":440,"player_count":0,"max_players":24,"Bots":0,"server_type":"Dedicated","server_os":"Linux","password":true,"vac":true,"version":"7932396","steam_id":85568392924510193,"keywords":["nocrits","nodmgspread","payload","uncletopia"],"game_id":440,"stv_port":27046,"stv_name":"Uncletopia | London | 4 | All Maps | STV","players":null},{"server_id":21,"name":"Uncletopia | London | 5 | All Maps","name_short":"lon-5","host":"lon-1.uk.uncletopia.com","port":27055,"enabled":true,"region":"eu","cc":"gb","latitude":51.509865,"longitude":-0.118092,"reserved":0,"last_update":"0001-01-01T00:00:00Z","name_a2s":"Uncletopia | London | 5 | All Maps","protocol":17,"map":"pl_snowycoast","folder":"tf","game":"Team Fortress","app_id":440,"player_count":0,"max_players":24,"Bots":0,"server_type":"Dedicated","server_os":"Linux","password":true,"vac":true,"version":"7932396","steam_id":85568392924742829,"keywords":["nocrits","nodmgspread","payload","uncletopia"],"game_id":440,"stv_port":27056,"stv_name":"Uncletopia | London | 5 | All Maps | STV","players":null},{"server_id":22,"name":"Uncletopia | London | 6 | All Maps","name_short":"lon-6","host":"lon-1.uk.uncletopia.com","port":27065,"enabled":true,"region":"eu","cc":"gb","latitude":51.509865,"longitude":-0.118092,"reserved":0,"last_update":"0001-01-01T00:00:00Z","name_a2s":"Uncletopia | London | 6 | All Maps","protocol":17,"map":"pl_snowycoast","folder":"tf","game":"Team Fortress","app_id":440,"player_count":0,"max_players":24,"Bots":0,"server_type":"Dedicated","server_os":"Linux","password":true,"vac":true,"version":"7932396","steam_id":85568392924742830,"keywords":["nocrits","nodmgspread","payload","uncletopia"],"game_id":440,"stv_port":27066,"stv_name":"Uncletopia | London | 6 | All Maps | STV","players":null},{"server_id":40,"name":"Uncletopia | London | 7 | No Payload","name_short":"lon-7","host":"lon-1.uk.uncletopia.com","port":27075,"enabled":true,"region":"eu","cc":"gb","latitude":51.509865,"longitude":-0.118092,"reserved":0,"last_update":"0001-01-01T00:00:00Z","name_a2s":"Uncletopia | London | 7 | No Payload","protocol":17,"map":"cp_dustbowl","folder":"tf","game":"Team Fortress","app_id":440,"player_count":0,"max_players":24,"Bots":0,"server_type":"Dedicated","server_os":"Linux","password":true,"vac":true,"version":"7932396","steam_id":85568392924964314,"keywords":["cp","nocrits","nodmgspread","uncletopia"],"game_id":440,"stv_port":27076,"stv_name":"Uncletopia | London | 7 | No Payload | STV","players":null},{"server_id":41,"name":"Uncletopia | London | 8 | Community","name_short":"lon-8","host":"lon-1.uk.uncletopia.com","port":27085,"enabled":true,"region":"eu","cc":"gb","latitude":51.509865,"longitude":-0.118092,"reserved":0,"last_update":"0001-01-01T00:00:00Z","name_a2s":"Uncletopia | London | 8 | Community","protocol":17,"map":"cp_snakewater_final1","folder":"tf","game":"Team Fortress","app_id":440,"player_count":0,"max_players":24,"Bots":0,"server_type":"Dedicated","server_os":"Linux","password":true,"vac":true,"version":"7932396","steam_id":85568392924964315,"keywords":["cp","nocrits","nodmgspread","uncletopia"],"game_id":440,"stv_port":27086,"stv_name":"Uncletopia | London | 8 | Community | STV","players":null},{"server_id":300,"name":"Uncletopia | Montréal | 1 | All Maps","name_short":"mtl-1","host":"mtl-1.ca.uncletopia.com","port":27015,"enabled":true,"region":"us-east","cc":"ca","latitude":45.50889,"longitude":-73.56167,"reserved":0,"last_update":"0001-01-01T00:00:00Z","name_a2s":"Uncletopia | Montréal | 1 | All Maps","protocol":17,"map":"pl_swiftwater_final1","folder":"tf","game":"Team Fortress","app_id":440,"player_count":0,"max_players":24,"Bots":0,"server_type":"Dedicated","server_os":"Linux","password":true,"vac":true,"version":"7932396","steam_id":85568392924500087,"keywords":["nocrits","nodmgspread","payload","uncletopia"],"game_id":440,"stv_port":27016,"stv_name":"Uncletopia | Montréal | 1 | All Maps | STV","players":null},{"server_id":301,"name":"Uncletopia | Montréal | 2 | All Maps","name_short":"mtl-2","host":"mtl-1.ca.uncletopia.com","port":27025,"enabled":true,"region":"us-east","cc":"ca","latitude":45.50889,"longitude":-73.56167,"reserved":0,"last_update":"0001-01-01T00:00:00Z","name_a2s":"Uncletopia | Montréal | 2 | All Maps","protocol":17,"map":"pl_upward","folder":"tf","game":"Team Fortress","app_id":440,"player_count":0,"max_players":24,"Bots":0,"server_type":"Dedicated","server_os":"Linux","password":true,"vac":true,"version":"7932396","steam_id":85568392924500088,"keywords":["nocrits","nodmgspread","payload","uncletopia"],"game_id":440,"stv_port":27026,"stv_name":"Uncletopia | Montréal | 2 | All Maps | STV","players":null},{"server_id":302,"name":"Uncletopia | Montréal | 3 | All Maps","name_short":"mtl-3","host":"mtl-1.ca.uncletopia.com","port":27035,"enabled":true,"region":"us-east","cc":"ca","latitude":45.50889,"longitude":-73.56167,"reserved":0,"last_update":"0001-01-01T00:00:00Z","name_a2s":"Uncletopia | Montréal | 3 | All Maps","protocol":17,"map":"cp_dustbowl","folder":"tf","game":"Team Fortress","app_id":440,"player_count":0,"max_players":24,"Bots":0,"server_type":"Dedicated","server_os":"Linux","password":true,"vac":true,"version":"7932396","steam_id":85568392924500089,"keywords":["cp","nocrits","nodmgspread","uncletopia"],"game_id":440,"stv_port":27036,"stv_name":"Uncletopia | Montréal | 3 | All Maps | STV","players":null},{"server_id":303,"name":"Uncletopia | Montréal | 4 | No Payload","name_short":"mtl-4","host":"mtl-1.ca.uncletopia.com","port":27045,"enabled":true,"region":"us-east","cc":"ca","latitude":45.50889,"longitude":-73.56167,"reserved":0,"last_update":"0001-01-01T00:00:00Z","name_a2s":"Uncletopia | Montréal | 4 | No Payload","protocol":17,"map":"cp_sunshine","folder":"tf","game":"Team Fortress","app_id":440,"player_count":0,"max_players":24,"Bots":0,"server_type":"Dedicated","server_os":"Linux","password":true,"vac":true,"version":"7932396","steam_id":85568392924500090,"keywords":["cp","nocrits","nodmgspread","uncletopia"],"game_id":440,"stv_port":27046,"stv_name":"Uncletopia | Montréal | 4 | No Payload | STV","players":null},{"server_id":13,"name":"Uncletopia | New York City | 1 | All Maps","name_short":"nyc-1","host":"nyc-1.us.uncletopia.com","port":27015,"enabled":true,"region":"us-east","cc":"us","latitude":40.73061,"longitude":-73.93524,"reserved":0,"last_update":"0001-01-01T00:00:00Z","name_a2s":"Uncletopia | New York City | 1 | All Maps","protocol":17,"map":"koth_lakeside_final","folder":"tf","game":"Team Fortress","app_id":440,"player_count":0,"max_players":24,"Bots":0,"server_type":"Dedicated","server_os":"Linux","password":true,"vac":true,"version":"7932396","steam_id":85568392924469993,"keywords":["cp","nocrits","nodmgspread","uncletopia"],"game_id":440,"stv_port":27016,"stv_name":"Uncletopia | New York City | 1 | All Maps | STV","players":null},{"server_id":14,"name":"Uncletopia | New York City | 2 | All Maps","name_short":"nyc-2","host":"nyc-1.us.uncletopia.com","port":27025,"enabled":true,"region":"us-east","cc":"us","latitude":40.73061,"longitude":-73.93524,"reserved":0,"last_update":"0001-01-01T00:00:00Z","name_a2s":"Uncletopia | New York City | 2 | All Maps","protocol":17,"map":"koth_cascade","folder":"tf","game":"Team Fortress","app_id":440,"player_count":0,"max_players":24,"Bots":0,"server_type":"Dedicated","server_os":"Linux","password":true,"vac":true,"version":"7932396","steam_id":85568392924469994,"keywords":["cp","nocrits","nodmgspread","uncletopia"],"game_id":440,"stv_port":27026,"stv_name":"Uncletopia | New York City | 2 | All Maps | STV","players":null},{"server_id":15,"name":"Uncletopia | New York City | 3 | Stopwatch Beta","name_short":"nyc-3","host":"nyc-1.us.uncletopia.com","port":27035,"enabled":true,"region":"us-east","cc":"us","latitude":40.73061,"longitude":-73.93524,"reserved":0,"last_update":"0001-01-01T00:00:00Z","name_a2s":"Uncletopia | New York City | 3 | Stopwatch Beta","protocol":17,"map":"pl_frontier_final","folder":"tf","game":"Team Fortress","app_id":440,"player_count":0,"max_players":24,"Bots":0,"server_type":"Dedicated","server_os":"Linux","password":true,"vac":true,"version":"7932396","steam_id":85568392924742820,"keywords":["nocrits","nodmgspread","payload","uncletopia"],"game_id":440,"stv_port":27036,"stv_name":"Uncletopia | New York City | 3 | Stopwatch Beta | STV","players":null},{"server_id":16,"name":"Uncletopia | New York City | 4 | Community","name_short":"nyc-4","host":"nyc-1.us.uncletopia.com","port":27045,"enabled":true,"region":"us-east","cc":"us","latitude":40.73061,"longitude":-73.93524,"reserved":0,"last_update":"0001-01-01T00:00:00Z","name_a2s":"Uncletopia | New York City | 4 | Community","protocol":17,"map":"koth_highpass","folder":"tf","game":"Team Fortress","app_id":440,"player_count":0,"max_players":24,"Bots":0,"server_type":"Dedicated","server_os":"Linux","password":true,"vac":true,"version":"7932396","steam_id":85568392924742821,"keywords":["cp","nocrits","nodmgspread","uncletopia"],"game_id":440,"stv_port":27046,"stv_name":"Uncletopia | New York City | 4 | Community | STV","players":null},{"server_id":142,"name":"Uncletopia | São Paulo | 1 | All Maps","name_short":"sao-1","host":"sao-1.br.uncletopia.com","port":27015,"enabled":true,"region":"sa","cc":"br","latitude":-23.533773,"longitude":-46.62529,"reserved":0,"last_update":"0001-01-01T00:00:00Z","name_a2s":"Uncletopia | São Paulo | 1 | All Maps","protocol":17,"map":"koth_highpass","folder":"tf","game":"Team Fortress","app_id":440,"player_count":0,"max_players":24,"Bots":0,"server_type":"Dedicated","server_os":"Linux","password":true,"vac":true,"version":"7932396","steam_id":85568392924469996,"keywords":["cp","nocrits","nodmgspread","uncletopia"],"game_id":440,"stv_port":27016,"stv_name":"Uncletopia | São Paulo | 1 | All Maps | STV","players":null},{"server_id":143,"name":"Uncletopia | São Paulo | 2 | All Maps","name_short":"sao-2","host":"sao-2.br.uncletopia.com","port":27015,"enabled":true,"region":"sa","cc":"br","latitude":-23.533773,"longitude":-46.62529,"reserved":0,"last_update":"0001-01-01T00:00:00Z","name_a2s":"Uncletopia | São Paulo | 2 | All Maps","protocol":17,"map":"pl_upward","folder":"tf","game":"Team Fortress","app_id":440,"player_count":0,"max_players":24,"Bots":0,"server_type":"Dedicated","server_os":"Linux","password":true,"vac":true,"version":"7932396","steam_id":85568392924485349,"keywords":["nocrits","nodmgspread","payload","uncletopia"],"game_id":440,"stv_port":27016,"stv_name":"Uncletopia | São Paulo | 2 | All Maps | STV","players":null},{"server_id":7,"name":"Uncletopia | Seattle | 1 | All Maps","name_short":"sea-1","host":"sea-1.us.uncletopia.com","port":27015,"enabled":true,"region":"us-west","cc":"us","latitude":47.608013,"longitude":-122.33517,"reserved":0,"last_update":"0001-01-01T00:00:00Z","name_a2s":"Uncletopia | Seattle | 1 | All Maps","protocol":17,"map":"pl_snowycoast","folder":"tf","game":"Team Fortress","app_id":440,"player_count":0,"max_players":24,"Bots":0,"server_type":"Dedicated","server_os":"Linux","password":true,"vac":true,"version":"7932396","steam_id":85568392924469997,"keywords":["nocrits","nodmgspread","payload","uncletopia"],"game_id":440,"stv_port":27016,"stv_name":"Uncletopia | Seattle | 1 | All Maps | STV","players":null},{"server_id":119,"name":"Uncletopia | Seattle | 2 | All Maps","name_short":"sea-2","host":"sea-1.us.uncletopia.com","port":27025,"enabled":true,"region":"us-west","cc":"us","latitude":47.608013,"longitude":-122.33517,"reserved":0,"last_update":"0001-01-01T00:00:00Z","name_a2s":"Uncletopia | Seattle | 2 | All Maps","protocol":17,"map":"koth_highpass","folder":"tf","game":"Team Fortress","app_id":440,"player_count":0,"max_players":24,"Bots":0,"server_type":"Dedicated","server_os":"Linux","password":true,"vac":true,"version":"7932396","steam_id":85568392924469998,"keywords":["cp","nocrits","nodmgspread","uncletopia"],"game_id":440,"stv_port":27026,"stv_name":"Uncletopia | Seattle | 2 | All Maps | STV","players":null},{"server_id":406,"name":"Uncletopia | Seattle | 3 | Stopwatch Beta","name_short":"sea-3","host":"sea-1.us.uncletopia.com","port":27035,"enabled":true,"region":"us-west","cc":"us","latitude":47.608013,"longitude":-122.33517,"reserved":0,"last_update":"0001-01-01T00:00:00Z","name_a2s":"Uncletopia | Seattle | 3 | Stopwatch Beta","protocol":17,"map":"pl_barnblitz","folder":"tf","game":"Team Fortress","app_id":440,"player_count":0,"max_players":24,"Bots":0,"server_type":"Dedicated","server_os":"Linux","password":true,"vac":true,"version":"7932396","steam_id":85568392924515217,"keywords":["nocrits","nodmgspread","payload","uncletopia"],"game_id":440,"stv_port":27036,"stv_name":"Uncletopia | Seattle | 3 | Stopwatch Beta | STV","players":null},{"server_id":17,"name":"Uncletopia | San Francisco | 1 | All Maps","name_short":"sfo-1","host":"sfo-1.us.uncletopia.com","port":27015,"enabled":true,"region":"us-west","cc":"us","latitude":37.77397,"longitude":-122.4313,"reserved":0,"last_update":"0001-01-01T00:00:00Z","name_a2s":"Uncletopia | San Francisco | 1 | All Maps","protocol":17,"map":"pl_borneo","folder":"tf","game":"Team Fortress","app_id":440,"player_count":0,"max_players":24,"Bots":0,"server_type":"Dedicated","server_os":"Linux","password":true,"vac":true,"version":"7932396","steam_id":85568392924469999,"keywords":["nocrits","nodmgspread","payload","uncletopia"],"game_id":440,"stv_port":27016,"stv_name":"Uncletopia | San Francisco | 1 | All Maps | STV","players":null},{"server_id":18,"name":"Uncletopia | San Francisco | 2 | All Maps","name_short":"sfo-2","host":"sfo-1.us.uncletopia.com","port":27025,"enabled":true,"region":"us-west","cc":"us","latitude":37.77397,"longitude":-122.4313,"reserved":0,"last_update":"0001-01-01T00:00:00Z","name_a2s":"Uncletopia | San Francisco | 2 | All Maps","protocol":17,"map":"koth_cascade","folder":"tf","game":"Team Fortress","app_id":440,"player_count":0,"max_players":24,"Bots":0,"server_type":"Dedicated","server_os":"Linux","password":true,"vac":true,"version":"7932396","steam_id":85568392924470000,"keywords":["cp","nocrits","nodmgspread","uncletopia"],"game_id":440,"stv_port":27026,"stv_name":"Uncletopia | San Francisco | 2 | All Maps | STV","players":null},{"server_id":19,"name":"Uncletopia | San Francisco | 3 | Stopwatch Beta","name_short":"sfo-3","host":"sfo-1.us.uncletopia.com","port":27035,"enabled":true,"region":"us-west","cc":"us","latitude":37.77397,"longitude":-122.4313,"reserved":0,"last_update":"0001-01-01T00:00:00Z","name_a2s":"Uncletopia | San Francisco | 3 | Stopwatch Beta","protocol":17,"map":"cp_dustbowl","folder":"tf","game":"Team Fortress","app_id":440,"player_count":0,"max_players":24,"Bots":0,"server_type":"Dedicated","server_os":"Linux","password":true,"vac":true,"version":"7932396","steam_id":85568392924742824,"keywords":["cp","nocrits","nodmgspread","uncletopia"],"game_id":440,"stv_port":27036,"stv_name":"Uncletopia | San Francisco | 3 | Stopwatch Beta | STV","players":null},{"server_id":20,"name":"Uncletopia | San Francisco | 4 | Community","name_short":"sfo-4","host":"sfo-1.us.uncletopia.com","port":27045,"enabled":true,"region":"us-west","cc":"us","latitude":37.77397,"longitude":-122.4313,"reserved":0,"last_update":"0001-01-01T00:00:00Z","name_a2s":"Uncletopia | San Francisco | 4 | Community","protocol":17,"map":"cp_altitude","folder":"tf","game":"Team Fortress","app_id":440,"player_count":0,"max_players":24,"Bots":0,"server_type":"Dedicated","server_os":"Linux","password":true,"vac":true,"version":"7932396","steam_id":85568392924742826,"keywords":["cp","nocrits","nodmgspread","uncletopia"],"game_id":440,"stv_port":27046,"stv_name":"Uncletopia | San Francisco | 4 | Community | STV","players":null},{"server_id":141,"name":"Uncletopia | Sydney | 1 | All Maps","name_short":"syd-1","host":"syd-1.au.uncletopia.com","port":27015,"enabled":true,"region":"au","cc":"au","latitude":-33.865143,"longitude":151.2099,"reserved":0,"last_update":"0001-01-01T00:00:00Z","name_a2s":"Uncletopia | Sydney | 1 | All Maps","protocol":17,"map":"pl_borneo","folder":"tf","game":"Team Fortress","app_id":440,"player_count":24,"max_players":24,"Bots":0,"server_type":"Dedicated","server_os":"Linux","password":true,"vac":true,"version":"7932396","steam_id":85568392924470001,"keywords":["nocrits","nodmgspread","payload","uncletopia"],"game_id":440,"stv_port":27016,"stv_name":"Uncletopia | Sydney | 1 | All Maps | STV","players":[{"user_id":121,"name":"Griffin","steam_id":76561198024926514,"connected_time":1851000000000,"state":"active","ping":90},{"user_id":98,"name":"whiteshaq","steam_id":76561198131988811,"connected_time":3993000000000,"state":"active","ping":47},{"user_id":118,"name":"Joy in A Box","steam_id":76561198156820753,"connected_time":2331000000000,"state":"active","ping":167},{"user_id":135,"name":"ravioli","steam_id":76561198001765827,"connected_time":124000000000,"state":"active","ping":48},{"user_id":129,"name":"҂Storm","steam_id":76561198073213264,"connected_time":1122000000000,"state":"active","ping":47},{"user_id":125,"name":"Wake","steam_id":76561197979850259,"connected_time":1739000000000,"state":"active","ping":61},{"user_id":109,"name":"david malouf","steam_id":76561198107085849,"connected_time":3285000000000,"state":"active","ping":53},{"user_id":10,"name":"Jodelkönig Franzl Lang","steam_id":76561198007667830,"connected_time":10759000000000,"state":"active","ping":59},{"user_id":115,"name":"Blondie","steam_id":76561198046977058,"connected_time":2825000000000,"state":"active","ping":68},{"user_id":12,"name":"uven","steam_id":76561198080981482,"connected_time":10749000000000,"state":"active","ping":35},{"user_id":113,"name":"soupy","steam_id":76561198073734936,"connected_time":2973000000000,"state":"active","ping":88},{"user_id":15,"name":"infernoraz","steam_id":76561198117582261,"connected_time":10746000000000,"state":"active","ping":45},{"user_id":133,"name":"cas ganister","steam_id":76561198879023728,"connected_time":494000000000,"state":"active","ping":55},{"user_id":110,"name":"dog","steam_id":76561198073933737,"connected_time":3283000000000,"state":"active","ping":35},{"user_id":131,"name":"Zepi","steam_id":76561198018887052,"connected_time":870000000000,"state":"active","ping":56},{"user_id":112,"name":"Snowy","steam_id":76561198255720598,"connected_time":3181000000000,"state":"active","ping":46},{"user_id":134,"name":"wizward","steam_id":76561198074621811,"connected_time":492000000000,"state":"active","ping":70},{"user_id":127,"name":"Jeb","steam_id":76561198043500821,"connected_time":1585000000000,"state":"active","ping":56},{"user_id":104,"name":"callum.jones2008","steam_id":76561198050053720,"connected_time":3638000000000,"state":"active","ping":74},{"user_id":89,"name":"Gallamellow","steam_id":76561198069046033,"connected_time":4527000000000,"state":"active","ping":37},{"user_id":105,"name":"alex","steam_id":76561198053382248,"connected_time":3635000000000,"state":"active","ping":44},{"user_id":91,"name":"Chez","steam_id":76561198089925051,"connected_time":4416000000000,"state":"active","ping":93},{"user_id":132,"name":"Hungry for thumbtacks","steam_id":76561198059129270,"connected_time":860000000000,"state":"active","ping":67},{"user_id":53,"name":"Pompadouraus","steam_id":76561198327530525,"connected_time":6854000000000,"state":"active","ping":75}]},{"server_id":123,"name":"Uncletopia | Sydney | 2 | All Maps","name_short":"syd-2","host":"syd-1.au.uncletopia.com","port":27025,"enabled":true,"region":"au","cc":"au","latitude":-33.865143,"longitude":151.2099,"reserved":0,"last_update":"0001-01-01T00:00:00Z","name_a2s":"Uncletopia | Sydney | 2 | All Maps","protocol":17,"map":"cp_gorge","folder":"tf","game":"Team Fortress","app_id":440,"player_count":14,"max_players":24,"Bots":0,"server_type":"Dedicated","server_os":"Linux","password":true,"vac":true,"version":"7932396","steam_id":85568392924470002,"keywords":["cp","nocrits","nodmgspread","uncletopia"],"game_id":440,"stv_port":27026,"stv_name":"Uncletopia | Sydney | 2 | All Maps | STV","players":[{"user_id":174,"name":"Branko","steam_id":76561199262196710,"connected_time":444000000000,"state":"active","ping":33},{"user_id":175,"name":"wom","steam_id":76561199375834537,"connected_time":414000000000,"state":"active","ping":161},{"user_id":180,"name":"BIGMACDINNER","steam_id":76561198035678747,"connected_time":104000000000,"state":"active","ping":295},{"user_id":177,"name":"Turret","steam_id":76561198054728921,"connected_time":320000000000,"state":"active","ping":42},{"user_id":178,"name":"SuperCeleste❤️Trans Rights","steam_id":76561198167207053,"connected_time":176000000000,"state":"active","ping":328},{"user_id":181,"name":"bonehead","steam_id":76561199201489468,"connected_time":71000000000,"state":"active","ping":285},{"user_id":100,"name":"Evil Goblin","steam_id":76561198951178401,"connected_time":5950000000000,"state":"active","ping":75},{"user_id":182,"name":"nightmare2503","steam_id":76561199100642588,"connected_time":63000000000,"state":"active","ping":55},{"user_id":183,"name":"itsame","steam_id":76561198059284918,"connected_time":32000000000,"state":"active","ping":50},{"user_id":145,"name":"gluglug","steam_id":76561198074931564,"connected_time":2772000000000,"state":"active","ping":41},{"user_id":109,"name":"Smae ⎊ ⎊","steam_id":76561198161497327,"connected_time":5171000000000,"state":"active","ping":62},{"user_id":158,"name":"+attack2","steam_id":76561198393127547,"connected_time":2140000000000,"state":"active","ping":60},{"user_id":162,"name":"Michaelsoft Binbows","steam_id":76561198422847304,"connected_time":1592000000000,"state":"active","ping":72},{"user_id":155,"name":"bedshitter","steam_id":76561198061201028,"connected_time":2247000000000,"state":"active","ping":44}]},{"server_id":395,"name":"Uncletopia | Sydney | 3 | All Maps","name_short":"syd-3","host":"syd-1.au.uncletopia.com","port":27035,"enabled":true,"region":"au","cc":"au","latitude":-33.865143,"longitude":151.2099,"reserved":0,"last_update":"0001-01-01T00:00:00Z","name_a2s":"Uncletopia | Sydney | 3 | All Maps","protocol":17,"map":"pl_frontier_final","folder":"tf","game":"Team Fortress","app_id":440,"player_count":0,"max_players":24,"Bots":0,"server_type":"Dedicated","server_os":"Linux","password":true,"vac":true,"version":"7932396","steam_id":85568392925194467,"keywords":["nocrits","nodmgspread","payload","uncletopia"],"game_id":440,"stv_port":27036,"stv_name":"Uncletopia | Sydney | 3 | All Maps | STV","players":null},{"server_id":396,"name":"Uncletopia | Sydney | 4 | All Maps","name_short":"syd-4","host":"syd-1.au.uncletopia.com","port":27045,"enabled":true,"region":"au","cc":"au","latitude":-33.865143,"longitude":151.2099,"reserved":0,"last_update":"0001-01-01T00:00:00Z","name_a2s":"Uncletopia | Sydney | 4 | All Maps","protocol":17,"map":"koth_lakeside_final","folder":"tf","game":"Team Fortress","app_id":440,"player_count":0,"max_players":24,"Bots":0,"server_type":"Dedicated","server_os":"Linux","password":true,"vac":true,"version":"7932396","steam_id":85568392925397958,"keywords":["cp","nocrits","nodmgspread","uncletopia"],"game_id":440,"stv_port":27046,"stv_name":"Uncletopia | Sydney | 4 | All Maps | STV","players":null},{"server_id":58,"name":"Uncletopia | Sydney | 5 | Stopwatch Beta","name_short":"syd-5","host":"syd-1.au.uncletopia.com","port":27055,"enabled":true,"region":"au","cc":"au","latitude":-33.865143,"longitude":151.2099,"reserved":0,"last_update":"0001-01-01T00:00:00Z","name_a2s":"Uncletopia | Sydney | 5 | Stopwatch Beta","protocol":17,"map":"cp_altitude","folder":"tf","game":"Team Fortress","app_id":440,"player_count":0,"max_players":24,"Bots":0,"server_type":"Dedicated","server_os":"Linux","password":true,"vac":true,"version":"7932396","steam_id":85568392925397959,"keywords":["cp","nocrits","nodmgspread","uncletopia"],"game_id":440,"stv_port":27056,"stv_name":"Uncletopia | Sydney | 5 | Stopwatch Beta | STV","players":null},{"server_id":59,"name":"Uncletopia | Sydney | 6 | Community","name_short":"syd-6","host":"syd-1.au.uncletopia.com","port":27065,"enabled":true,"region":"au","cc":"au","latitude":-33.865143,"longitude":151.2099,"reserved":0,"last_update":"0001-01-01T00:00:00Z","name_a2s":"Uncletopia | Sydney | 6 | Community","protocol":17,"map":"cp_altitude","folder":"tf","game":"Team Fortress","app_id":440,"player_count":0,"max_players":24,"Bots":0,"server_type":"Dedicated","server_os":"Linux","password":true,"vac":true,"version":"7932396","steam_id":85568392925397960,"keywords":["cp","nocrits","nodmgspread","uncletopia"],"game_id":440,"stv_port":27066,"stv_name":"Uncletopia | Sydney | 6 | Community | STV","players":null},{"server_id":49,"name":"Uncletopia | Warsaw | 1 | All Maps","name_short":"waw-1","host":"waw-1.pl.uncletopia.com","port":27015,"enabled":true,"region":"eu","cc":"pl","latitude":52.2297,"longitude":21.017532,"reserved":0,"last_update":"0001-01-01T00:00:00Z","name_a2s":"","protocol":0,"map":"","folder":"","game":"","app_id":0,"player_count":0,"max_players":0,"Bots":0,"server_type":"","server_os":"","password":false,"vac":false,"version":"","steam_id":0,"keywords":null,"game_id":0,"stv_port":0,"stv_name":"","players":null},{"server_id":50,"name":"Uncletopia | Warsaw | 2 | All Maps","name_short":"waw-2","host":"waw-1.pl.uncletopia.com","port":27025,"enabled":true,"region":"eu","cc":"pl","latitude":52.2297,"longitude":21.017532,"reserved":0,"last_update":"0001-01-01T00:00:00Z","name_a2s":"Uncletopia | Warsaw | 2 | All Maps","protocol":17,"map":"pl_borneo","folder":"tf","game":"Team Fortress","app_id":440,"player_count":0,"max_players":24,"Bots":0,"server_type":"Dedicated","server_os":"Linux","password":true,"vac":true,"version":"7932396","steam_id":85568392925397851,"keywords":["nocrits","nodmgspread","payload","uncletopia"],"game_id":440,"stv_port":27026,"stv_name":"Uncletopia | Warsaw | 2 | All Maps | STV","players":null},{"server_id":51,"name":"Uncletopia | Warsaw | 3 | All Maps","name_short":"waw-3","host":"waw-1.pl.uncletopia.com","port":27035,"enabled":true,"region":"eu","cc":"pl","latitude":52.2297,"longitude":21.017532,"reserved":0,"last_update":"0001-01-01T00:00:00Z","name_a2s":"Uncletopia | Warsaw | 3 | All Maps","protocol":17,"map":"pl_pier","folder":"tf","game":"Team Fortress","app_id":440,"player_count":0,"max_players":24,"Bots":0,"server_type":"Dedicated","server_os":"Linux","password":true,"vac":true,"version":"7932396","steam_id":85568392925397852,"keywords":["nocrits","nodmgspread","payload","uncletopia"],"game_id":440,"stv_port":27036,"stv_name":"Uncletopia | Warsaw | 3 | All Maps | STV","players":null},{"server_id":52,"name":"Uncletopia | Warsaw | 4 | All Maps","name_short":"waw-4","host":"waw-1.pl.uncletopia.com","port":27045,"enabled":true,"region":"eu","cc":"pl","latitude":52.2297,"longitude":21.017532,"reserved":0,"last_update":"0001-01-01T00:00:00Z","name_a2s":"Uncletopia | Warsaw | 4 | All Maps","protocol":17,"map":"pl_borneo","folder":"tf","game":"Team Fortress","app_id":440,"player_count":0,"max_players":24,"Bots":0,"server_type":"Dedicated","server_os":"Linux","password":true,"vac":true,"version":"7932396","steam_id":85568392925397853,"keywords":["nocrits","nodmgspread","payload","uncletopia"],"game_id":440,"stv_port":27046,"stv_name":"Uncletopia | Warsaw | 4 | All Maps | STV","players":null},{"server_id":53,"name":"Uncletopia | Warsaw | 5 | Stopwatch Beta","name_short":"waw-5","host":"waw-1.pl.uncletopia.com","port":27055,"enabled":true,"region":"eu","cc":"pl","latitude":52.2297,"longitude":21.017532,"reserved":0,"last_update":"0001-01-01T00:00:00Z","name_a2s":"Uncletopia | Warsaw | 5 | Stopwatch Beta","protocol":17,"map":"koth_cascade","folder":"tf","game":"Team Fortress","app_id":440,"player_count":0,"max_players":24,"Bots":0,"server_type":"Dedicated","server_os":"Linux","password":true,"vac":true,"version":"7932396","steam_id":85568392925397854,"keywords":["cp","nocrits","nodmgspread","uncletopia"],"game_id":440,"stv_port":27056,"stv_name":"Uncletopia | Warsaw | 5 | Stopwatch Beta | STV","players":null},{"server_id":54,"name":"Uncletopia | Warsaw | 6 | Community","name_short":"waw-6","host":"waw-1.pl.uncletopia.com","port":27065,"enabled":true,"region":"eu","cc":"pl","latitude":52.2297,"longitude":21.017532,"reserved":0,"last_update":"0001-01-01T00:00:00Z","name_a2s":"Uncletopia | Warsaw | 6 | Community","protocol":17,"map":"pl_frontier_final","folder":"tf","game":"Team Fortress","app_id":440,"player_count":0,"max_players":24,"Bots":0,"server_type":"Dedicated","server_os":"Linux","password":true,"vac":true,"version":"7932396","steam_id":85568392925397856,"keywords":["nocrits","nodmgspread","payload","uncletopia"],"game_id":440,"stv_port":27066,"stv_name":"Uncletopia | Warsaw | 6 | Community | STV","players":null}]}