{"status":true,"message":"","result":[{"server_id":9,"name":"Uncletopia | Atlanta | 1 | All Maps","name_short":"atl-1","host":"atl-1.us.uncletopia.com","port":27015,"enabled":true,"region":"us-east","cc":"us","latitude":33.753746,"longitude":-84.38633,"reserved":0,"last_update":"0001-01-01T00:00:00Z","name_a2s":"Uncletopia | Atlanta | 1 | All Maps","protocol":17,"map":"cp_gorge","folder":"tf","game":"Team Fortress","app_id":440,"player_count":24,"max_players":24,"Bots":0,"server_type":"Dedicated","server_os":"Linux","password":true,"vac":true,"version":"7961495","steam_id":85568392924469982,"keywords":["cp","nocrits","nodmgspread","uncletopia"],"game_id":440,"stv_port":27016,"stv_name":"Uncletopia | Atlanta | 1 | All Maps | STV","players":[{"user_id":110,"name":"Dreszerg","steam_id":76561198838757422,"connected_time":1341000000000,"state":"active","ping":81},{"user_id":15,"name":"Cast Iron Crusader","steam_id":76561198066384337,"connected_time":4802000000000,"state":"active","ping":78},{"user_id":112,"name":"WinterBucket","steam_id":76561198381313801,"connected_time":1324000000000,"state":"active","ping":164},{"user_id":52,"name":"Dread Pierat Squeaks","steam_id":76561198413602368,"connected_time":2334000000000,"state":"active","ping":60},{"user_id":140,"name":"the controller pyro","steam_id":76561199468748840,"connected_time":507000000000,"state":"active","ping":66},{"user_id":133,"name":"Typh","steam_id":76561198315344079,"connected_time":655000000000,"state":"active","ping":59},{"user_id":53,"name":"the zookeeper","steam_id":76561199134895220,"connected_time":2333000000000,"state":"active","ping":79},{"user_id":23,"name":"Neato","steam_id":76561198138219428,"connected_time":4590000000000,"state":"active","ping":169},{"user_id":141,"name":"Thequirka","steam_id":76561198968058652,"connected_time":474000000000,"state":"active","ping":107},{"user_id":135,"name":"The janitor(El coyote)","steam_id":76561198414300607,"connected_time":628000000000,"state":"active","ping":122},{"user_id":129,"name":"Chilledr","steam_id":76561198799250315,"connected_time":861000000000,"state":"active","ping":95},{"user_id":109,"name":"Jesus Burgess","steam_id":76561199343316814,"connected_time":1347000000000,"state":"active","ping":70},{"user_id":32,"name":"BloodHoundYT (F2P) | trade.tf","steam_id":76561199180340440,"connected_time":4136000000000,"state":"active","ping":158},{"user_id":136,"name":"Sunny D+","steam_id":76561197999371052,"connected_time":618000000000,"state":"active","ping":98},{"user_id":137,"name":"ThiccKomodoAss","steam_id":76561198037830114,"connected_time":608000000000,"state":"active","ping":61},{"user_id":128,"name":"insectoid","steam_id":76561198122677314,"connected_time":872000000000,"state":"active","ping":48},{"user_id":152,"name":"I eat kids","steam_id":76561199195104977,"connected_time":8000000000,"state":"spawning","ping":64},{"user_id":149,"name":"MeatShield 2000","steam_id":76561199375192850,"connected_time":230000000000,"state":"active","ping":127},{"user_id":153,"name":"Eridani","steam_id":76561198037289982,"connected_time":0,"state":"spawning","ping":0},{"user_id":142,"name":"kitaro","steam_id":76561198304476009,"connected_time":471000000000,"state":"active","ping":120},{"user_id":55,"name":"Cheems","steam_id":76561198269074039,"connected_time":2329000000000,"state":"active","ping":71},{"user_id":68,"name":"pHsHy","steam_id":76561198013195018,"connected_time":2136000000000,"state":"active","ping":87},{"user_id":45,"name":"ChimpChampion","steam_id":76561198046520712,"connected_time":3848000000000,"state":"active","ping":103},{"user_id":116,"name":"The Hose on Upward","steam_id":76561197965092192,"connected_time":1231000000000,"state":"active","ping":88}]},{"server_id":104,"name":"Uncletopia | Atlanta | 2 | All Maps","name_short":"atl-2","host":"atl-1.us.uncletopia.com","port":27025,"enabled":true,"region":"us-east","cc":"us","latitude":33.753746,"longitude":-84.38633,"reserved":0,"last_update":"0001-01-01T00:00:00Z","name_a2s":"Uncletopia | Atlanta | 2 | All Maps","protocol":17,"map":"pl_swiftwater_final1","folder":"tf","game":"Team Fortress","app_id":440,"player_count":15,"max_players":24,"Bots":0,"server_type":"Dedicated","server_os":"Linux","password":true,"vac":true,"version":"7961495","steam_id":85568392924469983,"keywords":["nocrits","nodmgspread","payload","uncletopia"],"game_id":440,"stv_port":27026,"stv_name":"Uncletopia | Atlanta | 2 | All Maps | STV","players":[{"user_id":118,"name":"Nassu","steam_id":76561198147367577,"connected_time":5689000000000,"state":"active","ping":159},{"user_id":160,"name":"kibble","steam_id":76561198239909096,"connected_time":2164000000000,"state":"active","ping":86},{"user_id":181,"name":"ZackPlayz","steam_id":76561198393823932,"connected_time":267000000000,"state":"active","ping":77},{"user_id":157,"name":"Young-OG","steam_id":76561198058800479,"connected_time":2336000000000,"state":"active","ping":56},{"user_id":172,"name":"Burnside Special","steam_id":76561198822221762,"connected_time":1185000000000,"state":"active","ping":89},{"user_id":176,"name":"Bee","steam_id":76561198074681324,"connected_time":482000000000,"state":"active","ping":67},{"user_id":150,"name":"LazyDoll","steam_id":76561198053186338,"connected_time":2705000000000,"state":"active","ping":113},{"user_id":163,"name":"Waff00","steam_id":76561198848377100,"connected_time":2100000000000,"state":"active","ping":76},{"user_id":28,"name":"summerlis","steam_id":76561198165324438,"connected_time":9300000000000,"state":"active","ping":87},{"user_id":159,"name":"Window Licker #pride","steam_id":76561198386717007,"connected_time":2188000000000,"state":"active","ping":75},{"user_id":133,"name":"meow","steam_id":76561198046948758,"connected_time":4314000000000,"state":"active","ping":47},{"user_id":177,"name":"sofa king","steam_id":76561198106849547,"connected_time":476000000000,"state":"active","ping":71},{"user_id":146,"name":"KillSwitch","steam_id":76561198271909107,"connected_time":2778000000000,"state":"active","ping":74},{"user_id":156,"name":"Crazzy Gur","steam_id":76561198046225297,"connected_time":2341000000000,"state":"active","ping":54},{"user_id":168,"name":"Engideer","steam_id":76561198145733164,"connected_time":1508000000000,"state":"active","ping":73}]},{"server_id":400,"name":"Uncletopia | Atlanta | 3 | Stopwatch","name_short":"atl-3","host":"atl-1.us.uncletopia.com","port":27035,"enabled":true,"region":"us-east","cc":"us","latitude":33.753746,"longitude":-84.38633,"reserved":0,"last_update":"0001-01-01T00:00:00Z","name_a2s":"Uncletopia | Atlanta | 3 | Stopwatch","protocol":17,"map":"pl_badwater","folder":"tf","game":"Team Fortress","app_id":440,"player_count":0,"max_players":24,"Bots":0,"server_type":"Dedicated","server_os":"Linux","password":true,"vac":true,"version":"7961495","steam_id":85568392924515187,"keywords":["nocrits","nodmgspread","payload","uncletopia"],"game_id":440,"stv_port":27036,"stv_name":"Uncletopia | Atlanta | 3 | Stopwatch | STV","players":null},{"server_id":401,"name":"Uncletopia | Atlanta | 4 | Community","name_short":"atl-4","host":"atl-1.us.uncletopia.com","port":27045,"enabled":true,"region":"us-east","cc":"us","latitude":33.753746,"longitude":-84.38633,"reserved":0,"last_update":"0001-01-01T00:00:00Z","name_a2s":"Uncletopia | Atlanta | 4 | Community","protocol":17,"map":"workshop/koth_slaughter_rc1.ugc1712845210","folder":"tf","game":"Team Fortress","app_id":440,"player_count":0,"max_players":24,"Bots":0,"server_type":"Dedicated","server_os":"Linux","password":true,"vac":true,"version":"7961495","steam_id":85568392924515188,"keywords":["cp","nocrits","nodmgspread","uncletopia"],"game_id":440,"stv_port":27046,"stv_name":"Uncletopia | Atlanta | 4 | Community | STV","players":null},{"server_id":2,"name":"Uncletopia | Chicago | 1 | All Maps","name_short":"chi-1","host":"chi-1.us.uncletopia.com","port":27015,"enabled":true,"region":"us-central","cc":"us","latitude":41.881832,"longitude":-87.62318,"reserved":0,"last_update":"0001-01-01T00:00:00Z","name_a2s":"Uncletopia | Chicago | 1 | All Maps","protocol":17,"map":"pl_swiftwater_final1","folder":"tf","game":"Team Fortress","app_id":440,"player_count":24,"max_players":24,"Bots":0,"server_type":"Dedicated","server_os":"Linux","password":true,"vac":true,"version":"7961495","steam_id":85568392924469984,"keywords":["nocrits","nodmgspread","payload","uncletopia"],"game_id":440,"stv_port":27016,"stv_name":"Uncletopia | Chicago | 1 | All Maps | STV","players":[{"user_id":246,"name":"Grandpa 1MinecraftEmpire","steam_id":76561198069046338,"connected_time":265000000000,"state":"active","ping":66},{"user_id":240,"name":"Philomentus","steam_id":76561198067714196,"connected_time":637000000000,"state":"active","ping":69},{"user_id":163,"name":"pea ttv/peabeanz","steam_id":76561198119551968,"connected_time":7830000000000,"state":"active","ping":74},{"user_id":249,"name":"Kafka Stan","steam_id":76561198127039453,"connected_time":154000000000,"state":"active","ping":95},{"user_id":202,"name":"worker","steam_id":76561198039608940,"connected_time":3433000000000,"state":"active","ping":113},{"user_id":99,"name":"Super Ghostbusters (Full Album)","steam_id":76561198057415490,"connected_time":12999000000000,"state":"active","ping":58},{"user_id":234,"name":"Doctor Bear  ï ‚Ä¢·¥•‚Ä¢ î","steam_id":76561197968103161,"connected_time":1225000000000,"state":"active","ping":65},{"user_id":180,"name":"Fabos","steam_id":76561199119843346,"connected_time":6451000000000,"state":"active","ping":170},{"user_id":225,"name":"Evil little man","steam_id":76561198311053471,"connected_time":1362000000000,"state":"active","ping":75},{"user_id":244,"name":"Violet42","steam_id":76561198072927887,"connected_time":325000000000,"state":"active","ping":59},{"user_id":80,"name":"Jel1440","steam_id":76561198179045366,"connected_time":13997000000000,"state":"active","ping":45},{"user_id":214,"name":"fish","steam_id":76561198054070811,"connected_time":2294000000000,"state":"active","ping":133},{"user_id":229,"name":"pisssmart","steam_id":76561199097253232,"connected_time":1344000000000,"state":"active","ping":72},{"user_id":250,"name":"King De","steam_id":76561198194427422,"connected_time":152000000000,"state":"active","ping":59},{"user_id":237,"name":"sansa musa","steam_id":76561198163723555,"connected_time":1029000000000,"state":"active","ping":60},{"user_id":235,"name":"Smiles","steam_id":76561198107197973,"connected_time":1213000000000,"state":"active","ping":60},{"user_id":222,"name":"Willham","steam_id":76561198065755781,"connected_time":1569000000000,"state":"active","ping":78},{"user_id":251,"name":"Ahkmid the Emoji Turban Guy","steam_id":76561198142599650,"connected_time":100000000000,"state":"active","ping":76},{"user_id":231,"name":"punk girl/metal god","steam_id":76561198116908911,"connected_time":1327000000000,"state":"active","ping":75},{"user_id":247,"name":"Renota","steam_id":76561198058224488,"connected_time":255000000000,"state":"active","ping":66},{"user_id":233,"name":"nodes","steam_id":76561198046782745,"connected_time":1263000000000,"state":"active","ping":60},{"user_id":248,"name":"hearthian","steam_id":76561198113235260,"connected_time":218000000000,"state":"active","ping":92},{"user_id":242,"name":"Nestor","steam_id":76561198070782619,"connected_time":445000000000,"state":"active","ping":67},{"user_id":243,"name":"t.tv/FamilyGuyFunnyMoments277","steam_id":76561198416047580,"connected_time":417000000000,"state":"active","ping":66}]},{"server_id":106,"name":"Uncletopia | Chicago | 2 | All Maps","name_short":"chi-2","host":"chi-1.us.uncletopia.com","port":27025,"enabled":true,"region":"us-central","cc":"us","latitude":41.881832,"longitude":-87.62318,"reserved":0,"last_update":"0001-01-01T00:00:00Z","name_a2s":"Uncletopia | Chicago | 2 | All Maps","protocol":17,"map":"cp_altitude","folder":"tf","game":"Team Fortress","app_id":440,"player_count":24,"max_players":24,"Bots":0,"server_type":"Dedicated","server_os":"Linux","password":true,"vac":true,"version":"7961495","steam_id":85568392924469985,"keywords":["cp","nocrits","nodmgspread","uncletopia"],"game_id":440,"stv_port":27026,"stv_name":"Uncletopia | Chicago | 2 | All Maps | STV","players":[{"user_id":28,"name":"Salemrina5130","steam_id":76561198369609513,"connected_time":1865000000000,"state":"active","ping":82},{"user_id":68,"name":"Rein","steam_id":76561198300340427,"connected_time":304000000000,"state":"active","ping":60},{"user_id":32,"name":"üßå","steam_id":76561198081991204,"connected_time":1670000000000,"state":"active","ping":54},{"user_id":67,"name":"silvr :3","steam_id":76561198069368377,"connected_time":335000000000,"state":"active","ping":70},{"user_id":35,"name":"Boot Mcstink","steam_id":76561199226873917,"connected_time":1435000000000,"state":"active","ping":100},{"user_id":33,"name":"gorble glob","steam_id":76561198010335241,"connected_time":1607000000000,"state":"active","ping":78},{"user_id":44,"name":"Kirby.exe","steam_id":76561198242714582,"connected_time":944000000000,"state":"active","ping":61},{"user_id":47,"name":"BisKit","steam_id":76561198140624153,"connected_time":928000000000,"state":"active","ping":87},{"user_id":52,"name":"jxh300","steam_id":76561199196579894,"connected_time":883000000000,"state":"active","ping":75},{"user_id":66,"name":"runescape gf","steam_id":76561198066824710,"connected_time":422000000000,"state":"active","ping":71},{"user_id":42,"name":"KarmaStar","steam_id":76561197971945357,"connected_time":1035000000000,"state":"active","ping":94},{"user_id":45,"name":"RileyNiko","steam_id":76561198162093639,"connected_time":943000000000,"state":"active","ping":63},{"user_id":46,"name":"Jesse Bear","steam_id":76561198217075305,"connected_time":938000000000,"state":"active","ping":79},{"user_id":74,"name":"Zetta","steam_id":76561198045710113,"connected_time":70000000000,"state":"active","ping":100},{"user_id":49,"name":"Meet The Taunt","steam_id":76561198253927199,"connected_time":907000000000,"state":"active","ping":172},{"user_id":50,"name":"loboto gaming","steam_id":76561199088321574,"connected_time":904000000000,"state":"active","ping":84},{"user_id":73,"name":"Metal Socks","steam_id":76561198049854770,"connected_time":153000000000,"state":"active","ping":97},{"user_id":53,"name":"Don't Fuckle with Shuckle","steam_id":76561199020102367,"connected_time":871000000000,"state":"active","ping":77},{"user_id":70,"name":"PTSleepyHead","steam_id":76561198037748705,"connected_time":250000000000,"state":"active","ping":98},{"user_id":69,"name":"jarrettconsult","steam_id":76561198249998262,"connected_time":290000000000,"state":"active","ping":75},{"user_id":65,"name":"Bigburgers","steam_id":76561198165013808,"connected_time":433000000000,"state":"active","ping":56},{"user_id":72,"name":"A Pizza Already","steam_id":76561198064918401,"connected_time":178000000000,"state":"active","ping":109},{"user_id":60,"name":"stir-fried human tonsils","steam_id":76561198312126442,"connected_time":617000000000,"state":"active","ping":100},{"user_id":61,"name":"FreonAddict9x19","steam_id":76561198060010824,"connected_time":615000000000,"state":"active","ping":75}]},{"server_id":402,"name":"Uncletopia | Chicago | 3 | All Maps","name_short":"chi-3","host":"chi-1.us.uncletopia.com","port":27035,"enabled":true,"region":"us-central","cc":"us","latitude":41.881832,"longitude":-87.62318,"reserved":0,"last_update":"0001-01-01T00:00:00Z","name_a2s":"Uncletopia | Chicago | 3 | All Maps","protocol":17,"map":"koth_highpass","folder":"tf","game":"Team Fortress","app_id":440,"player_count":0,"max_players":24,"Bots":0,"server_type":"Dedicated","server_os":"Linux","password":true,"vac":true,"version":"7961495","steam_id":85568392924515191,"keywords":["cp","nocrits","nodmgspread","uncletopia"],"game_id":440,"stv_port":27036,"stv_name":"Uncletopia | Chicago | 3 | All Maps | STV","players":null},{"server_id":403,"name":"Uncletopia | Chicago | 4 | All Maps","name_short":"chi-4","host":"chi-1.us.uncletopia.com","port":27045,"enabled":true,"region":"us-central","cc":"us","latitude":41.881832,"longitude":-87.62318,"reserved":0,"last_update":"0001-01-01T00:00:00Z","name_a2s":"Uncletopia | Chicago | 4 | All Maps","protocol":17,"map":"koth_cascade","folder":"tf","game":"Team Fortress","app_id":440,"player_count":0,"max_players":24,"Bots":0,"server_type":"Dedicated","server_os":"Linux","password":true,"vac":true,"version":"7961495","steam_id":85568392924515193,"keywords":["cp","nocrits","nodmgspread","uncletopia"],"game_id":440,"stv_port":27046,"stv_name":"Uncletopia | Chicago | 4 | All Maps | STV","players":null},{"server_id":36,"name":"Uncletopia | Chicago | 5 | All Maps","name_short":"chi-5","host":"chi-2.us.uncletopia.com","port":27015,"enabled":true,"region":"us-central","cc":"us","latitude":41.881832,"longitude":-87.62318,"reserved":0,"last_update":"0001-01-01T00:00:00Z","name_a2s":"Uncletopia | Chicago | 5 | All Maps","protocol":17,"map":"koth_viaduct","folder":"tf","game":"Team Fortress","app_id":440,"player_count":0,"max_players":24,"Bots":0,"server_type":"Dedicated","server_os":"Linux","password":true,"vac":true,"version":"7961495","steam_id":85568392924866362,"keywords":["cp","nocrits","nodmgspread","uncletopia"],"game_id":440,"stv_port":27016,"stv_name":"Uncletopia | Chicago | 5 | All Maps | STV","players":null},{"server_id":37,"name":"Uncletopia | Chicago | 6 | All Maps","name_short":"chi-6","host":"chi-2.us.uncletopia.com","port":27025,"enabled":true,"region":"us-central","cc":"us","latitude":41.881832,"longitude":-87.62318,"reserved":0,"last_update":"0001-01-01T00:00:00Z","name_a2s":"Uncletopia | Chicago | 6 | All Maps","protocol":17,"map":"pl_frontier_final","folder":"tf","game":"Team Fortress","app_id":440,"player_count":0,"max_players":24,"Bots":0,"server_type":"Dedicated","server_os":"Linux","password":true,"vac":true,"version":"7961495","steam_id":85568392924866363,"keywords":["nocrits","nodmgspread","payload","uncletopia"],"game_id":440,"stv_port":27026,"stv_name":"Uncletopia | Chicago | 6 | All Maps | STV","players":null},{"server_id":38,"name":"Uncletopia | Chicago | 7 | Stopwatch","name_short":"chi-7","host":"chi-2.us.uncletopia.com","port":27035,"enabled":true,"region":"us-central","cc":"us","latitude":41.881832,"longitude":-87.62318,"reserved":0,"last_update":"0001-01-01T00:00:00Z","name_a2s":"Uncletopia | Chicago | 7 | Stopwatch","protocol":17,"map":"workshop/koth_ashville_final.ugc2130459942","folder":"tf","game":"Team Fortress","app_id":440,"player_count":0,"max_players":24,"Bots":0,"server_type":"Dedicated","server_os":"Linux","password":true,"vac":true,"version":"7961495","steam_id":85568392924866364,"keywords":["cp","nocrits","nodmgspread","uncletopia"],"game_id":440,"stv_port":27036,"stv_name":"Uncletopia | Chicago | 7 | Stopwatch | STV","players":null},{"server_id":39,"name":"Uncletopia | Chicago | 8 | Community","name_short":"chi-8","host":"chi-2.us.uncletopia.com","port":27045,"enabled":true,"region":"us-central","cc":"us","latitude":41.881832,"longitude":-87.62318,"reserved":0,"last_update":"0001-01-01T00:00:00Z","name_a2s":"Uncletopia | Chicago | 8 | Community","protocol":17,"map":"pl_pier","folder":"tf","game":"Team Fortress","app_id":440,"player_count":0,"max_players":24,"Bots":0,"server_type":"Dedicated","server_os":"Linux","password":true,"vac":true,"version":"7961495","steam_id":85568392924866365,"keywords":["nocrits","nodmgspread","payload","uncletopia"],"game_id":440,"stv_port":27046,"stv_name":"Uncletopia | Chicago | 8 | Community | STV","players":null},{"server_id":8,"name":"Uncletopia | Dallas | 1 | All Maps","name_short":"dal-1","host":"dal-1.us.uncletopia.com","port":27015,"enabled":true,"region":"us-central","cc":"us","latitude":32.779167,"longitude":-96.80889,"reserved":0,"last_update":"0001-01-01T00:00:00Z","name_a2s":"Uncletopia | Dallas | 1 | All Maps","protocol":17,"map":"koth_highpass","folder":"tf","game":"Team Fortress","app_id":440,"player_count":0,"max_players":24,"Bots":0,"server_type":"Dedicated","server_os":"Linux","password":true,"vac":true,"version":"7961495","steam_id":85568392924469986,"keywords":["cp","nocrits","nodmgspread","uncletopia"],"game_id":440,"stv_port":27016,"stv_name":"Uncletopia | Dallas | 1 | All Maps | STV","players":null},{"server_id":108,"name":"Uncletopia | Dallas | 2 | All Maps","name_short":"dal-2","host":"dal-1.us.uncletopia.com","port":27025,"enabled":true,"region":"us-central","cc":"us","latitude":32.779167,"longitude":-96.80889,"reserved":0,"last_update":"0001-01-01T00:00:00Z","name_a2s":"Uncletopia | Dallas | 2 | All Maps","protocol":17,"map":"pl_swiftwater_final1","folder":"tf","game":"Team Fortress","app_id":440,"player_count":0,"max_players":24,"Bots":0,"server_type":"Dedicated","server_os":"Linux","password":true,"vac":true,"version":"7961495","steam_id":85568392924469988,"keywords":["nocrits","nodmgspread","payload","uncletopia"],"game_id":440,"stv_port":27026,"stv_name":"Uncletopia | Dallas | 2 | All Maps | STV","players":null},{"server_id":404,"name":"Uncletopia | Dallas | 3 | All Maps","name_short":"dal-3","host":"dal-1.us.uncletopia.com","port":27035,"enabled":true,"region":"us-central","cc":"us","latitude":32.779167,"longitude":-96.80889,"reserved":0,"last_update":"0001-01-01T00:00:00Z","name_a2s":"Uncletopia | Dallas | 3 | All Maps","protocol":17,"map":"koth_viaduct","folder":"tf","game":"Team Fortress","app_id":440,"player_count":0,"max_players":24,"Bots":0,"server_type":"Dedicated","server_os":"Linux","password":true,"vac":true,"version":"7961495","steam_id":85568392924515219,"keywords":["cp","nocrits","nodmgspread","uncletopia"],"game_id":440,"stv_port":27036,"stv_name":"Uncletopia | Dallas | 3 | All Maps | STV","players":null},{"server_id":405,"name":"Uncletopia | Dallas | 4 | Community","name_short":"dal-4","host":"dal-1.us.uncletopia.com","port":27045,"enabled":true,"region":"us-central","cc":"us","latitude":32.779167,"longitude":-96.80889,"reserved":0,"last_update":"0001-01-01T00:00:00Z","name_a2s":"Uncletopia | Dallas | 4 | Community","protocol":17,"map":"pl_pier","folder":"tf","game":"Team Fortress","app_id":440,"player_count":0,"max_players":24,"Bots":0,"server_type":"Dedicated","server_os":"Linux","password":true,"vac":true,"version":"7961495","steam_id":85568392924515220,"keywords":["nocrits","nodmgspread","payload","uncletopia"],"game_id":440,"stv_port":27046,"stv_name":"Uncletopia | Dallas | 4 | Community | STV","players":null},{"server_id":5,"name":"Uncletopia | Frankfurt | 1 | All Maps","name_short":"frk-1","host":"frk-1.de.uncletopia.com","port":27015,"enabled":true,"region":"eu","cc":"de","latitude":50.110924,"longitude":8.682127,"reserved":0,"last_update":"0001-01-01T00:00:00Z","name_a2s":"Uncletopia | Frankfurt | 1 | All Maps","protocol":17,"map":"cp_altitude","folder":"tf","game":"Team Fortress","app_id":440,"player_count":1,"max_players":24,"Bots":0,"server_type":"Dedicated","server_os":"Linux","password":true,"vac":true,"version":"7961495","steam_id":85568392924469989,"keywords":["cp","nocrits","nodmgspread","uncletopia"],"game_id":440,"stv_port":27016,"stv_name":"Uncletopia | Frankfurt | 1 | All Maps | STV","players":[{"user_id":30,"name":"Nymph","steam_id":76561198042801329,"connected_time":32000000000,"state":"active","ping":58}]},{"server_id":110,"name":"Uncletopia | Frankfurt | 2 | All Maps","name_short":"frk-2","host":"frk-1.de.uncletopia.com","port":27025,"enabled":true,"region":"eu","cc":"de","latitude":50.110924,"longitude":8.682127,"reserved":0,"last_update":"0001-01-01T00:00:00Z","name_a2s":"Uncletopia | Frankfurt | 2 | All Maps","protocol":17,"map":"pl_upward","folder":"tf","game":"Team Fortress","app_id":440,"player_count":24,"max_players":24,"Bots":0,"server_type":"Dedicated","server_os":"Linux","password":true,"vac":true,"version":"7961495","steam_id":85568392924469990,"keywords":["nocrits","nodmgspread","payload","uncletopia"],"game_id":440,"stv_port":27026,"stv_name":"Uncletopia | Frankfurt | 2 | All Maps | STV","players":[{"user_id":428,"name":"dunduu","steam_id":76561198875240717,"connected_time":340000000000,"state":"active","ping":60},{"user_id":413,"name":"LaZe","steam_id":76561198202191400,"connected_time":1049000000000,"state":"active","ping":72},{"user_id":429,"name":"\u003e\u003c\u003e","steam_id":76561198152392309,"connected_time":143000000000,"state":"active","ping":52},{"user_id":302,"name":"Master coitus","steam_id":76561198050416948,"connected_time":9218000000000,"state":"active","ping":59},{"user_id":409,"name":"Sandvich","steam_id":76561199079493666,"connected_time":2150000000000,"state":"active","ping":77},{"user_id":298,"name":"CzechMate #SaveTF2","steam_id":76561198012687703,"connected_time":9684000000000,"state":"active","ping":45},{"user_id":412,"name":"NALA","steam_id":76561198039806469,"connected_time":1391000000000,"state":"active","ping":65},{"user_id":400,"name":"Praskaton1905","steam_id":76561199086026716,"connected_time":2481000000000,"state":"active","ping":79},{"user_id":402,"name":"[FP] Rune","steam_id":76561198030842879,"connected_time":2320000000000,"state":"active","ping":51},{"user_id":416,"name":"ONI","steam_id":76561199038860035,"connected_time":1023000000000,"state":"active","ping":71},{"user_id":415,"name":"Udinese Dion","steam_id":76561198067931573,"connected_time":1034000000000,"state":"active","ping":47},{"user_id":424,"name":"pepper","steam_id":76561198059782462,"connected_time":780000000000,"state":"active","ping":53},{"user_id":417,"name":"drew","steam_id":76561198012304706,"connected_time":1011000000000,"state":"active","ping":91},{"user_id":426,"name":"revolver CHEH","steam_id":76561198851411530,"connected_time":558000000000,"state":"active","ping":45},{"user_id":431,"name":"Kingo","steam_id":76561198046293862,"connected_time":16000000000,"state":"spawning","ping":51},{"user_id":143,"name":"else1","steam_id":76561197996558319,"connected_time":21725000000000,"state":"active","ping":76},{"user_id":427,"name":"galaxy","steam_id":76561198164819022,"connected_time":414000000000,"state":"active","ping":68},{"user_id":399,"name":"Nittugai","steam_id":76561198067366462,"connected_time":2497000000000,"state":"active","ping":60},{"user_id":425,"name":"Averageteenontren","steam_id":76561198108543844,"connected_time":593000000000,"state":"active","ping":159},{"user_id":419,"name":"Average meme enjoyer","steam_id":76561199087566663,"connected_time":1002000000000,"state":"active","ping":84},{"user_id":380,"name":"Time-Green","steam_id":76561198133937444,"connected_time":3137000000000,"state":"active","ping":64},{"user_id":388,"name":"sad bitch kiki","steam_id":76561198838277022,"connected_time":2959000000000,"state":"active","ping":69},{"user_id":421,"name":"Romultra","steam_id":76561198354105082,"connected_time":970000000000,"state":"active","ping":53},{"user_id":423,"name":"‡ºº ‡∫àŸÑÕú‡∫à‡ºΩ","steam_id":76561198027166144,"connected_time":930000000000,"state":"active","ping":82}]},{"server_id":308,"name":"Uncletopia | Frankfurt | 3 | All Maps","name_short":"frk-3","host":"frk-1.de.uncletopia.com","port":27035,"enabled":true,"region":"eu","cc":"de","latitude":50.110924,"longitude":8.682127,"reserved":0,"last_update":"0001-01-01T00:00:00Z","name_a2s":"Uncletopia | Frankfurt | 3 | All Maps","protocol":17,"map":"cp_mossrock","folder":"tf","game":"Team Fortress","app_id":440,"player_count":20,"max_players":24,"Bots":0,"server_type":"Dedicated","server_os":"Linux","password":true,"vac":true,"version":"7961495","steam_id":85568392924504274,"keywords":["cp","nocrits","nodmgspread","uncletopia"],"game_id":440,"stv_port":27036,"stv_name":"Uncletopia | Frankfurt | 3 | All Maps | STV","players":[{"user_id":25,"name":"AxyzS | affenbr0t_6o4","steam_id":76561197981823456,"connected_time":3181000000000,"state":"active","ping":60},{"user_id":36,"name":"Unfunny Name","steam_id":76561198799372115,"connected_time":1837000000000,"state":"active","ping":73},{"user_id":55,"name":"awesomescoutpranker6","steam_id":76561199138214818,"connected_time":1286000000000,"state":"active","ping":85},{"user_id":61,"name":"JynxDK","steam_id":76561198194324242,"connected_time":673000000000,"state":"active","ping":69},{"user_id":69,"name":"alcha","steam_id":76561198248628176,"connected_time":120000000000,"state":"active","ping":88},{"user_id":67,"name":"Kenny","steam_id":76561198994898206,"connected_time":308000000000,"state":"active","ping":74},{"user_id":31,"name":"CreepyYellowDuck","steam_id":76561198000479387,"connected_time":2053000000000,"state":"active","ping":45},{"user_id":68,"name":"grassesmode.exe","steam_id":76561198090167960,"connected_time":302000000000,"state":"active","ping":85},{"user_id":33,"name":"‚úß:9 LE","steam_id":76561198026659536,"connected_time":2015000000000,"state":"active","ping":105},{"user_id":34,"name":"‚úßTori Roach","steam_id":76561198170599306,"connected_time":2013000000000,"state":"active","ping":106},{"user_id":38,"name":"ELPOTATO","steam_id":76561198049743627,"connected_time":1788000000000,"state":"active","ping":93},{"user_id":39,"name":"r0la","steam_id":76561198128315340,"connected_time":1779000000000,"state":"active","ping":87},{"user_id":54,"name":"aphextwinsucks","steam_id":76561198132185926,"connected_time":1334000000000,"state":"active","ping":58},{"user_id":63,"name":"Durin sein Vater","steam_id":76561198021246713,"connected_time":616000000000,"state":"active","ping":41},{"user_id":64,"name":"Papa Stalin","steam_id":76561198298953716,"connected_time":615000000000,"state":"active","ping":81},{"user_id":47,"name":"Renolox","steam_id":76561198036590182,"connected_time":1678000000000,"state":"active","ping":64},{"user_id":48,"name":"Cymric","steam_id":76561198208749713,"connected_time":1603000000000,"state":"active","ping":81},{"user_id":49,"name":"Shy cute eboy baka","steam_id":76561198353334467,"connected_time":1592000000000,"state":"active","ping":82},{"user_id":60,"name":"≈ò√¥≈õ≈õ","steam_id":76561198123398130,"connected_time":816000000000,"state":"active","ping":92},{"user_id":51,"name":"endlesshills","steam_id":76561198081908373,"connected_time":1558000000000,"state":"active","ping":56}]},{"server_id":309,"name":"Uncletopia | Frankfurt | 4 | All Maps","name_short":"frk-4","host":"frk-1.de.uncletopia.com","port":27045,"enabled":true,"region":"eu","cc":"de","latitude":50.110924,"longitude":8.682127,"reserved":0,"last_update":"0001-01-01T00:00:00Z","name_a2s":"Uncletopia | Frankfurt | 4 | All Maps","protocol":17,"map":"pl_pier","folder":"tf","game":"Team Fortress","app_id":440,"player_count":24,"max_players":24,"Bots":0,"server_type":"Dedicated","server_os":"Linux","password":true,"vac":true,"version":"7961495","steam_id":85568392924504275,"keywords":["nocrits","nodmgspread","payload","uncletopia"],"game_id":440,"stv_port":27046,"stv_name":"Uncletopia | Frankfurt | 4 | All Maps | STV","players":[{"user_id":269,"name":"Swagmaster","steam_id":76561198045828392,"connected_time":321000000000,"state":"active","ping":66},{"user_id":253,"name":"El Gato Volador","steam_id":76561198021296882,"connected_time":1336000000000,"state":"active","ping":75},{"user_id":210,"name":"MeDiciN","steam_id":76561199112280586,"connected_time":5157000000000,"state":"active","ping":153},{"user_id":199,"name":"Khrinde","steam_id":76561198036744526,"connected_time":5727000000000,"state":"active","ping":95},{"user_id":214,"name":"–¢–æ–π, —â–æ –æ–≤–µ—Ü—å –ø–∞—Å\ufffd","steam_id":76561198237056456,"connected_time":4106000000000,"state":"active","ping":59},{"user_id":267,"name":"Noice","steam_id":76561198142980847,"connected_time":514000000000,"state":"active","ping":88},{"user_id":263,"name":"Rocket Queen's consort","steam_id":76561198092995429,"connected_time":673000000000,"state":"active","ping":135},{"user_id":259,"name":"Gaxkang","steam_id":76561198125768571,"connected_time":965000000000,"state":"active","ping":69},{"user_id":242,"name":"jmp","steam_id":76561198168283286,"connected_time":2560000000000,"state":"active","ping":74},{"user_id":261,"name":"Dogdigger","steam_id":76561198032893130,"connected_time":763000000000,"state":"active","ping":95},{"user_id":260,"name":"Weeb exterminator","steam_id":76561198078964973,"connected_time":821000000000,"state":"active","ping":66},{"user_id":225,"name":"Blomman","steam_id":76561198059119716,"connected_time":3732000000000,"state":"active","ping":77},{"user_id":249,"name":"night.s","steam_id":76561198326287823,"connected_time":1644000000000,"state":"active","ping":65},{"user_id":264,"name":"Kr√≥licki_","steam_id":76561199109915352,"connected_time":668000000000,"state":"active","ping":53},{"user_id":265,"name":"monikka","steam_id":76561198297003397,"connected_time":644000000000,"state":"active","ping":63},{"user_id":201,"name":"Armored","steam_id":76561198267449130,"connected_time":5501000000000,"state":"active","ping":69},{"user_id":266,"name":"HellJumper","steam_id":76561198064758540,"connected_time":634000000000,"state":"active","ping":64},{"user_id":171,"name":"Pico","steam_id":76561198063552545,"connected_time":7600000000000,"state":"active","ping":97},{"user_id":119,"name":"Mr Season","steam_id":76561198014005263,"connected_time":10783000000000,"state":"active","ping":103},{"user_id":268,"name":"Speedyjoestar","steam_id":76561198907130963,"connected_time":369000000000,"state":"active","ping":68},{"user_id":239,"name":"Hogs Sidekick","steam_id":76561198136433205,"connected_time":2784000000000,"state":"active","ping":56},{"user_id":273,"name":"SynthBox3","steam_id":76561199094075745,"connected_time":188000000000,"state":"active","ping":104},{"user_id":240,"name":"Abakum","steam_id":76561198413243475,"connected_time":2762000000000,"state":"active","ping":80},{"user_id":257,"name":"Ar|es","steam_id":76561198819160313,"connected_time":1232000000000,"state":"active","ping":85}]},{"server_id":310,"name":"Uncletopia | Frankfurt | 5 | All Maps","name_short":"frk-5","host":"frk-1.de.uncletopia.com","port":27055,"enabled":true,"region":"eu","cc":"de","latitude":50.110924,"longitude":8.682127,"reserved":0,"last_update":"0001-01-01T00:00:00Z","name_a2s":"Uncletopia | Frankfurt | 5 | All Maps","protocol":17,"map":"cp_sunshine","folder":"tf","game":"Team Fortress","app_id":440,"player_count":0,"max_players":24,"Bots":0,"server_type":"Dedicated","server_os":"Linux","password":true,"vac":true,"version":"7961495","steam_id":85568392924504277,"keywords":["cp","nocrits","nodmgspread","uncletopia"],"game_id":440,"stv_port":27056,"stv_name":"Uncletopia | Frankfurt | 5 | All Maps | STV","players":null},{"server_id":311,"name":"Uncletopia | Frankfurt | 6 | All Maps","name_short":"frk-6","host":"frk-1.de.uncletopia.com","port":27065,"enabled":true,"region":"eu","cc":"de","latitude":50.110924,"longitude":8.682127,"reserved":0,"last_update":"0001-01-01T00:00:00Z","name_a2s":"Uncletopia | Frankfurt | 6 | All Maps","protocol":17,"map":"pl_borneo","folder":"tf","game":"Team Fortress","app_id":440,"player_count":22,"max_players":24,"Bots":0,"server_type":"Dedicated","server_os":"Linux","password":true,"vac":true,"version":"7961495","steam_id":85568392924504278,"keywords":["nocrits","nodmgspread","payload","uncletopia"],"game_id":440,"stv_port":27066,"stv_name":"Uncletopia | Frankfurt | 6 | All Maps | STV","players":[{"user_id":135,"name":"leadsquid","steam_id":76561198071544109,"connected_time":1477000000000,"state":"active","ping":127},{"user_id":113,"name":"021984","steam_id":76561198417999443,"connected_time":3053000000000,"state":"active","ping":96},{"user_id":157,"name":"MrNoob","steam_id":76561198800018341,"connected_time":395000000000,"state":"active","ping":104},{"user_id":145,"name":"jt7","steam_id":76561198073655162,"connected_time":1072000000000,"state":"active","ping":65},{"user_id":134,"name":"SirVitek","steam_id":76561198142961758,"connected_time":1501000000000,"state":"active","ping":66},{"user_id":151,"name":"GabGame","steam_id":76561198105631808,"connected_time":792000000000,"state":"active","ping":69},{"user_id":146,"name":"Rick the gravekeeper","steam_id":76561199067658590,"connected_time":1071000000000,"state":"active","ping":109},{"user_id":152,"name":"elkku26","steam_id":76561198982055716,"connected_time":768000000000,"state":"active","ping":83},{"user_id":20,"name":"beetrootstrawberry2011","steam_id":76561198097239850,"connected_time":7641000000000,"state":"active","ping":59},{"user_id":158,"name":"The Mann","steam_id":76561198088927861,"connected_time":261000000000,"state":"active","ping":131},{"user_id":148,"name":"Der Geist des Hans Rosling","steam_id":76561198049231109,"connected_time":928000000000,"state":"active","ping":65},{"user_id":115,"name":"robsan","steam_id":76561198137375391,"connected_time":3000000000000,"state":"active","ping":89},{"user_id":62,"name":"jeezo","steam_id":76561198123592400,"connected_time":5871000000000,"state":"active","ping":89},{"user_id":140,"name":"LeGerooo","steam_id":76561199110422160,"connected_time":1365000000000,"state":"active","ping":111},{"user_id":131,"name":"Mr. Salt Detector","steam_id":76561198089962282,"connected_time":1549000000000,"state":"active","ping":57},{"user_id":123,"name":"Ama_r0","steam_id":76561198348377332,"connected_time":2521000000000,"state":"active","ping":102},{"user_id":57,"name":"Lyncurion","steam_id":76561199260022725,"connected_time":6183000000000,"state":"active","ping":74},{"user_id":153,"name":"dirhs","steam_id":76561198383867611,"connected_time":763000000000,"state":"active","ping":64},{"user_id":39,"name":"Hot Bean","steam_id":76561198803639155,"connected_time":7025000000000,"state":"active","ping":88},{"user_id":143,"name":"Soulman25 (FIN)","steam_id":76561198103611974,"connected_time":1304000000000,"state":"active","ping":83},{"user_id":156,"name":"kadanov","steam_id":76561198055365234,"connected_time":718000000000,"state":"active","ping":76},{"user_id":147,"name":"JULIUS","steam_id":76561198092223605,"connected_time":1068000000000,"state":"active","ping":67}]},{"server_id":23,"name":"Uncletopia | Frankfurt | 7 | Stopwatch","name_short":"frk-7","host":"frk-1.de.uncletopia.com","port":27075,"enabled":true,"region":"eu","cc":"de","latitude":50.110924,"longitude":8.682127,"reserved":0,"last_update":"0001-01-01T00:00:00Z","name_a2s":"Uncletopia | Frankfurt | 7 | Stopwatch","protocol":17,"map":"workshop/pl_vigil_rc10.ugc1266210012","folder":"tf","game":"Team Fortress","app_id":440,"player_count":0,"max_players":24,"Bots":0,"server_type":"Dedicated","server_os":"Linux","password":true,"vac":true,"version":"7961495","steam_id":85568392924742827,"keywords":["nocrits","nodmgspread","payload","uncletopia"],"game_id":440,"stv_port":27076,"stv_name":"Uncletopia | Frankfurt | 7 | Stopwatch | STV","players":null},{"server_id":24,"name":"Uncletopia | Frankfurt | 8 | Community","name_short":"frk-8","host":"frk-1.de.uncletopia.com","port":27085,"enabled":true,"region":"eu","cc":"de","latitude":50.110924,"longitude":8.682127,"reserved":0,"last_update":"0001-01-01T00:00:00Z","name_a2s":"Uncletopia | Frankfurt | 8 | Community","protocol":17,"map":"workshop/pl_emerge_rc2.ugc888027758","folder":"tf","game":"Team Fortress","app_id":440,"player_count":0,"max_players":24,"Bots":0,"server_type":"Dedicated","server_os":"Linux","password":true,"vac":true,"version":"7961495","steam_id":85568392924742828,"keywords":["nocrits","nodmgspread","payload","uncletopia"],"game_id":440,"stv_port":27086,"stv_name":"Uncletopia | Frankfurt | 8 | Community | STV","players":null},{"server_id":202,"name":"Uncletopia | Hong Kong | 1 | All Maps","name_short":"hgk-1","host":"hgk-1.hk.uncletopia.com","port":27015,"enabled":true,"region":"asia","cc":"hk","latitude":22.302711,"longitude":114.177216,"reserved":0,"last_update":"0001-01-01T00:00:00Z","name_a2s":"Uncletopia | Hong Kong | 1 | All Maps","protocol":17,"map":"koth_cascade","folder":"tf","game":"Team Fortress","app_id":440,"player_count":0,"max_players":24,"Bots":0,"server_type":"Dedicated","server_os":"Linux","password":true,"vac":true,"version":"7961495","steam_id":85568392924494504,"keywords":["cp","nocrits","nodmgspread","uncletopia"],"game_id":440,"stv_port":27016,"stv_name":"Uncletopia | Hong Kong | 1 | All Maps | STV","players":null},{"server_id":1,"name":"Uncletopia | Los Angeles | 1 | All Maps","name_short":"lax-1","host":"lax-1.us.uncletopia.com","port":27015,"enabled":true,"region":"us-west","cc":"us","latitude":33.94279,"longitude":-118.41004,"reserved":0,"last_update":"0001-01-01T00:00:00Z","name_a2s":"Uncletopia | Los Angeles | 1 | All Maps","protocol":17,"map":"cp_sunshine","folder":"tf","game":"Team Fortress","app_id":440,"player_count":5,"max_players":24,"Bots":0,"server_type":"Dedicated","server_os":"Linux","password":true,"vac":true,"version":"7961495","steam_id":85568392924469991,"keywords":["cp","nocrits","nodmgspread","uncletopia"],"game_id":440,"stv_port":27016,"stv_name":"Uncletopia | Los Angeles | 1 | All Maps | STV","players":[{"user_id":5,"name":"Chomdyphoonus HQ C.E.O.","steam_id":76561199093893813,"connected_time":1339000000000,"state":"active","ping":200},{"user_id":6,"name":"ProSlayer77","steam_id":76561199435273618,"connected_time":1334000000000,"state":"active","ping":188},{"user_id":7,"name":"the ya ha ha genius","steam_id":76561198240764504,"connected_time":805000000000,"state":"active","ping":32},{"user_id":8,"name":"SlitherDoodle","steam_id":76561198000275473,"connected_time":477000000000,"state":"active","ping":74},{"user_id":10,"name":"Oktayey","steam_id":76561198143213426,"connected_time":58000000000,"state":"active","ping":50}]},{"server_id":112,"name":"Uncletopia | Los Angeles | 2 | All Maps","name_short":"lax-2","host":"lax-1.us.uncletopia.com","port":27025,"enabled":true,"region":"us-west","cc":"us","latitude":33.94279,"longitude":-118.41004,"reserved":0,"last_update":"0001-01-01T00:00:00Z","name_a2s":"Uncletopia | Los Angeles | 2 | All Maps","protocol":17,"map":"cp_mountainlab","folder":"tf","game":"Team Fortress","app_id":440,"player_count":0,"max_players":24,"Bots":0,"server_type":"Dedicated","server_os":"Linux","password":true,"vac":true,"version":"7961495","steam_id":85568392924469992,"keywords":["cp","nocrits","nodmgspread","uncletopia"],"game_id":440,"stv_port":27026,"stv_name":"Uncletopia | Los Angeles | 2 | All Maps | STV","players":null},{"server_id":324,"name":"Uncletopia | Los Angeles | 3 | All Maps","name_short":"lax-3","host":"lax-1.us.uncletopia.com","port":27035,"enabled":true,"region":"us-west","cc":"us","latitude":33.94279,"longitude":-118.41004,"reserved":0,"last_update":"0001-01-01T00:00:00Z","name_a2s":"Uncletopia | Los Angeles | 3 | All Maps","protocol":17,"map":"pl_frontier_final","folder":"tf","game":"Team Fortress","app_id":440,"player_count":0,"max_players":24,"Bots":0,"server_type":"Dedicated","server_os":"Linux","password":true,"vac":true,"version":"7961495","steam_id":85568392924510198,"keywords":["nocrits","nodmgspread","payload","uncletopia"],"game_id":440,"stv_port":27036,"stv_name":"Uncletopia | Los Angeles | 3 | All Maps | STV","players":null},{"server_id":25,"name":"Uncletopia | Los Angeles | 4 | Stopwatch","name_short":"lax-4","host":"lax-1.us.uncletopia.com","port":27045,"enabled":true,"region":"us-west","cc":"us","latitude":33.94279,"longitude":-118.41004,"reserved":0,"last_update":"0001-01-01T00:00:00Z","name_a2s":"Uncletopia | Los Angeles | 4 | Stopwatch","protocol":17,"map":"pl_barnblitz","folder":"tf","game":"Team Fortress","app_id":440,"player_count":0,"max_players":24,"Bots":0,"server_type":"Dedicated","server_os":"Linux","password":true,"vac":true,"version":"7961495","steam_id":85568392924510199,"keywords":["nocrits","nodmgspread","payload","uncletopia"],"game_id":440,"stv_port":27046,"stv_name":"Uncletopia | Los Angeles | 4 | Stopwatch | STV","players":null},{"server_id":11,"name":"Uncletopia | London | 1 | All Maps","name_short":"lon-1","host":"lon-1.uk.uncletopia.com","port":27015,"enabled":true,"region":"eu","cc":"gb","latitude":51.509865,"longitude":-0.118092,"reserved":0,"last_update":"0001-01-01T00:00:00Z","name_a2s":"Uncletopia | London | 1 | All Maps","protocol":17,"map":"pl_frontier_final","folder":"tf","game":"Team Fortress","app_id":440,"player_count":24,"max_players":24,"Bots":0,"server_type":"Dedicated","server_os":"Linux","password":true,"vac":true,"version":"7961495","steam_id":85568392924367362,"keywords":["nocrits","nodmgspread","payload","uncletopia"],"game_id":440,"stv_port":27016,"stv_name":"Uncletopia | London | 1 | All Maps | STV","players":[{"user_id":499,"name":"Jergu","steam_id":76561198023457541,"connected_time":1207000000000,"state":"active","ping":71},{"user_id":490,"name":"Woman (Real)","steam_id":76561199151823932,"connected_time":2148000000000,"state":"active","ping":87},{"user_id":452,"name":"chestnutflea","steam_id":76561198144268690,"connected_time":5452000000000,"state":"active","ping":60},{"user_id":505,"name":"Umme","steam_id":76561198053809566,"connected_time":355000000000,"state":"active","ping":89},{"user_id":508,"name":"shooer!","steam_id":76561198110531281,"connected_time":221000000000,"state":"active","ping":69},{"user_id":507,"name":"Paulo Doutor","steam_id":76561198168674032,"connected_time":284000000000,"state":"active","ping":80},{"user_id":449,"name":"mertefe","steam_id":76561199237126613,"connected_time":6027000000000,"state":"active","ping":99},{"user_id":509,"name":"Ôº•Ôº•Ôº≠Ôº°ÔºÆ‚Ñ¢","steam_id":76561198044903016,"connected_time":177000000000,"state":"active","ping":77},{"user_id":506,"name":"VampireSunflower","steam_id":76561199007012355,"connected_time":299000000000,"state":"active","ping":53},{"user_id":491,"name":"Archer","steam_id":76561197994239444,"connected_time":1833000000000,"state":"active","ping":120},{"user_id":467,"name":"Losre","steam_id":76561198071393125,"connected_time":4301000000000,"state":"active","ping":59},{"user_id":494,"name":"*Stare*","steam_id":76561199072209884,"connected_time":1668000000000,"state":"active","ping":56},{"user_id":502,"name":"Slifer The Sky Dragon Furry","steam_id":76561198062255803,"connected_time":793000000000,"state":"active","ping":91},{"user_id":489,"name":"SKY_","steam_id":76561198080980508,"connected_time":2262000000000,"state":"active","ping":63},{"user_id":500,"name":"xva","steam_id":76561198969286813,"connected_time":1202000000000,"state":"active","ping":70},{"user_id":501,"name":"Plep","steam_id":76561198840259819,"connected_time":1195000000000,"state":"active","ping":60},{"user_id":474,"name":"‡∂ûaura‡∂û","steam_id":76561198066258544,"connected_time":3042000000000,"state":"active","ping":64},{"user_id":495,"name":"Keany","steam_id":76561199041393458,"connected_time":1666000000000,"state":"active","ping":56},{"user_id":468,"name":"Trans Femtress 2","steam_id":76561198014056212,"connected_time":4299000000000,"state":"active","ping":70},{"user_id":510,"name":"Yelowchy","steam_id":76561198199416121,"connected_time":159000000000,"state":"active","ping":71},{"user_id":456,"name":"Pitipit","steam_id":76561198343333412,"connected_time":5198000000000,"state":"active","ping":92},{"user_id":480,"name":"your car's extended warranty","steam_id":76561198124658396,"connected_time":2960000000000,"state":"active","ping":52},{"user_id":483,"name":"- Indigo -","steam_id":76561198380193071,"connected_time":2922000000000,"state":"active","ping":74},{"user_id":493,"name":"Mircoxi","steam_id":76561199407632710,"connected_time":1672000000000,"state":"active","ping":65}]},{"server_id":114,"name":"Uncletopia | London | 2 | All Maps","name_short":"lon-2","host":"lon-1.uk.uncletopia.com","port":27025,"enabled":true,"region":"eu","cc":"gb","latitude":51.509865,"longitude":-0.118092,"reserved":0,"last_update":"0001-01-01T00:00:00Z","name_a2s":"Uncletopia | London | 2 | All Maps","protocol":17,"map":"pl_badwater","folder":"tf","game":"Team Fortress","app_id":440,"player_count":24,"max_players":24,"Bots":0,"server_type":"Dedicated","server_os":"Linux","password":true,"vac":true,"version":"7961495","steam_id":85568392924470941,"keywords":["nocrits","nodmgspread","payload","uncletopia"],"game_id":440,"stv_port":27026,"stv_name":"Uncletopia | London | 2 | All Maps | STV","players":[{"user_id":263,"name":"TheCamel01","steam_id":76561199047748287,"connected_time":1205000000000,"state":"active","ping":103},{"user_id":215,"name":"pyromaniac","steam_id":76561198292781255,"connected_time":4780000000000,"state":"active","ping":74},{"user_id":284,"name":"prompt","steam_id":76561198154677956,"connected_time":388000000000,"state":"active","ping":74},{"user_id":282,"name":"Mr. Hunts","steam_id":76561197981910397,"connected_time":707000000000,"state":"active","ping":62},{"user_id":288,"name":"ILoveKey2","steam_id":76561198814559564,"connected_time":25000000000,"state":"active","ping":81},{"user_id":280,"name":"Charmedelf","steam_id":76561197993611881,"connected_time":810000000000,"state":"active","ping":52},{"user_id":262,"name":"Tavish","steam_id":76561197971486686,"connected_time":1235000000000,"state":"active","ping":49},{"user_id":237,"name":"Luigi","steam_id":76561199194954220,"connected_time":3104000000000,"state":"active","ping":66},{"user_id":264,"name":"TomNoSocks","steam_id":76561198114071046,"connected_time":1204000000000,"state":"active","ping":65},{"user_id":276,"name":"Trexican","steam_id":76561198164129603,"connected_time":1019000000000,"state":"active","ping":35},{"user_id":266,"name":"Oversizedmuffin","steam_id":76561199094435624,"connected_time":1180000000000,"state":"active","ping":41},{"user_id":267,"name":"Purple Soup :D","steam_id":76561198985100366,"connected_time":1179000000000,"state":"active","ping":92},{"user_id":239,"name":"clunk","steam_id":76561198836460767,"connected_time":3083000000000,"state":"active","ping":75},{"user_id":230,"name":"LordTrap.exe","steam_id":76561198318089716,"connected_time":3880000000000,"state":"active","ping":57},{"user_id":285,"name":"Cg Studios","steam_id":76561198286908002,"connected_time":204000000000,"state":"active","ping":62},{"user_id":209,"name":"KFD","steam_id":76561198157183003,"connected_time":4851000000000,"state":"active","ping":86},{"user_id":250,"name":"Mr_Touchyou","steam_id":76561198452524697,"connected_time":2204000000000,"state":"active","ping":120},{"user_id":277,"name":"LEPERGUY GGDROP.COM","steam_id":76561198944536639,"connected_time":924000000000,"state":"active","ping":85},{"user_id":270,"name":"Xuii Frog","steam_id":76561198191800994,"connected_time":1095000000000,"state":"active","ping":55},{"user_id":271,"name":"Ender_DragonYT... GGDROP.COM","steam_id":76561198946735113,"connected_time":1087000000000,"state":"active","ping":80},{"user_id":272,"name":"Jacio | the one who games.","steam_id":76561199491964000,"connected_time":1073000000000,"state":"active","ping":55},{"user_id":286,"name":"M√©bh √ìg MacT√≠re","steam_id":76561198346399624,"connected_time":167000000000,"state":"active","ping":86},{"user_id":287,"name":"BepisR47","steam_id":76561198084515716,"connected_time":137000000000,"state":"active","ping":32},{"user_id":253,"name":"Penis Gaming","steam_id":76561199198623988,"connected_time":2148000000000,"state":"active","ping":58}]},{"server_id":320,"name":"Uncletopia | London | 3 | All Maps","name_short":"lon-3","host":"lon-1.uk.uncletopia.com","port":27035,"enabled":true,"region":"eu","cc":"gb","latitude":51.509865,"longitude":-0.118092,"reserved":0,"last_update":"0001-01-01T00:00:00Z","name_a2s":"Uncletopia | London | 3 | All Maps","protocol":17,"map":"pl_borneo","folder":"tf","game":"Team Fortress","app_id":440,"player_count":24,"max_players":24,"Bots":0,"server_type":"Dedicated","server_os":"Linux","password":true,"vac":true,"version":"7961495","steam_id":85568392924510192,"keywords":["nocrits","nodmgspread","payload","uncletopia"],"game_id":440,"stv_port":27036,"stv_name":"Uncletopia | London | 3 | All Maps | STV","players":[{"user_id":57,"name":"patrick","steam_id":76561198086684892,"connected_time":2072000000000,"state":"active","ping":116},{"user_id":79,"name":"Larry Penus","steam_id":76561198207546233,"connected_time":1063000000000,"state":"active","ping":45},{"user_id":61,"name":"ote","steam_id":76561198165550964,"connected_time":1730000000000,"state":"active","ping":45},{"user_id":46,"name":"Royal","steam_id":76561198157621024,"connected_time":2452000000000,"state":"active","ping":45},{"user_id":62,"name":"EricToGo","steam_id":76561198068019642,"connected_time":1718000000000,"state":"active","ping":71},{"user_id":19,"name":"tr4ce","steam_id":76561198085296732,"connected_time":3891000000000,"state":"active","ping":43},{"user_id":64,"name":"SoaCrow","steam_id":76561198069420717,"connected_time":1672000000000,"state":"active","ping":69},{"user_id":70,"name":"I sell exotic parrots","steam_id":76561199192434258,"connected_time":1512000000000,"state":"active","ping":93},{"user_id":81,"name":"Wattseyy","steam_id":76561198248567360,"connected_time":273000000000,"state":"active","ping":43},{"user_id":84,"name":"femboy enjoyer","steam_id":76561199041737814,"connected_time":225000000000,"state":"active","ping":33},{"user_id":49,"name":"JohnTraveltime","steam_id":76561199244281754,"connected_time":2398000000000,"state":"active","ping":76},{"user_id":78,"name":"pau≈Ç√≥","steam_id":76561198286747891,"connected_time":1224000000000,"state":"active","ping":76},{"user_id":85,"name":"FilipeLuk","steam_id":76561198150675438,"connected_time":224000000000,"state":"active","ping":72},{"user_id":72,"name":"delete System32","steam_id":76561198032787233,"connected_time":1488000000000,"state":"active","ping":84},{"user_id":30,"name":"F2P Challenge","steam_id":76561199498773639,"connected_time":3469000000000,"state":"active","ping":78},{"user_id":80,"name":"Spajro","steam_id":76561198257383813,"connected_time":284000000000,"state":"active","ping":58},{"user_id":77,"name":"Milk Drinker","steam_id":76561198203140640,"connected_time":1265000000000,"state":"active","ping":74},{"user_id":48,"name":"Egor Pomidor","steam_id":76561199175688390,"connected_time":2431000000000,"state":"active","ping":89},{"user_id":34,"name":"DrExplosive","steam_id":76561198063678579,"connected_time":3390000000000,"state":"active","ping":43},{"user_id":74,"name":"wtabs","steam_id":76561198831766743,"connected_time":1470000000000,"state":"active","ping":85},{"user_id":73,"name":"DOMAIN","steam_id":76561199095640319,"connected_time":1482000000000,"state":"active","ping":90},{"user_id":38,"name":"Wardruna96","steam_id":76561199057083828,"connected_time":3365000000000,"state":"active","ping":75},{"user_id":83,"name":"suck freak","steam_id":76561198025208163,"connected_time":263000000000,"state":"active","ping":45},{"user_id":40,"name":"techno ttv/rc4322","steam_id":76561198172101254,"connected_time":3306000000000,"state":"active","ping":80}]},{"server_id":321,"name":"Uncletopia | London | 4 | All Maps","name_short":"lon-4","host":"lon-1.uk.uncletopia.com","port":27045,"enabled":true,"region":"eu","cc":"gb","latitude":51.509865,"longitude":-0.118092,"reserved":0,"last_update":"0001-01-01T00:00:00Z","name_a2s":"Uncletopia | London | 4 | All Maps","protocol":17,"map":"pl_borneo","folder":"tf","game":"Team Fortress","app_id":440,"player_count":23,"max_players":24,"Bots":0,"server_type":"Dedicated","server_os":"Linux","password":true,"vac":true,"version":"7961495","steam_id":85568392924510193,"keywords":["nocrits","nodmgspread","payload","uncletopia"],"game_id":440,"stv_port":27046,"stv_name":"Uncletopia | London | 4 | All Maps | STV","players":[{"user_id":14,"name":"joosssh","steam_id":76561198072130805,"connected_time":1043000000000,"state":"active","ping":55},{"user_id":15,"name":"milkshakedoodles","steam_id":76561198849952659,"connected_time":964000000000,"state":"active","ping":110},{"user_id":10,"name":"_Context_","steam_id":76561199163359312,"connected_time":1990000000000,"state":"active","ping":67},{"user_id":16,"name":"Christmas_Kiwi","steam_id":76561199259353499,"connected_time":716000000000,"state":"active","ping":61},{"user_id":36,"name":"ztrs6","steam_id":76561198314853803,"connected_time":260000000000,"state":"active","ping":93},{"user_id":13,"name":"piss man (real)","steam_id":76561198839843428,"connected_time":1131000000000,"state":"active","ping":102},{"user_id":17,"name":"Angry Team Fortress 2 Nerd","steam_id":76561198970762992,"connected_time":710000000000,"state":"active","ping":89},{"user_id":38,"name":"Prox","steam_id":76561198351490981,"connected_time":159000000000,"state":"active","ping":32},{"user_id":19,"name":"Well, off to hang myself","steam_id":76561198053374944,"connected_time":567000000000,"state":"active","ping":65},{"user_id":20,"name":"Dr. PizzaPies","steam_id":76561198832786812,"connected_time":532000000000,"state":"active","ping":62},{"user_id":22,"name":"akakez","steam_id":76561198095432821,"connected_time":466000000000,"state":"active","ping":110},{"user_id":25,"name":"bryophyta","steam_id":76561197968945306,"connected_time":406000000000,"state":"active","ping":60},{"user_id":26,"name":"smjwels6","steam_id":76561198859868344,"connected_time":397000000000,"state":"active","ping":66},{"user_id":27,"name":"cof","steam_id":76561199128417805,"connected_time":366000000000,"state":"active","ping":188},{"user_id":28,"name":"Farmercy","steam_id":76561198000038039,"connected_time":357000000000,"state":"active","ping":60},{"user_id":29,"name":"ran is running","steam_id":76561199443185667,"connected_time":352000000000,"state":"active","ping":126},{"user_id":30,"name":"HarmlessCanine2","steam_id":76561198389475312,"connected_time":343000000000,"state":"active","ping":64},{"user_id":39,"name":"flange","steam_id":76561198040182692,"connected_time":138000000000,"state":"active","ping":34},{"user_id":32,"name":"r06u3","steam_id":76561198254099253,"connected_time":296000000000,"state":"active","ping":178},{"user_id":35,"name":"generic alias","steam_id":76561198271607226,"connected_time":273000000000,"state":"active","ping":96},{"user_id":40,"name":"AwesomeAxolotlGamerYT","steam_id":76561199467671560,"connected_time":88000000000,"state":"active","ping":72},{"user_id":41,"name":"p1za","steam_id":76561198166349183,"connected_time":26000000000,"state":"active","ping":56},{"user_id":42,"name":"Dr Bondus Bolongus Dongus","steam_id":76561198378657692,"connected_time":8000000000,"state":"spawning","ping":48}]},{"server_id":21,"name":"Uncletopia | London | 5 | All Maps","name_short":"lon-5","host":"lon-1.uk.uncletopia.com","port":27055,"enabled":true,"region":"eu","cc":"gb","latitude":51.509865,"longitude":-0.118092,"reserved":0,"last_update":"0001-01-01T00:00:00Z","name_a2s":"Uncletopia | London | 5 | All Maps","protocol":17,"map":"cp_powerhouse","folder":"tf","game":"Team Fortress","app_id":440,"player_count":23,"max_players":24,"Bots":0,"server_type":"Dedicated","server_os":"Linux","password":true,"vac":true,"version":"7961495","steam_id":85568392924742829,"keywords":["cp","nocrits","nodmgspread","uncletopia"],"game_id":440,"stv_port":27056,"stv_name":"Uncletopia | London | 5 | All Maps | STV","players":[{"user_id":144,"name":"Not Sussy Tanuki","steam_id":76561198137289375,"connected_time":1540000000000,"state":"active","ping":111},{"user_id":153,"name":"silicon based life form","steam_id":76561199127121346,"connected_time":642000000000,"state":"active","ping":60},{"user_id":154,"name":"Kardiol","steam_id":76561198122344852,"connected_time":455000000000,"state":"active","ping":49},{"user_id":143,"name":"sneaky snake","steam_id":76561198279965791,"connected_time":1698000000000,"state":"active","ping":86},{"user_id":156,"name":"capetanunito","steam_id":76561199364524852,"connected_time":194000000000,"state":"active","ping":109},{"user_id":136,"name":"lumiukko","steam_id":76561199103891073,"connected_time":2016000000000,"state":"active","ping":95},{"user_id":157,"name":"Matek","steam_id":76561198063884235,"connected_time":111000000000,"state":"active","ping":53},{"user_id":68,"name":"hyvakii705","steam_id":76561198086630552,"connected_time":7818000000000,"state":"active","ping":90},{"user_id":129,"name":"Pirik","steam_id":76561198013768203,"connected_time":3097000000000,"state":"active","ping":71},{"user_id":135,"name":"nefariousevilsorcerermoonGrass","steam_id":76561198799519725,"connected_time":2187000000000,"state":"active","ping":102},{"user_id":139,"name":"WEEP","steam_id":76561199499933159,"connected_time":1928000000000,"state":"active","ping":75},{"user_id":140,"name":"Cosmetic brain","steam_id":76561198055936410,"connected_time":1924000000000,"state":"active","ping":86},{"user_id":126,"name":"Ullr","steam_id":76561198140547483,"connected_time":3290000000000,"state":"active","ping":43},{"user_id":141,"name":"Sniper","steam_id":76561199051749044,"connected_time":1892000000000,"state":"active","ping":50},{"user_id":152,"name":"Pingus","steam_id":76561198164880756,"connected_time":1127000000000,"state":"active","ping":74},{"user_id":125,"name":"Fors√©n","steam_id":76561199131971501,"connected_time":3922000000000,"state":"active","ping":85},{"user_id":146,"name":"Sunshine","steam_id":76561198885528098,"connected_time":1457000000000,"state":"active","ping":111},{"user_id":130,"name":"Shapeshifter","steam_id":76561198052898368,"connected_time":3088000000000,"state":"active","ping":98},{"user_id":121,"name":"The Burger","steam_id":76561198124463930,"connected_time":4320000000000,"state":"active","ping":41},{"user_id":147,"name":"Welder","steam_id":76561198355300561,"connected_time":1294000000000,"state":"active","ping":72},{"user_id":155,"name":"lawn","steam_id":76561198001243486,"connected_time":431000000000,"state":"active","ping":45},{"user_id":48,"name":"Thundercracker__","steam_id":76561199163505476,"connected_time":9227000000000,"state":"active","ping":61},{"user_id":103,"name":"Warrior555MainsGanon","steam_id":76561198388627786,"connected_time":5941000000000,"state":"active","ping":67}]},{"server_id":22,"name":"Uncletopia | London | 6 | All Maps","name_short":"lon-6","host":"lon-1.uk.uncletopia.com","port":27065,"enabled":true,"region":"eu","cc":"gb","latitude":51.509865,"longitude":-0.118092,"reserved":0,"last_update":"0001-01-01T00:00:00Z","name_a2s":"Uncletopia | London | 6 | All Maps","protocol":17,"map":"pl_snowycoast","folder":"tf","game":"Team Fortress","app_id":440,"player_count":0,"max_players":24,"Bots":0,"server_type":"Dedicated","server_os":"Linux","password":true,"vac":true,"version":"7961495","steam_id":85568392924742830,"keywords":["nocrits","nodmgspread","payload","uncletopia"],"game_id":440,"stv_port":27066,"stv_name":"Uncletopia | London | 6 | All Maps | STV","players":null},{"server_id":40,"name":"Uncletopia | London | 7 | Stopwatch","name_short":"lon-7","host":"lon-1.uk.uncletopia.com","port":27075,"enabled":true,"region":"eu","cc":"gb","latitude":51.509865,"longitude":-0.118092,"reserved":0,"last_update":"0001-01-01T00:00:00Z","name_a2s":"Uncletopia | London | 7 | Stopwatch","protocol":17,"map":"workshop/koth_bagel_rc6.ugc2514036946","folder":"tf","game":"Team Fortress","app_id":440,"player_count":0,"max_players":24,"Bots":0,"server_type":"Dedicated","server_os":"Linux","password":true,"vac":true,"version":"7961495","steam_id":85568392924964314,"keywords":["cp","nocrits","nodmgspread","uncletopia"],"game_id":440,"stv_port":27076,"stv_name":"Uncletopia | London | 7 | Stopwatch | STV","players":null},{"server_id":41,"name":"Uncletopia | London | 8 | Community","name_short":"lon-8","host":"lon-1.uk.uncletopia.com","port":27085,"enabled":true,"region":"eu","cc":"gb","latitude":51.509865,"longitude":-0.118092,"reserved":0,"last_update":"0001-01-01T00:00:00Z","name_a2s":"Uncletopia | London | 8 | Community","protocol":17,"map":"cp_snakewater_final1","folder":"tf","game":"Team Fortress","app_id":440,"player_count":0,"max_players":24,"Bots":0,"server_type":"Dedicated","server_os":"Linux","password":true,"vac":true,"version":"7961495","steam_id":85568392924964315,"keywords":["cp","nocrits","nodmgspread","uncletopia"],"game_id":440,"stv_port":27086,"stv_name":"Uncletopia | London | 8 | Community | STV","players":null},{"server_id":300,"name":"Uncletopia | Montr√©al | 1 | One Thousand Uncles","name_short":"mtl-1","host":"mtl-1.ca.uncletopia.com","port":27015,"enabled":true,"region":"us-east","cc":"ca","latitude":45.50889,"longitude":-73.56167,"reserved":0,"last_update":"0001-01-01T00:00:00Z","name_a2s":"","protocol":0,"map":"","folder":"","game":"","app_id":0,"player_count":0,"max_players":0,"Bots":0,"server_type":"","server_os":"","password":false,"vac":false,"version":"","steam_id":0,"keywords":null,"game_id":0,"stv_port":0,"stv_name":"","players":null},{"server_id":301,"name":"Uncletopia | Montr√©al | 2 | One Thousand Uncles","name_short":"mtl-2","host":"mtl-1.ca.uncletopia.com","port":27025,"enabled":true,"region":"us-east","cc":"ca","latitude":45.50889,"longitude":-73.56167,"reserved":0,"last_update":"0001-01-01T00:00:00Z","name_a2s":"","protocol":0,"map":"","folder":"","game":"","app_id":0,"player_count":0,"max_players":0,"Bots":0,"server_type":"","server_os":"","password":false,"vac":false,"version":"","steam_id":0,"keywords":null,"game_id":0,"stv_port":0,"stv_name":"","players":null},{"server_id":302,"name":"Uncletopia | Montr√©al | 3 | One Thousand Uncles","name_short":"mtl-3","host":"mtl-1.ca.uncletopia.com","port":27035,"enabled":true,"region":"us-east","cc":"ca","latitude":45.50889,"longitude":-73.56167,"reserved":0,"last_update":"0001-01-01T00:00:00Z","name_a2s":"","protocol":0,"map":"","folder":"","game":"","app_id":0,"player_count":0,"max_players":0,"Bots":0,"server_type":"","server_os":"","password":false,"vac":false,"version":"","steam_id":0,"keywords":null,"game_id":0,"stv_port":0,"stv_name":"","players":null},{"server_id":13,"name":"Uncletopia | New York City | 1 | All Maps","name_short":"nyc-1","host":"nyc-1.us.uncletopia.com","port":27015,"enabled":true,"region":"us-east","cc":"us","latitude":40.73061,"longitude":-73.93524,"reserved":0,"last_update":"0001-01-01T00:00:00Z","name_a2s":"Uncletopia | New York City | 1 | All Maps","protocol":17,"map":"koth_cascade","folder":"tf","game":"Team Fortress","app_id":440,"player_count":0,"max_players":24,"Bots":0,"server_type":"Dedicated","server_os":"Linux","password":true,"vac":true,"version":"7961495","steam_id":85568392924469993,"keywords":["cp","nocrits","nodmgspread","uncletopia"],"game_id":440,"stv_port":27016,"stv_name":"Uncletopia | New York City | 1 | All Maps | STV","players":null},{"server_id":14,"name":"Uncletopia | New York City | 2 | All Maps","name_short":"nyc-2","host":"nyc-1.us.uncletopia.com","port":27025,"enabled":true,"region":"us-east","cc":"us","latitude":40.73061,"longitude":-73.93524,"reserved":0,"last_update":"0001-01-01T00:00:00Z","name_a2s":"Uncletopia | New York City | 2 | All Maps","protocol":17,"map":"koth_viaduct","folder":"tf","game":"Team Fortress","app_id":440,"player_count":0,"max_players":24,"Bots":0,"server_type":"Dedicated","server_os":"Linux","password":true,"vac":true,"version":"7961495","steam_id":85568392924469994,"keywords":["cp","nocrits","nodmgspread","uncletopia"],"game_id":440,"stv_port":27026,"stv_name":"Uncletopia | New York City | 2 | All Maps | STV","players":null},{"server_id":15,"name":"Uncletopia | New York City | 3 | Stopwatch","name_short":"nyc-3","host":"nyc-1.us.uncletopia.com","port":27035,"enabled":true,"region":"us-east","cc":"us","latitude":40.73061,"longitude":-73.93524,"reserved":0,"last_update":"0001-01-01T00:00:00Z","name_a2s":"Uncletopia | New York City | 3 | Stopwatch","protocol":17,"map":"pl_snowycoast","folder":"tf","game":"Team Fortress","app_id":440,"player_count":0,"max_players":24,"Bots":0,"server_type":"Dedicated","server_os":"Linux","password":true,"vac":true,"version":"7961495","steam_id":85568392924742820,"keywords":["nocrits","nodmgspread","payload","uncletopia"],"game_id":440,"stv_port":27036,"stv_name":"Uncletopia | New York City | 3 | Stopwatch | STV","players":null},{"server_id":16,"name":"Uncletopia | New York City | 4 | Community","name_short":"nyc-4","host":"nyc-1.us.uncletopia.com","port":27045,"enabled":true,"region":"us-east","cc":"us","latitude":40.73061,"longitude":-73.93524,"reserved":0,"last_update":"0001-01-01T00:00:00Z","name_a2s":"Uncletopia | New York City | 4 | Community","protocol":17,"map":"workshop/koth_kemptown_rc1.ugc767410655","folder":"tf","game":"Team Fortress","app_id":440,"player_count":0,"max_players":24,"Bots":0,"server_type":"Dedicated","server_os":"Linux","password":true,"vac":true,"version":"7961495","steam_id":85568392924742821,"keywords":["cp","nocrits","nodmgspread","uncletopia"],"game_id":440,"stv_port":27046,"stv_name":"Uncletopia | New York City | 4 | Community | STV","players":null},{"server_id":142,"name":"Uncletopia | S√£o Paulo | 1 | All Maps","name_short":"sao-1","host":"sao-1.br.uncletopia.com","port":27015,"enabled":true,"region":"sa","cc":"br","latitude":-23.533773,"longitude":-46.62529,"reserved":0,"last_update":"0001-01-01T00:00:00Z","name_a2s":"Uncletopia | S√£o Paulo | 1 | All Maps","protocol":17,"map":"cp_mountainlab","folder":"tf","game":"Team Fortress","app_id":440,"player_count":0,"max_players":24,"Bots":0,"server_type":"Dedicated","server_os":"Linux","password":true,"vac":true,"version":"7961495","steam_id":85568392924469996,"keywords":["cp","nocrits","nodmgspread","uncletopia"],"game_id":440,"stv_port":27016,"stv_name":"Uncletopia | S√£o Paulo | 1 | All Maps | STV","players":null},{"server_id":143,"name":"Uncletopia | S√£o Paulo | 2 | Community","name_short":"sao-2","host":"sao-2.br.uncletopia.com","port":27015,"enabled":true,"region":"sa","cc":"br","latitude":-23.533773,"longitude":-46.62529,"reserved":0,"last_update":"0001-01-01T00:00:00Z","name_a2s":"Uncletopia | S√£o Paulo | 2 | Community","protocol":17,"map":"pl_badwater","folder":"tf","game":"Team Fortress","app_id":440,"player_count":0,"max_players":24,"Bots":0,"server_type":"Dedicated","server_os":"Linux","password":true,"vac":true,"version":"7961495","steam_id":85568392924485349,"keywords":["nocrits","nodmgspread","payload","uncletopia"],"game_id":440,"stv_port":27016,"stv_name":"Uncletopia | S√£o Paulo | 2 | Community | STV","players":null},{"server_id":7,"name":"Uncletopia | Seattle | 1 | All Maps","name_short":"sea-1","host":"sea-1.us.uncletopia.com","port":27015,"enabled":true,"region":"us-west","cc":"us","latitude":47.608013,"longitude":-122.33517,"reserved":0,"last_update":"0001-01-01T00:00:00Z","name_a2s":"Uncletopia | Seattle | 1 | All Maps","protocol":17,"map":"pl_pier","folder":"tf","game":"Team Fortress","app_id":440,"player_count":1,"max_players":24,"Bots":0,"server_type":"Dedicated","server_os":"Linux","password":true,"vac":true,"version":"7961495","steam_id":85568392924469997,"keywords":["nocrits","nodmgspread","payload","uncletopia"],"game_id":440,"stv_port":27016,"stv_name":"Uncletopia | Seattle | 1 | All Maps | STV","players":[{"user_id":4,"name":"Costco Shopper","steam_id":76561197996284353,"connected_time":152000000000,"state":"active","ping":59}]},{"server_id":119,"name":"Uncletopia | Seattle | 2 | All Maps","name_short":"sea-2","host":"sea-1.us.uncletopia.com","port":27025,"enabled":true,"region":"us-west","cc":"us","latitude":47.608013,"longitude":-122.33517,"reserved":0,"last_update":"0001-01-01T00:00:00Z","name_a2s":"Uncletopia | Seattle | 2 | All Maps","protocol":17,"map":"cp_process_final","folder":"tf","game":"Team Fortress","app_id":440,"player_count":0,"max_players":24,"Bots":0,"server_type":"Dedicated","server_os":"Linux","password":true,"vac":true,"version":"7961495","steam_id":85568392924469998,"keywords":["cp","nocrits","nodmgspread","uncletopia"],"game_id":440,"stv_port":27026,"stv_name":"Uncletopia | Seattle | 2 | All Maps | STV","players":null},{"server_id":406,"name":"Uncletopia | Seattle | 3 | Stopwatch","name_short":"sea-3","host":"sea-1.us.uncletopia.com","port":27035,"enabled":true,"region":"us-west","cc":"us","latitude":47.608013,"longitude":-122.33517,"reserved":0,"last_update":"0001-01-01T00:00:00Z","name_a2s":"Uncletopia | Seattle | 3 | Stopwatch","protocol":17,"map":"pl_pier","folder":"tf","game":"Team Fortress","app_id":440,"player_count":0,"max_players":24,"Bots":0,"server_type":"Dedicated","server_os":"Linux","password":true,"vac":true,"version":"7961495","steam_id":85568392924515217,"keywords":["nocrits","nodmgspread","payload","uncletopia"],"game_id":440,"stv_port":27036,"stv_name":"Uncletopia | Seattle | 3 | Stopwatch | STV","players":null},{"server_id":17,"name":"Uncletopia | San Francisco | 1 | All Maps","name_short":"sfo-1","host":"sfo-1.us.uncletopia.com","port":27015,"enabled":true,"region":"us-west","cc":"us","latitude":37.77397,"longitude":-122.4313,"reserved":0,"last_update":"0001-01-01T00:00:00Z","name_a2s":"Uncletopia | San Francisco | 1 | All Maps","protocol":17,"map":"koth_cascade","folder":"tf","game":"Team Fortress","app_id":440,"player_count":0,"max_players":24,"Bots":0,"server_type":"Dedicated","server_os":"Linux","password":true,"vac":true,"version":"7961495","steam_id":85568392924469999,"keywords":["cp","nocrits","nodmgspread","uncletopia"],"game_id":440,"stv_port":27016,"stv_name":"Uncletopia | San Francisco | 1 | All Maps | STV","players":null},{"server_id":18,"name":"Uncletopia | San Francisco | 2 | All Maps","name_short":"sfo-2","host":"sfo-1.us.uncletopia.com","port":27025,"enabled":true,"region":"us-west","cc":"us","latitude":37.77397,"longitude":-122.4313,"reserved":0,"last_update":"0001-01-01T00:00:00Z","name_a2s":"Uncletopia | San Francisco | 2 | All Maps","protocol":17,"map":"pl_frontier_final","folder":"tf","game":"Team Fortress","app_id":440,"player_count":0,"max_players":24,"Bots":0,"server_type":"Dedicated","server_os":"Linux","password":true,"vac":true,"version":"7961495","steam_id":85568392924470000,"keywords":["nocrits","nodmgspread","payload","uncletopia"],"game_id":440,"stv_port":27026,"stv_name":"Uncletopia | San Francisco | 2 | All Maps | STV","players":null},{"server_id":19,"name":"Uncletopia | San Francisco | 3 | Stopwatch","name_short":"sfo-3","host":"sfo-1.us.uncletopia.com","port":27035,"enabled":true,"region":"us-west","cc":"us","latitude":37.77397,"longitude":-122.4313,"reserved":0,"last_update":"0001-01-01T00:00:00Z","name_a2s":"Uncletopia | San Francisco | 3 | Stopwatch","protocol":17,"map":"pl_pier","folder":"tf","game":"Team Fortress","app_id":440,"player_count":0,"max_players":24,"Bots":0,"server_type":"Dedicated","server_os":"Linux","password":true,"vac":true,"version":"7961495","steam_id":85568392924742824,"keywords":["nocrits","nodmgspread","payload","uncletopia"],"game_id":440,"stv_port":27036,"stv_name":"Uncletopia | San Francisco | 3 | Stopwatch | STV","players":null},{"server_id":20,"name":"Uncletopia | San Francisco | 4 | Community","name_short":"sfo-4","host":"sfo-1.us.uncletopia.com","port":27045,"enabled":true,"region":"us-west","cc":"us","latitude":37.77397,"longitude":-122.4313,"reserved":0,"last_update":"0001-01-01T00:00:00Z","name_a2s":"Uncletopia | San Francisco | 4 | Community","protocol":17,"map":"pl_pier","folder":"tf","game":"Team Fortress","app_id":440,"player_count":0,"max_players":24,"Bots":0,"server_type":"Dedicated","server_os":"Linux","password":true,"vac":true,"version":"7961495","steam_id":85568392924742826,"keywords":["nocrits","nodmgspread","payload","uncletopia"],"game_id":440,"stv_port":27046,"stv_name":"Uncletopia | San Francisco | 4 | Community | STV","players":null},{"server_id":141,"name":"Uncletopia | Sydney | 1 | All Maps","name_short":"syd-1","host":"syd-1.au.uncletopia.com","port":27015,"enabled":true,"region":"au","cc":"au","latitude":-33.865143,"longitude":151.2099,"reserved":0,"last_update":"0001-01-01T00:00:00Z","name_a2s":"Uncletopia | Sydney | 1 | All Maps","protocol":17,"map":"cp_snakewater_final1","folder":"tf","game":"Team Fortress","app_id":440,"player_count":1,"max_players":24,"Bots":0,"server_type":"Dedicated","server_os":"Linux","password":true,"vac":true,"version":"7961495","steam_id":85568392924470001,"keywords":["cp","nocrits","nodmgspread","uncletopia"],"game_id":440,"stv_port":27016,"stv_name":"Uncletopia | Sydney | 1 | All Maps | STV","players":[{"user_id":424,"name":"lobster","steam_id":76561198288970258,"connected_time":22000000000,"state":"active","ping":50}]},{"server_id":123,"name":"Uncletopia | Sydney | 2 | All Maps","name_short":"syd-2","host":"syd-1.au.uncletopia.com","port":27025,"enabled":true,"region":"au","cc":"au","latitude":-33.865143,"longitude":151.2099,"reserved":0,"last_update":"0001-01-01T00:00:00Z","name_a2s":"Uncletopia | Sydney | 2 | All Maps","protocol":17,"map":"koth_highpass","folder":"tf","game":"Team Fortress","app_id":440,"player_count":0,"max_players":24,"Bots":0,"server_type":"Dedicated","server_os":"Linux","password":true,"vac":true,"version":"7961495","steam_id":85568392924470002,"keywords":["cp","nocrits","nodmgspread","uncletopia"],"game_id":440,"stv_port":27026,"stv_name":"Uncletopia | Sydney | 2 | All Maps | STV","players":null},{"server_id":395,"name":"Uncletopia | Sydney | 3 | All Maps","name_short":"syd-3","host":"syd-1.au.uncletopia.com","port":27035,"enabled":true,"region":"au","cc":"au","latitude":-33.865143,"longitude":151.2099,"reserved":0,"last_update":"0001-01-01T00:00:00Z","name_a2s":"Uncletopia | Sydney | 3 | All Maps","protocol":17,"map":"koth_highpass","folder":"tf","game":"Team Fortress","app_id":440,"player_count":0,"max_players":24,"Bots":0,"server_type":"Dedicated","server_os":"Linux","password":true,"vac":true,"version":"7961495","steam_id":85568392925194467,"keywords":["cp","nocrits","nodmgspread","uncletopia"],"game_id":440,"stv_port":27036,"stv_name":"Uncletopia | Sydney | 3 | All Maps | STV","players":null},{"server_id":396,"name":"Uncletopia | Sydney | 4 | All Maps","name_short":"syd-4","host":"syd-1.au.uncletopia.com","port":27045,"enabled":true,"region":"au","cc":"au","latitude":-33.865143,"longitude":151.2099,"reserved":0,"last_update":"0001-01-01T00:00:00Z","name_a2s":"Uncletopia | Sydney | 4 | All Maps","protocol":17,"map":"cp_sunshine","folder":"tf","game":"Team Fortress","app_id":440,"player_count":0,"max_players":24,"Bots":0,"server_type":"Dedicated","server_os":"Linux","password":true,"vac":true,"version":"7961495","steam_id":85568392925397958,"keywords":["cp","nocrits","nodmgspread","uncletopia"],"game_id":440,"stv_port":27046,"stv_name":"Uncletopia | Sydney | 4 | All Maps | STV","players":null},{"server_id":58,"name":"Uncletopia | Sydney | 5 | Stopwatch","name_short":"syd-5","host":"syd-1.au.uncletopia.com","port":27055,"enabled":true,"region":"au","cc":"au","latitude":-33.865143,"longitude":151.2099,"reserved":0,"last_update":"0001-01-01T00:00:00Z","name_a2s":"Uncletopia | Sydney | 5 | Stopwatch","protocol":17,"map":"workshop/pl_badwater_pro_v12.ugc2142942074","folder":"tf","game":"Team Fortress","app_id":440,"player_count":0,"max_players":24,"Bots":0,"server_type":"Dedicated","server_os":"Linux","password":true,"vac":true,"version":"7961495","steam_id":85568392925397959,"keywords":["nocrits","nodmgspread","payload","uncletopia"],"game_id":440,"stv_port":27056,"stv_name":"Uncletopia | Sydney | 5 | Stopwatch | STV","players":null},{"server_id":59,"name":"Uncletopia | Sydney | 6 | Community","name_short":"syd-6","host":"syd-1.au.uncletopia.com","port":27065,"enabled":true,"region":"au","cc":"au","latitude":-33.865143,"longitude":151.2099,"reserved":0,"last_update":"0001-01-01T00:00:00Z","name_a2s":"Uncletopia | Sydney | 6 | Community","protocol":17,"map":"workshop/koth_slaughter_rc1.ugc1712845210","folder":"tf","game":"Team Fortress","app_id":440,"player_count":0,"max_players":24,"Bots":0,"server_type":"Dedicated","server_os":"Linux","password":true,"vac":true,"version":"7961495","steam_id":85568392925397960,"keywords":["cp","nocrits","nodmgspread","uncletopia"],"game_id":440,"stv_port":27066,"stv_name":"Uncletopia | Sydney | 6 | Community | STV","players":null},{"server_id":49,"name":"Uncletopia | Warsaw | 1 | One Thousand Uncles","name_short":"waw-1","host":"waw-1.pl.uncletopia.com","port":27015,"enabled":true,"region":"eu","cc":"pl","latitude":52.2297,"longitude":21.017532,"reserved":0,"last_update":"0001-01-01T00:00:00Z","name_a2s":"Uncletopia | Warsaw | 1 | One Thousand Uncles","protocol":17,"map":"pl_pier","folder":"tf","game":"Team Fortress","app_id":440,"player_count":19,"max_players":32,"Bots":16,"server_type":"Dedicated","server_os":"Linux","password":true,"vac":true,"version":"7961495","steam_id":85568392925397850,"keywords":["alltalk","bots","danepve","increased_maxplayers","nocrits","norespawntime","payload","uncletopia"],"game_id":440,"stv_port":0,"stv_name":"","players":[{"user_id":213,"name":"Rahajeb","steam_id":76561198134256921,"connected_time":372000000000,"state":"active","ping":45},{"user_id":149,"name":"BUCKET:\\soldier\\Desktop\\","steam_id":76561199047240319,"connected_time":4588000000000,"state":"active","ping":103},{"user_id":215,"name":"longer213","steam_id":76561199387786743,"connected_time":148000000000,"state":"active","ping":131}]},{"server_id":50,"name":"Uncletopia | Warsaw | 2 | One Thousand Uncles","name_short":"waw-2","host":"waw-1.pl.uncletopia.com","port":27025,"enabled":true,"region":"eu","cc":"pl","latitude":52.2297,"longitude":21.017532,"reserved":0,"last_update":"0001-01-01T00:00:00Z","name_a2s":"Uncletopia | Warsaw | 2 | One Thousand Uncles","protocol":17,"map":"pl_badwater","folder":"tf","game":"Team Fortress","app_id":440,"player_count":29,"max_players":32,"Bots":16,"server_type":"Dedicated","server_os":"Linux","password":true,"vac":true,"version":"7961495","steam_id":85568392925397851,"keywords":["alltalk","bots","danepve","increased_maxplayers","nocrits","norespawntime","payload","uncletopia"],"game_id":440,"stv_port":0,"stv_name":"","players":[{"user_id":473,"name":"Fried_Dough","steam_id":76561198068746207,"connected_time":2327000000000,"state":"active","ping":203},{"user_id":493,"name":"Proud Noob","steam_id":76561198049626913,"connected_time":1377000000000,"state":"active","ping":51},{"user_id":463,"name":"AngryTranswoman","steam_id":76561198276537926,"connected_time":3563000000000,"state":"active","ping":89},{"user_id":470,"name":"Tispy","steam_id":76561199207410049,"connected_time":3042000000000,"state":"active","ping":108},{"user_id":497,"name":"Womanticore","steam_id":76561199235582031,"connected_time":924000000000,"state":"active","ping":263},{"user_id":501,"name":"Frenk2.0","steam_id":76561198974256814,"connected_time":309000000000,"state":"active","ping":85},{"user_id":494,"name":"Slav_monke","steam_id":76561199243657026,"connected_time":1121000000000,"state":"active","ping":65},{"user_id":495,"name":"Kotlet schabowy","steam_id":76561198048983509,"connected_time":1113000000000,"state":"active","ping":45},{"user_id":499,"name":"Sinfasy","steam_id":76561198235488492,"connected_time":692000000000,"state":"active","ping":69},{"user_id":500,"name":"GregerUlander","steam_id":76561198152375055,"connected_time":431000000000,"state":"active","ping":85},{"user_id":462,"name":"DaNugget_Prime","steam_id":76561198360512945,"connected_time":3597000000000,"state":"active","ping":64},{"user_id":503,"name":"Bobo","steam_id":76561198967534741,"connected_time":81000000000,"state":"active","ping":41},{"user_id":468,"name":"The Dutiful Dasein","steam_id":76561198003269215,"connected_time":3152000000000,"state":"active","ping":59}]},{"server_id":51,"name":"Uncletopia | Warsaw | 3 | All Maps","name_short":"waw-3","host":"waw-1.pl.uncletopia.com","port":27035,"enabled":true,"region":"eu","cc":"pl","latitude":52.2297,"longitude":21.017532,"reserved":0,"last_update":"0001-01-01T00:00:00Z","name_a2s":"Uncletopia | Warsaw | 3 | All Maps","protocol":17,"map":"plr_pipeline","folder":"tf","game":"Team Fortress","app_id":440,"player_count":0,"max_players":24,"Bots":0,"server_type":"Dedicated","server_os":"Linux","password":true,"vac":true,"version":"7961495","steam_id":85568392925397852,"keywords":["nocrits","nodmgspread","payload","uncletopia"],"game_id":440,"stv_port":27036,"stv_name":"Uncletopia | Warsaw | 3 | All Maps | STV","players":null},{"server_id":52,"name":"Uncletopia | Warsaw | 4 | All Maps","name_short":"waw-4","host":"waw-1.pl.uncletopia.com","port":27045,"enabled":true,"region":"eu","cc":"pl","latitude":52.2297,"longitude":21.017532,"reserved":0,"last_update":"0001-01-01T00:00:00Z","name_a2s":"Uncletopia | Warsaw | 4 | All Maps","protocol":17,"map":"cp_mountainlab","folder":"tf","game":"Team Fortress","app_id":440,"player_count":2,"max_players":24,"Bots":0,"server_type":"Dedicated","server_os":"Linux","password":true,"vac":true,"version":"7961495","steam_id":85568392925397853,"keywords":["cp","nocrits","nodmgspread","uncletopia"],"game_id":440,"stv_port":27046,"stv_name":"Uncletopia | Warsaw | 4 | All Maps | STV","players":[{"user_id":81,"name":"diearheasonpoop","steam_id":76561199049351992,"connected_time":818000000000,"state":"active","ping":104},{"user_id":82,"name":"Sergeant Doorknob","steam_id":76561199441566079,"connected_time":314000000000,"state":"spawning","ping":620}]},{"server_id":53,"name":"Uncletopia | Warsaw | 5 | Stopwatch","name_short":"waw-5","host":"waw-1.pl.uncletopia.com","port":27055,"enabled":true,"region":"eu","cc":"pl","latitude":52.2297,"longitude":21.017532,"reserved":0,"last_update":"0001-01-01T00:00:00Z","name_a2s":"Uncletopia | Warsaw | 5 | Stopwatch","protocol":17,"map":"pl_swiftwater_final1","folder":"tf","game":"Team Fortress","app_id":440,"player_count":0,"max_players":24,"Bots":0,"server_type":"Dedicated","server_os":"Linux","password":true,"vac":true,"version":"7961495","steam_id":85568392925397854,"keywords":["nocrits","nodmgspread","payload","uncletopia"],"game_id":440,"stv_port":27056,"stv_name":"Uncletopia | Warsaw | 5 | Stopwatch | STV","players":null},{"server_id":54,"name":"Uncletopia | Warsaw | 6 | Community","name_short":"waw-6","host":"waw-1.pl.uncletopia.com","port":27065,"enabled":true,"region":"eu","cc":"pl","latitude":52.2297,"longitude":21.017532,"reserved":0,"last_update":"0001-01-01T00:00:00Z","name_a2s":"Uncletopia | Warsaw | 6 | Community","protocol":17,"map":"workshop/koth_kemptown_rc1.ugc767410655","folder":"tf","game":"Team Fortress","app_id":440,"player_count":12,"max_players":24,"Bots":0,"server_type":"Dedicated","server_os":"Linux","password":true,"vac":true,"version":"7961495","steam_id":85568392925397856,"keywords":["cp","nocrits","nodmgspread","uncletopia"],"game_id":440,"stv_port":27066,"stv_name":"Uncletopia | Warsaw | 6 | Community | STV","players":[{"user_id":3,"name":"RayTrain","steam_id":76561198874299515,"connected_time":6061000000000,"state":"active","ping":70},{"user_id":4,"name":"Moondrop","steam_id":76561199421181719,"connected_time":6048000000000,"state":"active","ping":56},{"user_id":37,"name":"Tas Sklan Rau≈°","steam_id":76561198150212823,"connected_time":1926000000000,"state":"active","ping":65},{"user_id":40,"name":"Dragon","steam_id":76561198163255365,"connected_time":1294000000000,"state":"active","ping":104},{"user_id":7,"name":"Angela ‚òò","steam_id":76561198105207050,"connected_time":5234000000000,"state":"active","ping":61},{"user_id":47,"name":"Ghibley","steam_id":76561199037099624,"connected_time":199000000000,"state":"active","ping":74},{"user_id":48,"name":"Marv","steam_id":76561198330528647,"connected_time":127000000000,"state":"active","ping":81},{"user_id":31,"name":"Darko","steam_id":76561198271659979,"connected_time":2118000000000,"state":"active","ping":84},{"user_id":27,"name":"Topme","steam_id":76561198091734693,"connected_time":3387000000000,"state":"active","ping":90},{"user_id":28,"name":"Zorutan","steam_id":76561198166758127,"connected_time":3361000000000,"state":"active","ping":80},{"user_id":16,"name":"_3tHeR_","steam_id":76561199109870743,"connected_time":4277000000000,"state":"active","ping":51},{"user_id":36,"name":"TylowStar","steam_id":76561198357107806,"connected_time":1981000000000,"state":"active","ping":94}]}]}