{"status":true,"message":"","result":[{"server_id":9,"name":"Uncletopia | Atlanta | 1 | All Maps","name_short":"atl-1","host":"atl-1.us.uncletopia.com","port":27015,"enabled":true,"region":"us-east","cc":"us","latitude":33.753746,"longitude":-84.38633,"reserved":0,"last_update":"0001-01-01T00:00:00Z","name_a2s":"Uncletopia | Atlanta | 1 | All Maps","protocol":17,"map":"pl_frontier_final","folder":"tf","game":"Team Fortress","app_id":440,"player_count":24,"max_players":24,"Bots":0,"server_type":"Dedicated","server_os":"Linux","password":true,"vac":true,"version":"7882260","steam_id":85568392924469982,"keywords":["nocrits","nodmgspread","payload","uncletopia"],"game_id":440,"stv_port":27016,"stv_name":"Uncletopia | Atlanta | 1 | All Maps | STV","players":[{"user_id":219,"name":"mos","steam_id":76561198146126212,"connected_time":1827000000000,"state":"active","ping":56},{"user_id":150,"name":"lukiepills","steam_id":76561199020587077,"connected_time":9518000000000,"state":"active","ping":64},{"user_id":158,"name":"lynt","steam_id":76561198988333976,"connected_time":8504000000000,"state":"active","ping":40},{"user_id":198,"name":"Onyx","steam_id":76561198275349640,"connected_time":4324000000000,"state":"active","ping":75},{"user_id":227,"name":"bing!","steam_id":76561198105374054,"connected_time":913000000000,"state":"active","ping":116},{"user_id":207,"name":"Motreir","steam_id":76561198151717946,"connected_time":3498000000000,"state":"active","ping":78},{"user_id":202,"name":"--_Cook_--","steam_id":76561198080855748,"connected_time":4085000000000,"state":"active","ping":45},{"user_id":225,"name":"Quality","steam_id":76561198361132101,"connected_time":994000000000,"state":"active","ping":87},{"user_id":228,"name":"DanFango","steam_id":76561198078300753,"connected_time":881000000000,"state":"active","ping":58},{"user_id":197,"name":"boylover54","steam_id":76561199030726701,"connected_time":4336000000000,"state":"active","ping":83},{"user_id":220,"name":"Ashes!","steam_id":76561197998475441,"connected_time":1727000000000,"state":"active","ping":78},{"user_id":232,"name":"Chapter Master","steam_id":76561198799698323,"connected_time":663000000000,"state":"active","ping":101},{"user_id":214,"name":"Fluff","steam_id":76561198255399052,"connected_time":2602000000000,"state":"active","ping":61},{"user_id":201,"name":"V!CT!M","steam_id":76561198962721502,"connected_time":4295000000000,"state":"active","ping":84},{"user_id":233,"name":"theoatsman","steam_id":76561198880891025,"connected_time":606000000000,"state":"active","ping":44},{"user_id":226,"name":"Tealim","steam_id":76561198330085713,"connected_time":990000000000,"state":"active","ping":61},{"user_id":77,"name":"BIG HOG","steam_id":76561198079923652,"connected_time":16435000000000,"state":"active","ping":75},{"user_id":204,"name":"Towns","steam_id":76561198984662863,"connected_time":3955000000000,"state":"active","ping":60},{"user_id":231,"name":"literally the middle east","steam_id":76561198405204919,"connected_time":702000000000,"state":"active","ping":97},{"user_id":200,"name":"Karma","steam_id":76561198030565234,"connected_time":4321000000000,"state":"active","ping":76},{"user_id":224,"name":"Intro Bonito","steam_id":76561198119478838,"connected_time":1006000000000,"state":"active","ping":52},{"user_id":81,"name":"lil hog","steam_id":76561199230929836,"connected_time":16357000000000,"state":"active","ping":82},{"user_id":234,"name":"KBoneski ♡","steam_id":76561198307409065,"connected_time":308000000000,"state":"active","ping":81},{"user_id":218,"name":"Inkmix(boopberrylover)","steam_id":76561198854070384,"connected_time":2118000000000,"state":"active","ping":97}]},{"server_id":104,"name":"Uncletopia | Atlanta | 2 | All Maps","name_short":"atl-2","host":"atl-1.us.uncletopia.com","port":27025,"enabled":true,"region":"us-east","cc":"us","latitude":33.753746,"longitude":-84.38633,"reserved":0,"last_update":"0001-01-01T00:00:00Z","name_a2s":"Uncletopia | Atlanta | 2 | All Maps","protocol":17,"map":"pl_borneo","folder":"tf","game":"Team Fortress","app_id":440,"player_count":24,"max_players":24,"Bots":0,"server_type":"Dedicated","server_os":"Linux","password":true,"vac":true,"version":"7882260","steam_id":85568392924469983,"keywords":["nocrits","nodmgspread","payload","uncletopia"],"game_id":440,"stv_port":27026,"stv_name":"Uncletopia | Atlanta | 2 | All Maps | STV","players":[{"user_id":237,"name":"lorelius hogglefart","steam_id":76561198211781375,"connected_time":1333000000000,"state":"active","ping":123},{"user_id":204,"name":"morbius (real)","steam_id":76561198396414319,"connected_time":4592000000000,"state":"active","ping":105},{"user_id":244,"name":"A Bucket","steam_id":76561198142437700,"connected_time":947000000000,"state":"active","ping":76},{"user_id":215,"name":"Dietrich","steam_id":76561198028163840,"connected_time":3052000000000,"state":"active","ping":81},{"user_id":249,"name":"greg","steam_id":76561199206080182,"connected_time":198000000000,"state":"active","ping":73},{"user_id":224,"name":"The Third Degree Enjoyer","steam_id":76561198929936926,"connected_time":1990000000000,"state":"active","ping":60},{"user_id":248,"name":"He","steam_id":76561198398918486,"connected_time":346000000000,"state":"active","ping":79},{"user_id":232,"name":"Mr. Cool","steam_id":76561198286473342,"connected_time":1730000000000,"state":"active","ping":71},{"user_id":245,"name":"Scab Collector","steam_id":76561198346425545,"connected_time":828000000000,"state":"active","ping":68},{"user_id":221,"name":"RyInc","steam_id":76561198874261643,"connected_time":2620000000000,"state":"active","ping":62},{"user_id":216,"name":"carbuzz","steam_id":76561198129361580,"connected_time":3028000000000,"state":"active","ping":141},{"user_id":246,"name":"Melhoude","steam_id":76561198272694642,"connected_time":820000000000,"state":"active","ping":71},{"user_id":234,"name":"myls but with huge honkers","steam_id":76561197999215868,"connected_time":1540000000000,"state":"active","ping":79},{"user_id":226,"name":"D317A","steam_id":76561199086804988,"connected_time":1953000000000,"state":"active","ping":74},{"user_id":223,"name":"Broadsword","steam_id":76561198011160411,"connected_time":2436000000000,"state":"active","ping":70},{"user_id":229,"name":"aiming with drawing tablet","steam_id":76561198397662124,"connected_time":1845000000000,"state":"active","ping":92},{"user_id":247,"name":"Drapph","steam_id":76561199384213314,"connected_time":816000000000,"state":"active","ping":98},{"user_id":238,"name":"Maid 'n' China","steam_id":76561198423392976,"connected_time":1220000000000,"state":"active","ping":108},{"user_id":198,"name":"a hedgehog","steam_id":76561198019010682,"connected_time":5196000000000,"state":"active","ping":71},{"user_id":201,"name":"Acro Banwagon","steam_id":76561198092451804,"connected_time":4814000000000,"state":"active","ping":72},{"user_id":239,"name":"Stabby","steam_id":76561198038180931,"connected_time":1161000000000,"state":"active","ping":73},{"user_id":235,"name":"You Don't Nomi.","steam_id":76561197969137836,"connected_time":1447000000000,"state":"active","ping":68},{"user_id":242,"name":"Stardustry","steam_id":76561198090010107,"connected_time":1069000000000,"state":"active","ping":78},{"user_id":174,"name":"Gnome Tank","steam_id":76561198984179092,"connected_time":7338000000000,"state":"active","ping":76}]},{"server_id":400,"name":"Uncletopia | Atlanta | 3 | Community","name_short":"atl-3","host":"atl-1.us.uncletopia.com","port":27035,"enabled":true,"region":"us-east","cc":"us","latitude":33.753746,"longitude":-84.38633,"reserved":0,"last_update":"0001-01-01T00:00:00Z","name_a2s":"Uncletopia | Atlanta | 3 | Community","protocol":17,"map":"workshop/cp_propaganda_b18.ugc1603743849","folder":"tf","game":"Team Fortress","app_id":440,"player_count":23,"max_players":24,"Bots":0,"server_type":"Dedicated","server_os":"Linux","password":true,"vac":true,"version":"7882260","steam_id":85568392924515187,"keywords":["cp","nocrits","nodmgspread","uncletopia"],"game_id":440,"stv_port":27036,"stv_name":"Uncletopia | Atlanta | 3 | Community | STV","players":[{"user_id":57,"name":"Purple","steam_id":76561199099386211,"connected_time":620000000000,"state":"active","ping":56},{"user_id":12,"name":"OnlyError","steam_id":76561199122000011,"connected_time":3274000000000,"state":"active","ping":126},{"user_id":13,"name":"Aeonspassed","steam_id":76561198014016451,"connected_time":3259000000000,"state":"active","ping":82},{"user_id":61,"name":"I bet he couldn't beat Goku","steam_id":76561198030291655,"connected_time":380000000000,"state":"active","ping":68},{"user_id":72,"name":"Notation","steam_id":76561198119509319,"connected_time":177000000000,"state":"active","ping":45},{"user_id":63,"name":"catrinaisahuman","steam_id":76561198281355729,"connected_time":332000000000,"state":"active","ping":77},{"user_id":44,"name":"him","steam_id":76561198406625458,"connected_time":1623000000000,"state":"active","ping":68},{"user_id":75,"name":"MeatShield 2000","steam_id":76561199375192850,"connected_time":127000000000,"state":"active","ping":118},{"user_id":58,"name":"the l i k","steam_id":76561198198617123,"connected_time":604000000000,"state":"active","ping":121},{"user_id":20,"name":"Cafe_Doonut","steam_id":76561199130150499,"connected_time":2519000000000,"state":"active","ping":75},{"user_id":54,"name":"Wool","steam_id":76561198332704108,"connected_time":772000000000,"state":"active","ping":63},{"user_id":45,"name":"misterspud","steam_id":76561198195306218,"connected_time":1621000000000,"state":"active","ping":60},{"user_id":64,"name":"White Boy Freestyle #337","steam_id":76561198880396651,"connected_time":291000000000,"state":"active","ping":87},{"user_id":76,"name":"Wiggee","steam_id":76561197972792989,"connected_time":25000000000,"state":"spawning","ping":126},{"user_id":67,"name":"Sage","steam_id":76561198143101697,"connected_time":271000000000,"state":"active","ping":150},{"user_id":27,"name":"Doctor Glocktorpus [NGC]","steam_id":76561198049194645,"connected_time":2289000000000,"state":"active","ping":64},{"user_id":29,"name":"spiffy_craft","steam_id":76561198318830806,"connected_time":2236000000000,"state":"active","ping":69},{"user_id":69,"name":"StormyBoyo","steam_id":76561198273482774,"connected_time":242000000000,"state":"active","ping":94},{"user_id":70,"name":"{Rn}Bio_Optical","steam_id":76561199128084374,"connected_time":235000000000,"state":"active","ping":75},{"user_id":34,"name":"cass","steam_id":76561198074502046,"connected_time":1954000000000,"state":"active","ping":59},{"user_id":37,"name":"sassy loli","steam_id":76561198402316065,"connected_time":1843000000000,"state":"active","ping":87},{"user_id":40,"name":"Ritzy","steam_id":76561198381955342,"connected_time":1749000000000,"state":"active","ping":141},{"user_id":43,"name":"Shadow WIZARD MoneyGang","steam_id":76561197986051713,"connected_time":1647000000000,"state":"active","ping":84}]},{"server_id":401,"name":"Uncletopia | Atlanta | 4 | No Payload","name_short":"atl-4","host":"atl-1.us.uncletopia.com","port":27045,"enabled":true,"region":"us-east","cc":"us","latitude":33.753746,"longitude":-84.38633,"reserved":0,"last_update":"0001-01-01T00:00:00Z","name_a2s":"","protocol":0,"map":"","folder":"","game":"","app_id":0,"player_count":0,"max_players":0,"Bots":0,"server_type":"","server_os":"","password":false,"vac":false,"version":"","steam_id":0,"keywords":null,"game_id":0,"stv_port":0,"stv_name":"","players":null},{"server_id":2,"name":"Uncletopia | Chicago | 1 | All Maps","name_short":"chi-1","host":"chi-1.us.uncletopia.com","port":27015,"enabled":true,"region":"us-central","cc":"us","latitude":41.881832,"longitude":-87.62318,"reserved":0,"last_update":"0001-01-01T00:00:00Z","name_a2s":"Uncletopia | Chicago | 1 | All Maps","protocol":17,"map":"pl_frontier_final","folder":"tf","game":"Team Fortress","app_id":440,"player_count":24,"max_players":24,"Bots":0,"server_type":"Dedicated","server_os":"Linux","password":true,"vac":true,"version":"7882260","steam_id":85568392924469984,"keywords":["nocrits","nodmgspread","payload","uncletopia"],"game_id":440,"stv_port":27016,"stv_name":"Uncletopia | Chicago | 1 | All Maps | STV","players":[{"user_id":356,"name":"BombWolf","steam_id":76561198289812368,"connected_time":848000000000,"state":"active","ping":120},{"user_id":308,"name":"uhooter","steam_id":76561198007829078,"connected_time":4444000000000,"state":"active","ping":56},{"user_id":332,"name":"Archsam","steam_id":76561198137828616,"connected_time":2644000000000,"state":"active","ping":144},{"user_id":339,"name":"GoofyAhGamingGuy","steam_id":76561199331315881,"connected_time":2474000000000,"state":"active","ping":97},{"user_id":349,"name":"Filthy Acts at Reasonable Price","steam_id":76561198354615890,"connected_time":1090000000000,"state":"active","ping":60},{"user_id":360,"name":"Smiles","steam_id":76561198107197973,"connected_time":567000000000,"state":"active","ping":54},{"user_id":363,"name":"Zoot","steam_id":76561198121944243,"connected_time":170000000000,"state":"active","ping":70},{"user_id":359,"name":"Gock","steam_id":76561198197045587,"connected_time":569000000000,"state":"active","ping":91},{"user_id":355,"name":"HollowMan","steam_id":76561198967266827,"connected_time":1008000000000,"state":"active","ping":95},{"user_id":342,"name":"Leafpool Enjoyer (Warrior Cats)","steam_id":76561198123549027,"connected_time":2167000000000,"state":"active","ping":69},{"user_id":350,"name":"HaphazardHazel","steam_id":76561198316812693,"connected_time":1086000000000,"state":"active","ping":90},{"user_id":348,"name":"teleportless husk","steam_id":76561198882404753,"connected_time":1651000000000,"state":"active","ping":82},{"user_id":333,"name":"Bon Gripper","steam_id":76561198090074621,"connected_time":2636000000000,"state":"active","ping":59},{"user_id":357,"name":"Sychke","steam_id":76561198067144055,"connected_time":760000000000,"state":"active","ping":50},{"user_id":351,"name":"I C U P","steam_id":76561198349252490,"connected_time":1082000000000,"state":"active","ping":70},{"user_id":306,"name":"DrD","steam_id":76561198067266383,"connected_time":4686000000000,"state":"active","ping":77},{"user_id":317,"name":"Michaelpc1","steam_id":76561198088365519,"connected_time":3933000000000,"state":"active","ping":73},{"user_id":289,"name":"blood bath","steam_id":76561199001918194,"connected_time":6889000000000,"state":"active","ping":115},{"user_id":354,"name":"Pop Pop","steam_id":76561198211396781,"connected_time":1059000000000,"state":"active","ping":75},{"user_id":331,"name":"DonoC","steam_id":76561198274473338,"connected_time":2653000000000,"state":"active","ping":86},{"user_id":291,"name":"Lost","steam_id":76561198093713427,"connected_time":6554000000000,"state":"active","ping":60},{"user_id":318,"name":"fish","steam_id":76561198381953108,"connected_time":3921000000000,"state":"active","ping":51},{"user_id":346,"name":"Lunacy","steam_id":76561199386273760,"connected_time":1992000000000,"state":"active","ping":112},{"user_id":362,"name":"hej","steam_id":76561197996366940,"connected_time":284000000000,"state":"active","ping":60}]},{"server_id":106,"name":"Uncletopia | Chicago | 2 | All Maps","name_short":"chi-2","host":"chi-1.us.uncletopia.com","port":27025,"enabled":true,"region":"us-central","cc":"us","latitude":41.881832,"longitude":-87.62318,"reserved":0,"last_update":"0001-01-01T00:00:00Z","name_a2s":"Uncletopia | Chicago | 2 | All Maps","protocol":17,"map":"cp_process_final","folder":"tf","game":"Team Fortress","app_id":440,"player_count":24,"max_players":24,"Bots":0,"server_type":"Dedicated","server_os":"Linux","password":true,"vac":true,"version":"7882260","steam_id":85568392924469985,"keywords":["cp","nocrits","nodmgspread","uncletopia"],"game_id":440,"stv_port":27026,"stv_name":"Uncletopia | Chicago | 2 | All Maps | STV","players":[{"user_id":212,"name":"IPlayGamez","steam_id":76561198041387508,"connected_time":719000000000,"state":"active","ping":61},{"user_id":146,"name":"threethree","steam_id":76561198177354155,"connected_time":5005000000000,"state":"active","ping":45},{"user_id":207,"name":"shalankawanak","steam_id":76561198987719376,"connected_time":891000000000,"state":"active","ping":56},{"user_id":208,"name":"Avarokin","steam_id":76561199122504993,"connected_time":781000000000,"state":"active","ping":103},{"user_id":213,"name":"SOGGY DOGGY","steam_id":76561199158847498,"connected_time":701000000000,"state":"active","ping":105},{"user_id":214,"name":"McFallenOne(real)","steam_id":76561199178575029,"connected_time":661000000000,"state":"active","ping":71},{"user_id":224,"name":"St. Michael","steam_id":76561198037611052,"connected_time":332000000000,"state":"active","ping":76},{"user_id":215,"name":"waltuh","steam_id":76561198363541736,"connected_time":652000000000,"state":"active","ping":85},{"user_id":195,"name":"sunglasses","steam_id":76561198173747227,"connected_time":1734000000000,"state":"active","ping":60},{"user_id":225,"name":"Project_Counter","steam_id":76561198152786076,"connected_time":305000000000,"state":"active","ping":73},{"user_id":198,"name":"MULK","steam_id":76561198207895249,"connected_time":1643000000000,"state":"active","ping":47},{"user_id":227,"name":"Plasic74x","steam_id":76561199058981206,"connected_time":242000000000,"state":"active","ping":89},{"user_id":204,"name":"D(b) Hell","steam_id":76561198067869016,"connected_time":1190000000000,"state":"active","ping":43},{"user_id":166,"name":"The Pan Man From Slavic Land","steam_id":76561198401875841,"connected_time":3322000000000,"state":"active","ping":49},{"user_id":130,"name":"Bee_Pirate","steam_id":76561199000599111,"connected_time":6048000000000,"state":"active","ping":64},{"user_id":217,"name":"theoreminegaming","steam_id":76561198175573917,"connected_time":627000000000,"state":"active","ping":71},{"user_id":226,"name":"Crab Shack #savetf2","steam_id":76561198187973071,"connected_time":278000000000,"state":"active","ping":63},{"user_id":229,"name":"krwax","steam_id":76561198272053849,"connected_time":102000000000,"state":"active","ping":46},{"user_id":211,"name":"// ۞EЯiC۞ //","steam_id":76561197968436818,"connected_time":769000000000,"state":"active","ping":45},{"user_id":180,"name":"ipodnova-Aura","steam_id":76561198272353485,"connected_time":2305000000000,"state":"active","ping":68},{"user_id":172,"name":"Lovedaddy","steam_id":76561198006569710,"connected_time":3075000000000,"state":"active","ping":82},{"user_id":223,"name":"Foreskin Reattachment service","steam_id":76561198060342804,"connected_time":338000000000,"state":"active","ping":70},{"user_id":221,"name":"veemdya yaymign :)","steam_id":76561199175434022,"connected_time":437000000000,"state":"active","ping":108}]},{"server_id":402,"name":"Uncletopia | Chicago | 3 | All Maps","name_short":"chi-3","host":"chi-1.us.uncletopia.com","port":27035,"enabled":true,"region":"us-central","cc":"us","latitude":41.881832,"longitude":-87.62318,"reserved":0,"last_update":"0001-01-01T00:00:00Z","name_a2s":"Uncletopia | Chicago | 3 | All Maps","protocol":17,"map":"koth_viaduct","folder":"tf","game":"Team Fortress","app_id":440,"player_count":24,"max_players":24,"Bots":0,"server_type":"Dedicated","server_os":"Linux","password":true,"vac":true,"version":"7882260","steam_id":85568392924515191,"keywords":["cp","nocrits","nodmgspread","uncletopia"],"game_id":440,"stv_port":27036,"stv_name":"Uncletopia | Chicago | 3 | All Maps | STV","players":[{"user_id":150,"name":"The World's Softest Sandwich","steam_id":76561198015577707,"connected_time":4780000000000,"state":"active","ping":71},{"user_id":214,"name":"Acrid","steam_id":76561199019742998,"connected_time":1125000000000,"state":"active","ping":104},{"user_id":230,"name":"Deltaco","steam_id":76561198094572694,"connected_time":413000000000,"state":"active","ping":116},{"user_id":233,"name":"googy doogy","steam_id":76561199025852100,"connected_time":296000000000,"state":"active","ping":66},{"user_id":224,"name":"kat","steam_id":76561198121070295,"connected_time":547000000000,"state":"active","ping":82},{"user_id":220,"name":"Hylic","steam_id":76561199051314589,"connected_time":648000000000,"state":"active","ping":69},{"user_id":223,"name":"YOU","steam_id":76561198391551932,"connected_time":565000000000,"state":"active","ping":72},{"user_id":240,"name":"Rin \"Hindwing\" Redtail","steam_id":76561199074865638,"connected_time":147000000000,"state":"active","ping":71},{"user_id":195,"name":"brett","steam_id":76561198799740059,"connected_time":2069000000000,"state":"active","ping":73},{"user_id":212,"name":"JustTiredMan","steam_id":76561199013705323,"connected_time":1310000000000,"state":"active","ping":59},{"user_id":225,"name":"abed","steam_id":76561198072856511,"connected_time":502000000000,"state":"active","ping":81},{"user_id":222,"name":"Olly","steam_id":76561198054273611,"connected_time":574000000000,"state":"active","ping":66},{"user_id":239,"name":"Quack","steam_id":76561199086339263,"connected_time":163000000000,"state":"active","ping":90},{"user_id":207,"name":"Peepster","steam_id":76561198297854733,"connected_time":1337000000000,"state":"active","ping":68},{"user_id":226,"name":"PotatoTheCarrot","steam_id":76561198014089484,"connected_time":489000000000,"state":"active","ping":63},{"user_id":234,"name":"MarcusKosyou","steam_id":76561199175888787,"connected_time":271000000000,"state":"active","ping":84},{"user_id":209,"name":"MajorZero","steam_id":76561198078731318,"connected_time":1333000000000,"state":"active","ping":59},{"user_id":158,"name":"the headphones you lost","steam_id":76561199201098634,"connected_time":4201000000000,"state":"active","ping":60},{"user_id":228,"name":"͓͓̝͙̠̝͖͉̥C͂͑ͬ͛͋̿","steam_id":76561198423390455,"connected_time":480000000000,"state":"active","ping":100},{"user_id":229,"name":"That_Guy_Serj","steam_id":76561198075886098,"connected_time":478000000000,"state":"active","ping":71},{"user_id":213,"name":"Ga Blun","steam_id":76561198865908327,"connected_time":1288000000000,"state":"active","ping":55},{"user_id":147,"name":"Fresh Lychee","steam_id":76561198045399559,"connected_time":4859000000000,"state":"active","ping":55},{"user_id":198,"name":"Mr. Pink","steam_id":76561198065858172,"connected_time":1979000000000,"state":"active","ping":61},{"user_id":238,"name":"bananalover5","steam_id":76561199143854578,"connected_time":177000000000,"state":"active","ping":94}]},{"server_id":403,"name":"Uncletopia | Chicago | 4 | All Maps","name_short":"chi-4","host":"chi-1.us.uncletopia.com","port":27045,"enabled":true,"region":"us-central","cc":"us","latitude":41.881832,"longitude":-87.62318,"reserved":0,"last_update":"0001-01-01T00:00:00Z","name_a2s":"Uncletopia | Chicago | 4 | All Maps","protocol":17,"map":"koth_cascade","folder":"tf","game":"Team Fortress","app_id":440,"player_count":16,"max_players":24,"Bots":0,"server_type":"Dedicated","server_os":"Linux","password":true,"vac":true,"version":"7882260","steam_id":85568392924515193,"keywords":["cp","nocrits","nodmgspread","uncletopia"],"game_id":440,"stv_port":27046,"stv_name":"Uncletopia | Chicago | 4 | All Maps | STV","players":[{"user_id":17,"name":"Carpigani","steam_id":76561199472897062,"connected_time":1174000000000,"state":"active","ping":139},{"user_id":18,"name":"KoboldGaming_707","steam_id":76561199440523721,"connected_time":1132000000000,"state":"active","ping":96},{"user_id":19,"name":"username","steam_id":76561199106592016,"connected_time":1106000000000,"state":"active","ping":245},{"user_id":20,"name":"Creeper","steam_id":76561198170501286,"connected_time":1066000000000,"state":"active","ping":100},{"user_id":21,"name":"F0restFerret","steam_id":76561199112458876,"connected_time":1003000000000,"state":"active","ping":67},{"user_id":27,"name":"Sigma Balls","steam_id":76561198412592662,"connected_time":213000000000,"state":"active","ping":71},{"user_id":23,"name":"King De","steam_id":76561198194427422,"connected_time":334000000000,"state":"active","ping":52},{"user_id":24,"name":"tntexplosion","steam_id":76561199090152308,"connected_time":303000000000,"state":"active","ping":88},{"user_id":25,"name":"Thequirka","steam_id":76561198968058652,"connected_time":303000000000,"state":"active","ping":91},{"user_id":26,"name":"TripleHelix","steam_id":76561198175400991,"connected_time":298000000000,"state":"active","ping":80},{"user_id":33,"name":"AkimboAoki","steam_id":76561198158323058,"connected_time":24000000000,"state":"spawning","ping":95},{"user_id":29,"name":"Mrs.Frizzle","steam_id":76561198117157085,"connected_time":118000000000,"state":"active","ping":73},{"user_id":30,"name":"Sunfly","steam_id":76561198034307439,"connected_time":107000000000,"state":"active","ping":30},{"user_id":31,"name":"Derplish","steam_id":76561198831714443,"connected_time":95000000000,"state":"active","ping":54},{"user_id":32,"name":"Bocchi the Cock","steam_id":76561198152455316,"connected_time":37000000000,"state":"spawning","ping":117},{"user_id":34,"name":"Absurdism","steam_id":76561198284997681,"connected_time":3000000000,"state":"spawning","ping":61}]},{"server_id":36,"name":"Uncletopia | Chicago | 5 | All Maps","name_short":"chi-5","host":"chi-2.us.uncletopia.com","port":27015,"enabled":true,"region":"us-central","cc":"us","latitude":41.881832,"longitude":-87.62318,"reserved":0,"last_update":"0001-01-01T00:00:00Z","name_a2s":"Uncletopia | Chicago | 5 | All Maps","protocol":17,"map":"koth_highpass","folder":"tf","game":"Team Fortress","app_id":440,"player_count":24,"max_players":24,"Bots":0,"server_type":"Dedicated","server_os":"Linux","password":true,"vac":true,"version":"7882260","steam_id":85568392924866362,"keywords":["cp","nocrits","nodmgspread","uncletopia"],"game_id":440,"stv_port":27016,"stv_name":"Uncletopia | Chicago | 5 | All Maps | STV","players":[{"user_id":244,"name":"Я","steam_id":76561198083276946,"connected_time":7661000000000,"state":"active","ping":68},{"user_id":301,"name":"judesro","steam_id":76561198352244888,"connected_time":2093000000000,"state":"active","ping":71},{"user_id":292,"name":"Fiendish Frog","steam_id":76561198029478821,"connected_time":3012000000000,"state":"active","ping":70},{"user_id":286,"name":"cooluser.exe","steam_id":76561198215142075,"connected_time":3433000000000,"state":"active","ping":61},{"user_id":280,"name":"God (real)","steam_id":76561198131089513,"connected_time":3916000000000,"state":"active","ping":50},{"user_id":305,"name":"Cedric","steam_id":76561198072090580,"connected_time":1803000000000,"state":"active","ping":91},{"user_id":319,"name":"CPU","steam_id":76561199029383454,"connected_time":935000000000,"state":"active","ping":69},{"user_id":332,"name":"MADHEAD347","steam_id":76561199475145723,"connected_time":207000000000,"state":"active","ping":86},{"user_id":264,"name":"gorf?","steam_id":76561198142286417,"connected_time":6433000000000,"state":"active","ping":88},{"user_id":325,"name":"Cookies n Milk","steam_id":76561198071075134,"connected_time":700000000000,"state":"active","ping":81},{"user_id":307,"name":"BRICKHOUSE BILL","steam_id":76561198799403828,"connected_time":1791000000000,"state":"active","ping":57},{"user_id":302,"name":"Wandela","steam_id":76561198093703558,"connected_time":2048000000000,"state":"active","ping":69},{"user_id":310,"name":"bought this cart for 15 dollars","steam_id":76561198253731826,"connected_time":1653000000000,"state":"active","ping":55},{"user_id":279,"name":"Honey bun","steam_id":76561198093518222,"connected_time":4282000000000,"state":"active","ping":59},{"user_id":329,"name":"baguette","steam_id":76561198066048980,"connected_time":396000000000,"state":"active","ping":44},{"user_id":304,"name":"Scrux","steam_id":76561198129763115,"connected_time":1987000000000,"state":"active","ping":105},{"user_id":309,"name":"ArcticZ3r0","steam_id":76561198809586884,"connected_time":1713000000000,"state":"active","ping":62},{"user_id":311,"name":"Buttons :)","steam_id":76561198139478534,"connected_time":1652000000000,"state":"active","ping":131},{"user_id":326,"name":"⦕ 艾萨克 ⦖","steam_id":76561198293727875,"connected_time":681000000000,"state":"active","ping":62},{"user_id":318,"name":"Malac","steam_id":76561198004482629,"connected_time":993000000000,"state":"active","ping":70},{"user_id":265,"name":"r0zemary (she/her)","steam_id":76561198128494897,"connected_time":6391000000000,"state":"active","ping":86},{"user_id":330,"name":"maS","steam_id":76561198033846407,"connected_time":305000000000,"state":"active","ping":69},{"user_id":331,"name":"CinnamonBoy","steam_id":76561198882330338,"connected_time":268000000000,"state":"active","ping":71},{"user_id":328,"name":"HOTA","steam_id":76561199002778841,"connected_time":434000000000,"state":"active","ping":76}]},{"server_id":37,"name":"Uncletopia | Chicago | 6 | All Maps","name_short":"chi-6","host":"chi-2.us.uncletopia.com","port":27025,"enabled":true,"region":"us-central","cc":"us","latitude":41.881832,"longitude":-87.62318,"reserved":0,"last_update":"0001-01-01T00:00:00Z","name_a2s":"Uncletopia | Chicago | 6 | All Maps","protocol":17,"map":"cp_junction_final","folder":"tf","game":"Team Fortress","app_id":440,"player_count":23,"max_players":24,"Bots":0,"server_type":"Dedicated","server_os":"Linux","password":true,"vac":true,"version":"7882260","steam_id":85568392924866363,"keywords":["cp","nocrits","nodmgspread","uncletopia"],"game_id":440,"stv_port":27026,"stv_name":"Uncletopia | Chicago | 6 | All Maps | STV","players":[{"user_id":45,"name":"bouncyballs.com","steam_id":76561198236166288,"connected_time":4528000000000,"state":"active","ping":74},{"user_id":100,"name":"Syynth","steam_id":76561198161328298,"connected_time":1343000000000,"state":"active","ping":63},{"user_id":93,"name":"Koi","steam_id":76561198064411172,"connected_time":1618000000000,"state":"active","ping":60},{"user_id":63,"name":"Mookie Burns","steam_id":76561199202153909,"connected_time":3595000000000,"state":"active","ping":81},{"user_id":120,"name":"Adam (Cursed Confetti Creature)","steam_id":76561198317690197,"connected_time":96000000000,"state":"active","ping":46},{"user_id":68,"name":"derz","steam_id":76561198010742216,"connected_time":2855000000000,"state":"active","ping":52},{"user_id":116,"name":"Yotes","steam_id":76561198071893750,"connected_time":292000000000,"state":"active","ping":71},{"user_id":56,"name":"gun spy","steam_id":76561198929646112,"connected_time":4213000000000,"state":"active","ping":70},{"user_id":102,"name":"Waakow1","steam_id":76561198289937849,"connected_time":1213000000000,"state":"active","ping":52},{"user_id":92,"name":"TheDudeofDC","steam_id":76561199059346175,"connected_time":1626000000000,"state":"active","ping":69},{"user_id":98,"name":"joemoe84g","steam_id":76561199141651280,"connected_time":1444000000000,"state":"active","ping":75},{"user_id":119,"name":"DJCOOL101","steam_id":76561198812848716,"connected_time":217000000000,"state":"active","ping":61},{"user_id":71,"name":"Cheesi","steam_id":76561199417190840,"connected_time":2837000000000,"state":"active","ping":62},{"user_id":117,"name":"Mycelion","steam_id":76561198024999530,"connected_time":286000000000,"state":"active","ping":83},{"user_id":89,"name":"Pope / Vipergg78","steam_id":76561198387443076,"connected_time":2061000000000,"state":"active","ping":53},{"user_id":74,"name":"TheGhostThatWas","steam_id":76561198055836483,"connected_time":2766000000000,"state":"active","ping":58},{"user_id":111,"name":"Super Ghostbusters (Full Album)","steam_id":76561198057415490,"connected_time":485000000000,"state":"active","ping":54},{"user_id":121,"name":"Argi","steam_id":76561198061535721,"connected_time":27000000000,"state":"active","ping":70},{"user_id":108,"name":"Phillip Jeffries","steam_id":76561198064052174,"connected_time":1024000000000,"state":"active","ping":60},{"user_id":87,"name":"volume_knob","steam_id":76561198333345456,"connected_time":2214000000000,"state":"active","ping":46},{"user_id":64,"name":"Amagur","steam_id":76561198966847435,"connected_time":3403000000000,"state":"active","ping":105},{"user_id":114,"name":"EmmLoaf","steam_id":76561198022097954,"connected_time":427000000000,"state":"active","ping":98},{"user_id":118,"name":"Emails","steam_id":76561198836919458,"connected_time":285000000000,"state":"active","ping":81}]},{"server_id":38,"name":"Uncletopia | Chicago | 7 | Stopwatch Beta","name_short":"chi-7","host":"chi-2.us.uncletopia.com","port":27035,"enabled":true,"region":"us-central","cc":"us","latitude":41.881832,"longitude":-87.62318,"reserved":0,"last_update":"0001-01-01T00:00:00Z","name_a2s":"Uncletopia | Chicago | 7 | Stopwatch Beta","protocol":17,"map":"workshop/koth_product_final.ugc454272353","folder":"tf","game":"Team Fortress","app_id":440,"player_count":2,"max_players":24,"Bots":0,"server_type":"Dedicated","server_os":"Linux","password":true,"vac":true,"version":"7882260","steam_id":85568392924866364,"keywords":["cp","nocrits","nodmgspread","uncletopia"],"game_id":440,"stv_port":27036,"stv_name":"Uncletopia | Chicago | 7 | Stopwatch Beta | STV","players":[{"user_id":7,"name":"Odium[Devil Of Business or DOB]","steam_id":76561198926274256,"connected_time":96000000000,"state":"active","ping":61},{"user_id":8,"name":"championcart123","steam_id":76561199072191090,"connected_time":87000000000,"state":"active","ping":87}]},{"server_id":39,"name":"Uncletopia | Chicago | 8 | Community","name_short":"chi-8","host":"chi-2.us.uncletopia.com","port":27045,"enabled":true,"region":"us-central","cc":"us","latitude":41.881832,"longitude":-87.62318,"reserved":0,"last_update":"0001-01-01T00:00:00Z","name_a2s":"Uncletopia | Chicago | 8 | Community","protocol":17,"map":"workshop/cp_overgrown_rc7b.ugc503939302","folder":"tf","game":"Team Fortress","app_id":440,"player_count":3,"max_players":24,"Bots":0,"server_type":"Dedicated","server_os":"Linux","password":true,"vac":true,"version":"7882260","steam_id":85568392924866365,"keywords":["cp","nocrits","nodmgspread","uncletopia"],"game_id":440,"stv_port":27046,"stv_name":"Uncletopia | Chicago | 8 | Community | STV","players":[{"user_id":8,"name":"SupermanBritt","steam_id":76561198195533697,"connected_time":1305000000000,"state":"active","ping":56},{"user_id":9,"name":"Evencerey","steam_id":76561198387924112,"connected_time":1126000000000,"state":"active","ping":88},{"user_id":10,"name":"hoOmIN","steam_id":76561198334947079,"connected_time":1067000000000,"state":"active","ping":90}]},{"server_id":8,"name":"Uncletopia | Dallas | 1 | All Maps","name_short":"dal-1","host":"dal-1.us.uncletopia.com","port":27015,"enabled":true,"region":"us-central","cc":"us","latitude":32.779167,"longitude":-96.80889,"reserved":0,"last_update":"0001-01-01T00:00:00Z","name_a2s":"Uncletopia | Dallas | 1 | All Maps","protocol":17,"map":"cp_sunshine","folder":"tf","game":"Team Fortress","app_id":440,"player_count":23,"max_players":24,"Bots":0,"server_type":"Dedicated","server_os":"Linux","password":true,"vac":true,"version":"7882260","steam_id":85568392924469986,"keywords":["cp","nocrits","nodmgspread","uncletopia"],"game_id":440,"stv_port":27016,"stv_name":"Uncletopia | Dallas | 1 | All Maps | STV","players":[{"user_id":306,"name":"Hiser","steam_id":76561198308193624,"connected_time":3914000000000,"state":"active","ping":58},{"user_id":340,"name":"Not A Rapper","steam_id":76561198077523537,"connected_time":1665000000000,"state":"active","ping":93},{"user_id":341,"name":"professional twelve year old","steam_id":76561198858796870,"connected_time":1663000000000,"state":"active","ping":98},{"user_id":128,"name":"Pheonix","steam_id":76561199470538309,"connected_time":13790000000000,"state":"active","ping":105},{"user_id":350,"name":"YJ","steam_id":76561198315010474,"connected_time":1017000000000,"state":"active","ping":60},{"user_id":346,"name":"Darling","steam_id":76561198127525888,"connected_time":1444000000000,"state":"active","ping":46},{"user_id":287,"name":"skindiver376","steam_id":76561198056533071,"connected_time":5410000000000,"state":"active","ping":187},{"user_id":354,"name":"just jazz","steam_id":76561198010637797,"connected_time":22000000000,"state":"active","ping":61},{"user_id":353,"name":"Hungry for Big Dave?","steam_id":76561198164206451,"connected_time":39000000000,"state":"connecting","ping":74},{"user_id":339,"name":"󠀡󠀡","steam_id":76561198140627349,"connected_time":1822000000000,"state":"active","ping":91},{"user_id":343,"name":"cinnamon","steam_id":76561198142109937,"connected_time":1590000000000,"state":"active","ping":59},{"user_id":335,"name":"Mystery Candidate","steam_id":76561198153968437,"connected_time":2048000000000,"state":"active","ping":99},{"user_id":327,"name":"webaline","steam_id":76561199052450127,"connected_time":2631000000000,"state":"spawning","ping":64},{"user_id":308,"name":"V3GA01","steam_id":76561199214699875,"connected_time":3888000000000,"state":"active","ping":77},{"user_id":347,"name":"Wesg","steam_id":76561198220436820,"connected_time":1228000000000,"state":"active","ping":99},{"user_id":318,"name":"Gary Gilbert","steam_id":76561198143988056,"connected_time":3526000000000,"state":"active","ping":144},{"user_id":290,"name":"Minus Rep","steam_id":76561198065992476,"connected_time":5392000000000,"state":"active","ping":83},{"user_id":351,"name":"Cream Pioneer","steam_id":76561198309491596,"connected_time":697000000000,"state":"active","ping":80},{"user_id":344,"name":"Logic is a Good Rapper","steam_id":76561198976821898,"connected_time":1582000000000,"state":"active","ping":81},{"user_id":296,"name":"Pombley","steam_id":76561198141227263,"connected_time":4800000000000,"state":"active","ping":63},{"user_id":352,"name":"PerliousFalcon","steam_id":76561198124801907,"connected_time":470000000000,"state":"active","ping":115},{"user_id":305,"name":"Smug","steam_id":76561198448205229,"connected_time":4118000000000,"state":"active","ping":69},{"user_id":322,"name":"sbobi","steam_id":76561198320075173,"connected_time":3344000000000,"state":"active","ping":87}]},{"server_id":108,"name":"Uncletopia | Dallas | 2 | All Maps","name_short":"dal-2","host":"dal-1.us.uncletopia.com","port":27025,"enabled":true,"region":"us-central","cc":"us","latitude":32.779167,"longitude":-96.80889,"reserved":0,"last_update":"0001-01-01T00:00:00Z","name_a2s":"Uncletopia | Dallas | 2 | All Maps","protocol":17,"map":"pl_thundermountain","folder":"tf","game":"Team Fortress","app_id":440,"player_count":24,"max_players":24,"Bots":0,"server_type":"Dedicated","server_os":"Linux","password":true,"vac":true,"version":"7882260","steam_id":85568392924469988,"keywords":["nocrits","nodmgspread","payload","uncletopia"],"game_id":440,"stv_port":27026,"stv_name":"Uncletopia | Dallas | 2 | All Maps | STV","players":[{"user_id":137,"name":"BigPimpin","steam_id":76561198119549348,"connected_time":1976000000000,"state":"active","ping":47},{"user_id":155,"name":"Gеяо","steam_id":76561198082463658,"connected_time":1120000000000,"state":"active","ping":104},{"user_id":22,"name":"Takyon","steam_id":76561198172075186,"connected_time":10335000000000,"state":"active","ping":185},{"user_id":120,"name":"Pretentious Gunspy","steam_id":76561199241325005,"connected_time":3284000000000,"state":"active","ping":86},{"user_id":156,"name":"i like money","steam_id":76561198066165331,"connected_time":1086000000000,"state":"active","ping":47},{"user_id":168,"name":"LizardBoyTailFrotting","steam_id":76561199169859135,"connected_time":544000000000,"state":"active","ping":97},{"user_id":102,"name":"Angry","steam_id":76561198862622760,"connected_time":5471000000000,"state":"active","ping":80},{"user_id":162,"name":"Lichy","steam_id":76561198310682841,"connected_time":788000000000,"state":"active","ping":75},{"user_id":151,"name":"VALENCE","steam_id":76561198118492031,"connected_time":1569000000000,"state":"active","ping":101},{"user_id":53,"name":"Drive-By-Fish-Guy","steam_id":76561198105513652,"connected_time":8581000000000,"state":"active","ping":96},{"user_id":167,"name":"SPREAD SPRING GROWTH AND WARMTH","steam_id":76561198800386026,"connected_time":666000000000,"state":"active","ping":98},{"user_id":141,"name":"TheViccan127","steam_id":76561199482134285,"connected_time":1922000000000,"state":"active","ping":101},{"user_id":157,"name":"Renegade","steam_id":76561198066847055,"connected_time":1014000000000,"state":"active","ping":75},{"user_id":123,"name":"chiswola","steam_id":76561198046920142,"connected_time":3218000000000,"state":"active","ping":102},{"user_id":164,"name":"The_Twink_Tamer","steam_id":76561198075438201,"connected_time":762000000000,"state":"active","ping":68},{"user_id":124,"name":"Shalrath","steam_id":76561198053151159,"connected_time":3211000000000,"state":"active","ping":85},{"user_id":170,"name":"[GUT] RiDiK®","steam_id":76561197969756446,"connected_time":449000000000,"state":"active","ping":85},{"user_id":172,"name":"boomfx","steam_id":76561199181040145,"connected_time":242000000000,"state":"active","ping":94},{"user_id":165,"name":"Croc_Cheese","steam_id":76561199018907423,"connected_time":721000000000,"state":"active","ping":107},{"user_id":169,"name":"JaredTheReal","steam_id":76561198372449718,"connected_time":475000000000,"state":"active","ping":54},{"user_id":171,"name":"Commissar","steam_id":76561198137223253,"connected_time":440000000000,"state":"active","ping":49},{"user_id":149,"name":"Hideout","steam_id":76561198163765260,"connected_time":1702000000000,"state":"active","ping":60},{"user_id":129,"name":"watrfall9330","steam_id":76561199244606946,"connected_time":3164000000000,"state":"active","ping":104},{"user_id":131,"name":"HeavyMettleDick","steam_id":76561198001925087,"connected_time":3102000000000,"state":"active","ping":102}]},{"server_id":5,"name":"Uncletopia | Frankfurt | 1 | All Maps","name_short":"frk-1","host":"frk-1.de.uncletopia.com","port":27015,"enabled":true,"region":"eu","cc":"de","latitude":50.110924,"longitude":8.682127,"reserved":0,"last_update":"0001-01-01T00:00:00Z","name_a2s":"Uncletopia | Frankfurt | 1 | All Maps","protocol":17,"map":"pl_pier","folder":"tf","game":"Team Fortress","app_id":440,"player_count":24,"max_players":24,"Bots":0,"server_type":"Dedicated","server_os":"Linux","password":true,"vac":true,"version":"7882260","steam_id":85568392924469989,"keywords":["nocrits","nodmgspread","payload","uncletopia"],"game_id":440,"stv_port":27016,"stv_name":"Uncletopia | Frankfurt | 1 | All Maps | STV","players":[{"user_id":415,"name":"tf2_f2p","steam_id":76561199385522547,"connected_time":1642000000000,"state":"active","ping":63},{"user_id":433,"name":"YuraGreek","steam_id":76561198050182252,"connected_time":377000000000,"state":"active","ping":78},{"user_id":427,"name":"AwterSix","steam_id":76561198042561678,"connected_time":723000000000,"state":"active","ping":58},{"user_id":385,"name":"Orbit","steam_id":76561198242999878,"connected_time":2777000000000,"state":"active","ping":69},{"user_id":364,"name":"テイルス","steam_id":76561198022403271,"connected_time":3850000000000,"state":"active","ping":46},{"user_id":437,"name":"nikkielmao","steam_id":76561198086229832,"connected_time":65000000000,"state":"active","ping":60},{"user_id":426,"name":"ErevOuder#saveTF2","steam_id":76561198842604384,"connected_time":754000000000,"state":"active","ping":104},{"user_id":428,"name":"✪ m_br3","steam_id":76561198044981990,"connected_time":720000000000,"state":"active","ping":75},{"user_id":420,"name":"Osmo","steam_id":76561199286764992,"connected_time":985000000000,"state":"active","ping":74},{"user_id":340,"name":"Cars","steam_id":76561198173329977,"connected_time":6275000000000,"state":"active","ping":67},{"user_id":417,"name":"kitsune miku","steam_id":76561198058432834,"connected_time":1586000000000,"state":"active","ping":52},{"user_id":429,"name":"Nostradamus","steam_id":76561198349792686,"connected_time":718000000000,"state":"active","ping":67},{"user_id":430,"name":"edmund","steam_id":76561198378470149,"connected_time":715000000000,"state":"active","ping":67},{"user_id":436,"name":"MoistMomMauler","steam_id":76561198069359049,"connected_time":273000000000,"state":"active","ping":87},{"user_id":398,"name":"TJ1212","steam_id":76561199013575313,"connected_time":2046000000000,"state":"active","ping":63},{"user_id":368,"name":"Darkf065","steam_id":76561199029257202,"connected_time":3748000000000,"state":"active","ping":99},{"user_id":399,"name":"Svilar","steam_id":76561198828348612,"connected_time":2045000000000,"state":"active","ping":96},{"user_id":375,"name":"Udinese Dion","steam_id":76561198067931573,"connected_time":3359000000000,"state":"active","ping":54},{"user_id":400,"name":"vurtun","steam_id":76561198857395274,"connected_time":2028000000000,"state":"active","ping":55},{"user_id":401,"name":"os2","steam_id":76561199484358879,"connected_time":1996000000000,"state":"active","ping":69},{"user_id":405,"name":"PashaVerti","steam_id":76561199013963024,"connected_time":1911000000000,"state":"active","ping":80},{"user_id":431,"name":"holykyckling","steam_id":76561198040661615,"connected_time":697000000000,"state":"active","ping":75},{"user_id":432,"name":"pol is egg","steam_id":76561198171749265,"connected_time":680000000000,"state":"active","ping":67},{"user_id":403,"name":"Endi","steam_id":76561198914938199,"connected_time":1984000000000,"state":"active","ping":97}]},{"server_id":110,"name":"Uncletopia | Frankfurt | 2 | All Maps","name_short":"frk-2","host":"frk-1.de.uncletopia.com","port":27025,"enabled":true,"region":"eu","cc":"de","latitude":50.110924,"longitude":8.682127,"reserved":0,"last_update":"0001-01-01T00:00:00Z","name_a2s":"Uncletopia | Frankfurt | 2 | All Maps","protocol":17,"map":"pl_pier","folder":"tf","game":"Team Fortress","app_id":440,"player_count":24,"max_players":24,"Bots":0,"server_type":"Dedicated","server_os":"Linux","password":true,"vac":true,"version":"7882260","steam_id":85568392924469990,"keywords":["nocrits","nodmgspread","payload","uncletopia"],"game_id":440,"stv_port":27026,"stv_name":"Uncletopia | Frankfurt | 2 | All Maps | STV","players":[{"user_id":544,"name":"Banzar1","steam_id":76561198170325423,"connected_time":407000000000,"state":"active","ping":134},{"user_id":532,"name":"one_fluffy_boi","steam_id":76561198957757380,"connected_time":1162000000000,"state":"active","ping":58},{"user_id":516,"name":"Favi","steam_id":76561198013236935,"connected_time":1851000000000,"state":"active","ping":64},{"user_id":533,"name":"Least sadistic healer main","steam_id":76561198114164702,"connected_time":1099000000000,"state":"active","ping":65},{"user_id":524,"name":"Szeregowy LowiRyb","steam_id":76561198855967762,"connected_time":1504000000000,"state":"active","ping":148},{"user_id":486,"name":"Ratatatatatatouille","steam_id":76561198182267098,"connected_time":3302000000000,"state":"active","ping":82},{"user_id":464,"name":"Oceanic | tuesday maybe","steam_id":76561197979741827,"connected_time":4436000000000,"state":"active","ping":69},{"user_id":534,"name":"Fofenho","steam_id":76561198436817109,"connected_time":1086000000000,"state":"active","ping":60},{"user_id":518,"name":"...","steam_id":76561198969234594,"connected_time":1728000000000,"state":"active","ping":61},{"user_id":535,"name":"blade","steam_id":76561198235739036,"connected_time":1082000000000,"state":"active","ping":89},{"user_id":536,"name":"Axter","steam_id":76561198118747192,"connected_time":1025000000000,"state":"active","ping":85},{"user_id":530,"name":"Kaiten","steam_id":76561198019984043,"connected_time":1222000000000,"state":"active","ping":84},{"user_id":546,"name":"kotamine","steam_id":76561198068907991,"connected_time":397000000000,"state":"active","ping":64},{"user_id":537,"name":"Bond","steam_id":76561198070654906,"connected_time":1019000000000,"state":"active","ping":54},{"user_id":527,"name":"Sabi","steam_id":76561198202111522,"connected_time":1353000000000,"state":"active","ping":73},{"user_id":542,"name":"Thors","steam_id":76561197968739075,"connected_time":644000000000,"state":"active","ping":49},{"user_id":550,"name":"Makaron","steam_id":76561199087204537,"connected_time":216000000000,"state":"active","ping":79},{"user_id":417,"name":"Charged","steam_id":76561199127215130,"connected_time":6197000000000,"state":"active","ping":87},{"user_id":547,"name":"_⁧⁧NxtPerfect","steam_id":76561198265938609,"connected_time":273000000000,"state":"active","ping":86},{"user_id":539,"name":"♥ aura ♥","steam_id":76561198066258544,"connected_time":1003000000000,"state":"active","ping":58},{"user_id":523,"name":"TorneT","steam_id":76561198051419052,"connected_time":1621000000000,"state":"active","ping":80},{"user_id":540,"name":"bart","steam_id":76561198317737261,"connected_time":993000000000,"state":"active","ping":61},{"user_id":548,"name":"Family guy try not to laugh","steam_id":76561198031455800,"connected_time":263000000000,"state":"active","ping":74},{"user_id":541,"name":"Aeglos","steam_id":76561198248698294,"connected_time":990000000000,"state":"active","ping":66}]},{"server_id":308,"name":"Uncletopia | Frankfurt | 3 | All Maps","name_short":"frk-3","host":"frk-1.de.uncletopia.com","port":27035,"enabled":true,"region":"eu","cc":"de","latitude":50.110924,"longitude":8.682127,"reserved":0,"last_update":"0001-01-01T00:00:00Z","name_a2s":"Uncletopia | Frankfurt | 3 | All Maps","protocol":17,"map":"cp_snakewater_final1","folder":"tf","game":"Team Fortress","app_id":440,"player_count":24,"max_players":24,"Bots":0,"server_type":"Dedicated","server_os":"Linux","password":true,"vac":true,"version":"7882260","steam_id":85568392924504274,"keywords":["cp","nocrits","nodmgspread","uncletopia"],"game_id":440,"stv_port":27036,"stv_name":"Uncletopia | Frankfurt | 3 | All Maps | STV","players":[{"user_id":530,"name":"W+M1 noob","steam_id":76561198120460686,"connected_time":3274000000000,"state":"active","ping":111},{"user_id":523,"name":"kita ikuYOOOOOOOOOOOOOOOOOOOOOO","steam_id":76561198148074472,"connected_time":3491000000000,"state":"active","ping":45},{"user_id":518,"name":"Immortal_Squid","steam_id":76561198248255490,"connected_time":3589000000000,"state":"active","ping":74},{"user_id":552,"name":"d u k k i","steam_id":76561198071807437,"connected_time":2451000000000,"state":"active","ping":75},{"user_id":588,"name":"fruit bowl","steam_id":76561198232398568,"connected_time":386000000000,"state":"active","ping":84},{"user_id":592,"name":"gosi","steam_id":76561198084111532,"connected_time":35000000000,"state":"active","ping":55},{"user_id":575,"name":"Ennard777","steam_id":76561198965409493,"connected_time":1129000000000,"state":"active","ping":97},{"user_id":586,"name":"ZylGod[EU]","steam_id":76561198061722082,"connected_time":505000000000,"state":"active","ping":48},{"user_id":554,"name":"rotating cranium","steam_id":76561198111134021,"connected_time":2374000000000,"state":"active","ping":71},{"user_id":564,"name":"Volodymyr Zelenskiy","steam_id":76561198273199378,"connected_time":1564000000000,"state":"active","ping":65},{"user_id":524,"name":"whalecore enjoyer","steam_id":76561198256619964,"connected_time":3483000000000,"state":"active","ping":75},{"user_id":525,"name":"wee woo","steam_id":76561198147277460,"connected_time":3483000000000,"state":"active","ping":59},{"user_id":583,"name":"better feed sneed","steam_id":76561198079524152,"connected_time":618000000000,"state":"active","ping":58},{"user_id":565,"name":"The Shotgun","steam_id":76561198044008976,"connected_time":1561000000000,"state":"active","ping":72},{"user_id":534,"name":"Hercules","steam_id":76561198041164170,"connected_time":3216000000000,"state":"active","ping":60},{"user_id":547,"name":"Sboobs","steam_id":76561198106917849,"connected_time":2963000000000,"state":"active","ping":55},{"user_id":580,"name":"Teaguy","steam_id":76561197990776598,"connected_time":847000000000,"state":"active","ping":128},{"user_id":579,"name":"astigmatic","steam_id":76561199103959197,"connected_time":921000000000,"state":"active","ping":87},{"user_id":584,"name":"Mr.Fix","steam_id":76561199017362445,"connected_time":611000000000,"state":"active","ping":99},{"user_id":585,"name":"Engineer","steam_id":76561198062255803,"connected_time":608000000000,"state":"active","ping":65},{"user_id":555,"name":"Mr.O #deletesniper","steam_id":76561198039567498,"connected_time":2366000000000,"state":"active","ping":60},{"user_id":587,"name":"svantezch","steam_id":76561198373831657,"connected_time":435000000000,"state":"active","ping":74},{"user_id":590,"name":"glyph","steam_id":76561197980736364,"connected_time":261000000000,"state":"active","ping":77},{"user_id":494,"name":"dotdotdot","steam_id":76561198057628751,"connected_time":5017000000000,"state":"active","ping":68}]},{"server_id":309,"name":"Uncletopia | Frankfurt | 4 | All Maps","name_short":"frk-4","host":"frk-1.de.uncletopia.com","port":27045,"enabled":true,"region":"eu","cc":"de","latitude":50.110924,"longitude":8.682127,"reserved":0,"last_update":"0001-01-01T00:00:00Z","name_a2s":"Uncletopia | Frankfurt | 4 | All Maps","protocol":17,"map":"pl_barnblitz","folder":"tf","game":"Team Fortress","app_id":440,"player_count":24,"max_players":24,"Bots":0,"server_type":"Dedicated","server_os":"Linux","password":true,"vac":true,"version":"7882260","steam_id":85568392924504275,"keywords":["nocrits","nodmgspread","payload","uncletopia"],"game_id":440,"stv_port":27046,"stv_name":"Uncletopia | Frankfurt | 4 | All Maps | STV","players":[{"user_id":147,"name":"***** ***","steam_id":76561198048037379,"connected_time":1306000000000,"state":"active","ping":75},{"user_id":140,"name":"誰かが見ている","steam_id":76561198834913692,"connected_time":1729000000000,"state":"active","ping":74},{"user_id":158,"name":"cream gravy","steam_id":76561198973069177,"connected_time":198000000000,"state":"active","ping":47},{"user_id":163,"name":"Spinyapickle","steam_id":76561198086653667,"connected_time":174000000000,"state":"active","ping":68},{"user_id":156,"name":"KlyneX","steam_id":76561198107459305,"connected_time":781000000000,"state":"active","ping":68},{"user_id":151,"name":"Bodeine Brazy","steam_id":76561198122181176,"connected_time":1241000000000,"state":"active","ping":47},{"user_id":148,"name":"GrzMik","steam_id":76561198061951968,"connected_time":1295000000000,"state":"active","ping":87},{"user_id":154,"name":"ok","steam_id":76561198044451693,"connected_time":946000000000,"state":"active","ping":105},{"user_id":153,"name":"gegit08","steam_id":76561199040010283,"connected_time":971000000000,"state":"active","ping":88},{"user_id":108,"name":"Ketich","steam_id":76561198021772703,"connected_time":3510000000000,"state":"active","ping":74},{"user_id":70,"name":"S.Scary","steam_id":76561198248602386,"connected_time":6028000000000,"state":"active","ping":68},{"user_id":71,"name":"tïger","steam_id":76561198260483157,"connected_time":6023000000000,"state":"active","ping":83},{"user_id":149,"name":"Subterranean","steam_id":76561198106684566,"connected_time":1264000000000,"state":"active","ping":75},{"user_id":165,"name":"LELŐNI MINDENKIT A WESTENDBEN","steam_id":76561198315642032,"connected_time":9000000000,"state":"spawning","ping":72},{"user_id":143,"name":"cuboidbird741","steam_id":76561198174823322,"connected_time":1581000000000,"state":"active","ping":62},{"user_id":113,"name":"Providence","steam_id":76561198003920270,"connected_time":3430000000000,"state":"active","ping":85},{"user_id":160,"name":"Gabys","steam_id":76561198282892553,"connected_time":195000000000,"state":"active","ping":74},{"user_id":164,"name":"dafydd","steam_id":76561198052200325,"connected_time":144000000000,"state":"active","ping":80},{"user_id":115,"name":"LUM","steam_id":76561198069976825,"connected_time":3419000000000,"state":"active","ping":170},{"user_id":130,"name":"Rat head","steam_id":76561198184360615,"connected_time":2204000000000,"state":"active","ping":99},{"user_id":162,"name":"Microsoft PowerPoint","steam_id":76561198204290539,"connected_time":188000000000,"state":"active","ping":75},{"user_id":152,"name":"Tin","steam_id":76561198022201818,"connected_time":1234000000000,"state":"active","ping":52},{"user_id":157,"name":"Vytuzas","steam_id":76561198012868436,"connected_time":481000000000,"state":"active","ping":64},{"user_id":146,"name":"Tomfool","steam_id":76561197993256481,"connected_time":1443000000000,"state":"active","ping":75}]},{"server_id":310,"name":"Uncletopia | Frankfurt | 5 | All Maps","name_short":"frk-5","host":"frk-1.de.uncletopia.com","port":27055,"enabled":true,"region":"eu","cc":"de","latitude":50.110924,"longitude":8.682127,"reserved":0,"last_update":"0001-01-01T00:00:00Z","name_a2s":"Uncletopia | Frankfurt | 5 | All Maps","protocol":17,"map":"koth_cascade","folder":"tf","game":"Team Fortress","app_id":440,"player_count":24,"max_players":24,"Bots":0,"server_type":"Dedicated","server_os":"Linux","password":true,"vac":true,"version":"7882260","steam_id":85568392924504277,"keywords":["cp","nocrits","nodmgspread","uncletopia"],"game_id":440,"stv_port":27056,"stv_name":"Uncletopia | Frankfurt | 5 | All Maps | STV","players":[{"user_id":166,"name":"kornetov.vitalya","steam_id":76561199286034833,"connected_time":4243000000000,"state":"active","ping":93},{"user_id":219,"name":"Max","steam_id":76561198080956366,"connected_time":136000000000,"state":"active","ping":85},{"user_id":201,"name":"Neco-arc Astolfo","steam_id":76561198989682540,"connected_time":1455000000000,"state":"active","ping":45},{"user_id":190,"name":"Technic","steam_id":76561198128096130,"connected_time":2132000000000,"state":"active","ping":54},{"user_id":204,"name":"GEP Gun","steam_id":76561197981821003,"connected_time":1106000000000,"state":"active","ping":74},{"user_id":212,"name":"yes","steam_id":76561198184881255,"connected_time":268000000000,"state":"active","ping":73},{"user_id":202,"name":"Felwo3","steam_id":76561199217352978,"connected_time":1183000000000,"state":"active","ping":111},{"user_id":210,"name":"haunts","steam_id":76561198044766573,"connected_time":504000000000,"state":"active","ping":71},{"user_id":169,"name":"JOÃO MIGUEL","steam_id":76561198066297489,"connected_time":4157000000000,"state":"active","ping":75},{"user_id":223,"name":"metamikko","steam_id":76561198324704234,"connected_time":70000000000,"state":"active","ping":108},{"user_id":220,"name":"MpJens","steam_id":76561198000347669,"connected_time":128000000000,"state":"active","ping":65},{"user_id":174,"name":"chocolate flavoured femboy","steam_id":76561198819353867,"connected_time":3576000000000,"state":"active","ping":51},{"user_id":207,"name":"DarkSoulBG24","steam_id":76561198273701478,"connected_time":762000000000,"state":"active","ping":75},{"user_id":189,"name":"Dor_atar","steam_id":76561198973980542,"connected_time":2144000000000,"state":"active","ping":67},{"user_id":198,"name":"StealthCat","steam_id":76561198068937412,"connected_time":1909000000000,"state":"active","ping":46},{"user_id":224,"name":"Astolfo","steam_id":76561198354584982,"connected_time":67000000000,"state":"active","ping":57},{"user_id":209,"name":"JamesPepega","steam_id":76561198019156154,"connected_time":591000000000,"state":"active","ping":70},{"user_id":192,"name":"ScaryTree","steam_id":76561199384362833,"connected_time":2122000000000,"state":"active","ping":66},{"user_id":221,"name":"Pybro","steam_id":76561198962938054,"connected_time":119000000000,"state":"active","ping":80},{"user_id":196,"name":"GMsU | Acoul","steam_id":76561198229222992,"connected_time":2101000000000,"state":"active","ping":56},{"user_id":225,"name":":3","steam_id":76561198422006468,"connected_time":43000000000,"state":"active","ping":90},{"user_id":217,"name":"Dragon","steam_id":76561198163255365,"connected_time":199000000000,"state":"active","ping":111},{"user_id":218,"name":"Jend_","steam_id":76561198056367077,"connected_time":181000000000,"state":"active","ping":67},{"user_id":216,"name":"Marmac","steam_id":76561198120033210,"connected_time":240000000000,"state":"active","ping":72}]},{"server_id":311,"name":"Uncletopia | Frankfurt | 6 | All Maps","name_short":"frk-6","host":"frk-1.de.uncletopia.com","port":27065,"enabled":true,"region":"eu","cc":"de","latitude":50.110924,"longitude":8.682127,"reserved":0,"last_update":"0001-01-01T00:00:00Z","name_a2s":"Uncletopia | Frankfurt | 6 | All Maps","protocol":17,"map":"pl_snowycoast","folder":"tf","game":"Team Fortress","app_id":440,"player_count":24,"max_players":24,"Bots":0,"server_type":"Dedicated","server_os":"Linux","password":true,"vac":true,"version":"7882260","steam_id":85568392924504278,"keywords":["nocrits","nodmgspread","payload","uncletopia"],"game_id":440,"stv_port":27066,"stv_name":"Uncletopia | Frankfurt | 6 | All Maps | STV","players":[{"user_id":453,"name":"Waltcha","steam_id":76561198007691468,"connected_time":4078000000000,"state":"active","ping":61},{"user_id":520,"name":"idfk","steam_id":76561199013486916,"connected_time":99000000000,"state":"active","ping":103},{"user_id":493,"name":"flr","steam_id":76561198249327786,"connected_time":1700000000000,"state":"active","ping":72},{"user_id":504,"name":"antlionguard","steam_id":76561198072747143,"connected_time":1477000000000,"state":"active","ping":104},{"user_id":513,"name":"Jibus","steam_id":76561198043840560,"connected_time":336000000000,"state":"active","ping":62},{"user_id":508,"name":"[Éire] Hype!","steam_id":76561198061449287,"connected_time":1000000000000,"state":"active","ping":68},{"user_id":487,"name":"BELADIT","steam_id":76561198011911501,"connected_time":2087000000000,"state":"active","ping":64},{"user_id":509,"name":"$nØw","steam_id":76561198238781028,"connected_time":997000000000,"state":"active","ping":101},{"user_id":496,"name":"Malicious Mop","steam_id":76561199117640736,"connected_time":1606000000000,"state":"active","ping":165},{"user_id":489,"name":"MILKY","steam_id":76561199261620682,"connected_time":1938000000000,"state":"active","ping":88},{"user_id":514,"name":"Gibusmain』","steam_id":76561198219173932,"connected_time":319000000000,"state":"active","ping":96},{"user_id":510,"name":"Tobleroney","steam_id":76561198154402655,"connected_time":989000000000,"state":"active","ping":46},{"user_id":519,"name":"MMMonkey | trade.tf","steam_id":76561198118917458,"connected_time":211000000000,"state":"active","ping":115},{"user_id":516,"name":"Testicular torsion","steam_id":76561198119547399,"connected_time":308000000000,"state":"active","ping":58},{"user_id":479,"name":"Professional HotDog","steam_id":76561199250225639,"connected_time":2644000000000,"state":"active","ping":146},{"user_id":511,"name":"Früst⁧⁧⁧⁧eh","steam_id":76561198059177102,"connected_time":365000000000,"state":"active","ping":57},{"user_id":498,"name":"Spirit Socks","steam_id":76561199214635037,"connected_time":1600000000000,"state":"active","ping":170},{"user_id":481,"name":"Kotbube Peter","steam_id":76561198148386749,"connected_time":2604000000000,"state":"active","ping":56},{"user_id":482,"name":"Oxy:*","steam_id":76561198275120049,"connected_time":2577000000000,"state":"active","ping":58},{"user_id":499,"name":"ODanial","steam_id":76561198034854402,"connected_time":1580000000000,"state":"active","ping":99},{"user_id":512,"name":"10 Years in the joint","steam_id":76561198371280938,"connected_time":363000000000,"state":"active","ping":69},{"user_id":521,"name":"=PB=","steam_id":76561197999146612,"connected_time":85000000000,"state":"active","ping":57},{"user_id":518,"name":"☣️Combine Elite☣","steam_id":76561199021872706,"connected_time":303000000000,"state":"active","ping":71},{"user_id":485,"name":"Aight","steam_id":76561198300453404,"connected_time":2465000000000,"state":"active","ping":94}]},{"server_id":23,"name":"Uncletopia | Frankfurt | 7 | Stopwatch Beta","name_short":"frk-7","host":"frk-1.de.uncletopia.com","port":27075,"enabled":true,"region":"eu","cc":"de","latitude":50.110924,"longitude":8.682127,"reserved":0,"last_update":"0001-01-01T00:00:00Z","name_a2s":"Uncletopia | Frankfurt | 7 | Stopwatch Beta","protocol":17,"map":"pl_upward","folder":"tf","game":"Team Fortress","app_id":440,"player_count":0,"max_players":24,"Bots":0,"server_type":"Dedicated","server_os":"Linux","password":true,"vac":true,"version":"7882260","steam_id":85568392924742827,"keywords":["nocrits","nodmgspread","payload","uncletopia"],"game_id":440,"stv_port":27076,"stv_name":"Uncletopia | Frankfurt | 7 | Stopwatch Beta | STV","players":null},{"server_id":24,"name":"Uncletopia | Frankfurt | 8 | Community","name_short":"frk-8","host":"frk-1.de.uncletopia.com","port":27085,"enabled":true,"region":"eu","cc":"de","latitude":50.110924,"longitude":8.682127,"reserved":0,"last_update":"0001-01-01T00:00:00Z","name_a2s":"Uncletopia | Frankfurt | 8 | Community","protocol":17,"map":"workshop/koth_ramjam_rc1.ugc459778887","folder":"tf","game":"Team Fortress","app_id":440,"player_count":3,"max_players":24,"Bots":0,"server_type":"Dedicated","server_os":"Linux","password":true,"vac":true,"version":"7882260","steam_id":85568392924742828,"keywords":["cp","nocrits","nodmgspread","uncletopia"],"game_id":440,"stv_port":27086,"stv_name":"Uncletopia | Frankfurt | 8 | Community | STV","players":[{"user_id":17,"name":"ifre3","steam_id":76561198052545817,"connected_time":381000000000,"state":"active","ping":90},{"user_id":18,"name":"Farao Ramses II","steam_id":76561198078722712,"connected_time":314000000000,"state":"active","ping":44},{"user_id":20,"name":"ToxyTero","steam_id":76561198413359724,"connected_time":79000000000,"state":"active","ping":73}]},{"server_id":202,"name":"Uncletopia | Hong Kong | 1 | All Maps","name_short":"hgk-1","host":"hgk-1.hk.uncletopia.com","port":27015,"enabled":true,"region":"asia","cc":"hk","latitude":22.302711,"longitude":114.177216,"reserved":0,"last_update":"0001-01-01T00:00:00Z","name_a2s":"Uncletopia | Hong Kong | 1 | All Maps","protocol":17,"map":"koth_cascade","folder":"tf","game":"Team Fortress","app_id":440,"player_count":0,"max_players":24,"Bots":0,"server_type":"Dedicated","server_os":"Linux","password":true,"vac":true,"version":"7882260","steam_id":85568392924494504,"keywords":["cp","nocrits","nodmgspread","uncletopia"],"game_id":440,"stv_port":27016,"stv_name":"Uncletopia | Hong Kong | 1 | All Maps | STV","players":null},{"server_id":1,"name":"Uncletopia | Los Angeles | 1 | All Maps","name_short":"lax-1","host":"lax-1.us.uncletopia.com","port":27015,"enabled":true,"region":"us-west","cc":"us","latitude":33.94279,"longitude":-118.41004,"reserved":0,"last_update":"0001-01-01T00:00:00Z","name_a2s":"Uncletopia | Los Angeles | 1 | All Maps","protocol":17,"map":"pl_frontier_final","folder":"tf","game":"Team Fortress","app_id":440,"player_count":24,"max_players":24,"Bots":0,"server_type":"Dedicated","server_os":"Linux","password":true,"vac":true,"version":"7882260","steam_id":85568392924469991,"keywords":["nocrits","nodmgspread","payload","uncletopia"],"game_id":440,"stv_port":27016,"stv_name":"Uncletopia | Los Angeles | 1 | All Maps | STV","players":[{"user_id":76,"name":"TON 618","steam_id":76561198799230499,"connected_time":3139000000000,"state":"active","ping":96},{"user_id":63,"name":"cobala nomala dd24","steam_id":76561198213385439,"connected_time":3967000000000,"state":"active","ping":103},{"user_id":93,"name":"JC The Dumb","steam_id":76561199186185567,"connected_time":2188000000000,"state":"active","ping":69},{"user_id":91,"name":"The Sydney Sleeper Itself","steam_id":76561198180251763,"connected_time":2293000000000,"state":"active","ping":83},{"user_id":103,"name":"mass Tech™© EXTREME 2000","steam_id":76561198399115655,"connected_time":1676000000000,"state":"active","ping":160},{"user_id":16,"name":"scripy","steam_id":76561199267237541,"connected_time":6927000000000,"state":"active","ping":130},{"user_id":94,"name":"DistantJragon","steam_id":76561198117563641,"connected_time":2174000000000,"state":"active","ping":103},{"user_id":111,"name":"rimble","steam_id":76561198150137369,"connected_time":896000000000,"state":"active","ping":48},{"user_id":50,"name":"Genius Meme","steam_id":76561198162911254,"connected_time":4740000000000,"state":"active","ping":63},{"user_id":112,"name":"Alinoth Akagi","steam_id":76561198324613520,"connected_time":723000000000,"state":"active","ping":68},{"user_id":115,"name":"jayzak24","steam_id":76561198354267509,"connected_time":599000000000,"state":"active","ping":60},{"user_id":99,"name":"DopeyRopy","steam_id":76561199020833802,"connected_time":1791000000000,"state":"active","ping":48},{"user_id":98,"name":"Dreamzapp","steam_id":76561199084936632,"connected_time":2072000000000,"state":"active","ping":70},{"user_id":117,"name":"CBUR","steam_id":76561198437498149,"connected_time":35000000000,"state":"spawning","ping":58},{"user_id":73,"name":"Big White Delight","steam_id":76561198005301688,"connected_time":3360000000000,"state":"active","ping":86},{"user_id":30,"name":"nyoah","steam_id":76561198834915248,"connected_time":5615000000000,"state":"active","ping":60},{"user_id":119,"name":"★SuperBurgerBoy★","steam_id":76561198856387197,"connected_time":5000000000,"state":"spawning","ping":51},{"user_id":81,"name":"mentos14","steam_id":76561198097993629,"connected_time":2989000000000,"state":"active","ping":60},{"user_id":75,"name":"Just a Good Friend","steam_id":76561198140052403,"connected_time":3191000000000,"state":"active","ping":51},{"user_id":96,"name":"dweaver","steam_id":76561198119610135,"connected_time":2131000000000,"state":"active","ping":61},{"user_id":83,"name":"albert jones","steam_id":76561198404271005,"connected_time":2830000000000,"state":"active","ping":59},{"user_id":89,"name":"GLXy","steam_id":76561198207551544,"connected_time":2427000000000,"state":"active","ping":84},{"user_id":101,"name":"McSpazatron","steam_id":76561198955942148,"connected_time":1787000000000,"state":"active","ping":85},{"user_id":110,"name":"Goomba","steam_id":76561198130690686,"connected_time":1074000000000,"state":"active","ping":59}]},{"server_id":112,"name":"Uncletopia | Los Angeles | 2 | All Maps","name_short":"lax-2","host":"lax-1.us.uncletopia.com","port":27025,"enabled":true,"region":"us-west","cc":"us","latitude":33.94279,"longitude":-118.41004,"reserved":0,"last_update":"0001-01-01T00:00:00Z","name_a2s":"Uncletopia | Los Angeles | 2 | All Maps","protocol":17,"map":"pl_badwater","folder":"tf","game":"Team Fortress","app_id":440,"player_count":0,"max_players":24,"Bots":0,"server_type":"Dedicated","server_os":"Linux","password":true,"vac":true,"version":"7882260","steam_id":85568392924469992,"keywords":["nocrits","nodmgspread","payload","uncletopia"],"game_id":440,"stv_port":27026,"stv_name":"Uncletopia | Los Angeles | 2 | All Maps | STV","players":null},{"server_id":324,"name":"Uncletopia | Los Angeles | 3 | All Maps","name_short":"lax-3","host":"lax-1.us.uncletopia.com","port":27035,"enabled":true,"region":"us-west","cc":"us","latitude":33.94279,"longitude":-118.41004,"reserved":0,"last_update":"0001-01-01T00:00:00Z","name_a2s":"Uncletopia | Los Angeles | 3 | All Maps","protocol":17,"map":"koth_cascade","folder":"tf","game":"Team Fortress","app_id":440,"player_count":4,"max_players":24,"Bots":0,"server_type":"Dedicated","server_os":"Linux","password":true,"vac":true,"version":"7882260","steam_id":85568392924510198,"keywords":["cp","nocrits","nodmgspread","uncletopia"],"game_id":440,"stv_port":27036,"stv_name":"Uncletopia | Los Angeles | 3 | All Maps | STV","players":[{"user_id":7,"name":"Lulo","steam_id":76561198200617911,"connected_time":1009000000000,"state":"active","ping":74},{"user_id":10,"name":"Renz","steam_id":76561198118995036,"connected_time":649000000000,"state":"active","ping":79},{"user_id":12,"name":"Bombat","steam_id":76561198083096946,"connected_time":67000000000,"state":"active","ping":62},{"user_id":13,"name":"pylot","steam_id":76561198119460618,"connected_time":63000000000,"state":"active","ping":54}]},{"server_id":25,"name":"Uncletopia | Los Angeles | 4 | Stopwatch Beta","name_short":"lax-4","host":"lax-1.us.uncletopia.com","port":27045,"enabled":true,"region":"us-west","cc":"us","latitude":33.94279,"longitude":-118.41004,"reserved":0,"last_update":"0001-01-01T00:00:00Z","name_a2s":"Uncletopia | Los Angeles | 4 | Stopwatch Beta","protocol":17,"map":"workshop/pl_barnblitz_pro7.ugc582280235","folder":"tf","game":"Team Fortress","app_id":440,"player_count":0,"max_players":24,"Bots":0,"server_type":"Dedicated","server_os":"Linux","password":true,"vac":true,"version":"7882260","steam_id":85568392924510199,"keywords":["nocrits","nodmgspread","payload","uncletopia"],"game_id":440,"stv_port":27046,"stv_name":"Uncletopia | Los Angeles | 4 | Stopwatch Beta | STV","players":null},{"server_id":11,"name":"Uncletopia | London | 1 | All Maps","name_short":"lon-1","host":"lon-1.uk.uncletopia.com","port":27015,"enabled":true,"region":"eu","cc":"gb","latitude":51.509865,"longitude":-0.118092,"reserved":0,"last_update":"0001-01-01T00:00:00Z","name_a2s":"Uncletopia | London | 1 | All Maps","protocol":17,"map":"cp_snakewater_final1","folder":"tf","game":"Team Fortress","app_id":440,"player_count":24,"max_players":24,"Bots":0,"server_type":"Dedicated","server_os":"Linux","password":true,"vac":true,"version":"7882260","steam_id":85568392924367362,"keywords":["cp","nocrits","nodmgspread","uncletopia"],"game_id":440,"stv_port":27016,"stv_name":"Uncletopia | London | 1 | All Maps | STV","players":[{"user_id":783,"name":"stickurr","steam_id":76561198089536805,"connected_time":1478000000000,"state":"active","ping":44},{"user_id":820,"name":"Jonathan","steam_id":76561198087988880,"connected_time":597000000000,"state":"active","ping":60},{"user_id":838,"name":"mark of the outsider","steam_id":76561198309246388,"connected_time":358000000000,"state":"active","ping":59},{"user_id":578,"name":"Massmarine","steam_id":76561198038696531,"connected_time":5276000000000,"state":"active","ping":120},{"user_id":750,"name":"DrunkHungarian","steam_id":76561198853346540,"connected_time":1862000000000,"state":"active","ping":52},{"user_id":688,"name":"Asfreild","steam_id":76561198055901120,"connected_time":2802000000000,"state":"active","ping":71},{"user_id":719,"name":"Maridor","steam_id":76561199094592508,"connected_time":2231000000000,"state":"active","ping":71},{"user_id":814,"name":"Dr. Funkenstein","steam_id":76561197977816210,"connected_time":650000000000,"state":"active","ping":48},{"user_id":584,"name":"DrExplosive 30fps gaming","steam_id":76561198063678579,"connected_time":5103000000000,"state":"active","ping":51},{"user_id":852,"name":"Milosz52","steam_id":76561199060940204,"connected_time":29000000000,"state":"spawning","ping":104},{"user_id":817,"name":"ay","steam_id":76561198033695429,"connected_time":623000000000,"state":"active","ping":43},{"user_id":818,"name":"F","steam_id":76561199149462792,"connected_time":612000000000,"state":"active","ping":59},{"user_id":668,"name":"Gravy","steam_id":76561198029548074,"connected_time":3169000000000,"state":"active","ping":57},{"user_id":819,"name":"X-tis","steam_id":76561198043837480,"connected_time":610000000000,"state":"active","ping":73},{"user_id":575,"name":"Wardruna96","steam_id":76561199057083828,"connected_time":5475000000000,"state":"active","ping":75},{"user_id":632,"name":"dnljns","steam_id":76561198085091752,"connected_time":4031000000000,"state":"active","ping":92},{"user_id":821,"name":"static","steam_id":76561198836825741,"connected_time":597000000000,"state":"active","ping":44},{"user_id":846,"name":"Burpman","steam_id":76561198022897937,"connected_time":149000000000,"state":"active","ping":49},{"user_id":780,"name":"Desj","steam_id":76561198114212636,"connected_time":1535000000000,"state":"active","ping":57},{"user_id":823,"name":"Tortes","steam_id":76561199049185884,"connected_time":558000000000,"state":"active","ping":96},{"user_id":828,"name":"Quiet Kid","steam_id":76561199134800446,"connected_time":485000000000,"state":"active","ping":109},{"user_id":702,"name":"Buddy","steam_id":76561198050185582,"connected_time":2515000000000,"state":"active","ping":55},{"user_id":835,"name":"глеб v3.1","steam_id":76561198291044793,"connected_time":416000000000,"state":"active","ping":98},{"user_id":803,"name":"Olvustin","steam_id":76561198272011453,"connected_time":857000000000,"state":"active","ping":104}]},{"server_id":114,"name":"Uncletopia | London | 2 | All Maps","name_short":"lon-2","host":"lon-1.uk.uncletopia.com","port":27025,"enabled":true,"region":"eu","cc":"gb","latitude":51.509865,"longitude":-0.118092,"reserved":0,"last_update":"0001-01-01T00:00:00Z","name_a2s":"Uncletopia | London | 2 | All Maps","protocol":17,"map":"pl_upward","folder":"tf","game":"Team Fortress","app_id":440,"player_count":24,"max_players":24,"Bots":0,"server_type":"Dedicated","server_os":"Linux","password":true,"vac":true,"version":"7882260","steam_id":85568392924470941,"keywords":["nocrits","nodmgspread","payload","uncletopia"],"game_id":440,"stv_port":27026,"stv_name":"Uncletopia | London | 2 | All Maps | STV","players":[{"user_id":364,"name":"✪ qua ✪","steam_id":76561198066408333,"connected_time":11610000000000,"state":"active","ping":81},{"user_id":547,"name":"Dio","steam_id":76561198117685434,"connected_time":2644000000000,"state":"active","ping":88},{"user_id":552,"name":"Sloneczku","steam_id":76561198032886890,"connected_time":2556000000000,"state":"active","ping":85},{"user_id":608,"name":"Lord of the Cows","steam_id":76561198203140640,"connected_time":15000000000,"state":"spawning","ping":107},{"user_id":607,"name":"Irish Guy","steam_id":76561198060144190,"connected_time":335000000000,"state":"active","ping":79},{"user_id":599,"name":"weleenkerk","steam_id":76561198143969491,"connected_time":1091000000000,"state":"active","ping":70},{"user_id":604,"name":"Raulca25","steam_id":76561199068256964,"connected_time":609000000000,"state":"active","ping":101},{"user_id":593,"name":"Xx_EpicGaymer_xX","steam_id":76561198846784757,"connected_time":1414000000000,"state":"active","ping":61},{"user_id":601,"name":"Yggdrasill","steam_id":76561198304162236,"connected_time":875000000000,"state":"active","ping":120},{"user_id":595,"name":"2BCD","steam_id":76561198178254946,"connected_time":1409000000000,"state":"active","ping":70},{"user_id":594,"name":"Sixie","steam_id":76561198251675360,"connected_time":1413000000000,"state":"active","ping":52},{"user_id":442,"name":"20BB Raxor","steam_id":76561198239927434,"connected_time":5888000000000,"state":"active","ping":84},{"user_id":586,"name":"ahcenetupe","steam_id":76561198916501470,"connected_time":1912000000000,"state":"active","ping":60},{"user_id":357,"name":"VolcanicArts","steam_id":76561198063453246,"connected_time":12004000000000,"state":"active","ping":54},{"user_id":582,"name":"D0kai","steam_id":76561198389271720,"connected_time":2007000000000,"state":"active","ping":51},{"user_id":574,"name":"Dr. Cox","steam_id":76561198246629218,"connected_time":2059000000000,"state":"active","ping":108},{"user_id":502,"name":"Charmedelf","steam_id":76561197993611881,"connected_time":3555000000000,"state":"active","ping":60},{"user_id":499,"name":"Regan","steam_id":76561198100631086,"connected_time":3602000000000,"state":"active","ping":53},{"user_id":606,"name":"Jetstream Sam","steam_id":76561199085021177,"connected_time":382000000000,"state":"active","ping":68},{"user_id":563,"name":"zoinks!","steam_id":76561198068645362,"connected_time":2236000000000,"state":"active","ping":39},{"user_id":556,"name":"Shark","steam_id":76561198205226501,"connected_time":2540000000000,"state":"active","ping":155},{"user_id":591,"name":"Nifi","steam_id":76561198102682566,"connected_time":1427000000000,"state":"active","ping":74},{"user_id":605,"name":"Neiro👽ᗩYY ᒪᗰᗩO","steam_id":76561198046743985,"connected_time":595000000000,"state":"active","ping":75},{"user_id":598,"name":"British Disapproval","steam_id":76561198001375260,"connected_time":1122000000000,"state":"active","ping":55}]},{"server_id":320,"name":"Uncletopia | London | 3 | All Maps","name_short":"lon-3","host":"lon-1.uk.uncletopia.com","port":27035,"enabled":true,"region":"eu","cc":"gb","latitude":51.509865,"longitude":-0.118092,"reserved":0,"last_update":"0001-01-01T00:00:00Z","name_a2s":"Uncletopia | London | 3 | All Maps","protocol":17,"map":"pl_badwater","folder":"tf","game":"Team Fortress","app_id":440,"player_count":24,"max_players":24,"Bots":0,"server_type":"Dedicated","server_os":"Linux","password":true,"vac":true,"version":"7882260","steam_id":85568392924510192,"keywords":["nocrits","nodmgspread","payload","uncletopia"],"game_id":440,"stv_port":27036,"stv_name":"Uncletopia | London | 3 | All Maps | STV","players":[{"user_id":480,"name":"Lessoz","steam_id":76561199211572036,"connected_time":1050000000000,"state":"active","ping":89},{"user_id":406,"name":"Emma","steam_id":76561198076724979,"connected_time":5969000000000,"state":"active","ping":70},{"user_id":436,"name":"Obvi","steam_id":76561198088735927,"connected_time":4042000000000,"state":"active","ping":62},{"user_id":486,"name":"Joseph Stalin","steam_id":76561198033199746,"connected_time":567000000000,"state":"active","ping":47},{"user_id":488,"name":"1337","steam_id":76561198930351000,"connected_time":398000000000,"state":"active","ping":66},{"user_id":425,"name":"marc","steam_id":76561198018694332,"connected_time":4739000000000,"state":"active","ping":75},{"user_id":484,"name":"Mr_Gamr211","steam_id":76561198960079818,"connected_time":773000000000,"state":"active","ping":114},{"user_id":489,"name":"gamer","steam_id":76561199121842872,"connected_time":390000000000,"state":"active","ping":56},{"user_id":420,"name":"Toofy","steam_id":76561197989727907,"connected_time":4972000000000,"state":"active","ping":37},{"user_id":490,"name":"Bunny","steam_id":76561198284766141,"connected_time":378000000000,"state":"active","ping":45},{"user_id":491,"name":"Eyy_Cucasi","steam_id":76561198271767632,"connected_time":378000000000,"state":"active","ping":98},{"user_id":470,"name":"Tanza -","steam_id":76561197961335217,"connected_time":1787000000000,"state":"active","ping":55},{"user_id":471,"name":"♛perry the platypus♛","steam_id":76561199379159771,"connected_time":1779000000000,"state":"active","ping":143},{"user_id":477,"name":"Kaishakunin","steam_id":76561198028123874,"connected_time":1139000000000,"state":"active","ping":88},{"user_id":445,"name":"DragonLord","steam_id":76561198074279225,"connected_time":2844000000000,"state":"active","ping":49},{"user_id":455,"name":"Controller Gaming","steam_id":76561198134805479,"connected_time":2471000000000,"state":"active","ping":52},{"user_id":497,"name":"Patch","steam_id":76561198217360709,"connected_time":75000000000,"state":"active","ping":60},{"user_id":457,"name":"cat","steam_id":76561198832231975,"connected_time":2362000000000,"state":"active","ping":94},{"user_id":487,"name":"Proto-arc","steam_id":76561198012776747,"connected_time":467000000000,"state":"active","ping":59},{"user_id":493,"name":"Dr.Sees [F2P]","steam_id":76561199219233587,"connected_time":357000000000,"state":"active","ping":79},{"user_id":494,"name":"KubachaCZ","steam_id":76561198209972968,"connected_time":350000000000,"state":"active","ping":68},{"user_id":460,"name":"h","steam_id":76561198273551016,"connected_time":2302000000000,"state":"active","ping":72},{"user_id":495,"name":"Šūdašalmis","steam_id":76561198052802448,"connected_time":313000000000,"state":"active","ping":71},{"user_id":478,"name":"Wujek Cacek","steam_id":76561198010267943,"connected_time":1124000000000,"state":"active","ping":75}]},{"server_id":321,"name":"Uncletopia | London | 4 | All Maps","name_short":"lon-4","host":"lon-1.uk.uncletopia.com","port":27045,"enabled":true,"region":"eu","cc":"gb","latitude":51.509865,"longitude":-0.118092,"reserved":0,"last_update":"0001-01-01T00:00:00Z","name_a2s":"Uncletopia | London | 4 | All Maps","protocol":17,"map":"pl_upward","folder":"tf","game":"Team Fortress","app_id":440,"player_count":6,"max_players":24,"Bots":0,"server_type":"Dedicated","server_os":"Linux","password":true,"vac":true,"version":"7882260","steam_id":85568392924510193,"keywords":["nocrits","nodmgspread","payload","uncletopia"],"game_id":440,"stv_port":27046,"stv_name":"Uncletopia | London | 4 | All Maps | STV","players":[{"user_id":28,"name":"sethlington14","steam_id":76561199438357690,"connected_time":76000000000,"state":"active","ping":59},{"user_id":27,"name":"Xydran","steam_id":76561198042397402,"connected_time":138000000000,"state":"active","ping":64},{"user_id":29,"name":"sub class?","steam_id":76561199184873889,"connected_time":56000000000,"state":"active","ping":77},{"user_id":30,"name":"Fluffy","steam_id":76561198084447725,"connected_time":36000000000,"state":"active","ping":36},{"user_id":31,"name":"Insain Bolt!","steam_id":76561198025687726,"connected_time":30000000000,"state":"active","ping":76},{"user_id":33,"name":"zvekan","steam_id":76561198381101196,"connected_time":8000000000,"state":"spawning","ping":66}]},{"server_id":21,"name":"Uncletopia | London | 5 | All Maps","name_short":"lon-5","host":"lon-1.uk.uncletopia.com","port":27055,"enabled":true,"region":"eu","cc":"gb","latitude":51.509865,"longitude":-0.118092,"reserved":0,"last_update":"0001-01-01T00:00:00Z","name_a2s":"Uncletopia | London | 5 | All Maps","protocol":17,"map":"cp_altitude","folder":"tf","game":"Team Fortress","app_id":440,"player_count":24,"max_players":24,"Bots":0,"server_type":"Dedicated","server_os":"Linux","password":true,"vac":true,"version":"7882260","steam_id":85568392924742829,"keywords":["cp","nocrits","nodmgspread","uncletopia"],"game_id":440,"stv_port":27056,"stv_name":"Uncletopia | London | 5 | All Maps | STV","players":[{"user_id":47,"name":"Manmanen","steam_id":76561198086357575,"connected_time":2585000000000,"state":"active","ping":60},{"user_id":54,"name":"hallu","steam_id":76561198198581079,"connected_time":2458000000000,"state":"active","ping":74},{"user_id":25,"name":"Jackie Chan","steam_id":76561199378865926,"connected_time":3684000000000,"state":"active","ping":81},{"user_id":66,"name":"silvanKING","steam_id":76561198415391988,"connected_time":1545000000000,"state":"active","ping":58},{"user_id":27,"name":"pizzaboob","steam_id":76561198097507847,"connected_time":3677000000000,"state":"active","ping":87},{"user_id":63,"name":"GaryNope","steam_id":76561198023923135,"connected_time":2010000000000,"state":"active","ping":57},{"user_id":57,"name":"WolfmanCZ","steam_id":76561199157141414,"connected_time":2397000000000,"state":"active","ping":76},{"user_id":75,"name":"ThisIsRoy","steam_id":76561198015644698,"connected_time":162000000000,"state":"active","ping":70},{"user_id":67,"name":"my poosy","steam_id":76561198170609049,"connected_time":1513000000000,"state":"active","ping":64},{"user_id":34,"name":"frosty","steam_id":76561198094560834,"connected_time":3052000000000,"state":"active","ping":45},{"user_id":64,"name":"combat collin","steam_id":76561198011450253,"connected_time":1930000000000,"state":"active","ping":47},{"user_id":45,"name":"Obesekid69","steam_id":76561198260087570,"connected_time":2622000000000,"state":"active","ping":60},{"user_id":73,"name":"JeromeGamer293","steam_id":76561199210404349,"connected_time":421000000000,"state":"active","ping":63},{"user_id":40,"name":"Dr Ludwig","steam_id":76561198426522902,"connected_time":2875000000000,"state":"active","ping":54},{"user_id":72,"name":"Maidenless Behaviour","steam_id":76561198012351470,"connected_time":579000000000,"state":"active","ping":45},{"user_id":60,"name":"Mayor Wank from Wanker Town","steam_id":76561197998253588,"connected_time":2330000000000,"state":"active","ping":58},{"user_id":61,"name":"Mr. Oak","steam_id":76561198331315713,"connected_time":2220000000000,"state":"active","ping":53},{"user_id":50,"name":"Adept","steam_id":76561198131323235,"connected_time":2569000000000,"state":"active","ping":69},{"user_id":51,"name":"elyo","steam_id":76561198209442489,"connected_time":2566000000000,"state":"active","ping":70},{"user_id":52,"name":"gerrie van boven","steam_id":76561198151439160,"connected_time":2559000000000,"state":"active","ping":55},{"user_id":71,"name":"mercurial","steam_id":76561198046227550,"connected_time":959000000000,"state":"active","ping":45},{"user_id":65,"name":"bird (trans rights)","steam_id":76561198393596975,"connected_time":1565000000000,"state":"active","ping":47},{"user_id":70,"name":"The.Real.Genesis","steam_id":76561198999652040,"connected_time":1110000000000,"state":"active","ping":49},{"user_id":59,"name":"BLACK MAN FROM JOJO","steam_id":76561198272948471,"connected_time":2362000000000,"state":"active","ping":125}]},{"server_id":22,"name":"Uncletopia | London | 6 | All Maps","name_short":"lon-6","host":"lon-1.uk.uncletopia.com","port":27065,"enabled":true,"region":"eu","cc":"gb","latitude":51.509865,"longitude":-0.118092,"reserved":0,"last_update":"0001-01-01T00:00:00Z","name_a2s":"Uncletopia | London | 6 | All Maps","protocol":17,"map":"pl_badwater","folder":"tf","game":"Team Fortress","app_id":440,"player_count":24,"max_players":24,"Bots":0,"server_type":"Dedicated","server_os":"Linux","password":true,"vac":true,"version":"7882260","steam_id":85568392924742830,"keywords":["nocrits","nodmgspread","payload","uncletopia"],"game_id":440,"stv_port":27066,"stv_name":"Uncletopia | London | 6 | All Maps | STV","players":[{"user_id":357,"name":"Caliban","steam_id":76561197999696839,"connected_time":883000000000,"state":"active","ping":122},{"user_id":324,"name":"TheWildKirby","steam_id":76561198836027309,"connected_time":3316000000000,"state":"active","ping":54},{"user_id":345,"name":"local fridge pisser","steam_id":76561199123021898,"connected_time":2167000000000,"state":"active","ping":88},{"user_id":359,"name":"Icaras","steam_id":76561198416724843,"connected_time":838000000000,"state":"active","ping":42},{"user_id":323,"name":"1 toke 4 mars bars","steam_id":76561198056460000,"connected_time":3393000000000,"state":"active","ping":49},{"user_id":346,"name":"Egor Pomidor","steam_id":76561199175688390,"connected_time":2156000000000,"state":"active","ping":83},{"user_id":360,"name":"blurst of times","steam_id":76561197972325640,"connected_time":829000000000,"state":"active","ping":46},{"user_id":282,"name":"Janitor","steam_id":76561198889405297,"connected_time":5186000000000,"state":"active","ping":71},{"user_id":299,"name":"Hivel","steam_id":76561198151390773,"connected_time":4492000000000,"state":"active","ping":101},{"user_id":358,"name":"Demoknight tf2","steam_id":76561198133041874,"connected_time":877000000000,"state":"active","ping":54},{"user_id":351,"name":"ollychismonhurst","steam_id":76561199229625497,"connected_time":1798000000000,"state":"active","ping":55},{"user_id":308,"name":"Raingnome @SaveTF2","steam_id":76561198007394958,"connected_time":3890000000000,"state":"active","ping":56},{"user_id":364,"name":"MR.CRAB","steam_id":76561198329833659,"connected_time":523000000000,"state":"active","ping":81},{"user_id":343,"name":"Yahram Qiehpah","steam_id":76561198049533385,"connected_time":2376000000000,"state":"active","ping":136},{"user_id":348,"name":"vadr","steam_id":76561198334528186,"connected_time":2093000000000,"state":"active","ping":47},{"user_id":309,"name":"Bulczany","steam_id":76561198116469727,"connected_time":3861000000000,"state":"active","ping":108},{"user_id":352,"name":"Runyohell","steam_id":76561198309876860,"connected_time":1790000000000,"state":"active","ping":99},{"user_id":311,"name":"Gerryjunior","steam_id":76561198863276463,"connected_time":3834000000000,"state":"active","ping":74},{"user_id":365,"name":"Clitorina","steam_id":76561198077570815,"connected_time":373000000000,"state":"active","ping":44},{"user_id":353,"name":"dimitrij_6ix_god","steam_id":76561199023275543,"connected_time":1774000000000,"state":"active","ping":87},{"user_id":302,"name":"Dzamor","steam_id":76561198061586246,"connected_time":4246000000000,"state":"active","ping":99},{"user_id":275,"name":"JohnnyBoyNo.1","steam_id":76561199244941646,"connected_time":6363000000000,"state":"active","ping":121},{"user_id":356,"name":"Mr.Schnittlauch (Controller)","steam_id":76561198295868113,"connected_time":1486000000000,"state":"active","ping":70},{"user_id":362,"name":"Jirro","steam_id":76561198193581143,"connected_time":810000000000,"state":"active","ping":80}]},{"server_id":40,"name":"Uncletopia | London | 7 | No Payload","name_short":"lon-7","host":"lon-1.uk.uncletopia.com","port":27075,"enabled":true,"region":"eu","cc":"gb","latitude":51.509865,"longitude":-0.118092,"reserved":0,"last_update":"0001-01-01T00:00:00Z","name_a2s":"Uncletopia | London | 7 | No Payload","protocol":17,"map":"cp_freight_final1","folder":"tf","game":"Team Fortress","app_id":440,"player_count":24,"max_players":24,"Bots":0,"server_type":"Dedicated","server_os":"Linux","password":true,"vac":true,"version":"7882260","steam_id":85568392924964314,"keywords":["cp","nocrits","nodmgspread","uncletopia"],"game_id":440,"stv_port":27076,"stv_name":"Uncletopia | London | 7 | No Payload | STV","players":[{"user_id":651,"name":"Švarcas","steam_id":76561198841646694,"connected_time":22000000000,"state":"active","ping":71},{"user_id":648,"name":"Anonymous47007","steam_id":76561199005211417,"connected_time":135000000000,"state":"active","ping":69},{"user_id":617,"name":"vadim_kotler","steam_id":76561199016634369,"connected_time":2170000000000,"state":"active","ping":107},{"user_id":629,"name":"Suspicious Viktor","steam_id":76561198136496249,"connected_time":1430000000000,"state":"active","ping":71},{"user_id":647,"name":"Chen","steam_id":76561198440363619,"connected_time":149000000000,"state":"active","ping":53},{"user_id":639,"name":"ldshwt","steam_id":76561198090364357,"connected_time":586000000000,"state":"active","ping":59},{"user_id":650,"name":"Lemon Law","steam_id":76561198891046692,"connected_time":44000000000,"state":"active","ping":75},{"user_id":641,"name":"Tegnerud","steam_id":76561198214185612,"connected_time":543000000000,"state":"active","ping":75},{"user_id":619,"name":"F2P_Spy","steam_id":76561198970762992,"connected_time":1962000000000,"state":"active","ping":86},{"user_id":630,"name":"DeanAdamFry","steam_id":76561198054153160,"connected_time":1363000000000,"state":"active","ping":53},{"user_id":632,"name":"padillacampos","steam_id":76561198161923970,"connected_time":1177000000000,"state":"active","ping":78},{"user_id":544,"name":"ThatGamingKiwi","steam_id":76561199170522237,"connected_time":7297000000000,"state":"active","ping":143},{"user_id":605,"name":"LasagneMan","steam_id":76561198971904377,"connected_time":3139000000000,"state":"active","ping":61},{"user_id":640,"name":"hud_saytext_time 0","steam_id":76561198010327228,"connected_time":574000000000,"state":"active","ping":79},{"user_id":649,"name":"Bakser Swagger","steam_id":76561198199774646,"connected_time":118000000000,"state":"active","ping":86},{"user_id":638,"name":"dmEngineer_tf2 #SaveTF2","steam_id":76561199388956338,"connected_time":620000000000,"state":"active","ping":98},{"user_id":594,"name":"idc","steam_id":76561198322087870,"connected_time":4043000000000,"state":"active","ping":105},{"user_id":546,"name":"M2rtRa","steam_id":76561198111036466,"connected_time":7136000000000,"state":"active","ping":87},{"user_id":646,"name":"Tohseno","steam_id":76561197995813008,"connected_time":352000000000,"state":"active","ping":53},{"user_id":633,"name":"ArikMor","steam_id":76561199124472513,"connected_time":1170000000000,"state":"active","ping":152},{"user_id":596,"name":"The Subway Scientist","steam_id":76561198193757646,"connected_time":3928000000000,"state":"active","ping":45},{"user_id":644,"name":"Space","steam_id":76561198021572167,"connected_time":506000000000,"state":"active","ping":45},{"user_id":645,"name":"Birdseye","steam_id":76561198025852216,"connected_time":503000000000,"state":"active","ping":58},{"user_id":635,"name":"Dommy","steam_id":76561197990864747,"connected_time":1029000000000,"state":"active","ping":67}]},{"server_id":41,"name":"Uncletopia | London | 8 | Community","name_short":"lon-8","host":"lon-1.uk.uncletopia.com","port":27085,"enabled":true,"region":"eu","cc":"gb","latitude":51.509865,"longitude":-0.118092,"reserved":0,"last_update":"0001-01-01T00:00:00Z","name_a2s":"Uncletopia | London | 8 | Community","protocol":17,"map":"workshop/cp_logjam_rc12.ugc454812035","folder":"tf","game":"Team Fortress","app_id":440,"player_count":1,"max_players":24,"Bots":0,"server_type":"Dedicated","server_os":"Linux","password":true,"vac":true,"version":"7882260","steam_id":85568392924964315,"keywords":["cp","nocrits","nodmgspread","uncletopia"],"game_id":440,"stv_port":27086,"stv_name":"Uncletopia | London | 8 | Community | STV","players":[{"user_id":3879,"name":"Guzman","steam_id":76561198298446524,"connected_time":0,"state":"connecting","ping":0}]},{"server_id":300,"name":"Uncletopia | Montréal | 1 | All Maps","name_short":"mtl-1","host":"mtl-1.ca.uncletopia.com","port":27015,"enabled":true,"region":"us-east","cc":"ca","latitude":45.50889,"longitude":-73.56167,"reserved":0,"last_update":"0001-01-01T00:00:00Z","name_a2s":"Uncletopia | Montréal | 1 | All Maps","protocol":17,"map":"cp_mountainlab","folder":"tf","game":"Team Fortress","app_id":440,"player_count":0,"max_players":24,"Bots":0,"server_type":"Dedicated","server_os":"Linux","password":true,"vac":true,"version":"7882260","steam_id":85568392924500087,"keywords":["cp","nocrits","nodmgspread","uncletopia"],"game_id":440,"stv_port":27016,"stv_name":"Uncletopia | Montréal | 1 | All Maps | STV","players":null},{"server_id":301,"name":"Uncletopia | Montréal | 2 | All Maps","name_short":"mtl-2","host":"mtl-1.ca.uncletopia.com","port":27025,"enabled":true,"region":"us-east","cc":"ca","latitude":45.50889,"longitude":-73.56167,"reserved":0,"last_update":"0001-01-01T00:00:00Z","name_a2s":"Uncletopia | Montréal | 2 | All Maps","protocol":17,"map":"pl_frontier_final","folder":"tf","game":"Team Fortress","app_id":440,"player_count":0,"max_players":24,"Bots":0,"server_type":"Dedicated","server_os":"Linux","password":true,"vac":true,"version":"7882260","steam_id":85568392924500088,"keywords":["nocrits","nodmgspread","payload","uncletopia"],"game_id":440,"stv_port":27026,"stv_name":"Uncletopia | Montréal | 2 | All Maps | STV","players":null},{"server_id":302,"name":"Uncletopia | Montréal | 3 | All Maps","name_short":"mtl-3","host":"mtl-1.ca.uncletopia.com","port":27035,"enabled":true,"region":"us-east","cc":"ca","latitude":45.50889,"longitude":-73.56167,"reserved":0,"last_update":"0001-01-01T00:00:00Z","name_a2s":"Uncletopia | Montréal | 3 | All Maps","protocol":17,"map":"pl_borneo","folder":"tf","game":"Team Fortress","app_id":440,"player_count":0,"max_players":24,"Bots":0,"server_type":"Dedicated","server_os":"Linux","password":true,"vac":true,"version":"7882260","steam_id":85568392924500089,"keywords":["nocrits","nodmgspread","payload","uncletopia"],"game_id":440,"stv_port":27036,"stv_name":"Uncletopia | Montréal | 3 | All Maps | STV","players":null},{"server_id":303,"name":"Uncletopia | Montréal | 4 | No Payload","name_short":"mtl-4","host":"mtl-1.ca.uncletopia.com","port":27045,"enabled":true,"region":"us-east","cc":"ca","latitude":45.50889,"longitude":-73.56167,"reserved":0,"last_update":"0001-01-01T00:00:00Z","name_a2s":"Uncletopia | Montréal | 4 | No Payload","protocol":17,"map":"cp_altitude","folder":"tf","game":"Team Fortress","app_id":440,"player_count":2,"max_players":24,"Bots":0,"server_type":"Dedicated","server_os":"Linux","password":true,"vac":true,"version":"7882260","steam_id":85568392924500090,"keywords":["cp","nocrits","nodmgspread","uncletopia"],"game_id":440,"stv_port":27046,"stv_name":"Uncletopia | Montréal | 4 | No Payload | STV","players":[{"user_id":5,"name":"Trace","steam_id":76561198009486000,"connected_time":542000000000,"state":"active","ping":80},{"user_id":7,"name":"Nibotshooter","steam_id":76561199284825579,"connected_time":9000000000,"state":"spawning","ping":121}]},{"server_id":13,"name":"Uncletopia | New York City | 1 | All Maps","name_short":"nyc-1","host":"nyc-1.us.uncletopia.com","port":27015,"enabled":true,"region":"us-east","cc":"us","latitude":40.73061,"longitude":-73.93524,"reserved":0,"last_update":"0001-01-01T00:00:00Z","name_a2s":"Uncletopia | New York City | 1 | All Maps","protocol":17,"map":"pl_badwater","folder":"tf","game":"Team Fortress","app_id":440,"player_count":24,"max_players":24,"Bots":0,"server_type":"Dedicated","server_os":"Linux","password":true,"vac":true,"version":"7882260","steam_id":85568392924469993,"keywords":["nocrits","nodmgspread","payload","uncletopia"],"game_id":440,"stv_port":27016,"stv_name":"Uncletopia | New York City | 1 | All Maps | STV","players":[{"user_id":150,"name":"BasicPeaches","steam_id":76561198190890150,"connected_time":2549000000000,"state":"active","ping":63},{"user_id":173,"name":"FUMO FUMO","steam_id":76561199445350651,"connected_time":1528000000000,"state":"active","ping":58},{"user_id":185,"name":"WaterMoose","steam_id":76561198951679524,"connected_time":982000000000,"state":"active","ping":61},{"user_id":130,"name":"Kushkatt","steam_id":76561198058397659,"connected_time":4326000000000,"state":"active","ping":72},{"user_id":191,"name":"shotgun king has a blade now","steam_id":76561199233433896,"connected_time":746000000000,"state":"active","ping":51},{"user_id":152,"name":"Mythius","steam_id":76561198401392472,"connected_time":2429000000000,"state":"active","ping":61},{"user_id":155,"name":"inclinedtoserve","steam_id":76561198049947541,"connected_time":2305000000000,"state":"active","ping":42},{"user_id":196,"name":"LegendaryMister151","steam_id":76561198064890524,"connected_time":543000000000,"state":"active","ping":80},{"user_id":187,"name":"FlabberGhaster","steam_id":76561199479442146,"connected_time":956000000000,"state":"active","ping":71},{"user_id":184,"name":"\u003c`)))))\u003c fish","steam_id":76561198410078962,"connected_time":1045000000000,"state":"active","ping":105},{"user_id":165,"name":"hoboways","steam_id":76561198168035195,"connected_time":1983000000000,"state":"active","ping":82},{"user_id":177,"name":"QuandaleDingleBottomJones","steam_id":76561199123573832,"connected_time":1420000000000,"state":"active","ping":59},{"user_id":194,"name":"cellogamer","steam_id":76561198016937098,"connected_time":564000000000,"state":"active","ping":55},{"user_id":193,"name":"Hoopla","steam_id":76561198327775508,"connected_time":632000000000,"state":"active","ping":44},{"user_id":198,"name":"Blessed_Hero","steam_id":76561198048218995,"connected_time":501000000000,"state":"active","ping":59},{"user_id":166,"name":"ObsessedNerd505","steam_id":76561199045531456,"connected_time":1951000000000,"state":"active","ping":53},{"user_id":188,"name":"windyturtle","steam_id":76561199083665029,"connected_time":912000000000,"state":"active","ping":135},{"user_id":197,"name":"wack","steam_id":76561198095697330,"connected_time":532000000000,"state":"active","ping":76},{"user_id":203,"name":"SEWER RODENT","steam_id":76561198858984051,"connected_time":184000000000,"state":"active","ping":54},{"user_id":163,"name":"the_Harvard_School_of_Buisness","steam_id":76561199060920185,"connected_time":2051000000000,"state":"active","ping":67},{"user_id":201,"name":"JackChuck1","steam_id":76561198380905951,"connected_time":372000000000,"state":"active","ping":69},{"user_id":164,"name":"ReTrying","steam_id":76561198976162684,"connected_time":2030000000000,"state":"active","ping":76},{"user_id":167,"name":"Ectomonkey","steam_id":76561198125417062,"connected_time":1943000000000,"state":"active","ping":125},{"user_id":176,"name":"Rattled™","steam_id":76561198064142285,"connected_time":1490000000000,"state":"active","ping":99}]},{"server_id":14,"name":"Uncletopia | New York City | 2 | All Maps","name_short":"nyc-2","host":"nyc-1.us.uncletopia.com","port":27025,"enabled":true,"region":"us-east","cc":"us","latitude":40.73061,"longitude":-73.93524,"reserved":0,"last_update":"0001-01-01T00:00:00Z","name_a2s":"Uncletopia | New York City | 2 | All Maps","protocol":17,"map":"pl_badwater","folder":"tf","game":"Team Fortress","app_id":440,"player_count":22,"max_players":24,"Bots":0,"server_type":"Dedicated","server_os":"Linux","password":true,"vac":true,"version":"7882260","steam_id":85568392924469994,"keywords":["nocrits","nodmgspread","payload","uncletopia"],"game_id":440,"stv_port":27026,"stv_name":"Uncletopia | New York City | 2 | All Maps | STV","players":[{"user_id":284,"name":"Superjesusman","steam_id":76561198078211879,"connected_time":933000000000,"state":"active","ping":50},{"user_id":259,"name":"Ian","steam_id":76561199078852180,"connected_time":2998000000000,"state":"active","ping":51},{"user_id":296,"name":"scrotal recall","steam_id":76561198135945598,"connected_time":210000000000,"state":"active","ping":75},{"user_id":286,"name":"Al Cabone","steam_id":76561198956823243,"connected_time":871000000000,"state":"active","ping":222},{"user_id":277,"name":"john dark soul","steam_id":76561198072826791,"connected_time":1795000000000,"state":"active","ping":52},{"user_id":205,"name":"vastrobotmax","steam_id":76561198417110724,"connected_time":6421000000000,"state":"active","ping":72},{"user_id":298,"name":"Starbucks","steam_id":76561198835300972,"connected_time":82000000000,"state":"active","ping":76},{"user_id":278,"name":"Snugboo","steam_id":76561198147970327,"connected_time":1781000000000,"state":"active","ping":34},{"user_id":288,"name":"marge","steam_id":76561198064823861,"connected_time":808000000000,"state":"active","ping":59},{"user_id":245,"name":"Dr. Prostate","steam_id":76561198171085627,"connected_time":4173000000000,"state":"active","ping":50},{"user_id":299,"name":"CHIKN","steam_id":76561198277792665,"connected_time":76000000000,"state":"active","ping":108},{"user_id":289,"name":"0","steam_id":76561198046055673,"connected_time":785000000000,"state":"active","ping":57},{"user_id":271,"name":"dr peppah chug!","steam_id":76561198068835693,"connected_time":2249000000000,"state":"active","ping":80},{"user_id":233,"name":"some tree","steam_id":76561198166093346,"connected_time":4722000000000,"state":"active","ping":68},{"user_id":290,"name":"p.kaczmarek","steam_id":76561197994659597,"connected_time":781000000000,"state":"active","ping":149},{"user_id":291,"name":"DJ Chalice","steam_id":76561197974872458,"connected_time":758000000000,"state":"active","ping":63},{"user_id":228,"name":"Mr. Sauce","steam_id":76561198055512324,"connected_time":4849000000000,"state":"active","ping":58},{"user_id":246,"name":"HadesTheKing","steam_id":76561198071731749,"connected_time":4150000000000,"state":"active","ping":54},{"user_id":292,"name":"Smallgrime","steam_id":76561198067556253,"connected_time":713000000000,"state":"active","ping":64},{"user_id":293,"name":"goldgardian","steam_id":76561198319471339,"connected_time":689000000000,"state":"active","ping":89},{"user_id":251,"name":"wowisthatleo","steam_id":76561199020860911,"connected_time":3718000000000,"state":"active","ping":158},{"user_id":281,"name":"Jadthegamerofgames","steam_id":76561198310575719,"connected_time":1094000000000,"state":"active","ping":46}]},{"server_id":15,"name":"Uncletopia | New York City | 3 | Stopwatch Beta","name_short":"nyc-3","host":"nyc-1.us.uncletopia.com","port":27035,"enabled":true,"region":"us-east","cc":"us","latitude":40.73061,"longitude":-73.93524,"reserved":0,"last_update":"0001-01-01T00:00:00Z","name_a2s":"Uncletopia | New York City | 3 | Stopwatch Beta","protocol":17,"map":"cp_sunshine","folder":"tf","game":"Team Fortress","app_id":440,"player_count":0,"max_players":24,"Bots":0,"server_type":"Dedicated","server_os":"Linux","password":true,"vac":true,"version":"7882260","steam_id":85568392924742820,"keywords":["cp","nocrits","nodmgspread","uncletopia"],"game_id":440,"stv_port":27036,"stv_name":"Uncletopia | New York City | 3 | Stopwatch Beta | STV","players":null},{"server_id":16,"name":"Uncletopia | New York City | 4 | Community","name_short":"nyc-4","host":"nyc-1.us.uncletopia.com","port":27045,"enabled":true,"region":"us-east","cc":"us","latitude":40.73061,"longitude":-73.93524,"reserved":0,"last_update":"0001-01-01T00:00:00Z","name_a2s":"Uncletopia | New York City | 4 | Community","protocol":17,"map":"workshop/koth_slaughter_rc1.ugc1712845210","folder":"tf","game":"Team Fortress","app_id":440,"player_count":0,"max_players":24,"Bots":0,"server_type":"Dedicated","server_os":"Linux","password":true,"vac":true,"version":"7882260","steam_id":85568392924742821,"keywords":["cp","nocrits","nodmgspread","uncletopia"],"game_id":440,"stv_port":27046,"stv_name":"Uncletopia | New York City | 4 | Community | STV","players":null},{"server_id":142,"name":"Uncletopia | São Paulo | 1 | All Maps","name_short":"sao-1","host":"sao-1.br.uncletopia.com","port":27015,"enabled":true,"region":"sa","cc":"br","latitude":-23.533773,"longitude":-46.62529,"reserved":0,"last_update":"0001-01-01T00:00:00Z","name_a2s":"Uncletopia | São Paulo | 1 | All Maps","protocol":17,"map":"koth_viaduct","folder":"tf","game":"Team Fortress","app_id":440,"player_count":0,"max_players":24,"Bots":0,"server_type":"Dedicated","server_os":"Linux","password":true,"vac":true,"version":"7882260","steam_id":85568392924469996,"keywords":["cp","nocrits","nodmgspread","uncletopia"],"game_id":440,"stv_port":27016,"stv_name":"Uncletopia | São Paulo | 1 | All Maps | STV","players":null},{"server_id":143,"name":"Uncletopia | São Paulo | 2 | All Maps","name_short":"sao-2","host":"sao-2.br.uncletopia.com","port":27015,"enabled":true,"region":"sa","cc":"br","latitude":-23.533773,"longitude":-46.62529,"reserved":0,"last_update":"0001-01-01T00:00:00Z","name_a2s":"Uncletopia | São Paulo | 2 | All Maps","protocol":17,"map":"koth_viaduct","folder":"tf","game":"Team Fortress","app_id":440,"player_count":24,"max_players":24,"Bots":0,"server_type":"Dedicated","server_os":"Linux","password":true,"vac":true,"version":"7882260","steam_id":85568392924485349,"keywords":["cp","nocrits","nodmgspread","uncletopia"],"game_id":440,"stv_port":27016,"stv_name":"Uncletopia | São Paulo | 2 | All Maps | STV","players":[{"user_id":20,"name":"Tio KillerParty","steam_id":76561198067918814,"connected_time":2132000000000,"state":"active","ping":56},{"user_id":21,"name":"Tou_Matt","steam_id":76561198898317327,"connected_time":2062000000000,"state":"active","ping":58},{"user_id":45,"name":"modulando","steam_id":76561198435468554,"connected_time":710000000000,"state":"active","ping":49},{"user_id":23,"name":"baristaoff","steam_id":76561199200023227,"connected_time":1847000000000,"state":"active","ping":46},{"user_id":25,"name":"Mubirobiro","steam_id":76561198102864594,"connected_time":1663000000000,"state":"active","ping":59},{"user_id":55,"name":"neco arc gaming","steam_id":76561199096540019,"connected_time":212000000000,"state":"active","ping":110},{"user_id":47,"name":"Naddi","steam_id":76561198997624493,"connected_time":499000000000,"state":"active","ping":49},{"user_id":42,"name":"giovanni","steam_id":76561198255090095,"connected_time":765000000000,"state":"active","ping":47},{"user_id":38,"name":"maj8108","steam_id":76561199476715751,"connected_time":790000000000,"state":"active","ping":64},{"user_id":30,"name":"vacaloca25","steam_id":76561198082683352,"connected_time":1386000000000,"state":"active","ping":63},{"user_id":31,"name":"PYROCANTE #SAVETF2","steam_id":76561199152529988,"connected_time":1245000000000,"state":"active","ping":47},{"user_id":33,"name":"AY|LazyCian","steam_id":76561199121786457,"connected_time":891000000000,"state":"active","ping":47},{"user_id":34,"name":"mathierry","steam_id":76561199019567152,"connected_time":885000000000,"state":"active","ping":36},{"user_id":35,"name":"lucahitkill","steam_id":76561199156389581,"connected_time":867000000000,"state":"active","ping":51},{"user_id":39,"name":"JosuéManeiros","steam_id":76561198177695750,"connected_time":789000000000,"state":"active","ping":85},{"user_id":40,"name":"ooopameu","steam_id":76561198964861348,"connected_time":788000000000,"state":"active","ping":76},{"user_id":41,"name":"m4ple","steam_id":76561198256760572,"connected_time":774000000000,"state":"active","ping":64},{"user_id":54,"name":"originalakalil","steam_id":76561199481172481,"connected_time":280000000000,"state":"active","ping":167},{"user_id":44,"name":"iorgut","steam_id":76561198397622290,"connected_time":756000000000,"state":"active","ping":57},{"user_id":48,"name":"guiso de porqueria....","steam_id":76561198302870271,"connected_time":442000000000,"state":"active","ping":66},{"user_id":49,"name":"The imortal snail","steam_id":76561198136181550,"connected_time":394000000000,"state":"active","ping":48},{"user_id":52,"name":"Netre","steam_id":76561198145332676,"connected_time":371000000000,"state":"active","ping":74},{"user_id":56,"name":"\u003cUsername Unknown\u003e","steam_id":76561198255311543,"connected_time":206000000000,"state":"active","ping":188},{"user_id":53,"name":"[G.C]guiso de anashe","steam_id":76561198825900597,"connected_time":353000000000,"state":"active","ping":92}]},{"server_id":7,"name":"Uncletopia | Seattle | 1 | All Maps","name_short":"sea-1","host":"sea-1.us.uncletopia.com","port":27015,"enabled":true,"region":"us-west","cc":"us","latitude":47.608013,"longitude":-122.33517,"reserved":0,"last_update":"0001-01-01T00:00:00Z","name_a2s":"Uncletopia | Seattle | 1 | All Maps","protocol":17,"map":"pl_swiftwater_final1","folder":"tf","game":"Team Fortress","app_id":440,"player_count":19,"max_players":24,"Bots":0,"server_type":"Dedicated","server_os":"Linux","password":true,"vac":true,"version":"7882260","steam_id":85568392924469997,"keywords":["nocrits","nodmgspread","payload","uncletopia"],"game_id":440,"stv_port":27016,"stv_name":"Uncletopia | Seattle | 1 | All Maps | STV","players":[{"user_id":254,"name":"Funky 3GG","steam_id":76561199181214507,"connected_time":78000000000,"state":"active","ping":77},{"user_id":251,"name":"Pyrotek⁴","steam_id":76561198072747672,"connected_time":120000000000,"state":"active","ping":65},{"user_id":250,"name":"InvaderAlex","steam_id":76561198039232451,"connected_time":160000000000,"state":"active","ping":123},{"user_id":252,"name":"Rain","steam_id":76561198065612273,"connected_time":117000000000,"state":"active","ping":46},{"user_id":230,"name":"Leroy","steam_id":76561199013064727,"connected_time":2335000000000,"state":"active","ping":79},{"user_id":253,"name":"goon squad","steam_id":76561198402168146,"connected_time":115000000000,"state":"active","ping":104},{"user_id":255,"name":"Greskrendtregk","steam_id":76561197969553142,"connected_time":72000000000,"state":"active","ping":49},{"user_id":226,"name":"OH JIMMY I'M HOME #SavedTf2","steam_id":76561198396658806,"connected_time":2857000000000,"state":"active","ping":69},{"user_id":211,"name":"lolzfrdawin21","steam_id":76561199006665979,"connected_time":3508000000000,"state":"active","ping":106},{"user_id":256,"name":"woa","steam_id":76561199350870177,"connected_time":54000000000,"state":"active","ping":120},{"user_id":228,"name":"Cheese Fiend","steam_id":76561198053602591,"connected_time":2425000000000,"state":"active","ping":192},{"user_id":221,"name":"tlm","steam_id":76561198178457461,"connected_time":3147000000000,"state":"active","ping":92},{"user_id":257,"name":"jayeskae","steam_id":76561198144220801,"connected_time":17000000000,"state":"active","ping":293},{"user_id":244,"name":"Alpdhuez [✚]","steam_id":76561198013808837,"connected_time":1170000000000,"state":"active","ping":57},{"user_id":239,"name":"makeshift_burrito","steam_id":76561198042510825,"connected_time":1300000000000,"state":"active","ping":69},{"user_id":233,"name":"BasedGod","steam_id":76561198061177973,"connected_time":2309000000000,"state":"active","ping":61},{"user_id":237,"name":"tsaide","steam_id":76561198384120999,"connected_time":1379000000000,"state":"active","ping":117},{"user_id":202,"name":"dr pepper","steam_id":76561198032821962,"connected_time":3936000000000,"state":"active","ping":74},{"user_id":240,"name":"ArchmageF","steam_id":76561197992246851,"connected_time":1210000000000,"state":"active","ping":54}]},{"server_id":119,"name":"Uncletopia | Seattle | 2 | All Maps","name_short":"sea-2","host":"sea-1.us.uncletopia.com","port":27025,"enabled":true,"region":"us-west","cc":"us","latitude":47.608013,"longitude":-122.33517,"reserved":0,"last_update":"0001-01-01T00:00:00Z","name_a2s":"Uncletopia | Seattle | 2 | All Maps","protocol":17,"map":"pl_upward","folder":"tf","game":"Team Fortress","app_id":440,"player_count":21,"max_players":24,"Bots":0,"server_type":"Dedicated","server_os":"Linux","password":true,"vac":true,"version":"7882260","steam_id":85568392924469998,"keywords":["nocrits","nodmgspread","payload","uncletopia"],"game_id":440,"stv_port":27026,"stv_name":"Uncletopia | Seattle | 2 | All Maps | STV","players":[{"user_id":153,"name":"provo","steam_id":76561198042843798,"connected_time":2244000000000,"state":"active","ping":105},{"user_id":134,"name":"Master Of Whales","steam_id":76561198349104889,"connected_time":4003000000000,"state":"active","ping":82},{"user_id":174,"name":"Harokot","steam_id":76561197963441255,"connected_time":1021000000000,"state":"active","ping":127},{"user_id":152,"name":"greens beans","steam_id":76561198153611491,"connected_time":2310000000000,"state":"active","ping":36},{"user_id":179,"name":"ether","steam_id":76561198210322871,"connected_time":682000000000,"state":"active","ping":73},{"user_id":92,"name":"Gonotic gnelf","steam_id":76561199135847219,"connected_time":6409000000000,"state":"active","ping":85},{"user_id":181,"name":"Walter White","steam_id":76561199102963294,"connected_time":397000000000,"state":"active","ping":72},{"user_id":173,"name":"TheFatNinja","steam_id":76561197998934635,"connected_time":1095000000000,"state":"active","ping":75},{"user_id":178,"name":"FLAVA BOI","steam_id":76561198129761524,"connected_time":716000000000,"state":"active","ping":55},{"user_id":180,"name":"GenericName","steam_id":76561198104074968,"connected_time":458000000000,"state":"active","ping":132},{"user_id":171,"name":"sun","steam_id":76561198011329825,"connected_time":1202000000000,"state":"active","ping":62},{"user_id":142,"name":"green bean","steam_id":76561198113099204,"connected_time":3317000000000,"state":"active","ping":52},{"user_id":165,"name":"therightbasher","steam_id":76561199084574397,"connected_time":1657000000000,"state":"active","ping":66},{"user_id":177,"name":"firestabber","steam_id":76561198057055577,"connected_time":833000000000,"state":"active","ping":46},{"user_id":151,"name":"doomshroom","steam_id":76561198092827250,"connected_time":2692000000000,"state":"active","ping":51},{"user_id":182,"name":"Glorgnak","steam_id":76561198052969174,"connected_time":50000000000,"state":"active","ping":68},{"user_id":100,"name":"james may","steam_id":76561198043857339,"connected_time":6244000000000,"state":"active","ping":72},{"user_id":89,"name":"tf3aflyingmouse","steam_id":76561198058134934,"connected_time":6513000000000,"state":"active","ping":97},{"user_id":163,"name":"Mecha","steam_id":76561198014927379,"connected_time":1680000000000,"state":"active","ping":112},{"user_id":133,"name":"Vicpop","steam_id":76561197970531290,"connected_time":4096000000000,"state":"active","ping":62},{"user_id":166,"name":"squiddy101","steam_id":76561198210199168,"connected_time":1656000000000,"state":"active","ping":68}]},{"server_id":406,"name":"Uncletopia | Seattle | 3 | Stopwatch Beta","name_short":"sea-3","host":"sea-1.us.uncletopia.com","port":27035,"enabled":true,"region":"us-west","cc":"us","latitude":47.608013,"longitude":-122.33517,"reserved":0,"last_update":"0001-01-01T00:00:00Z","name_a2s":"Uncletopia | Seattle | 3 | Stopwatch Beta","protocol":17,"map":"pl_borneo","folder":"tf","game":"Team Fortress","app_id":440,"player_count":0,"max_players":24,"Bots":0,"server_type":"Dedicated","server_os":"Linux","password":true,"vac":true,"version":"7882260","steam_id":85568392924515217,"keywords":["nocrits","nodmgspread","payload","uncletopia"],"game_id":440,"stv_port":27036,"stv_name":"Uncletopia | Seattle | 3 | Stopwatch Beta | STV","players":null},{"server_id":17,"name":"Uncletopia | San Francisco | 1 | All Maps","name_short":"sfo-1","host":"sfo-1.us.uncletopia.com","port":27015,"enabled":true,"region":"us-west","cc":"us","latitude":37.77397,"longitude":-122.4313,"reserved":0,"last_update":"0001-01-01T00:00:00Z","name_a2s":"Uncletopia | San Francisco | 1 | All Maps","protocol":17,"map":"cp_process_final","folder":"tf","game":"Team Fortress","app_id":440,"player_count":0,"max_players":24,"Bots":0,"server_type":"Dedicated","server_os":"Linux","password":true,"vac":true,"version":"7757534","steam_id":85568392924469999,"keywords":["cp","nocrits","nodmgspread","uncletopia"],"game_id":440,"stv_port":27016,"stv_name":"Uncletopia | San Francisco | 1 | All Maps | STV","players":null},{"server_id":18,"name":"Uncletopia | San Francisco | 2 | All Maps","name_short":"sfo-2","host":"sfo-1.us.uncletopia.com","port":27025,"enabled":true,"region":"us-west","cc":"us","latitude":37.77397,"longitude":-122.4313,"reserved":0,"last_update":"0001-01-01T00:00:00Z","name_a2s":"Uncletopia | San Francisco | 2 | All Maps","protocol":17,"map":"koth_highpass","folder":"tf","game":"Team Fortress","app_id":440,"player_count":0,"max_players":24,"Bots":0,"server_type":"Dedicated","server_os":"Linux","password":true,"vac":true,"version":"7757534","steam_id":85568392924470000,"keywords":["cp","nocrits","nodmgspread","uncletopia"],"game_id":440,"stv_port":27026,"stv_name":"Uncletopia | San Francisco | 2 | All Maps | STV","players":null},{"server_id":19,"name":"Uncletopia | San Francisco | 3 | Stopwatch Beta","name_short":"sfo-3","host":"sfo-1.us.uncletopia.com","port":27035,"enabled":true,"region":"us-west","cc":"us","latitude":37.77397,"longitude":-122.4313,"reserved":0,"last_update":"0001-01-01T00:00:00Z","name_a2s":"Uncletopia | San Francisco | 3 | Stopwatch Beta","protocol":17,"map":"koth_lakeside_final","folder":"tf","game":"Team Fortress","app_id":440,"player_count":0,"max_players":24,"Bots":0,"server_type":"Dedicated","server_os":"Linux","password":true,"vac":true,"version":"7757534","steam_id":85568392924742824,"keywords":["cp","nocrits","nodmgspread","uncletopia"],"game_id":440,"stv_port":27036,"stv_name":"Uncletopia | San Francisco | 3 | Stopwatch Beta | STV","players":null},{"server_id":20,"name":"Uncletopia | San Francisco | 4 | Community","name_short":"sfo-4","host":"sfo-1.us.uncletopia.com","port":27045,"enabled":true,"region":"us-west","cc":"us","latitude":37.77397,"longitude":-122.4313,"reserved":0,"last_update":"0001-01-01T00:00:00Z","name_a2s":"Uncletopia | San Francisco | 4 | Community","protocol":17,"map":"cp_altitude","folder":"tf","game":"Team Fortress","app_id":440,"player_count":0,"max_players":24,"Bots":0,"server_type":"Dedicated","server_os":"Linux","password":true,"vac":true,"version":"7757534","steam_id":85568392924742826,"keywords":["cp","nocrits","nodmgspread","uncletopia"],"game_id":440,"stv_port":27046,"stv_name":"Uncletopia | San Francisco | 4 | Community | STV","players":null},{"server_id":141,"name":"Uncletopia | Sydney | 1 | All Maps","name_short":"syd-1","host":"syd-1.au.uncletopia.com","port":27015,"enabled":true,"region":"au","cc":"au","latitude":-33.865143,"longitude":151.2099,"reserved":0,"last_update":"0001-01-01T00:00:00Z","name_a2s":"Uncletopia | Sydney | 1 | All Maps","protocol":17,"map":"cp_snakewater_final1","folder":"tf","game":"Team Fortress","app_id":440,"player_count":0,"max_players":24,"Bots":0,"server_type":"Dedicated","server_os":"Linux","password":true,"vac":true,"version":"7882260","steam_id":85568392924470001,"keywords":["cp","nocrits","nodmgspread","uncletopia"],"game_id":440,"stv_port":27016,"stv_name":"Uncletopia | Sydney | 1 | All Maps | STV","players":null},{"server_id":123,"name":"Uncletopia | Sydney | 2 | All Maps","name_short":"syd-2","host":"syd-1.au.uncletopia.com","port":27025,"enabled":true,"region":"au","cc":"au","latitude":-33.865143,"longitude":151.2099,"reserved":0,"last_update":"0001-01-01T00:00:00Z","name_a2s":"Uncletopia | Sydney | 2 | All Maps","protocol":17,"map":"pl_barnblitz","folder":"tf","game":"Team Fortress","app_id":440,"player_count":0,"max_players":24,"Bots":0,"server_type":"Dedicated","server_os":"Linux","password":true,"vac":true,"version":"7882260","steam_id":85568392924470002,"keywords":["nocrits","nodmgspread","payload","uncletopia"],"game_id":440,"stv_port":27026,"stv_name":"Uncletopia | Sydney | 2 | All Maps | STV","players":null},{"server_id":395,"name":"Uncletopia | Sydney | 3 | All Maps","name_short":"syd-3","host":"syd-1.au.uncletopia.com","port":27035,"enabled":true,"region":"au","cc":"au","latitude":-33.865143,"longitude":151.2099,"reserved":0,"last_update":"0001-01-01T00:00:00Z","name_a2s":"Uncletopia | Sydney | 3 | All Maps","protocol":17,"map":"pl_badwater","folder":"tf","game":"Team Fortress","app_id":440,"player_count":0,"max_players":24,"Bots":0,"server_type":"Dedicated","server_os":"Linux","password":true,"vac":true,"version":"7882260","steam_id":85568392925194467,"keywords":["nocrits","nodmgspread","payload","uncletopia"],"game_id":440,"stv_port":27036,"stv_name":"Uncletopia | Sydney | 3 | All Maps | STV","players":null},{"server_id":396,"name":"Uncletopia | Sydney | 4 | All Maps","name_short":"syd-4","host":"syd-1.au.uncletopia.com","port":27045,"enabled":true,"region":"au","cc":"au","latitude":-33.865143,"longitude":151.2099,"reserved":0,"last_update":"0001-01-01T00:00:00Z","name_a2s":"Uncletopia | Sydney | 4 | All Maps","protocol":17,"map":"cp_dustbowl","folder":"tf","game":"Team Fortress","app_id":440,"player_count":0,"max_players":24,"Bots":0,"server_type":"Dedicated","server_os":"Linux","password":true,"vac":true,"version":"7882260","steam_id":85568392925397958,"keywords":["cp","nocrits","nodmgspread","uncletopia"],"game_id":440,"stv_port":27046,"stv_name":"Uncletopia | Sydney | 4 | All Maps | STV","players":null},{"server_id":58,"name":"Uncletopia | Sydney | 5 | Stopwatch Beta","name_short":"syd-5","host":"syd-1.au.uncletopia.com","port":27055,"enabled":true,"region":"au","cc":"au","latitude":-33.865143,"longitude":151.2099,"reserved":0,"last_update":"0001-01-01T00:00:00Z","name_a2s":"Uncletopia | Sydney | 5 | Stopwatch Beta","protocol":17,"map":"cp_snakewater_final1","folder":"tf","game":"Team Fortress","app_id":440,"player_count":0,"max_players":24,"Bots":0,"server_type":"Dedicated","server_os":"Linux","password":true,"vac":true,"version":"7882260","steam_id":85568392925397959,"keywords":["cp","nocrits","nodmgspread","uncletopia"],"game_id":440,"stv_port":27056,"stv_name":"Uncletopia | Sydney | 5 | Stopwatch Beta | STV","players":null},{"server_id":59,"name":"Uncletopia | Sydney | 6 | Community","name_short":"syd-6","host":"syd-1.au.uncletopia.com","port":27065,"enabled":true,"region":"au","cc":"au","latitude":-33.865143,"longitude":151.2099,"reserved":0,"last_update":"0001-01-01T00:00:00Z","name_a2s":"Uncletopia | Sydney | 6 | Community","protocol":17,"map":"pl_snowycoast","folder":"tf","game":"Team Fortress","app_id":440,"player_count":0,"max_players":24,"Bots":0,"server_type":"Dedicated","server_os":"Linux","password":true,"vac":true,"version":"7882260","steam_id":85568392925397960,"keywords":["nocrits","nodmgspread","payload","uncletopia"],"game_id":440,"stv_port":27066,"stv_name":"Uncletopia | Sydney | 6 | Community | STV","players":null},{"server_id":49,"name":"Uncletopia | Warsaw | 1 | All Maps","name_short":"waw-1","host":"waw-1.pl.uncletopia.com","port":27015,"enabled":true,"region":"eu","cc":"pl","latitude":52.2297,"longitude":21.017532,"reserved":0,"last_update":"0001-01-01T00:00:00Z","name_a2s":"","protocol":0,"map":"","folder":"","game":"","app_id":0,"player_count":0,"max_players":0,"Bots":0,"server_type":"","server_os":"","password":false,"vac":false,"version":"","steam_id":0,"keywords":null,"game_id":0,"stv_port":0,"stv_name":"","players":null},{"server_id":50,"name":"Uncletopia | Warsaw | 2 | All Maps","name_short":"waw-2","host":"waw-1.pl.uncletopia.com","port":27025,"enabled":true,"region":"eu","cc":"pl","latitude":52.2297,"longitude":21.017532,"reserved":0,"last_update":"0001-01-01T00:00:00Z","name_a2s":"Uncletopia | Warsaw | 2 | All Maps","protocol":17,"map":"cp_mountainlab","folder":"tf","game":"Team Fortress","app_id":440,"player_count":0,"max_players":24,"Bots":0,"server_type":"Dedicated","server_os":"Linux","password":true,"vac":true,"version":"7882260","steam_id":85568392925397851,"keywords":["cp","nocrits","nodmgspread","uncletopia"],"game_id":440,"stv_port":27026,"stv_name":"Uncletopia | Warsaw | 2 | All Maps | STV","players":null},{"server_id":51,"name":"Uncletopia | Warsaw | 3 | All Maps","name_short":"waw-3","host":"waw-1.pl.uncletopia.com","port":27035,"enabled":true,"region":"eu","cc":"pl","latitude":52.2297,"longitude":21.017532,"reserved":0,"last_update":"0001-01-01T00:00:00Z","name_a2s":"Uncletopia | Warsaw | 3 | All Maps","protocol":17,"map":"cp_process_final","folder":"tf","game":"Team Fortress","app_id":440,"player_count":0,"max_players":24,"Bots":0,"server_type":"Dedicated","server_os":"Linux","password":true,"vac":true,"version":"7882260","steam_id":85568392925397852,"keywords":["cp","nocrits","nodmgspread","uncletopia"],"game_id":440,"stv_port":27036,"stv_name":"Uncletopia | Warsaw | 3 | All Maps | STV","players":null},{"server_id":52,"name":"Uncletopia | Warsaw | 4 | All Maps","name_short":"waw-4","host":"waw-1.pl.uncletopia.com","port":27045,"enabled":true,"region":"eu","cc":"pl","latitude":52.2297,"longitude":21.017532,"reserved":0,"last_update":"0001-01-01T00:00:00Z","name_a2s":"Uncletopia | Warsaw | 4 | All Maps","protocol":17,"map":"cp_dustbowl","folder":"tf","game":"Team Fortress","app_id":440,"player_count":0,"max_players":24,"Bots":0,"server_type":"Dedicated","server_os":"Linux","password":true,"vac":true,"version":"7882260","steam_id":85568392925397853,"keywords":["cp","nocrits","nodmgspread","uncletopia"],"game_id":440,"stv_port":27046,"stv_name":"Uncletopia | Warsaw | 4 | All Maps | STV","players":null},{"server_id":53,"name":"Uncletopia | Warsaw | 5 | Stopwatch Beta","name_short":"waw-5","host":"waw-1.pl.uncletopia.com","port":27055,"enabled":true,"region":"eu","cc":"pl","latitude":52.2297,"longitude":21.017532,"reserved":0,"last_update":"0001-01-01T00:00:00Z","name_a2s":"Uncletopia | Warsaw | 5 | Stopwatch Beta","protocol":17,"map":"cp_process_final","folder":"tf","game":"Team Fortress","app_id":440,"player_count":0,"max_players":24,"Bots":0,"server_type":"Dedicated","server_os":"Linux","password":true,"vac":true,"version":"7882260","steam_id":85568392925397854,"keywords":["cp","nocrits","nodmgspread","uncletopia"],"game_id":440,"stv_port":27056,"stv_name":"Uncletopia | Warsaw | 5 | Stopwatch Beta | STV","players":null},{"server_id":54,"name":"Uncletopia | Warsaw | 6 | Community","name_short":"waw-6","host":"waw-1.pl.uncletopia.com","port":27065,"enabled":true,"region":"eu","cc":"pl","latitude":52.2297,"longitude":21.017532,"reserved":0,"last_update":"0001-01-01T00:00:00Z","name_a2s":"Uncletopia | Warsaw | 6 | Community","protocol":17,"map":"koth_viaduct","folder":"tf","game":"Team Fortress","app_id":440,"player_count":0,"max_players":24,"Bots":0,"server_type":"Dedicated","server_os":"Linux","password":true,"vac":true,"version":"7882260","steam_id":85568392925397856,"keywords":["cp","nocrits","nodmgspread","uncletopia"],"game_id":440,"stv_port":27066,"stv_name":"Uncletopia | Warsaw | 6 | Community | STV","players":null}]}