{"status":true,"message":"","result":[{"server_id":9,"name":"Uncletopia | Atlanta | 1 | All Maps","name_short":"atl-1","host":"atl-1.us.uncletopia.com","port":27015,"enabled":true,"region":"us-east","cc":"us","latitude":33.753746,"longitude":-84.38633,"reserved":0,"last_update":"0001-01-01T00:00:00Z","name_a2s":"Uncletopia | Atlanta | 1 | All Maps","protocol":17,"map":"koth_cascade","folder":"tf","game":"Team Fortress","app_id":440,"player_count":0,"max_players":24,"Bots":0,"server_type":"Dedicated","server_os":"Linux","password":true,"vac":true,"version":"7757534","steam_id":85568392924469982,"keywords":["cp","nocrits","nodmgspread","uncletopia"],"game_id":440,"stv_port":27016,"stv_name":"Uncletopia | Atlanta | 1 | All Maps | STV","players":null},{"server_id":104,"name":"Uncletopia | Atlanta | 2 | All Maps","name_short":"atl-2","host":"atl-1.us.uncletopia.com","port":27025,"enabled":true,"region":"us-east","cc":"us","latitude":33.753746,"longitude":-84.38633,"reserved":0,"last_update":"0001-01-01T00:00:00Z","name_a2s":"Uncletopia | Atlanta | 2 | All Maps","protocol":17,"map":"cp_dustbowl","folder":"tf","game":"Team Fortress","app_id":440,"player_count":0,"max_players":24,"Bots":0,"server_type":"Dedicated","server_os":"Linux","password":true,"vac":true,"version":"7757534","steam_id":85568392924469983,"keywords":["cp","nocrits","nodmgspread","uncletopia"],"game_id":440,"stv_port":27026,"stv_name":"Uncletopia | Atlanta | 2 | All Maps | STV","players":null},{"server_id":400,"name":"Uncletopia | Atlanta | 3 | Community","name_short":"atl-3","host":"atl-1.us.uncletopia.com","port":27035,"enabled":true,"region":"us-east","cc":"us","latitude":33.753746,"longitude":-84.38633,"reserved":0,"last_update":"0001-01-01T00:00:00Z","name_a2s":"Uncletopia | Atlanta | 3 | Community","protocol":17,"map":"cp_snakewater_final1","folder":"tf","game":"Team Fortress","app_id":440,"player_count":0,"max_players":24,"Bots":0,"server_type":"Dedicated","server_os":"Linux","password":true,"vac":true,"version":"7757534","steam_id":85568392924515187,"keywords":["cp","nocrits","nodmgspread","uncletopia"],"game_id":440,"stv_port":27036,"stv_name":"Uncletopia | Atlanta | 3 | Community | STV","players":null},{"server_id":401,"name":"Uncletopia | Atlanta | 4 | No Payload","name_short":"atl-4","host":"atl-1.us.uncletopia.com","port":27045,"enabled":true,"region":"us-east","cc":"us","latitude":33.753746,"longitude":-84.38633,"reserved":0,"last_update":"0001-01-01T00:00:00Z","name_a2s":"","protocol":0,"map":"","folder":"","game":"","app_id":0,"player_count":0,"max_players":0,"Bots":0,"server_type":"","server_os":"","password":false,"vac":false,"version":"","steam_id":0,"keywords":null,"game_id":0,"stv_port":0,"stv_name":"","players":null},{"server_id":2,"name":"Uncletopia | Chicago | 1 | All Maps","name_short":"chi-1","host":"chi-1.us.uncletopia.com","port":27015,"enabled":true,"region":"us-central","cc":"us","latitude":41.881832,"longitude":-87.62318,"reserved":0,"last_update":"0001-01-01T00:00:00Z","name_a2s":"Uncletopia | Chicago | 1 | All Maps","protocol":17,"map":"pl_snowycoast","folder":"tf","game":"Team Fortress","app_id":440,"player_count":22,"max_players":24,"Bots":0,"server_type":"Dedicated","server_os":"Linux","password":true,"vac":true,"version":"7757534","steam_id":85568392924469984,"keywords":["nocrits","nodmgspread","payload","uncletopia"],"game_id":440,"stv_port":27016,"stv_name":"Uncletopia | Chicago | 1 | All Maps | STV","players":[{"user_id":131,"name":"soda drink","steam_id":76561198092422065,"connected_time":1605000000000,"state":"active","ping":75},{"user_id":29,"name":"Pizza Vore","steam_id":76561198286114190,"connected_time":7247000000000,"state":"active","ping":131},{"user_id":112,"name":"Walter White","steam_id":76561199030987614,"connected_time":2854000000000,"state":"active","ping":85},{"user_id":151,"name":"Veirū Viseris","steam_id":76561197989857176,"connected_time":512000000000,"state":"active","ping":167},{"user_id":113,"name":"LerN","steam_id":76561198083463877,"connected_time":2854000000000,"state":"active","ping":46},{"user_id":110,"name":"god doesnt here me","steam_id":76561198125328737,"connected_time":2868000000000,"state":"active","ping":60},{"user_id":150,"name":"Neon","steam_id":76561198089067907,"connected_time":928000000000,"state":"active","ping":68},{"user_id":154,"name":"Lynx","steam_id":76561198322363286,"connected_time":158000000000,"state":"active","ping":88},{"user_id":107,"name":"Tom","steam_id":76561198070630154,"connected_time":3122000000000,"state":"active","ping":86},{"user_id":121,"name":"shadow elite","steam_id":76561198165212575,"connected_time":2720000000000,"state":"active","ping":69},{"user_id":115,"name":"FROYO yumyum","steam_id":76561198150567198,"connected_time":2846000000000,"state":"active","ping":61},{"user_id":133,"name":"Elflocky","steam_id":76561199096852639,"connected_time":1558000000000,"state":"active","ping":69},{"user_id":157,"name":"5KY13R","steam_id":76561198027603266,"connected_time":27000000000,"state":"active","ping":62},{"user_id":156,"name":"many doors, yes?","steam_id":76561198328073211,"connected_time":120000000000,"state":"active","ping":77},{"user_id":141,"name":"VerdantSunset","steam_id":76561198062313478,"connected_time":1255000000000,"state":"active","ping":83},{"user_id":138,"name":"♥♥Domo♥♥","steam_id":76561198134313911,"connected_time":1351000000000,"state":"active","ping":79},{"user_id":153,"name":"ATL1 | Pango","steam_id":76561198069811545,"connected_time":268000000000,"state":"active","ping":61},{"user_id":76,"name":"ItsRoy","steam_id":76561198119525485,"connected_time":5330000000000,"state":"active","ping":57},{"user_id":128,"name":"pelt","steam_id":76561197993593754,"connected_time":1844000000000,"state":"active","ping":48},{"user_id":137,"name":"big gay bowacunga","steam_id":76561198389398163,"connected_time":1475000000000,"state":"active","ping":60},{"user_id":149,"name":"Gourm","steam_id":76561198892036159,"connected_time":999000000000,"state":"active","ping":59},{"user_id":120,"name":"SuperFresh","steam_id":76561198200723198,"connected_time":2747000000000,"state":"active","ping":45}]},{"server_id":106,"name":"Uncletopia | Chicago | 2 | All Maps","name_short":"chi-2","host":"chi-1.us.uncletopia.com","port":27025,"enabled":true,"region":"us-central","cc":"us","latitude":41.881832,"longitude":-87.62318,"reserved":0,"last_update":"0001-01-01T00:00:00Z","name_a2s":"Uncletopia | Chicago | 2 | All Maps","protocol":17,"map":"cp_altitude","folder":"tf","game":"Team Fortress","app_id":440,"player_count":0,"max_players":24,"Bots":0,"server_type":"Dedicated","server_os":"Linux","password":true,"vac":true,"version":"7757534","steam_id":85568392924469985,"keywords":["cp","nocrits","nodmgspread","uncletopia"],"game_id":440,"stv_port":27026,"stv_name":"Uncletopia | Chicago | 2 | All Maps | STV","players":null},{"server_id":402,"name":"Uncletopia | Chicago | 3 | All Maps","name_short":"chi-3","host":"chi-1.us.uncletopia.com","port":27035,"enabled":true,"region":"us-central","cc":"us","latitude":41.881832,"longitude":-87.62318,"reserved":0,"last_update":"0001-01-01T00:00:00Z","name_a2s":"Uncletopia | Chicago | 3 | All Maps","protocol":17,"map":"pl_upward","folder":"tf","game":"Team Fortress","app_id":440,"player_count":14,"max_players":24,"Bots":0,"server_type":"Dedicated","server_os":"Linux","password":true,"vac":true,"version":"7757534","steam_id":85568392924515191,"keywords":["nocrits","nodmgspread","payload","uncletopia"],"game_id":440,"stv_port":27036,"stv_name":"Uncletopia | Chicago | 3 | All Maps | STV","players":[{"user_id":16,"name":"Valent125","steam_id":76561198267599302,"connected_time":707000000000,"state":"active","ping":143},{"user_id":7,"name":"magickxanadu","steam_id":76561199117360103,"connected_time":1622000000000,"state":"active","ping":67},{"user_id":8,"name":"+Goober+","steam_id":76561199200969139,"connected_time":1441000000000,"state":"active","ping":98},{"user_id":17,"name":"Pancakes","steam_id":76561198143132640,"connected_time":617000000000,"state":"active","ping":76},{"user_id":18,"name":"FreonAddict9x19","steam_id":76561198060010824,"connected_time":421000000000,"state":"active","ping":69},{"user_id":20,"name":"WatchWill","steam_id":76561198157237945,"connected_time":378000000000,"state":"active","ping":75},{"user_id":14,"name":"Goober","steam_id":76561198105930089,"connected_time":982000000000,"state":"active","ping":67},{"user_id":21,"name":"Waffle Wannabe","steam_id":76561198064510650,"connected_time":349000000000,"state":"active","ping":52},{"user_id":23,"name":"Dr. CockSlapper","steam_id":76561198189302547,"connected_time":298000000000,"state":"active","ping":69},{"user_id":24,"name":"Sparky","steam_id":76561198086845464,"connected_time":290000000000,"state":"active","ping":53},{"user_id":25,"name":"merge without looking","steam_id":76561198056702628,"connected_time":289000000000,"state":"active","ping":55},{"user_id":26,"name":"Willis","steam_id":76561198802561549,"connected_time":258000000000,"state":"active","ping":100},{"user_id":27,"name":"Kirsk","steam_id":76561198084397649,"connected_time":235000000000,"state":"active","ping":59},{"user_id":29,"name":"Eosson","steam_id":76561198108642113,"connected_time":80000000000,"state":"active","ping":59}]},{"server_id":403,"name":"Uncletopia | Chicago | 4 | All Maps","name_short":"chi-4","host":"chi-1.us.uncletopia.com","port":27045,"enabled":true,"region":"us-central","cc":"us","latitude":41.881832,"longitude":-87.62318,"reserved":0,"last_update":"0001-01-01T00:00:00Z","name_a2s":"Uncletopia | Chicago | 4 | All Maps","protocol":17,"map":"koth_lakeside_final","folder":"tf","game":"Team Fortress","app_id":440,"player_count":0,"max_players":24,"Bots":0,"server_type":"Dedicated","server_os":"Linux","password":true,"vac":true,"version":"7757534","steam_id":85568392924515193,"keywords":["cp","nocrits","nodmgspread","uncletopia"],"game_id":440,"stv_port":27046,"stv_name":"Uncletopia | Chicago | 4 | All Maps | STV","players":null},{"server_id":36,"name":"Uncletopia | Chicago | 5 | All Maps","name_short":"chi-5","host":"chi-2.us.uncletopia.com","port":27015,"enabled":true,"region":"us-central","cc":"us","latitude":41.881832,"longitude":-87.62318,"reserved":0,"last_update":"0001-01-01T00:00:00Z","name_a2s":"Uncletopia | Chicago | 5 | All Maps","protocol":17,"map":"koth_cascade","folder":"tf","game":"Team Fortress","app_id":440,"player_count":0,"max_players":24,"Bots":0,"server_type":"Dedicated","server_os":"Linux","password":true,"vac":true,"version":"7757534","steam_id":85568392924866362,"keywords":["cp","nocrits","nodmgspread","uncletopia"],"game_id":440,"stv_port":27016,"stv_name":"Uncletopia | Chicago | 5 | All Maps | STV","players":null},{"server_id":37,"name":"Uncletopia | Chicago | 6 | All Maps","name_short":"chi-6","host":"chi-2.us.uncletopia.com","port":27025,"enabled":true,"region":"us-central","cc":"us","latitude":41.881832,"longitude":-87.62318,"reserved":0,"last_update":"0001-01-01T00:00:00Z","name_a2s":"Uncletopia | Chicago | 6 | All Maps","protocol":17,"map":"pl_borneo","folder":"tf","game":"Team Fortress","app_id":440,"player_count":0,"max_players":24,"Bots":0,"server_type":"Dedicated","server_os":"Linux","password":true,"vac":true,"version":"7757534","steam_id":85568392924866363,"keywords":["nocrits","nodmgspread","payload","uncletopia"],"game_id":440,"stv_port":27026,"stv_name":"Uncletopia | Chicago | 6 | All Maps | STV","players":null},{"server_id":38,"name":"Uncletopia | Chicago | 7 | Stopwatch Beta","name_short":"chi-7","host":"chi-2.us.uncletopia.com","port":27035,"enabled":true,"region":"us-central","cc":"us","latitude":41.881832,"longitude":-87.62318,"reserved":0,"last_update":"0001-01-01T00:00:00Z","name_a2s":"Uncletopia | Chicago | 7 | Stopwatch Beta","protocol":17,"map":"pl_barnblitz","folder":"tf","game":"Team Fortress","app_id":440,"player_count":0,"max_players":24,"Bots":0,"server_type":"Dedicated","server_os":"Linux","password":true,"vac":true,"version":"7757534","steam_id":85568392924866364,"keywords":["nocrits","nodmgspread","payload","uncletopia"],"game_id":440,"stv_port":27036,"stv_name":"Uncletopia | Chicago | 7 | Stopwatch Beta | STV","players":null},{"server_id":39,"name":"Uncletopia | Chicago | 8 | Community","name_short":"chi-8","host":"chi-2.us.uncletopia.com","port":27045,"enabled":true,"region":"us-central","cc":"us","latitude":41.881832,"longitude":-87.62318,"reserved":0,"last_update":"0001-01-01T00:00:00Z","name_a2s":"Uncletopia | Chicago | 8 | Community","protocol":17,"map":"koth_cascade","folder":"tf","game":"Team Fortress","app_id":440,"player_count":0,"max_players":24,"Bots":0,"server_type":"Dedicated","server_os":"Linux","password":true,"vac":true,"version":"7757534","steam_id":85568392924866365,"keywords":["cp","nocrits","nodmgspread","uncletopia"],"game_id":440,"stv_port":27046,"stv_name":"Uncletopia | Chicago | 8 | Community | STV","players":null},{"server_id":8,"name":"Uncletopia | Dallas | 1 | All Maps","name_short":"dal-1","host":"dal-1.us.uncletopia.com","port":27015,"enabled":true,"region":"us-central","cc":"us","latitude":32.779167,"longitude":-96.80889,"reserved":0,"last_update":"0001-01-01T00:00:00Z","name_a2s":"Uncletopia | Dallas | 1 | All Maps","protocol":17,"map":"koth_cascade","folder":"tf","game":"Team Fortress","app_id":440,"player_count":1,"max_players":24,"Bots":0,"server_type":"Dedicated","server_os":"Linux","password":true,"vac":true,"version":"7757534","steam_id":85568392924469986,"keywords":["cp","nocrits","nodmgspread","uncletopia"],"game_id":440,"stv_port":27016,"stv_name":"Uncletopia | Dallas | 1 | All Maps | STV","players":[{"user_id":3,"name":"Irontank","steam_id":76561198111993029,"connected_time":535000000000,"state":"active","ping":81}]},{"server_id":108,"name":"Uncletopia | Dallas | 2 | All Maps","name_short":"dal-2","host":"dal-1.us.uncletopia.com","port":27025,"enabled":true,"region":"us-central","cc":"us","latitude":32.779167,"longitude":-96.80889,"reserved":0,"last_update":"0001-01-01T00:00:00Z","name_a2s":"Uncletopia | Dallas | 2 | All Maps","protocol":17,"map":"pl_swiftwater_final1","folder":"tf","game":"Team Fortress","app_id":440,"player_count":24,"max_players":24,"Bots":0,"server_type":"Dedicated","server_os":"Linux","password":true,"vac":true,"version":"7757534","steam_id":85568392924469988,"keywords":["nocrits","nodmgspread","payload","uncletopia"],"game_id":440,"stv_port":27026,"stv_name":"Uncletopia | Dallas | 2 | All Maps | STV","players":[{"user_id":115,"name":"BurningKev","steam_id":76561198057688837,"connected_time":6136000000000,"state":"active","ping":74},{"user_id":162,"name":"Herobrineclone7","steam_id":76561199193733613,"connected_time":551000000000,"state":"active","ping":105},{"user_id":137,"name":"Kiso 火","steam_id":76561198141026844,"connected_time":3719000000000,"state":"active","ping":120},{"user_id":161,"name":"Elvis Depressedly","steam_id":76561198943694656,"connected_time":623000000000,"state":"active","ping":97},{"user_id":163,"name":"Tangerine","steam_id":76561198373668488,"connected_time":463000000000,"state":"active","ping":83},{"user_id":151,"name":"Kenji","steam_id":76561198089630547,"connected_time":2200000000000,"state":"active","ping":69},{"user_id":169,"name":"Cooksandcleans™","steam_id":76561198049696128,"connected_time":232000000000,"state":"active","ping":90},{"user_id":156,"name":"Winter the Witchie","steam_id":76561198151971178,"connected_time":1958000000000,"state":"active","ping":85},{"user_id":165,"name":"Eviscerator","steam_id":76561197980073637,"connected_time":446000000000,"state":"active","ping":83},{"user_id":168,"name":"UwU Specialist","steam_id":76561198854099142,"connected_time":273000000000,"state":"active","ping":91},{"user_id":117,"name":"SadFapping","steam_id":76561198076651049,"connected_time":6115000000000,"state":"active","ping":107},{"user_id":129,"name":"endo","steam_id":76561197995204381,"connected_time":4541000000000,"state":"active","ping":76},{"user_id":130,"name":"JoJo","steam_id":76561198063687796,"connected_time":4540000000000,"state":"active","ping":115},{"user_id":140,"name":"CFG Ponder","steam_id":76561198127039453,"connected_time":3605000000000,"state":"active","ping":74},{"user_id":141,"name":"smugdoug","steam_id":76561198021381678,"connected_time":3579000000000,"state":"active","ping":76},{"user_id":144,"name":"Habber The Quesomancer","steam_id":76561198049642751,"connected_time":3319000000000,"state":"active","ping":44},{"user_id":170,"name":"Broly culo","steam_id":76561199001800713,"connected_time":25000000000,"state":"active","ping":76},{"user_id":114,"name":"Grassman (Cc)","steam_id":76561198026488532,"connected_time":6186000000000,"state":"active","ping":87},{"user_id":158,"name":"Voraxic","steam_id":76561198148266239,"connected_time":1093000000000,"state":"active","ping":75},{"user_id":120,"name":"Dude bro","steam_id":76561198249916746,"connected_time":5536000000000,"state":"active","ping":81},{"user_id":157,"name":"°Creamy Gilligan","steam_id":76561198001569384,"connected_time":1690000000000,"state":"active","ping":84},{"user_id":135,"name":"A Gamer [F2P]","steam_id":76561198138712892,"connected_time":3774000000000,"state":"active","ping":42},{"user_id":160,"name":"Hotdog Goblin","steam_id":76561198004133638,"connected_time":976000000000,"state":"active","ping":80},{"user_id":124,"name":"Joe Swanson","steam_id":76561199089907740,"connected_time":5480000000000,"state":"active","ping":70}]},{"server_id":5,"name":"Uncletopia | Frankfurt | 1 | All Maps","name_short":"frk-1","host":"frk-1.de.uncletopia.com","port":27015,"enabled":true,"region":"eu","cc":"de","latitude":50.110924,"longitude":8.682127,"reserved":0,"last_update":"0001-01-01T00:00:00Z","name_a2s":"Uncletopia | Frankfurt | 1 | All Maps","protocol":17,"map":"cp_altitude","folder":"tf","game":"Team Fortress","app_id":440,"player_count":0,"max_players":24,"Bots":0,"server_type":"Dedicated","server_os":"Linux","password":true,"vac":true,"version":"7757534","steam_id":85568392924469989,"keywords":["cp","nocrits","nodmgspread","uncletopia"],"game_id":440,"stv_port":27016,"stv_name":"Uncletopia | Frankfurt | 1 | All Maps | STV","players":null},{"server_id":110,"name":"Uncletopia | Frankfurt | 2 | All Maps","name_short":"frk-2","host":"frk-1.de.uncletopia.com","port":27025,"enabled":true,"region":"eu","cc":"de","latitude":50.110924,"longitude":8.682127,"reserved":0,"last_update":"0001-01-01T00:00:00Z","name_a2s":"Uncletopia | Frankfurt | 2 | All Maps","protocol":17,"map":"koth_lakeside_final","folder":"tf","game":"Team Fortress","app_id":440,"player_count":0,"max_players":24,"Bots":0,"server_type":"Dedicated","server_os":"Linux","password":true,"vac":true,"version":"7757534","steam_id":85568392924469990,"keywords":["cp","nocrits","nodmgspread","uncletopia"],"game_id":440,"stv_port":27026,"stv_name":"Uncletopia | Frankfurt | 2 | All Maps | STV","players":null},{"server_id":308,"name":"Uncletopia | Frankfurt | 3 | All Maps","name_short":"frk-3","host":"frk-1.de.uncletopia.com","port":27035,"enabled":true,"region":"eu","cc":"de","latitude":50.110924,"longitude":8.682127,"reserved":0,"last_update":"0001-01-01T00:00:00Z","name_a2s":"Uncletopia | Frankfurt | 3 | All Maps","protocol":17,"map":"cp_process_final","folder":"tf","game":"Team Fortress","app_id":440,"player_count":25,"max_players":24,"Bots":0,"server_type":"Dedicated","server_os":"Linux","password":true,"vac":true,"version":"7757534","steam_id":85568392924504274,"keywords":["cp","nocrits","nodmgspread","uncletopia"],"game_id":440,"stv_port":27036,"stv_name":"Uncletopia | Frankfurt | 3 | All Maps | STV","players":[{"user_id":343,"name":"Meta","steam_id":76561198413073432,"connected_time":168000000000,"state":"active","ping":69},{"user_id":300,"name":"Princess Fuzz","steam_id":76561198025783000,"connected_time":3737000000000,"state":"active","ping":45},{"user_id":346,"name":"lie raw","steam_id":76561198190583242,"connected_time":120000000000,"state":"active","ping":78},{"user_id":321,"name":"XPullaHiiri","steam_id":76561198031652375,"connected_time":2259000000000,"state":"active","ping":81},{"user_id":344,"name":"Pronton","steam_id":76561198082502910,"connected_time":164000000000,"state":"active","ping":46},{"user_id":345,"name":"unnecessary","steam_id":76561197994492154,"connected_time":154000000000,"state":"connecting","ping":0},{"user_id":340,"name":"Lyra","steam_id":76561198043601838,"connected_time":534000000000,"state":"active","ping":60},{"user_id":347,"name":"Lil Big","steam_id":76561198138426317,"connected_time":118000000000,"state":"active","ping":70},{"user_id":322,"name":"Udinese Dion","steam_id":76561198067931573,"connected_time":2141000000000,"state":"active","ping":46},{"user_id":333,"name":"LINCKDOE","steam_id":76561198101494093,"connected_time":1243000000000,"state":"active","ping":87},{"user_id":339,"name":"Peter","steam_id":76561198007253310,"connected_time":818000000000,"state":"active","ping":134},{"user_id":296,"name":"the joy of recycling","steam_id":76561198415564349,"connected_time":3823000000000,"state":"active","ping":60},{"user_id":348,"name":"Albert Wesker","steam_id":76561198054846274,"connected_time":116000000000,"state":"active","ping":58},{"user_id":341,"name":"That Phlog mfer","steam_id":76561198050416948,"connected_time":243000000000,"state":"active","ping":55},{"user_id":325,"name":"Spajro","steam_id":76561198257383813,"connected_time":2083000000000,"state":"active","ping":46},{"user_id":304,"name":"Charrky","steam_id":76561198054398642,"connected_time":3656000000000,"state":"active","ping":46},{"user_id":311,"name":"pepper","steam_id":76561198059782462,"connected_time":3441000000000,"state":"active","ping":46},{"user_id":342,"name":"player","steam_id":76561198054474684,"connected_time":204000000000,"state":"active","ping":75},{"user_id":335,"name":"pond","steam_id":76561198214849363,"connected_time":1204000000000,"state":"active","ping":78},{"user_id":327,"name":"retard transplan t plantt","steam_id":76561198857396812,"connected_time":2041000000000,"state":"active","ping":46},{"user_id":329,"name":"El Presidente","steam_id":76561198302711029,"connected_time":1946000000000,"state":"active","ping":81},{"user_id":306,"name":"AleXandriX","steam_id":76561198035203950,"connected_time":3607000000000,"state":"active","ping":59},{"user_id":338,"name":"finbar","steam_id":76561198056812396,"connected_time":1058000000000,"state":"active","ping":85},{"user_id":312,"name":"Prism","steam_id":76561198075538312,"connected_time":3374000000000,"state":"active","ping":40},{"user_id":349,"name":"Reast","steam_id":76561198022796927,"connected_time":99000000000,"state":"active","ping":74}]},{"server_id":309,"name":"Uncletopia | Frankfurt | 4 | All Maps","name_short":"frk-4","host":"frk-1.de.uncletopia.com","port":27045,"enabled":true,"region":"eu","cc":"de","latitude":50.110924,"longitude":8.682127,"reserved":0,"last_update":"0001-01-01T00:00:00Z","name_a2s":"Uncletopia | Frankfurt | 4 | All Maps","protocol":17,"map":"koth_cascade","folder":"tf","game":"Team Fortress","app_id":440,"player_count":0,"max_players":24,"Bots":0,"server_type":"Dedicated","server_os":"Linux","password":true,"vac":true,"version":"7757534","steam_id":85568392924504275,"keywords":["cp","nocrits","nodmgspread","uncletopia"],"game_id":440,"stv_port":27046,"stv_name":"Uncletopia | Frankfurt | 4 | All Maps | STV","players":null},{"server_id":310,"name":"Uncletopia | Frankfurt | 5 | All Maps","name_short":"frk-5","host":"frk-1.de.uncletopia.com","port":27055,"enabled":true,"region":"eu","cc":"de","latitude":50.110924,"longitude":8.682127,"reserved":0,"last_update":"0001-01-01T00:00:00Z","name_a2s":"Uncletopia | Frankfurt | 5 | All Maps","protocol":17,"map":"cp_mountainlab","folder":"tf","game":"Team Fortress","app_id":440,"player_count":21,"max_players":24,"Bots":0,"server_type":"Dedicated","server_os":"Linux","password":true,"vac":true,"version":"7757534","steam_id":85568392924504277,"keywords":["cp","nocrits","nodmgspread","uncletopia"],"game_id":440,"stv_port":27056,"stv_name":"Uncletopia | Frankfurt | 5 | All Maps | STV","players":[{"user_id":213,"name":"Arasey","steam_id":76561198996948426,"connected_time":980000000000,"state":"active","ping":82},{"user_id":221,"name":"[FRF] David","steam_id":76561199010178766,"connected_time":111000000000,"state":"active","ping":48},{"user_id":218,"name":"Mass","steam_id":76561198432195204,"connected_time":587000000000,"state":"active","ping":47},{"user_id":214,"name":"Ablativus","steam_id":76561198025698470,"connected_time":803000000000,"state":"active","ping":64},{"user_id":215,"name":"true","steam_id":76561198031145243,"connected_time":794000000000,"state":"active","ping":88},{"user_id":222,"name":"unnecessary","steam_id":76561197994492154,"connected_time":94000000000,"state":"active","ping":61},{"user_id":220,"name":"knoB (reformed) #TF2Center","steam_id":76561198173695818,"connected_time":279000000000,"state":"active","ping":61},{"user_id":185,"name":"actually drunk","steam_id":76561198121408313,"connected_time":2148000000000,"state":"active","ping":77},{"user_id":208,"name":"CollDragon","steam_id":76561198067534450,"connected_time":1088000000000,"state":"active","ping":138},{"user_id":159,"name":"numanuma-hei.ei","steam_id":76561198081100918,"connected_time":4269000000000,"state":"active","ping":102},{"user_id":188,"name":"Optimizator 50","steam_id":76561198039631442,"connected_time":1939000000000,"state":"active","ping":84},{"user_id":171,"name":"Air","steam_id":76561198271025518,"connected_time":2945000000000,"state":"active","ping":97},{"user_id":223,"name":"kotamine","steam_id":76561198068907991,"connected_time":1000000000,"state":"spawning","ping":106},{"user_id":194,"name":"Knösta","steam_id":76561198143422139,"connected_time":1599000000000,"state":"active","ping":368},{"user_id":93,"name":"MRLOLENO","steam_id":76561198450911838,"connected_time":8029000000000,"state":"active","ping":64},{"user_id":172,"name":"Lassie","steam_id":76561198131924713,"connected_time":2896000000000,"state":"active","ping":60},{"user_id":211,"name":"Dog ?","steam_id":76561198347020945,"connected_time":997000000000,"state":"active","ping":82},{"user_id":189,"name":"Lordware","steam_id":76561198022011299,"connected_time":1841000000000,"state":"active","ping":84},{"user_id":153,"name":"Penis Contortionist","steam_id":76561198073663784,"connected_time":4747000000000,"state":"active","ping":50},{"user_id":196,"name":"PanPatrik","steam_id":76561198293331527,"connected_time":1541000000000,"state":"active","ping":50},{"user_id":219,"name":"Hussite","steam_id":76561199293036742,"connected_time":510000000000,"state":"active","ping":47}]},{"server_id":311,"name":"Uncletopia | Frankfurt | 6 | All Maps","name_short":"frk-6","host":"frk-1.de.uncletopia.com","port":27065,"enabled":true,"region":"eu","cc":"de","latitude":50.110924,"longitude":8.682127,"reserved":0,"last_update":"0001-01-01T00:00:00Z","name_a2s":"Uncletopia | Frankfurt | 6 | All Maps","protocol":17,"map":"pl_frontier_final","folder":"tf","game":"Team Fortress","app_id":440,"player_count":13,"max_players":24,"Bots":0,"server_type":"Dedicated","server_os":"Linux","password":true,"vac":true,"version":"7757534","steam_id":85568392924504278,"keywords":["nocrits","nodmgspread","payload","uncletopia"],"game_id":440,"stv_port":27066,"stv_name":"Uncletopia | Frankfurt | 6 | All Maps | STV","players":[{"user_id":21,"name":"The Nintendo Guy #killsavetf2","steam_id":76561199069995033,"connected_time":134000000000,"state":"active","ping":50},{"user_id":10,"name":"Dr.Ludwig Sex (F2P)","steam_id":76561199230379349,"connected_time":776000000000,"state":"active","ping":61},{"user_id":11,"name":"funkliner","steam_id":76561198436902492,"connected_time":663000000000,"state":"active","ping":103},{"user_id":12,"name":"ran is running","steam_id":76561199443185667,"connected_time":586000000000,"state":"active","ping":130},{"user_id":13,"name":"Psychicpie","steam_id":76561198126065206,"connected_time":578000000000,"state":"active","ping":49},{"user_id":14,"name":"bad at tf2 episode 2","steam_id":76561198002451113,"connected_time":404000000000,"state":"active","ping":90},{"user_id":15,"name":"Cosmetic brain","steam_id":76561198055936410,"connected_time":386000000000,"state":"active","ping":86},{"user_id":16,"name":"Joshua","steam_id":76561198159409260,"connected_time":385000000000,"state":"active","ping":90},{"user_id":17,"name":"justin_ (f2p) (real)","steam_id":76561198839843428,"connected_time":348000000000,"state":"active","ping":118},{"user_id":18,"name":"Dimitri_612","steam_id":76561199223984137,"connected_time":264000000000,"state":"active","ping":55},{"user_id":19,"name":"Sophia","steam_id":76561198034937488,"connected_time":208000000000,"state":"active","ping":68},{"user_id":20,"name":"GUG","steam_id":76561198405653209,"connected_time":164000000000,"state":"active","ping":74},{"user_id":22,"name":"lore","steam_id":76561198120984188,"connected_time":28000000000,"state":"active","ping":67}]},{"server_id":23,"name":"Uncletopia | Frankfurt | 7 | Stopwatch Beta","name_short":"frk-7","host":"frk-1.de.uncletopia.com","port":27075,"enabled":true,"region":"eu","cc":"de","latitude":50.110924,"longitude":8.682127,"reserved":0,"last_update":"0001-01-01T00:00:00Z","name_a2s":"Uncletopia | Frankfurt | 7 | Stopwatch Beta","protocol":17,"map":"workshop/koth_ramjam_rc1.ugc459778887","folder":"tf","game":"Team Fortress","app_id":440,"player_count":0,"max_players":24,"Bots":0,"server_type":"Dedicated","server_os":"Linux","password":true,"vac":true,"version":"7757534","steam_id":85568392924742827,"keywords":["cp","nocrits","nodmgspread","uncletopia"],"game_id":440,"stv_port":27076,"stv_name":"Uncletopia | Frankfurt | 7 | Stopwatch Beta | STV","players":null},{"server_id":24,"name":"Uncletopia | Frankfurt | 8 | Community","name_short":"frk-8","host":"frk-1.de.uncletopia.com","port":27085,"enabled":true,"region":"eu","cc":"de","latitude":50.110924,"longitude":8.682127,"reserved":0,"last_update":"0001-01-01T00:00:00Z","name_a2s":"Uncletopia | Frankfurt | 8 | Community","protocol":17,"map":"workshop/koth_kemptown_rc1.ugc767410655","folder":"tf","game":"Team Fortress","app_id":440,"player_count":0,"max_players":24,"Bots":0,"server_type":"Dedicated","server_os":"Linux","password":true,"vac":true,"version":"7757534","steam_id":85568392924742828,"keywords":["cp","nocrits","nodmgspread","uncletopia"],"game_id":440,"stv_port":27086,"stv_name":"Uncletopia | Frankfurt | 8 | Community | STV","players":null},{"server_id":202,"name":"Uncletopia | Hong Kong | 1 | All Maps","name_short":"hgk-1","host":"hgk-1.hk.uncletopia.com","port":27015,"enabled":true,"region":"asia","cc":"hk","latitude":22.302711,"longitude":114.177216,"reserved":0,"last_update":"0001-01-01T00:00:00Z","name_a2s":"Uncletopia | Hong Kong | 1 | All Maps","protocol":17,"map":"cp_process_final","folder":"tf","game":"Team Fortress","app_id":440,"player_count":24,"max_players":24,"Bots":0,"server_type":"Dedicated","server_os":"Linux","password":true,"vac":true,"version":"7757534","steam_id":85568392924494504,"keywords":["cp","nocrits","nodmgspread","uncletopia"],"game_id":440,"stv_port":27016,"stv_name":"Uncletopia | Hong Kong | 1 | All Maps | STV","players":[{"user_id":296,"name":"AmaiRetarded","steam_id":76561199122491157,"connected_time":7319000000000,"state":"active","ping":97},{"user_id":328,"name":"tiden2000","steam_id":76561198092969425,"connected_time":4456000000000,"state":"active","ping":109},{"user_id":351,"name":"DresatCouchonion","steam_id":76561199388364553,"connected_time":1019000000000,"state":"active","ping":165},{"user_id":280,"name":"Stupid B","steam_id":76561198131423270,"connected_time":8462000000000,"state":"active","ping":88},{"user_id":342,"name":"76485675","steam_id":76561199390507975,"connected_time":3361000000000,"state":"active","ping":52},{"user_id":315,"name":"detf2oxification","steam_id":76561199077602424,"connected_time":5905000000000,"state":"active","ping":61},{"user_id":304,"name":"煙海 | Enkai","steam_id":76561198050460825,"connected_time":6605000000000,"state":"active","ping":76},{"user_id":350,"name":"Pipe","steam_id":76561198113829622,"connected_time":1335000000000,"state":"active","ping":138},{"user_id":335,"name":"Cipher(I_Lag_a_lot_bare_with_me","steam_id":76561198796591492,"connected_time":3898000000000,"state":"active","ping":112},{"user_id":323,"name":"Lelouch","steam_id":76561198828840546,"connected_time":4543000000000,"state":"active","ping":82},{"user_id":357,"name":"᲼᲼᲼᲼᲼᲼","steam_id":76561198157618957,"connected_time":84000000000,"state":"active","ping":75},{"user_id":321,"name":"zzz","steam_id":76561198219926077,"connected_time":4559000000000,"state":"active","ping":42},{"user_id":299,"name":"Noyour","steam_id":76561198323259830,"connected_time":6671000000000,"state":"active","ping":116},{"user_id":295,"name":"쿠키","steam_id":76561197997220367,"connected_time":7339000000000,"state":"active","ping":52},{"user_id":353,"name":"bob","steam_id":76561198378829574,"connected_time":791000000000,"state":"active","ping":56},{"user_id":319,"name":"母の肉団子@hao123.com","steam_id":76561198069561896,"connected_time":4886000000000,"state":"active","ping":44},{"user_id":345,"name":"mister beast","steam_id":76561198346128694,"connected_time":2113000000000,"state":"active","ping":82},{"user_id":307,"name":"instant karma","steam_id":76561198027307933,"connected_time":6526000000000,"state":"active","ping":60},{"user_id":180,"name":"Bertengkar","steam_id":76561198213031155,"connected_time":18307000000000,"state":"active","ping":100},{"user_id":338,"name":"muse","steam_id":76561198046580378,"connected_time":3690000000000,"state":"active","ping":126},{"user_id":349,"name":"sáu thiện nhân","steam_id":76561199373637717,"connected_time":1363000000000,"state":"active","ping":63},{"user_id":354,"name":"screaming sniper","steam_id":76561199085568674,"connected_time":704000000000,"state":"active","ping":70},{"user_id":332,"name":"P","steam_id":76561198304514505,"connected_time":4301000000000,"state":"active","ping":74},{"user_id":316,"name":"(64)","steam_id":76561198000062599,"connected_time":5605000000000,"state":"active","ping":138}]},{"server_id":1,"name":"Uncletopia | Los Angeles | 1 | All Maps","name_short":"lax-1","host":"lax-1.us.uncletopia.com","port":27015,"enabled":true,"region":"us-west","cc":"us","latitude":33.94279,"longitude":-118.41004,"reserved":0,"last_update":"0001-01-01T00:00:00Z","name_a2s":"Uncletopia | Los Angeles | 1 | All Maps","protocol":17,"map":"koth_lakeside_final","folder":"tf","game":"Team Fortress","app_id":440,"player_count":0,"max_players":24,"Bots":0,"server_type":"Dedicated","server_os":"Linux","password":true,"vac":true,"version":"7757534","steam_id":85568392924469991,"keywords":["cp","nocrits","nodmgspread","uncletopia"],"game_id":440,"stv_port":27016,"stv_name":"Uncletopia | Los Angeles | 1 | All Maps | STV","players":null},{"server_id":112,"name":"Uncletopia | Los Angeles | 2 | All Maps","name_short":"lax-2","host":"lax-1.us.uncletopia.com","port":27025,"enabled":true,"region":"us-west","cc":"us","latitude":33.94279,"longitude":-118.41004,"reserved":0,"last_update":"0001-01-01T00:00:00Z","name_a2s":"Uncletopia | Los Angeles | 2 | All Maps","protocol":17,"map":"pl_badwater","folder":"tf","game":"Team Fortress","app_id":440,"player_count":0,"max_players":24,"Bots":0,"server_type":"Dedicated","server_os":"Linux","password":true,"vac":true,"version":"7757534","steam_id":85568392924469992,"keywords":["nocrits","nodmgspread","payload","uncletopia"],"game_id":440,"stv_port":27026,"stv_name":"Uncletopia | Los Angeles | 2 | All Maps | STV","players":null},{"server_id":324,"name":"Uncletopia | Los Angeles | 3 | All Maps","name_short":"lax-3","host":"lax-1.us.uncletopia.com","port":27035,"enabled":true,"region":"us-west","cc":"us","latitude":33.94279,"longitude":-118.41004,"reserved":0,"last_update":"0001-01-01T00:00:00Z","name_a2s":"Uncletopia | Los Angeles | 3 | All Maps","protocol":17,"map":"pl_barnblitz","folder":"tf","game":"Team Fortress","app_id":440,"player_count":0,"max_players":24,"Bots":0,"server_type":"Dedicated","server_os":"Linux","password":true,"vac":true,"version":"7757534","steam_id":85568392924510198,"keywords":["nocrits","nodmgspread","payload","uncletopia"],"game_id":440,"stv_port":27036,"stv_name":"Uncletopia | Los Angeles | 3 | All Maps | STV","players":null},{"server_id":25,"name":"Uncletopia | Los Angeles | 4 | Stopwatch Beta","name_short":"lax-4","host":"lax-1.us.uncletopia.com","port":27045,"enabled":true,"region":"us-west","cc":"us","latitude":33.94279,"longitude":-118.41004,"reserved":0,"last_update":"0001-01-01T00:00:00Z","name_a2s":"Uncletopia | Los Angeles | 4 | Stopwatch Beta","protocol":17,"map":"pl_swiftwater_final1","folder":"tf","game":"Team Fortress","app_id":440,"player_count":0,"max_players":24,"Bots":0,"server_type":"Dedicated","server_os":"Linux","password":true,"vac":true,"version":"7757534","steam_id":85568392924510199,"keywords":["nocrits","nodmgspread","payload","uncletopia"],"game_id":440,"stv_port":27046,"stv_name":"Uncletopia | Los Angeles | 4 | Stopwatch Beta | STV","players":null},{"server_id":11,"name":"Uncletopia | London | 1 | All Maps","name_short":"lon-1","host":"lon-1.uk.uncletopia.com","port":27015,"enabled":true,"region":"eu","cc":"gb","latitude":51.509865,"longitude":-0.118092,"reserved":0,"last_update":"0001-01-01T00:00:00Z","name_a2s":"Uncletopia | London | 1 | All Maps","protocol":17,"map":"pl_barnblitz","folder":"tf","game":"Team Fortress","app_id":440,"player_count":25,"max_players":24,"Bots":0,"server_type":"Dedicated","server_os":"Linux","password":true,"vac":true,"version":"7757534","steam_id":85568392924367362,"keywords":["nocrits","nodmgspread","payload","uncletopia"],"game_id":440,"stv_port":27016,"stv_name":"Uncletopia | London | 1 | All Maps | STV","players":[{"user_id":312,"name":"TheFallenFox","steam_id":76561199074190919,"connected_time":639000000000,"state":"active","ping":62},{"user_id":320,"name":"Mr. Hunts","steam_id":76561197981910397,"connected_time":255000000000,"state":"active","ping":63},{"user_id":246,"name":"♣Бредовый Месяц","steam_id":76561198796404149,"connected_time":5227000000000,"state":"active","ping":109},{"user_id":290,"name":"shenanigan","steam_id":76561198043452925,"connected_time":2700000000000,"state":"active","ping":97},{"user_id":324,"name":"Are109","steam_id":76561198016379605,"connected_time":217000000000,"state":"active","ping":69},{"user_id":298,"name":"Cosmonaut","steam_id":76561198239514504,"connected_time":2334000000000,"state":"active","ping":61},{"user_id":314,"name":"New","steam_id":76561198402195911,"connected_time":552000000000,"state":"active","ping":113},{"user_id":258,"name":"doopsuiker","steam_id":76561198025916703,"connected_time":4642000000000,"state":"active","ping":61},{"user_id":291,"name":"Hermitcrack","steam_id":76561198149216441,"connected_time":2698000000000,"state":"active","ping":75},{"user_id":310,"name":"mały","steam_id":76561198074409147,"connected_time":1081000000000,"state":"active","ping":66},{"user_id":322,"name":"Boebly","steam_id":76561198069585723,"connected_time":243000000000,"state":"active","ping":59},{"user_id":264,"name":"Aimrow","steam_id":76561198023275245,"connected_time":4180000000000,"state":"active","ping":82},{"user_id":325,"name":"Blox","steam_id":76561198872547182,"connected_time":211000000000,"state":"active","ping":104},{"user_id":316,"name":"Axio","steam_id":76561198046826031,"connected_time":459000000000,"state":"active","ping":60},{"user_id":318,"name":"⨂","steam_id":76561198087800030,"connected_time":349000000000,"state":"active","ping":75},{"user_id":302,"name":"Squishy","steam_id":76561198124618876,"connected_time":1912000000000,"state":"active","ping":113},{"user_id":326,"name":"1couver","steam_id":76561198168553215,"connected_time":210000000000,"state":"active","ping":103},{"user_id":327,"name":"PixelHyde","steam_id":76561198040878617,"connected_time":210000000000,"state":"active","ping":72},{"user_id":319,"name":"buko","steam_id":76561198349648942,"connected_time":346000000000,"state":"active","ping":77},{"user_id":263,"name":"EdSuedi","steam_id":76561199387956486,"connected_time":4338000000000,"state":"active","ping":62},{"user_id":328,"name":"Astyloblatta","steam_id":76561199222909666,"connected_time":205000000000,"state":"active","ping":71},{"user_id":305,"name":"Foreskin Gamer","steam_id":76561198283106341,"connected_time":1757000000000,"state":"active","ping":64},{"user_id":277,"name":"NLSAM","steam_id":76561199111154916,"connected_time":3650000000000,"state":"active","ping":61},{"user_id":329,"name":"Joy","steam_id":76561198155314925,"connected_time":205000000000,"state":"active","ping":59},{"user_id":330,"name":"Oof_Fan","steam_id":76561199013532401,"connected_time":1000000000,"state":"spawning","ping":92}]},{"server_id":114,"name":"Uncletopia | London | 2 | All Maps","name_short":"lon-2","host":"lon-1.uk.uncletopia.com","port":27025,"enabled":true,"region":"eu","cc":"gb","latitude":51.509865,"longitude":-0.118092,"reserved":0,"last_update":"0001-01-01T00:00:00Z","name_a2s":"Uncletopia | London | 2 | All Maps","protocol":17,"map":"pl_badwater","folder":"tf","game":"Team Fortress","app_id":440,"player_count":24,"max_players":24,"Bots":0,"server_type":"Dedicated","server_os":"Linux","password":true,"vac":true,"version":"7757534","steam_id":85568392924470941,"keywords":["nocrits","nodmgspread","payload","uncletopia"],"game_id":440,"stv_port":27026,"stv_name":"Uncletopia | London | 2 | All Maps | STV","players":[{"user_id":71,"name":"Farmercy","steam_id":76561198000038039,"connected_time":490000000000,"state":"active","ping":74},{"user_id":72,"name":"ThisBeMe","steam_id":76561199282571894,"connected_time":469000000000,"state":"active","ping":178},{"user_id":73,"name":"Dude Time","steam_id":76561198092991160,"connected_time":433000000000,"state":"active","ping":168},{"user_id":45,"name":"kyra","steam_id":76561198412004372,"connected_time":1390000000000,"state":"active","ping":62},{"user_id":50,"name":"Procrastination","steam_id":76561198060012688,"connected_time":1185000000000,"state":"active","ping":60},{"user_id":51,"name":"emilybakker62@gmail.com","steam_id":76561198272809526,"connected_time":1164000000000,"state":"active","ping":61},{"user_id":22,"name":"GlitchyTrashCan","steam_id":76561198309789756,"connected_time":2308000000000,"state":"active","ping":67},{"user_id":23,"name":"Anonymous47007","steam_id":76561199005211417,"connected_time":2287000000000,"state":"active","ping":83},{"user_id":52,"name":"Vezage","steam_id":76561198064916164,"connected_time":1143000000000,"state":"active","ping":73},{"user_id":25,"name":"cof","steam_id":76561199128417805,"connected_time":1956000000000,"state":"active","ping":66},{"user_id":49,"name":"Laurie","steam_id":76561198082951750,"connected_time":1199000000000,"state":"active","ping":48},{"user_id":53,"name":"ඞbominasus 2137  #SaveTF2","steam_id":76561198030062981,"connected_time":1121000000000,"state":"active","ping":76},{"user_id":62,"name":"Jara.","steam_id":76561197992207165,"connected_time":862000000000,"state":"active","ping":101},{"user_id":67,"name":"Jughead","steam_id":76561198000355410,"connected_time":631000000000,"state":"active","ping":42},{"user_id":70,"name":"Fenirm","steam_id":76561198219664009,"connected_time":529000000000,"state":"active","ping":46},{"user_id":46,"name":"Max Andrew","steam_id":76561198158955194,"connected_time":1339000000000,"state":"active","ping":67},{"user_id":74,"name":"Tywhip","steam_id":76561199207545191,"connected_time":125000000000,"state":"active","ping":54},{"user_id":33,"name":"A Shiny Meat Bicycle","steam_id":76561198358757709,"connected_time":1711000000000,"state":"active","ping":170},{"user_id":39,"name":"JeffTheDwarf","steam_id":76561198867619407,"connected_time":1517000000000,"state":"active","ping":83},{"user_id":40,"name":"floppy-adde","steam_id":76561199258890641,"connected_time":1517000000000,"state":"active","ping":70},{"user_id":56,"name":"Banana Face","steam_id":76561198151120611,"connected_time":997000000000,"state":"active","ping":71},{"user_id":48,"name":"Dispenser","steam_id":76561198130195469,"connected_time":1241000000000,"state":"active","ping":87},{"user_id":43,"name":"SynthBox3","steam_id":76561199094075745,"connected_time":1500000000000,"state":"active","ping":120},{"user_id":57,"name":"sirdudalot","steam_id":76561198050298635,"connected_time":996000000000,"state":"active","ping":202}]},{"server_id":320,"name":"Uncletopia | London | 3 | All Maps","name_short":"lon-3","host":"lon-1.uk.uncletopia.com","port":27035,"enabled":true,"region":"eu","cc":"gb","latitude":51.509865,"longitude":-0.118092,"reserved":0,"last_update":"0001-01-01T00:00:00Z","name_a2s":"Uncletopia | London | 3 | All Maps","protocol":17,"map":"pl_upward","folder":"tf","game":"Team Fortress","app_id":440,"player_count":24,"max_players":24,"Bots":0,"server_type":"Dedicated","server_os":"Linux","password":true,"vac":true,"version":"7757534","steam_id":85568392924510192,"keywords":["nocrits","nodmgspread","payload","uncletopia"],"game_id":440,"stv_port":27036,"stv_name":"Uncletopia | London | 3 | All Maps | STV","players":[{"user_id":150,"name":"Ghost","steam_id":76561198110914180,"connected_time":1375000000000,"state":"active","ping":97},{"user_id":132,"name":"mohemmedmokhter2005","steam_id":76561199197650506,"connected_time":2145000000000,"state":"active","ping":104},{"user_id":162,"name":"ricky pee pee","steam_id":76561198152620745,"connected_time":695000000000,"state":"active","ping":57},{"user_id":98,"name":"Tails8521","steam_id":76561198051747164,"connected_time":4487000000000,"state":"active","ping":53},{"user_id":164,"name":"Slim3rs","steam_id":76561199088010585,"connected_time":580000000000,"state":"active","ping":185},{"user_id":143,"name":"Dolcelatte","steam_id":76561198038501770,"connected_time":1668000000000,"state":"active","ping":63},{"user_id":127,"name":"Arti","steam_id":76561197983352845,"connected_time":2620000000000,"state":"active","ping":59},{"user_id":171,"name":"Bonerfart","steam_id":76561199039212537,"connected_time":181000000000,"state":"active","ping":104},{"user_id":109,"name":"Edison Trent","steam_id":76561198067133145,"connected_time":3699000000000,"state":"active","ping":61},{"user_id":111,"name":"e36 1.8","steam_id":76561198134203031,"connected_time":3580000000000,"state":"active","ping":70},{"user_id":153,"name":"Topi","steam_id":76561198165732391,"connected_time":1125000000000,"state":"active","ping":88},{"user_id":152,"name":"fabacher","steam_id":76561198057905272,"connected_time":1330000000000,"state":"active","ping":60},{"user_id":18,"name":"Baguette","steam_id":76561199069435825,"connected_time":9584000000000,"state":"active","ping":50},{"user_id":105,"name":"Los Santo's ♿*","steam_id":76561198301727826,"connected_time":4209000000000,"state":"active","ping":76},{"user_id":156,"name":"Shaiva","steam_id":76561198034677706,"connected_time":919000000000,"state":"active","ping":86},{"user_id":157,"name":"NotGriims?","steam_id":76561199389245066,"connected_time":895000000000,"state":"active","ping":118},{"user_id":146,"name":"blackballs@yeniakit.com.tr","steam_id":76561198887626156,"connected_time":1587000000000,"state":"active","ping":227},{"user_id":166,"name":"eevee","steam_id":76561198025777627,"connected_time":558000000000,"state":"active","ping":119},{"user_id":167,"name":"Dooble donk man look at me donk","steam_id":76561198225523596,"connected_time":551000000000,"state":"active","ping":64},{"user_id":158,"name":"Archimus","steam_id":76561198097378176,"connected_time":883000000000,"state":"active","ping":54},{"user_id":159,"name":"Vince","steam_id":76561199103000131,"connected_time":847000000000,"state":"active","ping":45},{"user_id":172,"name":"xavier","steam_id":76561198076494034,"connected_time":178000000000,"state":"active","ping":47},{"user_id":169,"name":"Naynoo","steam_id":76561198001095545,"connected_time":539000000000,"state":"active","ping":120},{"user_id":137,"name":"X45Y","steam_id":76561198112534025,"connected_time":2042000000000,"state":"active","ping":59}]},{"server_id":321,"name":"Uncletopia | London | 4 | All Maps","name_short":"lon-4","host":"lon-1.uk.uncletopia.com","port":27045,"enabled":true,"region":"eu","cc":"gb","latitude":51.509865,"longitude":-0.118092,"reserved":0,"last_update":"0001-01-01T00:00:00Z","name_a2s":"Uncletopia | London | 4 | All Maps","protocol":17,"map":"koth_viaduct","folder":"tf","game":"Team Fortress","app_id":440,"player_count":0,"max_players":24,"Bots":0,"server_type":"Dedicated","server_os":"Linux","password":true,"vac":true,"version":"7757534","steam_id":85568392924510193,"keywords":["cp","nocrits","nodmgspread","uncletopia"],"game_id":440,"stv_port":27046,"stv_name":"Uncletopia | London | 4 | All Maps | STV","players":null},{"server_id":21,"name":"Uncletopia | London | 5 | All Maps","name_short":"lon-5","host":"lon-1.uk.uncletopia.com","port":27055,"enabled":true,"region":"eu","cc":"gb","latitude":51.509865,"longitude":-0.118092,"reserved":0,"last_update":"0001-01-01T00:00:00Z","name_a2s":"Uncletopia | London | 5 | All Maps","protocol":17,"map":"pl_borneo","folder":"tf","game":"Team Fortress","app_id":440,"player_count":0,"max_players":24,"Bots":0,"server_type":"Dedicated","server_os":"Linux","password":true,"vac":true,"version":"7757534","steam_id":85568392924742829,"keywords":["nocrits","nodmgspread","payload","uncletopia"],"game_id":440,"stv_port":27056,"stv_name":"Uncletopia | London | 5 | All Maps | STV","players":null},{"server_id":22,"name":"Uncletopia | London | 6 | All Maps","name_short":"lon-6","host":"lon-1.uk.uncletopia.com","port":27065,"enabled":true,"region":"eu","cc":"gb","latitude":51.509865,"longitude":-0.118092,"reserved":0,"last_update":"0001-01-01T00:00:00Z","name_a2s":"Uncletopia | London | 6 | All Maps","protocol":17,"map":"cp_mountainlab","folder":"tf","game":"Team Fortress","app_id":440,"player_count":0,"max_players":24,"Bots":0,"server_type":"Dedicated","server_os":"Linux","password":true,"vac":true,"version":"7757534","steam_id":85568392924742830,"keywords":["cp","nocrits","nodmgspread","uncletopia"],"game_id":440,"stv_port":27066,"stv_name":"Uncletopia | London | 6 | All Maps | STV","players":null},{"server_id":40,"name":"Uncletopia | London | 7 | No Payload","name_short":"lon-7","host":"lon-1.uk.uncletopia.com","port":27075,"enabled":true,"region":"eu","cc":"gb","latitude":51.509865,"longitude":-0.118092,"reserved":0,"last_update":"0001-01-01T00:00:00Z","name_a2s":"Uncletopia | London | 7 | No Payload","protocol":17,"map":"pl_badwater","folder":"tf","game":"Team Fortress","app_id":440,"player_count":0,"max_players":24,"Bots":0,"server_type":"Dedicated","server_os":"Linux","password":true,"vac":true,"version":"7757534","steam_id":85568392924964314,"keywords":["nocrits","nodmgspread","payload","uncletopia"],"game_id":440,"stv_port":27076,"stv_name":"Uncletopia | London | 7 | No Payload | STV","players":null},{"server_id":41,"name":"Uncletopia | London | 8 | Community","name_short":"lon-8","host":"lon-1.uk.uncletopia.com","port":27085,"enabled":true,"region":"eu","cc":"gb","latitude":51.509865,"longitude":-0.118092,"reserved":0,"last_update":"0001-01-01T00:00:00Z","name_a2s":"Uncletopia | London | 8 | Community","protocol":17,"map":"workshop/cp_mannbase_rc2a.ugc1900737467","folder":"tf","game":"Team Fortress","app_id":440,"player_count":17,"max_players":24,"Bots":0,"server_type":"Dedicated","server_os":"Linux","password":true,"vac":true,"version":"7757534","steam_id":85568392924964315,"keywords":["cp","nocrits","nodmgspread","uncletopia"],"game_id":440,"stv_port":27086,"stv_name":"Uncletopia | London | 8 | Community | STV","players":[{"user_id":76,"name":"Son Goku","steam_id":76561199383437138,"connected_time":762000000000,"state":"spawning","ping":436},{"user_id":62,"name":"Kirvis","steam_id":76561198027831643,"connected_time":1520000000000,"state":"spawning","ping":298},{"user_id":86,"name":"Forgotten Weapons","steam_id":76561198047955867,"connected_time":14000000000,"state":"spawning","ping":154},{"user_id":64,"name":"[T]aKer","steam_id":76561198001778013,"connected_time":1500000000000,"state":"active","ping":47},{"user_id":68,"name":"balanced diet","steam_id":76561198240320806,"connected_time":1077000000000,"state":"active","ping":77},{"user_id":9,"name":"OutOfRage","steam_id":76561198211205791,"connected_time":4355000000000,"state":"active","ping":42},{"user_id":85,"name":"soupcanneet","steam_id":76561199477038885,"connected_time":66000000000,"state":"active","ping":72},{"user_id":24,"name":"Nickel","steam_id":76561199037745941,"connected_time":3566000000000,"state":"spawning","ping":209},{"user_id":17,"name":"PizzaPete123","steam_id":76561198089478290,"connected_time":3852000000000,"state":"active","ping":35},{"user_id":52,"name":"w presser","steam_id":76561197994600818,"connected_time":2213000000000,"state":"active","ping":41},{"user_id":27,"name":"silicon based life form","steam_id":76561199127121346,"connected_time":3477000000000,"state":"active","ping":53},{"user_id":75,"name":"Egor Pomidor","steam_id":76561199175688390,"connected_time":886000000000,"state":"active","ping":81},{"user_id":69,"name":"Kedema","steam_id":76561198090183026,"connected_time":1057000000000,"state":"spawning","ping":157},{"user_id":35,"name":"Raymus","steam_id":76561198021330407,"connected_time":3160000000000,"state":"active","ping":53},{"user_id":74,"name":"im pretty glonky","steam_id":76561198256811438,"connected_time":955000000000,"state":"spawning","ping":380},{"user_id":83,"name":"Xoukz","steam_id":76561198356014540,"connected_time":334000000000,"state":"spawning","ping":188},{"user_id":44,"name":"Fat Pigeon","steam_id":76561198817940142,"connected_time":2672000000000,"state":"active","ping":59}]},{"server_id":300,"name":"Uncletopia | Montréal | 1 | All Maps","name_short":"mtl-1","host":"mtl-1.ca.uncletopia.com","port":27015,"enabled":true,"region":"us-east","cc":"ca","latitude":45.50889,"longitude":-73.56167,"reserved":0,"last_update":"0001-01-01T00:00:00Z","name_a2s":"Uncletopia | Montréal | 1 | All Maps","protocol":17,"map":"pl_upward","folder":"tf","game":"Team Fortress","app_id":440,"player_count":0,"max_players":24,"Bots":0,"server_type":"Dedicated","server_os":"Linux","password":true,"vac":true,"version":"7757534","steam_id":85568392924500087,"keywords":["nocrits","nodmgspread","payload","uncletopia"],"game_id":440,"stv_port":27016,"stv_name":"Uncletopia | Montréal | 1 | All Maps | STV","players":null},{"server_id":301,"name":"Uncletopia | Montréal | 2 | All Maps","name_short":"mtl-2","host":"mtl-1.ca.uncletopia.com","port":27025,"enabled":true,"region":"us-east","cc":"ca","latitude":45.50889,"longitude":-73.56167,"reserved":0,"last_update":"0001-01-01T00:00:00Z","name_a2s":"Uncletopia | Montréal | 2 | All Maps","protocol":17,"map":"pl_snowycoast","folder":"tf","game":"Team Fortress","app_id":440,"player_count":0,"max_players":24,"Bots":0,"server_type":"Dedicated","server_os":"Linux","password":true,"vac":true,"version":"7757534","steam_id":85568392924500088,"keywords":["nocrits","nodmgspread","payload","uncletopia"],"game_id":440,"stv_port":27026,"stv_name":"Uncletopia | Montréal | 2 | All Maps | STV","players":null},{"server_id":302,"name":"Uncletopia | Montréal | 3 | All Maps","name_short":"mtl-3","host":"mtl-1.ca.uncletopia.com","port":27035,"enabled":true,"region":"us-east","cc":"ca","latitude":45.50889,"longitude":-73.56167,"reserved":0,"last_update":"0001-01-01T00:00:00Z","name_a2s":"Uncletopia | Montréal | 3 | All Maps","protocol":17,"map":"pl_swiftwater_final1","folder":"tf","game":"Team Fortress","app_id":440,"player_count":0,"max_players":24,"Bots":0,"server_type":"Dedicated","server_os":"Linux","password":true,"vac":true,"version":"7757534","steam_id":85568392924500089,"keywords":["nocrits","nodmgspread","payload","uncletopia"],"game_id":440,"stv_port":27036,"stv_name":"Uncletopia | Montréal | 3 | All Maps | STV","players":null},{"server_id":303,"name":"Uncletopia | Montréal | 4 | No Payload","name_short":"mtl-4","host":"mtl-1.ca.uncletopia.com","port":27045,"enabled":true,"region":"us-east","cc":"ca","latitude":45.50889,"longitude":-73.56167,"reserved":0,"last_update":"0001-01-01T00:00:00Z","name_a2s":"Uncletopia | Montréal | 4 | No Payload","protocol":17,"map":"cp_gravelpit","folder":"tf","game":"Team Fortress","app_id":440,"player_count":0,"max_players":24,"Bots":0,"server_type":"Dedicated","server_os":"Linux","password":true,"vac":true,"version":"7757534","steam_id":85568392924500090,"keywords":["cp","nocrits","nodmgspread","uncletopia"],"game_id":440,"stv_port":27046,"stv_name":"Uncletopia | Montréal | 4 | No Payload | STV","players":null},{"server_id":13,"name":"Uncletopia | New York City | 1 | All Maps","name_short":"nyc-1","host":"nyc-1.us.uncletopia.com","port":27015,"enabled":true,"region":"us-east","cc":"us","latitude":40.73061,"longitude":-73.93524,"reserved":0,"last_update":"0001-01-01T00:00:00Z","name_a2s":"Uncletopia | New York City | 1 | All Maps","protocol":17,"map":"koth_viaduct","folder":"tf","game":"Team Fortress","app_id":440,"player_count":0,"max_players":24,"Bots":0,"server_type":"Dedicated","server_os":"Linux","password":true,"vac":true,"version":"7757534","steam_id":85568392924469993,"keywords":["cp","nocrits","nodmgspread","uncletopia"],"game_id":440,"stv_port":27016,"stv_name":"Uncletopia | New York City | 1 | All Maps | STV","players":null},{"server_id":14,"name":"Uncletopia | New York City | 2 | All Maps","name_short":"nyc-2","host":"nyc-1.us.uncletopia.com","port":27025,"enabled":true,"region":"us-east","cc":"us","latitude":40.73061,"longitude":-73.93524,"reserved":0,"last_update":"0001-01-01T00:00:00Z","name_a2s":"Uncletopia | New York City | 2 | All Maps","protocol":17,"map":"pl_pier","folder":"tf","game":"Team Fortress","app_id":440,"player_count":24,"max_players":24,"Bots":0,"server_type":"Dedicated","server_os":"Linux","password":true,"vac":true,"version":"7757534","steam_id":85568392924469994,"keywords":["nocrits","nodmgspread","payload","uncletopia"],"game_id":440,"stv_port":27026,"stv_name":"Uncletopia | New York City | 2 | All Maps | STV","players":[{"user_id":43,"name":"Epifiny","steam_id":76561198027958086,"connected_time":1652000000000,"state":"active","ping":81},{"user_id":48,"name":"Kite","steam_id":76561199060915563,"connected_time":1092000000000,"state":"active","ping":64},{"user_id":57,"name":"Skrungly","steam_id":76561198072550443,"connected_time":314000000000,"state":"active","ping":44},{"user_id":52,"name":"sauce","steam_id":76561198068430673,"connected_time":861000000000,"state":"active","ping":63},{"user_id":23,"name":"Nurse Swerve","steam_id":76561198051968570,"connected_time":3269000000000,"state":"active","ping":75},{"user_id":58,"name":"Borfus!","steam_id":76561198145272864,"connected_time":219000000000,"state":"active","ping":106},{"user_id":47,"name":"Ejaculation Zach","steam_id":76561198203765200,"connected_time":1102000000000,"state":"active","ping":74},{"user_id":17,"name":"mgeMGE mastr!!!xxxx420","steam_id":76561197979090955,"connected_time":3387000000000,"state":"active","ping":77},{"user_id":51,"name":"Ice cream man","steam_id":76561198051519116,"connected_time":1074000000000,"state":"active","ping":44},{"user_id":59,"name":"shrimp biscuit","steam_id":76561198796398595,"connected_time":218000000000,"state":"active","ping":65},{"user_id":20,"name":"CoconutNeutral","steam_id":76561198277110108,"connected_time":3319000000000,"state":"active","ping":70},{"user_id":21,"name":"Gabe Newell","steam_id":76561198330119627,"connected_time":3311000000000,"state":"active","ping":80},{"user_id":22,"name":"mudman","steam_id":76561198079420187,"connected_time":3293000000000,"state":"active","ping":64},{"user_id":53,"name":"white ray","steam_id":76561198026664629,"connected_time":853000000000,"state":"active","ping":45},{"user_id":25,"name":"[TSG] Turner's Chocolate Milk","steam_id":76561198058963288,"connected_time":3238000000000,"state":"active","ping":55},{"user_id":26,"name":"Gumit","steam_id":76561198208126512,"connected_time":3236000000000,"state":"active","ping":57},{"user_id":54,"name":"AED","steam_id":76561198384123465,"connected_time":722000000000,"state":"active","ping":54},{"user_id":60,"name":"Gandalf Gaming","steam_id":76561198368151490,"connected_time":214000000000,"state":"active","ping":49},{"user_id":37,"name":"Resistance","steam_id":76561198146782074,"connected_time":2850000000000,"state":"active","ping":64},{"user_id":62,"name":"bobo tew","steam_id":76561198259610986,"connected_time":189000000000,"state":"active","ping":97},{"user_id":55,"name":"Gary","steam_id":76561198133309753,"connected_time":491000000000,"state":"active","ping":55},{"user_id":44,"name":"puffy","steam_id":76561198411347037,"connected_time":1332000000000,"state":"active","ping":52},{"user_id":33,"name":"Hoofuyu","steam_id":76561199022142345,"connected_time":3088000000000,"state":"active","ping":87},{"user_id":42,"name":"FUNKY TOWN SLAYER","steam_id":76561198119489292,"connected_time":1695000000000,"state":"active","ping":81}]},{"server_id":15,"name":"Uncletopia | New York City | 3 | Stopwatch Beta","name_short":"nyc-3","host":"nyc-1.us.uncletopia.com","port":27035,"enabled":true,"region":"us-east","cc":"us","latitude":40.73061,"longitude":-73.93524,"reserved":0,"last_update":"0001-01-01T00:00:00Z","name_a2s":"Uncletopia | New York City | 3 | Stopwatch Beta","protocol":17,"map":"pl_upward","folder":"tf","game":"Team Fortress","app_id":440,"player_count":0,"max_players":24,"Bots":0,"server_type":"Dedicated","server_os":"Linux","password":true,"vac":true,"version":"7757534","steam_id":85568392924742820,"keywords":["nocrits","nodmgspread","payload","uncletopia"],"game_id":440,"stv_port":27036,"stv_name":"Uncletopia | New York City | 3 | Stopwatch Beta | STV","players":null},{"server_id":16,"name":"Uncletopia | New York City | 4 | Community","name_short":"nyc-4","host":"nyc-1.us.uncletopia.com","port":27045,"enabled":true,"region":"us-east","cc":"us","latitude":40.73061,"longitude":-73.93524,"reserved":0,"last_update":"0001-01-01T00:00:00Z","name_a2s":"Uncletopia | New York City | 4 | Community","protocol":17,"map":"pl_swiftwater_final1","folder":"tf","game":"Team Fortress","app_id":440,"player_count":0,"max_players":24,"Bots":0,"server_type":"Dedicated","server_os":"Linux","password":true,"vac":true,"version":"7757534","steam_id":85568392924742821,"keywords":["nocrits","nodmgspread","payload","uncletopia"],"game_id":440,"stv_port":27046,"stv_name":"Uncletopia | New York City | 4 | Community | STV","players":null},{"server_id":142,"name":"Uncletopia | São Paulo | 1 | All Maps","name_short":"sao-1","host":"sao-1.br.uncletopia.com","port":27015,"enabled":true,"region":"sa","cc":"br","latitude":-23.533773,"longitude":-46.62529,"reserved":0,"last_update":"0001-01-01T00:00:00Z","name_a2s":"Uncletopia | São Paulo | 1 | All Maps","protocol":17,"map":"koth_lakeside_final","folder":"tf","game":"Team Fortress","app_id":440,"player_count":0,"max_players":24,"Bots":0,"server_type":"Dedicated","server_os":"Linux","password":true,"vac":true,"version":"7757534","steam_id":85568392924469996,"keywords":["cp","nocrits","nodmgspread","uncletopia"],"game_id":440,"stv_port":27016,"stv_name":"Uncletopia | São Paulo | 1 | All Maps | STV","players":null},{"server_id":143,"name":"Uncletopia | São Paulo | 2 | All Maps","name_short":"sao-2","host":"sao-2.br.uncletopia.com","port":27015,"enabled":true,"region":"sa","cc":"br","latitude":-23.533773,"longitude":-46.62529,"reserved":0,"last_update":"0001-01-01T00:00:00Z","name_a2s":"Uncletopia | São Paulo | 2 | All Maps","protocol":17,"map":"cp_process_final","folder":"tf","game":"Team Fortress","app_id":440,"player_count":0,"max_players":24,"Bots":0,"server_type":"Dedicated","server_os":"Linux","password":true,"vac":true,"version":"7757534","steam_id":85568392924485349,"keywords":["cp","nocrits","nodmgspread","uncletopia"],"game_id":440,"stv_port":27016,"stv_name":"Uncletopia | São Paulo | 2 | All Maps | STV","players":null},{"server_id":7,"name":"Uncletopia | Seattle | 1 | All Maps","name_short":"sea-1","host":"sea-1.us.uncletopia.com","port":27015,"enabled":true,"region":"us-west","cc":"us","latitude":47.608013,"longitude":-122.33517,"reserved":0,"last_update":"0001-01-01T00:00:00Z","name_a2s":"Uncletopia | Seattle | 1 | All Maps","protocol":17,"map":"cp_snakewater_final1","folder":"tf","game":"Team Fortress","app_id":440,"player_count":13,"max_players":24,"Bots":0,"server_type":"Dedicated","server_os":"Linux","password":true,"vac":true,"version":"7757534","steam_id":85568392924469997,"keywords":["cp","nocrits","nodmgspread","uncletopia"],"game_id":440,"stv_port":27016,"stv_name":"Uncletopia | Seattle | 1 | All Maps | STV","players":[{"user_id":25,"name":"rustyorion","steam_id":76561198439186347,"connected_time":1327000000000,"state":"active","ping":61},{"user_id":42,"name":"PinHead","steam_id":76561198415627181,"connected_time":319000000000,"state":"active","ping":115},{"user_id":10,"name":"watchfull","steam_id":76561198433266742,"connected_time":2288000000000,"state":"active","ping":57},{"user_id":26,"name":"Blue Protogen - 001198","steam_id":76561198145791867,"connected_time":977000000000,"state":"active","ping":74},{"user_id":43,"name":"fancyfreak","steam_id":76561198326466375,"connected_time":172000000000,"state":"active","ping":75},{"user_id":19,"name":"Festive Bastard","steam_id":76561198094512904,"connected_time":1698000000000,"state":"active","ping":110},{"user_id":44,"name":"Shooting Straight","steam_id":76561199253685861,"connected_time":56000000000,"state":"active","ping":348},{"user_id":39,"name":"Downy the retarded clown","steam_id":76561199028531610,"connected_time":438000000000,"state":"active","ping":161},{"user_id":40,"name":"Awenova","steam_id":76561198322928940,"connected_time":404000000000,"state":"active","ping":105},{"user_id":34,"name":"The idiot sponge man","steam_id":76561198831912024,"connected_time":660000000000,"state":"active","ping":121},{"user_id":29,"name":"Tyler\u0026Fingers","steam_id":76561198085154485,"connected_time":930000000000,"state":"active","ping":135},{"user_id":30,"name":"\u003c`)))))\u003c fish","steam_id":76561198410078962,"connected_time":915000000000,"state":"active","ping":85},{"user_id":33,"name":"LucienGab","steam_id":76561198298941086,"connected_time":741000000000,"state":"active","ping":88}]},{"server_id":119,"name":"Uncletopia | Seattle | 2 | All Maps","name_short":"sea-2","host":"sea-1.us.uncletopia.com","port":27025,"enabled":true,"region":"us-west","cc":"us","latitude":47.608013,"longitude":-122.33517,"reserved":0,"last_update":"0001-01-01T00:00:00Z","name_a2s":"Uncletopia | Seattle | 2 | All Maps","protocol":17,"map":"cp_process_final","folder":"tf","game":"Team Fortress","app_id":440,"player_count":0,"max_players":24,"Bots":0,"server_type":"Dedicated","server_os":"Linux","password":true,"vac":true,"version":"7757534","steam_id":85568392924469998,"keywords":["cp","nocrits","nodmgspread","uncletopia"],"game_id":440,"stv_port":27026,"stv_name":"Uncletopia | Seattle | 2 | All Maps | STV","players":null},{"server_id":406,"name":"Uncletopia | Seattle | 3 | Stopwatch Beta","name_short":"sea-3","host":"sea-1.us.uncletopia.com","port":27035,"enabled":true,"region":"us-west","cc":"us","latitude":47.608013,"longitude":-122.33517,"reserved":0,"last_update":"0001-01-01T00:00:00Z","name_a2s":"Uncletopia | Seattle | 3 | Stopwatch Beta","protocol":17,"map":"cp_dustbowl","folder":"tf","game":"Team Fortress","app_id":440,"player_count":0,"max_players":24,"Bots":0,"server_type":"Dedicated","server_os":"Linux","password":true,"vac":true,"version":"7757534","steam_id":85568392924515217,"keywords":["cp","nocrits","nodmgspread","uncletopia"],"game_id":440,"stv_port":27036,"stv_name":"Uncletopia | Seattle | 3 | Stopwatch Beta | STV","players":null},{"server_id":17,"name":"Uncletopia | San Francisco | 1 | All Maps","name_short":"sfo-1","host":"sfo-1.us.uncletopia.com","port":27015,"enabled":true,"region":"us-west","cc":"us","latitude":37.77397,"longitude":-122.4313,"reserved":0,"last_update":"0001-01-01T00:00:00Z","name_a2s":"Uncletopia | San Francisco | 1 | All Maps","protocol":17,"map":"cp_process_final","folder":"tf","game":"Team Fortress","app_id":440,"player_count":0,"max_players":24,"Bots":0,"server_type":"Dedicated","server_os":"Linux","password":true,"vac":true,"version":"7757534","steam_id":85568392924469999,"keywords":["cp","nocrits","nodmgspread","uncletopia"],"game_id":440,"stv_port":27016,"stv_name":"Uncletopia | San Francisco | 1 | All Maps | STV","players":null},{"server_id":18,"name":"Uncletopia | San Francisco | 2 | All Maps","name_short":"sfo-2","host":"sfo-1.us.uncletopia.com","port":27025,"enabled":true,"region":"us-west","cc":"us","latitude":37.77397,"longitude":-122.4313,"reserved":0,"last_update":"0001-01-01T00:00:00Z","name_a2s":"Uncletopia | San Francisco | 2 | All Maps","protocol":17,"map":"koth_highpass","folder":"tf","game":"Team Fortress","app_id":440,"player_count":0,"max_players":24,"Bots":0,"server_type":"Dedicated","server_os":"Linux","password":true,"vac":true,"version":"7757534","steam_id":85568392924470000,"keywords":["cp","nocrits","nodmgspread","uncletopia"],"game_id":440,"stv_port":27026,"stv_name":"Uncletopia | San Francisco | 2 | All Maps | STV","players":null},{"server_id":19,"name":"Uncletopia | San Francisco | 3 | Stopwatch Beta","name_short":"sfo-3","host":"sfo-1.us.uncletopia.com","port":27035,"enabled":true,"region":"us-west","cc":"us","latitude":37.77397,"longitude":-122.4313,"reserved":0,"last_update":"0001-01-01T00:00:00Z","name_a2s":"Uncletopia | San Francisco | 3 | Stopwatch Beta","protocol":17,"map":"koth_lakeside_final","folder":"tf","game":"Team Fortress","app_id":440,"player_count":0,"max_players":24,"Bots":0,"server_type":"Dedicated","server_os":"Linux","password":true,"vac":true,"version":"7757534","steam_id":85568392924742824,"keywords":["cp","nocrits","nodmgspread","uncletopia"],"game_id":440,"stv_port":27036,"stv_name":"Uncletopia | San Francisco | 3 | Stopwatch Beta | STV","players":null},{"server_id":20,"name":"Uncletopia | San Francisco | 4 | Community","name_short":"sfo-4","host":"sfo-1.us.uncletopia.com","port":27045,"enabled":true,"region":"us-west","cc":"us","latitude":37.77397,"longitude":-122.4313,"reserved":0,"last_update":"0001-01-01T00:00:00Z","name_a2s":"Uncletopia | San Francisco | 4 | Community","protocol":17,"map":"cp_altitude","folder":"tf","game":"Team Fortress","app_id":440,"player_count":0,"max_players":24,"Bots":0,"server_type":"Dedicated","server_os":"Linux","password":true,"vac":true,"version":"7757534","steam_id":85568392924742826,"keywords":["cp","nocrits","nodmgspread","uncletopia"],"game_id":440,"stv_port":27046,"stv_name":"Uncletopia | San Francisco | 4 | Community | STV","players":null},{"server_id":141,"name":"Uncletopia | Sydney | 1 | All Maps","name_short":"syd-1","host":"syd-1.au.uncletopia.com","port":27015,"enabled":true,"region":"au","cc":"au","latitude":-33.865143,"longitude":151.2099,"reserved":0,"last_update":"0001-01-01T00:00:00Z","name_a2s":"Uncletopia | Sydney | 1 | All Maps","protocol":17,"map":"pl_barnblitz","folder":"tf","game":"Team Fortress","app_id":440,"player_count":0,"max_players":24,"Bots":0,"server_type":"Dedicated","server_os":"Linux","password":true,"vac":true,"version":"7757534","steam_id":85568392924470001,"keywords":["nocrits","nodmgspread","payload","uncletopia"],"game_id":440,"stv_port":27016,"stv_name":"Uncletopia | Sydney | 1 | All Maps | STV","players":null},{"server_id":123,"name":"Uncletopia | Sydney | 2 | All Maps","name_short":"syd-2","host":"syd-1.au.uncletopia.com","port":27025,"enabled":true,"region":"au","cc":"au","latitude":-33.865143,"longitude":151.2099,"reserved":0,"last_update":"0001-01-01T00:00:00Z","name_a2s":"Uncletopia | Sydney | 2 | All Maps","protocol":17,"map":"cp_snakewater_final1","folder":"tf","game":"Team Fortress","app_id":440,"player_count":0,"max_players":24,"Bots":0,"server_type":"Dedicated","server_os":"Linux","password":true,"vac":true,"version":"7757534","steam_id":85568392924470002,"keywords":["cp","nocrits","nodmgspread","uncletopia"],"game_id":440,"stv_port":27026,"stv_name":"Uncletopia | Sydney | 2 | All Maps | STV","players":null},{"server_id":395,"name":"Uncletopia | Sydney | 3 | All Maps","name_short":"syd-3","host":"syd-1.au.uncletopia.com","port":27035,"enabled":true,"region":"au","cc":"au","latitude":-33.865143,"longitude":151.2099,"reserved":0,"last_update":"0001-01-01T00:00:00Z","name_a2s":"Uncletopia | Sydney | 3 | All Maps","protocol":17,"map":"cp_sunshine","folder":"tf","game":"Team Fortress","app_id":440,"player_count":0,"max_players":24,"Bots":0,"server_type":"Dedicated","server_os":"Linux","password":true,"vac":true,"version":"7757534","steam_id":85568392925194467,"keywords":["cp","nocrits","nodmgspread","uncletopia"],"game_id":440,"stv_port":27036,"stv_name":"Uncletopia | Sydney | 3 | All Maps | STV","players":null},{"server_id":396,"name":"Uncletopia | Sydney | 4 | All Maps","name_short":"syd-4","host":"syd-1.au.uncletopia.com","port":27045,"enabled":true,"region":"au","cc":"au","latitude":-33.865143,"longitude":151.2099,"reserved":0,"last_update":"0001-01-01T00:00:00Z","name_a2s":"Uncletopia | Sydney | 4 | All Maps","protocol":17,"map":"koth_highpass","folder":"tf","game":"Team Fortress","app_id":440,"player_count":0,"max_players":24,"Bots":0,"server_type":"Dedicated","server_os":"Linux","password":true,"vac":true,"version":"7757534","steam_id":85568392925397958,"keywords":["cp","nocrits","nodmgspread","uncletopia"],"game_id":440,"stv_port":27046,"stv_name":"Uncletopia | Sydney | 4 | All Maps | STV","players":null},{"server_id":58,"name":"Uncletopia | Sydney | 5 | Stopwatch Beta","name_short":"syd-5","host":"syd-1.au.uncletopia.com","port":27055,"enabled":true,"region":"au","cc":"au","latitude":-33.865143,"longitude":151.2099,"reserved":0,"last_update":"0001-01-01T00:00:00Z","name_a2s":"Uncletopia | Sydney | 5 | Stopwatch Beta","protocol":17,"map":"koth_cascade","folder":"tf","game":"Team Fortress","app_id":440,"player_count":0,"max_players":24,"Bots":0,"server_type":"Dedicated","server_os":"Linux","password":true,"vac":true,"version":"7757534","steam_id":85568392925397959,"keywords":["cp","nocrits","nodmgspread","uncletopia"],"game_id":440,"stv_port":27056,"stv_name":"Uncletopia | Sydney | 5 | Stopwatch Beta | STV","players":null},{"server_id":59,"name":"Uncletopia | Sydney | 6 | Community","name_short":"syd-6","host":"syd-1.au.uncletopia.com","port":27065,"enabled":true,"region":"au","cc":"au","latitude":-33.865143,"longitude":151.2099,"reserved":0,"last_update":"0001-01-01T00:00:00Z","name_a2s":"Uncletopia | Sydney | 6 | Community","protocol":17,"map":"workshop/koth_trenchfoot_b1a.ugc731436616","folder":"tf","game":"Team Fortress","app_id":440,"player_count":0,"max_players":24,"Bots":0,"server_type":"Dedicated","server_os":"Linux","password":true,"vac":true,"version":"7757534","steam_id":85568392925397960,"keywords":["cp","nocrits","nodmgspread","uncletopia"],"game_id":440,"stv_port":27066,"stv_name":"Uncletopia | Sydney | 6 | Community | STV","players":null},{"server_id":49,"name":"Uncletopia | Warsaw | 1 | All Maps","name_short":"waw-1","host":"waw-1.pl.uncletopia.com","port":27015,"enabled":true,"region":"eu","cc":"pl","latitude":52.2297,"longitude":21.017532,"reserved":0,"last_update":"0001-01-01T00:00:00Z","name_a2s":"","protocol":0,"map":"","folder":"","game":"","app_id":0,"player_count":0,"max_players":0,"Bots":0,"server_type":"","server_os":"","password":false,"vac":false,"version":"","steam_id":0,"keywords":null,"game_id":0,"stv_port":0,"stv_name":"","players":null},{"server_id":50,"name":"Uncletopia | Warsaw | 2 | All Maps","name_short":"waw-2","host":"waw-1.pl.uncletopia.com","port":27025,"enabled":true,"region":"eu","cc":"pl","latitude":52.2297,"longitude":21.017532,"reserved":0,"last_update":"0001-01-01T00:00:00Z","name_a2s":"Uncletopia | Warsaw | 2 | All Maps","protocol":17,"map":"koth_viaduct","folder":"tf","game":"Team Fortress","app_id":440,"player_count":0,"max_players":24,"Bots":0,"server_type":"Dedicated","server_os":"Linux","password":true,"vac":true,"version":"7757534","steam_id":85568392925397851,"keywords":["cp","nocrits","nodmgspread","uncletopia"],"game_id":440,"stv_port":27026,"stv_name":"Uncletopia | Warsaw | 2 | All Maps | STV","players":null},{"server_id":51,"name":"Uncletopia | Warsaw | 3 | All Maps","name_short":"waw-3","host":"waw-1.pl.uncletopia.com","port":27035,"enabled":true,"region":"eu","cc":"pl","latitude":52.2297,"longitude":21.017532,"reserved":0,"last_update":"0001-01-01T00:00:00Z","name_a2s":"Uncletopia | Warsaw | 3 | All Maps","protocol":17,"map":"pl_badwater","folder":"tf","game":"Team Fortress","app_id":440,"player_count":0,"max_players":24,"Bots":0,"server_type":"Dedicated","server_os":"Linux","password":true,"vac":true,"version":"7757534","steam_id":85568392925397852,"keywords":["nocrits","nodmgspread","payload","uncletopia"],"game_id":440,"stv_port":27036,"stv_name":"Uncletopia | Warsaw | 3 | All Maps | STV","players":null},{"server_id":52,"name":"Uncletopia | Warsaw | 4 | All Maps","name_short":"waw-4","host":"waw-1.pl.uncletopia.com","port":27045,"enabled":true,"region":"eu","cc":"pl","latitude":52.2297,"longitude":21.017532,"reserved":0,"last_update":"0001-01-01T00:00:00Z","name_a2s":"Uncletopia | Warsaw | 4 | All Maps","protocol":17,"map":"koth_lakeside_final","folder":"tf","game":"Team Fortress","app_id":440,"player_count":0,"max_players":24,"Bots":0,"server_type":"Dedicated","server_os":"Linux","password":true,"vac":true,"version":"7757534","steam_id":85568392925397853,"keywords":["cp","nocrits","nodmgspread","uncletopia"],"game_id":440,"stv_port":27046,"stv_name":"Uncletopia | Warsaw | 4 | All Maps | STV","players":null},{"server_id":53,"name":"Uncletopia | Warsaw | 5 | Stopwatch Beta","name_short":"waw-5","host":"waw-1.pl.uncletopia.com","port":27055,"enabled":true,"region":"eu","cc":"pl","latitude":52.2297,"longitude":21.017532,"reserved":0,"last_update":"0001-01-01T00:00:00Z","name_a2s":"Uncletopia | Warsaw | 5 | Stopwatch Beta","protocol":17,"map":"pl_borneo","folder":"tf","game":"Team Fortress","app_id":440,"player_count":0,"max_players":24,"Bots":0,"server_type":"Dedicated","server_os":"Linux","password":true,"vac":true,"version":"7757534","steam_id":85568392925397854,"keywords":["nocrits","nodmgspread","payload","uncletopia"],"game_id":440,"stv_port":27056,"stv_name":"Uncletopia | Warsaw | 5 | Stopwatch Beta | STV","players":null},{"server_id":54,"name":"Uncletopia | Warsaw | 6 | Community","name_short":"waw-6","host":"waw-1.pl.uncletopia.com","port":27065,"enabled":true,"region":"eu","cc":"pl","latitude":52.2297,"longitude":21.017532,"reserved":0,"last_update":"0001-01-01T00:00:00Z","name_a2s":"Uncletopia | Warsaw | 6 | Community","protocol":17,"map":"koth_lakeside_final","folder":"tf","game":"Team Fortress","app_id":440,"player_count":0,"max_players":24,"Bots":0,"server_type":"Dedicated","server_os":"Linux","password":true,"vac":true,"version":"7757534","steam_id":85568392925397856,"keywords":["cp","nocrits","nodmgspread","uncletopia"],"game_id":440,"stv_port":27066,"stv_name":"Uncletopia | Warsaw | 6 | Community | STV","players":null}]}