{"status":true,"message":"","result":[{"server_id":9,"name":"Uncletopia | Atlanta | 1 | All Maps","name_short":"atl-1","host":"atl-1.us.uncletopia.com","port":27015,"enabled":true,"region":"us-east","cc":"us","latitude":33.753746,"longitude":-84.38633,"reserved":0,"last_update":"0001-01-01T00:00:00Z","name_a2s":"Uncletopia | Atlanta | 1 | All Maps","protocol":17,"map":"pl_swiftwater_final1","folder":"tf","game":"Team Fortress","app_id":440,"player_count":0,"max_players":24,"Bots":0,"server_type":"Dedicated","server_os":"Linux","password":true,"vac":true,"version":"7757534","steam_id":85568392924469982,"keywords":["nocrits","nodmgspread","payload","uncletopia"],"game_id":440,"stv_port":27016,"stv_name":"Uncletopia | Atlanta | 1 | All Maps | STV","players":null},{"server_id":104,"name":"Uncletopia | Atlanta | 2 | All Maps","name_short":"atl-2","host":"atl-1.us.uncletopia.com","port":27025,"enabled":true,"region":"us-east","cc":"us","latitude":33.753746,"longitude":-84.38633,"reserved":0,"last_update":"0001-01-01T00:00:00Z","name_a2s":"Uncletopia | Atlanta | 2 | All Maps","protocol":17,"map":"pl_upward","folder":"tf","game":"Team Fortress","app_id":440,"player_count":24,"max_players":24,"Bots":0,"server_type":"Dedicated","server_os":"Linux","password":true,"vac":true,"version":"7757534","steam_id":85568392924469983,"keywords":["nocrits","nodmgspread","payload","uncletopia"],"game_id":440,"stv_port":27026,"stv_name":"Uncletopia | Atlanta | 2 | All Maps | STV","players":[{"user_id":846,"name":"raya","steam_id":76561198051504581,"connected_time":4118000000000,"state":"active","ping":69},{"user_id":878,"name":"The Great Karizma!","steam_id":76561198346191193,"connected_time":966000000000,"state":"active","ping":100},{"user_id":879,"name":"Onyx","steam_id":76561198275349640,"connected_time":892000000000,"state":"active","ping":72},{"user_id":814,"name":"you've been deuced on!","steam_id":76561198236028020,"connected_time":6867000000000,"state":"active","ping":97},{"user_id":876,"name":"puppy boy","steam_id":76561198255639473,"connected_time":1536000000000,"state":"active","ping":75},{"user_id":809,"name":"ya!!!","steam_id":76561198243965308,"connected_time":6914000000000,"state":"active","ping":55},{"user_id":857,"name":"Joker's Skull","steam_id":76561199185320627,"connected_time":3011000000000,"state":"active","ping":162},{"user_id":858,"name":"cook","steam_id":76561198090531755,"connected_time":2935000000000,"state":"active","ping":68},{"user_id":811,"name":"King Domino","steam_id":76561198297831848,"connected_time":6893000000000,"state":"active","ping":56},{"user_id":838,"name":"SIGMA [BS]","steam_id":76561197962604879,"connected_time":4930000000000,"state":"active","ping":61},{"user_id":815,"name":"SCOTLAND FOREVER","steam_id":76561198046472986,"connected_time":6857000000000,"state":"active","ping":66},{"user_id":870,"name":"dzcreeper","steam_id":76561198072250723,"connected_time":1966000000000,"state":"active","ping":111},{"user_id":880,"name":"Blaer","steam_id":76561198030462084,"connected_time":855000000000,"state":"active","ping":71},{"user_id":884,"name":"mechiimi ★","steam_id":76561198321627268,"connected_time":706000000000,"state":"active","ping":110},{"user_id":871,"name":"I'll be okay","steam_id":76561198258126130,"connected_time":1917000000000,"state":"active","ping":72},{"user_id":819,"name":"Faraday","steam_id":76561198089928357,"connected_time":6598000000000,"state":"active","ping":79},{"user_id":873,"name":"Victor Crespo","steam_id":76561197996389261,"connected_time":1754000000000,"state":"active","ping":184},{"user_id":881,"name":"pigswill","steam_id":76561197999081865,"connected_time":842000000000,"state":"active","ping":75},{"user_id":885,"name":"gromit","steam_id":76561198037746805,"connected_time":581000000000,"state":"active","ping":75},{"user_id":886,"name":"pissman","steam_id":76561199096391889,"connected_time":441000000000,"state":"active","ping":85},{"user_id":888,"name":"bahamut315","steam_id":76561199229857728,"connected_time":385000000000,"state":"active","ping":60},{"user_id":863,"name":"An Actual Duck","steam_id":76561198040371105,"connected_time":2609000000000,"state":"active","ping":92},{"user_id":864,"name":"Anxiety","steam_id":76561198365627687,"connected_time":2526000000000,"state":"active","ping":111},{"user_id":868,"name":"Wumps","steam_id":76561198207226825,"connected_time":2139000000000,"state":"active","ping":73}]},{"server_id":400,"name":"Uncletopia | Atlanta | 3 | Community","name_short":"atl-3","host":"atl-1.us.uncletopia.com","port":27035,"enabled":true,"region":"us-east","cc":"us","latitude":33.753746,"longitude":-84.38633,"reserved":0,"last_update":"0001-01-01T00:00:00Z","name_a2s":"Uncletopia | Atlanta | 3 | Community","protocol":17,"map":"workshop/pl_highwood_b13.ugc1769496557","folder":"tf","game":"Team Fortress","app_id":440,"player_count":0,"max_players":24,"Bots":0,"server_type":"Dedicated","server_os":"Linux","password":true,"vac":true,"version":"7757534","steam_id":85568392924515187,"keywords":["nocrits","nodmgspread","payload","uncletopia"],"game_id":440,"stv_port":27036,"stv_name":"Uncletopia | Atlanta | 3 | Community | STV","players":null},{"server_id":401,"name":"Uncletopia | Atlanta | 4 | No Payload","name_short":"atl-4","host":"atl-1.us.uncletopia.com","port":27045,"enabled":true,"region":"us-east","cc":"us","latitude":33.753746,"longitude":-84.38633,"reserved":0,"last_update":"0001-01-01T00:00:00Z","name_a2s":"","protocol":0,"map":"","folder":"","game":"","app_id":0,"player_count":0,"max_players":0,"Bots":0,"server_type":"","server_os":"","password":false,"vac":false,"version":"","steam_id":0,"keywords":null,"game_id":0,"stv_port":0,"stv_name":"","players":null},{"server_id":2,"name":"Uncletopia | Chicago | 1 | All Maps","name_short":"chi-1","host":"chi-1.us.uncletopia.com","port":27015,"enabled":true,"region":"us-central","cc":"us","latitude":41.881832,"longitude":-87.62318,"reserved":0,"last_update":"0001-01-01T00:00:00Z","name_a2s":"Uncletopia | Chicago | 1 | All Maps","protocol":17,"map":"cp_process_final","folder":"tf","game":"Team Fortress","app_id":440,"player_count":24,"max_players":24,"Bots":0,"server_type":"Dedicated","server_os":"Linux","password":true,"vac":true,"version":"7757534","steam_id":85568392924469984,"keywords":["cp","nocrits","nodmgspread","uncletopia"],"game_id":440,"stv_port":27016,"stv_name":"Uncletopia | Chicago | 1 | All Maps | STV","players":[{"user_id":1005,"name":"bur","steam_id":76561198004231658,"connected_time":1846000000000,"state":"active","ping":56},{"user_id":1017,"name":"Harusrl :3","steam_id":76561199013638132,"connected_time":890000000000,"state":"active","ping":57},{"user_id":1006,"name":"lynt","steam_id":76561198988333976,"connected_time":1670000000000,"state":"active","ping":55},{"user_id":1010,"name":"Howard Hamlin","steam_id":76561198881039861,"connected_time":1285000000000,"state":"active","ping":51},{"user_id":999,"name":"Project_Counter","steam_id":76561198152786076,"connected_time":2353000000000,"state":"active","ping":75},{"user_id":1004,"name":"Flaming O'Gaming","steam_id":76561198044185725,"connected_time":1891000000000,"state":"active","ping":81},{"user_id":990,"name":"EJ 2 u","steam_id":76561198242738174,"connected_time":2976000000000,"state":"active","ping":54},{"user_id":1022,"name":"exer","steam_id":76561197973093864,"connected_time":284000000000,"state":"active","ping":68},{"user_id":1008,"name":"Pizza","steam_id":76561198207407833,"connected_time":1301000000000,"state":"active","ping":63},{"user_id":971,"name":"Imanub","steam_id":76561199004541513,"connected_time":4171000000000,"state":"active","ping":84},{"user_id":1016,"name":"aaron","steam_id":76561198308883028,"connected_time":1060000000000,"state":"active","ping":109},{"user_id":991,"name":"The Goose","steam_id":76561199006093549,"connected_time":2908000000000,"state":"active","ping":66},{"user_id":973,"name":"FlyCozy","steam_id":76561199473077415,"connected_time":4050000000000,"state":"active","ping":99},{"user_id":992,"name":"BackToSchoolAds","steam_id":76561198870281128,"connected_time":2871000000000,"state":"active","ping":83},{"user_id":947,"name":"moo'j","steam_id":76561198105230045,"connected_time":5193000000000,"state":"active","ping":75},{"user_id":987,"name":"TheAilingSword","steam_id":76561198250350844,"connected_time":3007000000000,"state":"active","ping":60},{"user_id":994,"name":"coom","steam_id":76561198078189844,"connected_time":2830000000000,"state":"active","ping":58},{"user_id":1019,"name":"Alice in Rubberland","steam_id":76561198087328346,"connected_time":634000000000,"state":"active","ping":44},{"user_id":981,"name":"Hey","steam_id":76561198447517893,"connected_time":3419000000000,"state":"active","ping":77},{"user_id":1011,"name":"Spy Gaming","steam_id":76561198453295613,"connected_time":1285000000000,"state":"active","ping":110},{"user_id":1021,"name":"Supreme Cumlord Supreme","steam_id":76561198026046132,"connected_time":503000000000,"state":"active","ping":75},{"user_id":1018,"name":"Mr. Gainsalot","steam_id":76561198083851689,"connected_time":737000000000,"state":"active","ping":60},{"user_id":1020,"name":"Tobo","steam_id":76561198085846393,"connected_time":629000000000,"state":"active","ping":94},{"user_id":1014,"name":"be","steam_id":76561198000824533,"connected_time":1234000000000,"state":"active","ping":84}]},{"server_id":106,"name":"Uncletopia | Chicago | 2 | All Maps","name_short":"chi-2","host":"chi-1.us.uncletopia.com","port":27025,"enabled":true,"region":"us-central","cc":"us","latitude":41.881832,"longitude":-87.62318,"reserved":0,"last_update":"0001-01-01T00:00:00Z","name_a2s":"Uncletopia | Chicago | 2 | All Maps","protocol":17,"map":"cp_mountainlab","folder":"tf","game":"Team Fortress","app_id":440,"player_count":0,"max_players":24,"Bots":0,"server_type":"Dedicated","server_os":"Linux","password":true,"vac":true,"version":"7757534","steam_id":85568392924469985,"keywords":["cp","nocrits","nodmgspread","uncletopia"],"game_id":440,"stv_port":27026,"stv_name":"Uncletopia | Chicago | 2 | All Maps | STV","players":null},{"server_id":402,"name":"Uncletopia | Chicago | 3 | All Maps","name_short":"chi-3","host":"chi-1.us.uncletopia.com","port":27035,"enabled":true,"region":"us-central","cc":"us","latitude":41.881832,"longitude":-87.62318,"reserved":0,"last_update":"0001-01-01T00:00:00Z","name_a2s":"Uncletopia | Chicago | 3 | All Maps","protocol":17,"map":"ctf_turbine","folder":"tf","game":"Team Fortress","app_id":440,"player_count":0,"max_players":24,"Bots":0,"server_type":"Dedicated","server_os":"Linux","password":true,"vac":true,"version":"7757534","steam_id":85568392924515191,"keywords":["ctf","nocrits","nodmgspread","uncletopia"],"game_id":440,"stv_port":27036,"stv_name":"Uncletopia | Chicago | 3 | All Maps | STV","players":null},{"server_id":403,"name":"Uncletopia | Chicago | 4 | All Maps","name_short":"chi-4","host":"chi-1.us.uncletopia.com","port":27045,"enabled":true,"region":"us-central","cc":"us","latitude":41.881832,"longitude":-87.62318,"reserved":0,"last_update":"0001-01-01T00:00:00Z","name_a2s":"Uncletopia | Chicago | 4 | All Maps","protocol":17,"map":"cp_altitude","folder":"tf","game":"Team Fortress","app_id":440,"player_count":24,"max_players":24,"Bots":0,"server_type":"Dedicated","server_os":"Linux","password":true,"vac":true,"version":"7757534","steam_id":85568392924515193,"keywords":["cp","nocrits","nodmgspread","uncletopia"],"game_id":440,"stv_port":27046,"stv_name":"Uncletopia | Chicago | 4 | All Maps | STV","players":[{"user_id":585,"name":"Vorce","steam_id":76561198998082956,"connected_time":5536000000000,"state":"active","ping":46},{"user_id":596,"name":"Dot.","steam_id":76561198149463984,"connected_time":4942000000000,"state":"active","ping":47},{"user_id":646,"name":"boy from the rafters","steam_id":76561198042926224,"connected_time":1287000000000,"state":"active","ping":81},{"user_id":662,"name":"sqwyrm","steam_id":76561198171032997,"connected_time":541000000000,"state":"active","ping":108},{"user_id":669,"name":"ruin","steam_id":76561199439050550,"connected_time":261000000000,"state":"active","ping":87},{"user_id":670,"name":"hud_saytext_time 0","steam_id":76561198010327228,"connected_time":243000000000,"state":"active","ping":172},{"user_id":650,"name":"Gumthrax™","steam_id":76561198047286282,"connected_time":1214000000000,"state":"active","ping":49},{"user_id":671,"name":"BurnN8or101","steam_id":76561198132668224,"connected_time":217000000000,"state":"active","ping":63},{"user_id":648,"name":"cold","steam_id":76561198841186531,"connected_time":1268000000000,"state":"active","ping":133},{"user_id":607,"name":"Matches_                       ","steam_id":76561198048925904,"connected_time":3577000000000,"state":"active","ping":110},{"user_id":649,"name":"random person","steam_id":76561199185654282,"connected_time":1254000000000,"state":"active","ping":54},{"user_id":672,"name":"kingeibon","steam_id":76561198056238702,"connected_time":120000000000,"state":"active","ping":71},{"user_id":653,"name":"Ket","steam_id":76561198241951244,"connected_time":1190000000000,"state":"active","ping":62},{"user_id":588,"name":"HOODEDLAWYER285","steam_id":76561198156496197,"connected_time":5505000000000,"state":"active","ping":53},{"user_id":658,"name":"Spinomite","steam_id":76561198247491242,"connected_time":998000000000,"state":"active","ping":95},{"user_id":667,"name":"luigi","steam_id":76561198108673753,"connected_time":393000000000,"state":"active","ping":59},{"user_id":673,"name":"Drunkard Bocchi","steam_id":76561198025668771,"connected_time":80000000000,"state":"active","ping":130},{"user_id":609,"name":"honked off the bobo","steam_id":76561198123287268,"connected_time":3537000000000,"state":"active","ping":47},{"user_id":628,"name":"My dad owns Club Penguin.","steam_id":76561198032864436,"connected_time":2495000000000,"state":"active","ping":72},{"user_id":655,"name":"Warm Embraces","steam_id":76561198798931344,"connected_time":1186000000000,"state":"active","ping":81},{"user_id":664,"name":"Lore","steam_id":76561198098407538,"connected_time":498000000000,"state":"active","ping":49},{"user_id":666,"name":"FT","steam_id":76561198010452388,"connected_time":493000000000,"state":"active","ping":84},{"user_id":661,"name":"An Axe Man With An Axe Plan","steam_id":76561199031265293,"connected_time":958000000000,"state":"active","ping":71},{"user_id":642,"name":"RURU","steam_id":76561198039758987,"connected_time":1462000000000,"state":"active","ping":99}]},{"server_id":36,"name":"Uncletopia | Chicago | 5 | All Maps","name_short":"chi-5","host":"chi-2.us.uncletopia.com","port":27015,"enabled":true,"region":"us-central","cc":"us","latitude":41.881832,"longitude":-87.62318,"reserved":0,"last_update":"0001-01-01T00:00:00Z","name_a2s":"Uncletopia | Chicago | 5 | All Maps","protocol":17,"map":"cp_mountainlab","folder":"tf","game":"Team Fortress","app_id":440,"player_count":0,"max_players":24,"Bots":0,"server_type":"Dedicated","server_os":"Linux","password":true,"vac":true,"version":"7757534","steam_id":85568392924866362,"keywords":["cp","nocrits","nodmgspread","uncletopia"],"game_id":440,"stv_port":27016,"stv_name":"Uncletopia | Chicago | 5 | All Maps | STV","players":null},{"server_id":37,"name":"Uncletopia | Chicago | 6 | All Maps","name_short":"chi-6","host":"chi-2.us.uncletopia.com","port":27025,"enabled":true,"region":"us-central","cc":"us","latitude":41.881832,"longitude":-87.62318,"reserved":0,"last_update":"0001-01-01T00:00:00Z","name_a2s":"Uncletopia | Chicago | 6 | All Maps","protocol":17,"map":"koth_king","folder":"tf","game":"Team Fortress","app_id":440,"player_count":0,"max_players":24,"Bots":0,"server_type":"Dedicated","server_os":"Linux","password":true,"vac":true,"version":"7757534","steam_id":85568392924866363,"keywords":["cp","nocrits","nodmgspread","uncletopia"],"game_id":440,"stv_port":27026,"stv_name":"Uncletopia | Chicago | 6 | All Maps | STV","players":null},{"server_id":38,"name":"Uncletopia | Chicago | 7 | Stopwatch Beta","name_short":"chi-7","host":"chi-2.us.uncletopia.com","port":27035,"enabled":true,"region":"us-central","cc":"us","latitude":41.881832,"longitude":-87.62318,"reserved":0,"last_update":"0001-01-01T00:00:00Z","name_a2s":"Uncletopia | Chicago | 7 | Stopwatch Beta","protocol":17,"map":"workshop/pl_summercoast_rc8e.ugc1761528829","folder":"tf","game":"Team Fortress","app_id":440,"player_count":0,"max_players":24,"Bots":0,"server_type":"Dedicated","server_os":"Linux","password":true,"vac":true,"version":"7757534","steam_id":85568392924866364,"keywords":["nocrits","nodmgspread","payload","uncletopia"],"game_id":440,"stv_port":27036,"stv_name":"Uncletopia | Chicago | 7 | Stopwatch Beta | STV","players":null},{"server_id":39,"name":"Uncletopia | Chicago | 8 | Community","name_short":"chi-8","host":"chi-2.us.uncletopia.com","port":27045,"enabled":true,"region":"us-central","cc":"us","latitude":41.881832,"longitude":-87.62318,"reserved":0,"last_update":"0001-01-01T00:00:00Z","name_a2s":"Uncletopia | Chicago | 8 | Community","protocol":17,"map":"workshop/pl_barnblitz_pro7.ugc582280235","folder":"tf","game":"Team Fortress","app_id":440,"player_count":0,"max_players":24,"Bots":0,"server_type":"Dedicated","server_os":"Linux","password":true,"vac":true,"version":"7757534","steam_id":85568392924866365,"keywords":["nocrits","nodmgspread","payload","uncletopia"],"game_id":440,"stv_port":27046,"stv_name":"Uncletopia | Chicago | 8 | Community | STV","players":null},{"server_id":8,"name":"Uncletopia | Dallas | 1 | All Maps","name_short":"dal-1","host":"dal-1.us.uncletopia.com","port":27015,"enabled":true,"region":"us-central","cc":"us","latitude":32.779167,"longitude":-96.80889,"reserved":0,"last_update":"0001-01-01T00:00:00Z","name_a2s":"Uncletopia | Dallas | 1 | All Maps","protocol":17,"map":"cp_snakewater_final1","folder":"tf","game":"Team Fortress","app_id":440,"player_count":22,"max_players":24,"Bots":0,"server_type":"Dedicated","server_os":"Linux","password":true,"vac":true,"version":"7757534","steam_id":85568392924469986,"keywords":["cp","nocrits","nodmgspread","uncletopia"],"game_id":440,"stv_port":27016,"stv_name":"Uncletopia | Dallas | 1 | All Maps | STV","players":[{"user_id":675,"name":"Shifty Louie","steam_id":76561197990872608,"connected_time":5629000000000,"state":"active","ping":118},{"user_id":729,"name":"the rizzard of oz","steam_id":76561198108196753,"connected_time":1259000000000,"state":"active","ping":75},{"user_id":720,"name":"Poyo","steam_id":76561198280424107,"connected_time":1571000000000,"state":"active","ping":81},{"user_id":684,"name":"TTV.silverfan420","steam_id":76561198013873028,"connected_time":5243000000000,"state":"active","ping":76},{"user_id":721,"name":"Queen Diva","steam_id":76561199033899226,"connected_time":1553000000000,"state":"active","ping":140},{"user_id":722,"name":"bigbingle147","steam_id":76561198129821676,"connected_time":1549000000000,"state":"active","ping":150},{"user_id":732,"name":"HammerHead","steam_id":76561197975668646,"connected_time":554000000000,"state":"active","ping":48},{"user_id":733,"name":"Heckolo","steam_id":76561198168010993,"connected_time":497000000000,"state":"active","ping":92},{"user_id":731,"name":"TF3 Medic gaming","steam_id":76561199053687718,"connected_time":859000000000,"state":"active","ping":105},{"user_id":650,"name":"Gaz","steam_id":76561198112838904,"connected_time":7979000000000,"state":"active","ping":79},{"user_id":739,"name":"Peter","steam_id":76561198007253310,"connected_time":169000000000,"state":"active","ping":158},{"user_id":717,"name":"TheArachnidGamer","steam_id":76561198304986752,"connected_time":1770000000000,"state":"active","ping":65},{"user_id":734,"name":"UNKEY BLUSTY DA SENTY MISTA","steam_id":76561198838054669,"connected_time":474000000000,"state":"active","ping":87},{"user_id":725,"name":"VextrexOfficial","steam_id":76561198206081237,"connected_time":1491000000000,"state":"active","ping":120},{"user_id":740,"name":"Fresh","steam_id":76561199006338675,"connected_time":162000000000,"state":"active","ping":79},{"user_id":741,"name":"Dip D. Stick","steam_id":76561198129943042,"connected_time":23000000000,"state":"active","ping":73},{"user_id":728,"name":"Maurix6","steam_id":76561198066634370,"connected_time":1331000000000,"state":"active","ping":60},{"user_id":670,"name":"DRAG","steam_id":76561198091788521,"connected_time":6271000000000,"state":"active","ping":68},{"user_id":742,"name":"FessionalProSpyGun","steam_id":76561198295280927,"connected_time":4000000000,"state":"spawning","ping":69},{"user_id":736,"name":"Michiru","steam_id":76561198878701671,"connected_time":445000000000,"state":"active","ping":106},{"user_id":726,"name":"clamfunny","steam_id":76561198834323868,"connected_time":1475000000000,"state":"active","ping":100},{"user_id":709,"name":"[DEEP]able","steam_id":76561198292552182,"connected_time":2830000000000,"state":"active","ping":64}]},{"server_id":108,"name":"Uncletopia | Dallas | 2 | All Maps","name_short":"dal-2","host":"dal-1.us.uncletopia.com","port":27025,"enabled":true,"region":"us-central","cc":"us","latitude":32.779167,"longitude":-96.80889,"reserved":0,"last_update":"0001-01-01T00:00:00Z","name_a2s":"Uncletopia | Dallas | 2 | All Maps","protocol":17,"map":"koth_highpass","folder":"tf","game":"Team Fortress","app_id":440,"player_count":16,"max_players":24,"Bots":0,"server_type":"Dedicated","server_os":"Linux","password":true,"vac":true,"version":"7757534","steam_id":85568392924469988,"keywords":["cp","nocrits","nodmgspread","uncletopia"],"game_id":440,"stv_port":27026,"stv_name":"Uncletopia | Dallas | 2 | All Maps | STV","players":[{"user_id":625,"name":"Zomb3Red","steam_id":76561198075677894,"connected_time":3787000000000,"state":"active","ping":71},{"user_id":655,"name":"eyes on the prize","steam_id":76561198184076165,"connected_time":530000000000,"state":"active","ping":182},{"user_id":380,"name":"moe5x","steam_id":76561198316877833,"connected_time":27927000000000,"state":"active","ping":70},{"user_id":654,"name":"MoMo","steam_id":76561198158397706,"connected_time":645000000000,"state":"active","ping":99},{"user_id":626,"name":"Room full of Bananas","steam_id":76561198045451169,"connected_time":3785000000000,"state":"active","ping":70},{"user_id":645,"name":"Rain","steam_id":76561198022607401,"connected_time":1863000000000,"state":"active","ping":87},{"user_id":641,"name":"Macro","steam_id":76561199442846226,"connected_time":2260000000000,"state":"active","ping":87},{"user_id":650,"name":"[TOG] Dre","steam_id":76561198355975688,"connected_time":1016000000000,"state":"active","ping":109},{"user_id":646,"name":"StrangerHYP","steam_id":76561198395336752,"connected_time":1249000000000,"state":"active","ping":84},{"user_id":627,"name":"Roland_Actual","steam_id":76561198103212376,"connected_time":3764000000000,"state":"active","ping":82},{"user_id":635,"name":"xZackAttack27x","steam_id":76561198035446639,"connected_time":3501000000000,"state":"active","ping":36},{"user_id":651,"name":"Pubbington","steam_id":76561198985685870,"connected_time":1015000000000,"state":"active","ping":69},{"user_id":652,"name":"Tha_Producer","steam_id":76561198035270865,"connected_time":1002000000000,"state":"active","ping":93},{"user_id":590,"name":"Etomb","steam_id":76561198210017208,"connected_time":10084000000000,"state":"active","ping":67},{"user_id":619,"name":"Queen Ishtar","steam_id":76561198035614233,"connected_time":5003000000000,"state":"active","ping":72},{"user_id":544,"name":"bolainassr0","steam_id":76561199079078845,"connected_time":14769000000000,"state":"active","ping":92}]},{"server_id":5,"name":"Uncletopia | Frankfurt | 1 | All Maps","name_short":"frk-1","host":"frk-1.de.uncletopia.com","port":27015,"enabled":true,"region":"eu","cc":"de","latitude":50.110924,"longitude":8.682127,"reserved":0,"last_update":"0001-01-01T00:00:00Z","name_a2s":"Uncletopia | Frankfurt | 1 | All Maps","protocol":17,"map":"pl_upward","folder":"tf","game":"Team Fortress","app_id":440,"player_count":19,"max_players":24,"Bots":0,"server_type":"Dedicated","server_os":"Linux","password":true,"vac":true,"version":"7757534","steam_id":85568392924469989,"keywords":["nocrits","nodmgspread","payload","uncletopia"],"game_id":440,"stv_port":27016,"stv_name":"Uncletopia | Frankfurt | 1 | All Maps | STV","players":[{"user_id":4,"name":"Panzerschoki","steam_id":76561198211621756,"connected_time":1426000000000,"state":"active","ping":55},{"user_id":5,"name":"PumpkinMan","steam_id":76561198929162354,"connected_time":1422000000000,"state":"active","ping":77},{"user_id":6,"name":"RawGorilla","steam_id":76561198063654194,"connected_time":1165000000000,"state":"active","ping":63},{"user_id":7,"name":"tummaluppo taivaltaja","steam_id":76561198093458326,"connected_time":892000000000,"state":"active","ping":60},{"user_id":8,"name":"Shark Petter","steam_id":76561198358801819,"connected_time":855000000000,"state":"active","ping":63},{"user_id":13,"name":"FoxyTheFish","steam_id":76561199074190919,"connected_time":723000000000,"state":"active","ping":64},{"user_id":10,"name":"Borlor","steam_id":76561198206059604,"connected_time":772000000000,"state":"active","ping":82},{"user_id":11,"name":"T1 (ted1)","steam_id":76561199229022826,"connected_time":740000000000,"state":"active","ping":110},{"user_id":12,"name":"DunkleG","steam_id":76561198053816186,"connected_time":728000000000,"state":"active","ping":60},{"user_id":14,"name":"Stümpy","steam_id":76561198255904077,"connected_time":718000000000,"state":"active","ping":65},{"user_id":15,"name":"Acanda","steam_id":76561198123246537,"connected_time":681000000000,"state":"active","ping":54},{"user_id":16,"name":"6fx Sochin","steam_id":76561198967412865,"connected_time":592000000000,"state":"active","ping":60},{"user_id":17,"name":"when the vlandan","steam_id":76561198849104908,"connected_time":486000000000,"state":"active","ping":118},{"user_id":18,"name":"snooper main","steam_id":76561199073802389,"connected_time":442000000000,"state":"active","ping":96},{"user_id":19,"name":"Egor Pomidor","steam_id":76561199175688390,"connected_time":421000000000,"state":"active","ping":75},{"user_id":20,"name":"adamΔ","steam_id":76561199007826093,"connected_time":380000000000,"state":"active","ping":77},{"user_id":21,"name":"Ander Escobar","steam_id":76561198335366902,"connected_time":228000000000,"state":"active","ping":101},{"user_id":22,"name":"✈","steam_id":76561198296214683,"connected_time":42000000000,"state":"active","ping":70},{"user_id":23,"name":"SantiTzePug","steam_id":76561199049615996,"connected_time":32000000000,"state":"active","ping":71}]},{"server_id":110,"name":"Uncletopia | Frankfurt | 2 | All Maps","name_short":"frk-2","host":"frk-1.de.uncletopia.com","port":27025,"enabled":true,"region":"eu","cc":"de","latitude":50.110924,"longitude":8.682127,"reserved":0,"last_update":"0001-01-01T00:00:00Z","name_a2s":"Uncletopia | Frankfurt | 2 | All Maps","protocol":17,"map":"cp_mountainlab","folder":"tf","game":"Team Fortress","app_id":440,"player_count":0,"max_players":24,"Bots":0,"server_type":"Dedicated","server_os":"Linux","password":true,"vac":true,"version":"7757534","steam_id":85568392924469990,"keywords":["cp","nocrits","nodmgspread","uncletopia"],"game_id":440,"stv_port":27026,"stv_name":"Uncletopia | Frankfurt | 2 | All Maps | STV","players":null},{"server_id":308,"name":"Uncletopia | Frankfurt | 3 | All Maps","name_short":"frk-3","host":"frk-1.de.uncletopia.com","port":27035,"enabled":true,"region":"eu","cc":"de","latitude":50.110924,"longitude":8.682127,"reserved":0,"last_update":"0001-01-01T00:00:00Z","name_a2s":"Uncletopia | Frankfurt | 3 | All Maps","protocol":17,"map":"pl_swiftwater_final1","folder":"tf","game":"Team Fortress","app_id":440,"player_count":0,"max_players":24,"Bots":0,"server_type":"Dedicated","server_os":"Linux","password":true,"vac":true,"version":"7757534","steam_id":85568392924504274,"keywords":["nocrits","nodmgspread","payload","uncletopia"],"game_id":440,"stv_port":27036,"stv_name":"Uncletopia | Frankfurt | 3 | All Maps | STV","players":null},{"server_id":309,"name":"Uncletopia | Frankfurt | 4 | All Maps","name_short":"frk-4","host":"frk-1.de.uncletopia.com","port":27045,"enabled":true,"region":"eu","cc":"de","latitude":50.110924,"longitude":8.682127,"reserved":0,"last_update":"0001-01-01T00:00:00Z","name_a2s":"Uncletopia | Frankfurt | 4 | All Maps","protocol":17,"map":"koth_viaduct","folder":"tf","game":"Team Fortress","app_id":440,"player_count":0,"max_players":24,"Bots":0,"server_type":"Dedicated","server_os":"Linux","password":true,"vac":true,"version":"7757534","steam_id":85568392924504275,"keywords":["cp","nocrits","nodmgspread","uncletopia"],"game_id":440,"stv_port":27046,"stv_name":"Uncletopia | Frankfurt | 4 | All Maps | STV","players":null},{"server_id":310,"name":"Uncletopia | Frankfurt | 5 | All Maps","name_short":"frk-5","host":"frk-1.de.uncletopia.com","port":27055,"enabled":true,"region":"eu","cc":"de","latitude":50.110924,"longitude":8.682127,"reserved":0,"last_update":"0001-01-01T00:00:00Z","name_a2s":"Uncletopia | Frankfurt | 5 | All Maps","protocol":17,"map":"koth_lakeside_final","folder":"tf","game":"Team Fortress","app_id":440,"player_count":0,"max_players":24,"Bots":0,"server_type":"Dedicated","server_os":"Linux","password":true,"vac":true,"version":"7757534","steam_id":85568392924504277,"keywords":["cp","nocrits","nodmgspread","uncletopia"],"game_id":440,"stv_port":27056,"stv_name":"Uncletopia | Frankfurt | 5 | All Maps | STV","players":null},{"server_id":311,"name":"Uncletopia | Frankfurt | 6 | All Maps","name_short":"frk-6","host":"frk-1.de.uncletopia.com","port":27065,"enabled":true,"region":"eu","cc":"de","latitude":50.110924,"longitude":8.682127,"reserved":0,"last_update":"0001-01-01T00:00:00Z","name_a2s":"Uncletopia | Frankfurt | 6 | All Maps","protocol":17,"map":"pl_frontier_final","folder":"tf","game":"Team Fortress","app_id":440,"player_count":0,"max_players":24,"Bots":0,"server_type":"Dedicated","server_os":"Linux","password":true,"vac":true,"version":"7757534","steam_id":85568392924504278,"keywords":["nocrits","nodmgspread","payload","uncletopia"],"game_id":440,"stv_port":27066,"stv_name":"Uncletopia | Frankfurt | 6 | All Maps | STV","players":null},{"server_id":23,"name":"Uncletopia | Frankfurt | 7 | Stopwatch Beta","name_short":"frk-7","host":"frk-1.de.uncletopia.com","port":27075,"enabled":true,"region":"eu","cc":"de","latitude":50.110924,"longitude":8.682127,"reserved":0,"last_update":"0001-01-01T00:00:00Z","name_a2s":"Uncletopia | Frankfurt | 7 | Stopwatch Beta","protocol":17,"map":"cp_sunshine","folder":"tf","game":"Team Fortress","app_id":440,"player_count":0,"max_players":24,"Bots":0,"server_type":"Dedicated","server_os":"Linux","password":true,"vac":true,"version":"7757534","steam_id":85568392924742827,"keywords":["cp","nocrits","nodmgspread","uncletopia"],"game_id":440,"stv_port":27076,"stv_name":"Uncletopia | Frankfurt | 7 | Stopwatch Beta | STV","players":null},{"server_id":24,"name":"Uncletopia | Frankfurt | 8 | Community","name_short":"frk-8","host":"frk-1.de.uncletopia.com","port":27085,"enabled":true,"region":"eu","cc":"de","latitude":50.110924,"longitude":8.682127,"reserved":0,"last_update":"0001-01-01T00:00:00Z","name_a2s":"Uncletopia | Frankfurt | 8 | Community","protocol":17,"map":"koth_lakeside_final","folder":"tf","game":"Team Fortress","app_id":440,"player_count":0,"max_players":24,"Bots":0,"server_type":"Dedicated","server_os":"Linux","password":true,"vac":true,"version":"7757534","steam_id":85568392924742828,"keywords":["cp","nocrits","nodmgspread","uncletopia"],"game_id":440,"stv_port":27086,"stv_name":"Uncletopia | Frankfurt | 8 | Community | STV","players":null},{"server_id":202,"name":"Uncletopia | Hong Kong | 1 | All Maps","name_short":"hgk-1","host":"hgk-1.hk.uncletopia.com","port":27015,"enabled":true,"region":"asia","cc":"hk","latitude":22.302711,"longitude":114.177216,"reserved":0,"last_update":"0001-01-01T00:00:00Z","name_a2s":"Uncletopia | Hong Kong | 1 | All Maps","protocol":17,"map":"pl_swiftwater_final1","folder":"tf","game":"Team Fortress","app_id":440,"player_count":24,"max_players":24,"Bots":0,"server_type":"Dedicated","server_os":"Linux","password":true,"vac":true,"version":"7757534","steam_id":85568392924494504,"keywords":["nocrits","nodmgspread","payload","uncletopia"],"game_id":440,"stv_port":27016,"stv_name":"Uncletopia | Hong Kong | 1 | All Maps | STV","players":[{"user_id":195,"name":"✧BaKa BAzooKA✧(◕▿◕ )","steam_id":76561198061628689,"connected_time":107000000000,"state":"active","ping":52},{"user_id":67,"name":"water tastes good","steam_id":76561199375947670,"connected_time":9001000000000,"state":"active","ping":59},{"user_id":119,"name":"Light Rainbow","steam_id":76561198118966673,"connected_time":3622000000000,"state":"active","ping":39},{"user_id":176,"name":"17","steam_id":76561198241530712,"connected_time":1087000000000,"state":"active","ping":60},{"user_id":45,"name":"David Keithson","steam_id":76561199279393636,"connected_time":10516000000000,"state":"active","ping":82},{"user_id":72,"name":"JE","steam_id":76561198264819554,"connected_time":8789000000000,"state":"active","ping":39},{"user_id":182,"name":"vintage","steam_id":76561198230213828,"connected_time":942000000000,"state":"active","ping":60},{"user_id":120,"name":"Wx","steam_id":76561199217780897,"connected_time":3620000000000,"state":"active","ping":110},{"user_id":122,"name":"쿠키","steam_id":76561197997220367,"connected_time":3608000000000,"state":"active","ping":54},{"user_id":113,"name":"Leroy","steam_id":76561199137927625,"connected_time":4423000000000,"state":"active","ping":90},{"user_id":125,"name":"huh :-)","steam_id":76561198293775978,"connected_time":3416000000000,"state":"active","ping":94},{"user_id":194,"name":"hasty","steam_id":76561198439382132,"connected_time":173000000000,"state":"active","ping":112},{"user_id":99,"name":"Aiko Kanata Zhenco","steam_id":76561199262955185,"connected_time":5832000000000,"state":"active","ping":109},{"user_id":185,"name":"kids.see.ghosts","steam_id":76561199107596818,"connected_time":915000000000,"state":"active","ping":109},{"user_id":115,"name":"๋","steam_id":76561198413116920,"connected_time":4136000000000,"state":"active","ping":76},{"user_id":178,"name":"ObscuroLucem","steam_id":76561198875037943,"connected_time":1073000000000,"state":"active","ping":80},{"user_id":98,"name":"P","steam_id":76561198304514505,"connected_time":5877000000000,"state":"active","ping":76},{"user_id":89,"name":"killman47","steam_id":76561198348487408,"connected_time":6841000000000,"state":"active","ping":43},{"user_id":124,"name":"Cotton Candyness #savetf2","steam_id":76561198118254127,"connected_time":3583000000000,"state":"active","ping":55},{"user_id":111,"name":"帕","steam_id":76561198439343999,"connected_time":4575000000000,"state":"active","ping":73},{"user_id":179,"name":"ZeniaPY (Playing on Wacom)","steam_id":76561198404352831,"connected_time":1049000000000,"state":"active","ping":70},{"user_id":183,"name":"TomProPlayer","steam_id":76561199223292521,"connected_time":942000000000,"state":"active","ping":75},{"user_id":92,"name":"陽子","steam_id":76561198008307645,"connected_time":6809000000000,"state":"active","ping":120},{"user_id":188,"name":"silverhouse7","steam_id":76561198349634906,"connected_time":487000000000,"state":"active","ping":61}]},{"server_id":1,"name":"Uncletopia | Los Angeles | 1 | All Maps","name_short":"lax-1","host":"lax-1.us.uncletopia.com","port":27015,"enabled":true,"region":"us-west","cc":"us","latitude":33.94279,"longitude":-118.41004,"reserved":0,"last_update":"0001-01-01T00:00:00Z","name_a2s":"Uncletopia | Los Angeles | 1 | All Maps","protocol":17,"map":"pl_borneo","folder":"tf","game":"Team Fortress","app_id":440,"player_count":0,"max_players":24,"Bots":0,"server_type":"Dedicated","server_os":"Linux","password":true,"vac":true,"version":"7757534","steam_id":85568392924469991,"keywords":["nocrits","nodmgspread","payload","uncletopia"],"game_id":440,"stv_port":27016,"stv_name":"Uncletopia | Los Angeles | 1 | All Maps | STV","players":null},{"server_id":112,"name":"Uncletopia | Los Angeles | 2 | All Maps","name_short":"lax-2","host":"lax-1.us.uncletopia.com","port":27025,"enabled":true,"region":"us-west","cc":"us","latitude":33.94279,"longitude":-118.41004,"reserved":0,"last_update":"0001-01-01T00:00:00Z","name_a2s":"Uncletopia | Los Angeles | 2 | All Maps","protocol":17,"map":"pl_barnblitz","folder":"tf","game":"Team Fortress","app_id":440,"player_count":22,"max_players":24,"Bots":0,"server_type":"Dedicated","server_os":"Linux","password":true,"vac":true,"version":"7757534","steam_id":85568392924469992,"keywords":["nocrits","nodmgspread","payload","uncletopia"],"game_id":440,"stv_port":27026,"stv_name":"Uncletopia | Los Angeles | 2 | All Maps | STV","players":[{"user_id":640,"name":"agolem3214","steam_id":76561198121844002,"connected_time":701000000000,"state":"active","ping":45},{"user_id":548,"name":"+EsC|Kevinator","steam_id":76561198008475674,"connected_time":9630000000000,"state":"active","ping":70},{"user_id":618,"name":"Dogman15","steam_id":76561198071246716,"connected_time":2606000000000,"state":"active","ping":65},{"user_id":546,"name":"Espurr","steam_id":76561198008207777,"connected_time":9688000000000,"state":"active","ping":62},{"user_id":620,"name":"AMU","steam_id":76561198092346231,"connected_time":2477000000000,"state":"active","ping":111},{"user_id":628,"name":"nnobi","steam_id":76561198878729277,"connected_time":1421000000000,"state":"active","ping":104},{"user_id":633,"name":"Smittywerbenjager-manjenson","steam_id":76561198067060742,"connected_time":1308000000000,"state":"active","ping":73},{"user_id":615,"name":"The Horselords and Animal Gods","steam_id":76561197975094050,"connected_time":2790000000000,"state":"active","ping":51},{"user_id":636,"name":"Jolly","steam_id":76561198116357972,"connected_time":1123000000000,"state":"active","ping":44},{"user_id":629,"name":"Smooktobër Dinner Party Demun","steam_id":76561198067176829,"connected_time":1419000000000,"state":"active","ping":54},{"user_id":602,"name":"Girox","steam_id":76561198009921751,"connected_time":3847000000000,"state":"active","ping":105},{"user_id":638,"name":"O_x","steam_id":76561198289696924,"connected_time":924000000000,"state":"active","ping":48},{"user_id":631,"name":"Not Slavoj Žižek","steam_id":76561198004619616,"connected_time":1371000000000,"state":"active","ping":54},{"user_id":604,"name":"Patty Cakes","steam_id":76561197977358526,"connected_time":3790000000000,"state":"active","ping":100},{"user_id":626,"name":"science_fan.1948","steam_id":76561199076453501,"connected_time":1779000000000,"state":"active","ping":46},{"user_id":609,"name":"Altruisticailuridae","steam_id":76561198335295596,"connected_time":3230000000000,"state":"active","ping":53},{"user_id":642,"name":"GARTH","steam_id":76561198174186555,"connected_time":324000000000,"state":"active","ping":90},{"user_id":627,"name":"mik","steam_id":76561198268948176,"connected_time":1649000000000,"state":"active","ping":61},{"user_id":643,"name":"Achy_Blitz","steam_id":76561198090433209,"connected_time":275000000000,"state":"active","ping":118},{"user_id":532,"name":"Bomb Squirtle™","steam_id":76561197998931145,"connected_time":10474000000000,"state":"active","ping":128},{"user_id":644,"name":"Bridge","steam_id":76561198050930560,"connected_time":207000000000,"state":"active","ping":99},{"user_id":639,"name":"unintelligible screaming","steam_id":76561198079626416,"connected_time":861000000000,"state":"active","ping":112}]},{"server_id":324,"name":"Uncletopia | Los Angeles | 3 | All Maps","name_short":"lax-3","host":"lax-1.us.uncletopia.com","port":27035,"enabled":true,"region":"us-west","cc":"us","latitude":33.94279,"longitude":-118.41004,"reserved":0,"last_update":"0001-01-01T00:00:00Z","name_a2s":"Uncletopia | Los Angeles | 3 | All Maps","protocol":17,"map":"pl_swiftwater_final1","folder":"tf","game":"Team Fortress","app_id":440,"player_count":24,"max_players":24,"Bots":0,"server_type":"Dedicated","server_os":"Linux","password":true,"vac":true,"version":"7757534","steam_id":85568392924510198,"keywords":["nocrits","nodmgspread","payload","uncletopia"],"game_id":440,"stv_port":27036,"stv_name":"Uncletopia | Los Angeles | 3 | All Maps | STV","players":[{"user_id":320,"name":"KingToaster","steam_id":76561198007903802,"connected_time":2575000000000,"state":"active","ping":68},{"user_id":297,"name":"❤ Ashley ❤","steam_id":76561198056428303,"connected_time":4775000000000,"state":"active","ping":45},{"user_id":338,"name":"Dylan Pulido","steam_id":76561198272681544,"connected_time":414000000000,"state":"active","ping":54},{"user_id":339,"name":"Colonel Chikara","steam_id":76561198010021087,"connected_time":231000000000,"state":"active","ping":55},{"user_id":343,"name":"Inadequate","steam_id":76561198108263810,"connected_time":98000000000,"state":"active","ping":75},{"user_id":327,"name":"French Main","steam_id":76561198271442469,"connected_time":1010000000000,"state":"active","ping":89},{"user_id":298,"name":"self sufficient kitten","steam_id":76561197960592612,"connected_time":4504000000000,"state":"active","ping":73},{"user_id":322,"name":":3","steam_id":76561198008599033,"connected_time":2506000000000,"state":"active","ping":109},{"user_id":289,"name":":face_holding_back_tears:","steam_id":76561198164782653,"connected_time":5741000000000,"state":"active","ping":114},{"user_id":310,"name":"0r161n4lj0k3","steam_id":76561198127328235,"connected_time":3357000000000,"state":"active","ping":72},{"user_id":340,"name":"keysopendoors","steam_id":76561198175858151,"connected_time":201000000000,"state":"active","ping":76},{"user_id":319,"name":"rlty","steam_id":76561198009395055,"connected_time":2734000000000,"state":"active","ping":104},{"user_id":335,"name":"船尾","steam_id":76561198128764422,"connected_time":804000000000,"state":"active","ping":74},{"user_id":290,"name":"gerg","steam_id":76561197997127387,"connected_time":5730000000000,"state":"active","ping":60},{"user_id":306,"name":"gwendolyn","steam_id":76561198046815360,"connected_time":3576000000000,"state":"active","ping":48},{"user_id":341,"name":"Majin Buu","steam_id":76561198017161025,"connected_time":178000000000,"state":"active","ping":78},{"user_id":331,"name":"Cam(era)","steam_id":76561198285054047,"connected_time":935000000000,"state":"active","ping":80},{"user_id":229,"name":"Soozy420","steam_id":76561198809074422,"connected_time":11197000000000,"state":"active","ping":67},{"user_id":304,"name":"WuTangJuan","steam_id":76561198053050135,"connected_time":4205000000000,"state":"active","ping":100},{"user_id":332,"name":"Friggy","steam_id":76561198131467867,"connected_time":873000000000,"state":"active","ping":45},{"user_id":333,"name":"the gamer","steam_id":76561198334059206,"connected_time":843000000000,"state":"active","ping":60},{"user_id":342,"name":"oil","steam_id":76561198099980149,"connected_time":170000000000,"state":"active","ping":56},{"user_id":313,"name":"pt","steam_id":76561198143023330,"connected_time":3293000000000,"state":"active","ping":55},{"user_id":344,"name":"Minerkid2004","steam_id":76561198044262827,"connected_time":69000000000,"state":"active","ping":58}]},{"server_id":25,"name":"Uncletopia | Los Angeles | 4 | Stopwatch Beta","name_short":"lax-4","host":"lax-1.us.uncletopia.com","port":27045,"enabled":true,"region":"us-west","cc":"us","latitude":33.94279,"longitude":-118.41004,"reserved":0,"last_update":"0001-01-01T00:00:00Z","name_a2s":"Uncletopia | Los Angeles | 4 | Stopwatch Beta","protocol":17,"map":"pl_swiftwater_final1","folder":"tf","game":"Team Fortress","app_id":440,"player_count":0,"max_players":24,"Bots":0,"server_type":"Dedicated","server_os":"Linux","password":true,"vac":true,"version":"7757534","steam_id":85568392924510199,"keywords":["nocrits","nodmgspread","payload","uncletopia"],"game_id":440,"stv_port":27046,"stv_name":"Uncletopia | Los Angeles | 4 | Stopwatch Beta | STV","players":null},{"server_id":11,"name":"Uncletopia | London | 1 | All Maps","name_short":"lon-1","host":"lon-1.uk.uncletopia.com","port":27015,"enabled":true,"region":"eu","cc":"gb","latitude":51.509865,"longitude":-0.118092,"reserved":0,"last_update":"0001-01-01T00:00:00Z","name_a2s":"Uncletopia | London | 1 | All Maps","protocol":17,"map":"pl_snowycoast","folder":"tf","game":"Team Fortress","app_id":440,"player_count":22,"max_players":24,"Bots":0,"server_type":"Dedicated","server_os":"Linux","password":true,"vac":true,"version":"7757534","steam_id":85568392924367362,"keywords":["nocrits","nodmgspread","payload","uncletopia"],"game_id":440,"stv_port":27016,"stv_name":"Uncletopia | London | 1 | All Maps | STV","players":[{"user_id":93,"name":"bobby_basketball_1999","steam_id":76561198031573426,"connected_time":1752000000000,"state":"active","ping":74},{"user_id":90,"name":"Kolmannen","steam_id":76561198288826376,"connected_time":1954000000000,"state":"active","ping":70},{"user_id":89,"name":"Băsescu","steam_id":76561198017693962,"connected_time":1971000000000,"state":"active","ping":75},{"user_id":104,"name":"Savunya64","steam_id":76561199071756176,"connected_time":7000000000,"state":"spawning","ping":120},{"user_id":86,"name":"Dr.090","steam_id":76561198201215334,"connected_time":2545000000000,"state":"active","ping":97},{"user_id":94,"name":"Arti","steam_id":76561197983352845,"connected_time":1684000000000,"state":"active","ping":59},{"user_id":9,"name":"CumbustiblePunda","steam_id":76561197974274677,"connected_time":9609000000000,"state":"active","ping":59},{"user_id":74,"name":"Asfreild","steam_id":76561198055901120,"connected_time":3184000000000,"state":"active","ping":71},{"user_id":29,"name":"BONK-TEC!","steam_id":76561198272667029,"connected_time":7930000000000,"state":"active","ping":55},{"user_id":62,"name":"thekoolest88","steam_id":76561199022415672,"connected_time":4250000000000,"state":"active","ping":136},{"user_id":88,"name":"murderwow","steam_id":76561198024566944,"connected_time":2391000000000,"state":"active","ping":96},{"user_id":55,"name":"Rin-Nakaret","steam_id":76561197971051188,"connected_time":4918000000000,"state":"active","ping":68},{"user_id":35,"name":"Edison Trent","steam_id":76561198067133145,"connected_time":7250000000000,"state":"active","ping":63},{"user_id":103,"name":"Pineapple Okan","steam_id":76561198069199449,"connected_time":171000000000,"state":"active","ping":118},{"user_id":84,"name":"rock dog","steam_id":76561198110545854,"connected_time":2593000000000,"state":"active","ping":154},{"user_id":102,"name":"-gunripp0r^be / Obelix^","steam_id":76561197999306879,"connected_time":487000000000,"state":"active","ping":66},{"user_id":76,"name":"Hussite","steam_id":76561199293036742,"connected_time":3001000000000,"state":"active","ping":60},{"user_id":101,"name":"chidory41","steam_id":76561199404844130,"connected_time":786000000000,"state":"active","ping":103},{"user_id":79,"name":"Ziemniaczki z koperkiem","steam_id":76561198829123464,"connected_time":2893000000000,"state":"active","ping":85},{"user_id":80,"name":"GuSkand","steam_id":76561198043775605,"connected_time":2857000000000,"state":"active","ping":90},{"user_id":83,"name":"Riel","steam_id":76561198066017633,"connected_time":2786000000000,"state":"active","ping":64},{"user_id":99,"name":"ANEY☆ The Music Man","steam_id":76561198074404564,"connected_time":1027000000000,"state":"active","ping":75}]},{"server_id":114,"name":"Uncletopia | London | 2 | All Maps","name_short":"lon-2","host":"lon-1.uk.uncletopia.com","port":27025,"enabled":true,"region":"eu","cc":"gb","latitude":51.509865,"longitude":-0.118092,"reserved":0,"last_update":"0001-01-01T00:00:00Z","name_a2s":"Uncletopia | London | 2 | All Maps","protocol":17,"map":"koth_viaduct","folder":"tf","game":"Team Fortress","app_id":440,"player_count":0,"max_players":24,"Bots":0,"server_type":"Dedicated","server_os":"Linux","password":true,"vac":true,"version":"7757534","steam_id":85568392924470941,"keywords":["cp","nocrits","nodmgspread","uncletopia"],"game_id":440,"stv_port":27026,"stv_name":"Uncletopia | London | 2 | All Maps | STV","players":null},{"server_id":320,"name":"Uncletopia | London | 3 | All Maps","name_short":"lon-3","host":"lon-1.uk.uncletopia.com","port":27035,"enabled":true,"region":"eu","cc":"gb","latitude":51.509865,"longitude":-0.118092,"reserved":0,"last_update":"0001-01-01T00:00:00Z","name_a2s":"Uncletopia | London | 3 | All Maps","protocol":17,"map":"koth_cascade","folder":"tf","game":"Team Fortress","app_id":440,"player_count":4,"max_players":24,"Bots":0,"server_type":"Dedicated","server_os":"Linux","password":true,"vac":true,"version":"7757534","steam_id":85568392924510192,"keywords":["cp","nocrits","nodmgspread","uncletopia"],"game_id":440,"stv_port":27036,"stv_name":"Uncletopia | London | 3 | All Maps | STV","players":[{"user_id":5,"name":"FUKTARD2005","steam_id":76561198839121591,"connected_time":1454000000000,"state":"active","ping":56},{"user_id":6,"name":"sputnik-666","steam_id":76561199125992135,"connected_time":1322000000000,"state":"active","ping":104},{"user_id":7,"name":"seductive_spiederman","steam_id":76561199138558228,"connected_time":844000000000,"state":"active","ping":77},{"user_id":10,"name":"KAKTyC","steam_id":76561198019296536,"connected_time":326000000000,"state":"active","ping":87}]},{"server_id":321,"name":"Uncletopia | London | 4 | All Maps","name_short":"lon-4","host":"lon-1.uk.uncletopia.com","port":27045,"enabled":true,"region":"eu","cc":"gb","latitude":51.509865,"longitude":-0.118092,"reserved":0,"last_update":"0001-01-01T00:00:00Z","name_a2s":"Uncletopia | London | 4 | All Maps","protocol":17,"map":"cp_dustbowl","folder":"tf","game":"Team Fortress","app_id":440,"player_count":0,"max_players":24,"Bots":0,"server_type":"Dedicated","server_os":"Linux","password":true,"vac":true,"version":"7757534","steam_id":85568392924510193,"keywords":["cp","nocrits","nodmgspread","uncletopia"],"game_id":440,"stv_port":27046,"stv_name":"Uncletopia | London | 4 | All Maps | STV","players":null},{"server_id":21,"name":"Uncletopia | London | 5 | All Maps","name_short":"lon-5","host":"lon-1.uk.uncletopia.com","port":27055,"enabled":true,"region":"eu","cc":"gb","latitude":51.509865,"longitude":-0.118092,"reserved":0,"last_update":"0001-01-01T00:00:00Z","name_a2s":"Uncletopia | London | 5 | All Maps","protocol":17,"map":"cp_altitude","folder":"tf","game":"Team Fortress","app_id":440,"player_count":0,"max_players":24,"Bots":0,"server_type":"Dedicated","server_os":"Linux","password":true,"vac":true,"version":"7757534","steam_id":85568392924742829,"keywords":["cp","nocrits","nodmgspread","uncletopia"],"game_id":440,"stv_port":27056,"stv_name":"Uncletopia | London | 5 | All Maps | STV","players":null},{"server_id":22,"name":"Uncletopia | London | 6 | All Maps","name_short":"lon-6","host":"lon-1.uk.uncletopia.com","port":27065,"enabled":true,"region":"eu","cc":"gb","latitude":51.509865,"longitude":-0.118092,"reserved":0,"last_update":"0001-01-01T00:00:00Z","name_a2s":"Uncletopia | London | 6 | All Maps","protocol":17,"map":"cp_mountainlab","folder":"tf","game":"Team Fortress","app_id":440,"player_count":0,"max_players":24,"Bots":0,"server_type":"Dedicated","server_os":"Linux","password":true,"vac":true,"version":"7757534","steam_id":85568392924742830,"keywords":["cp","nocrits","nodmgspread","uncletopia"],"game_id":440,"stv_port":27066,"stv_name":"Uncletopia | London | 6 | All Maps | STV","players":null},{"server_id":40,"name":"Uncletopia | London | 7 | No Payload","name_short":"lon-7","host":"lon-1.uk.uncletopia.com","port":27075,"enabled":true,"region":"eu","cc":"gb","latitude":51.509865,"longitude":-0.118092,"reserved":0,"last_update":"0001-01-01T00:00:00Z","name_a2s":"Uncletopia | London | 7 | No Payload","protocol":17,"map":"cp_egypt_final","folder":"tf","game":"Team Fortress","app_id":440,"player_count":0,"max_players":24,"Bots":0,"server_type":"Dedicated","server_os":"Linux","password":true,"vac":true,"version":"7757534","steam_id":85568392924964314,"keywords":["cp","nocrits","nodmgspread","uncletopia"],"game_id":440,"stv_port":27076,"stv_name":"Uncletopia | London | 7 | No Payload | STV","players":null},{"server_id":41,"name":"Uncletopia | London | 8 | Community","name_short":"lon-8","host":"lon-1.uk.uncletopia.com","port":27085,"enabled":true,"region":"eu","cc":"gb","latitude":51.509865,"longitude":-0.118092,"reserved":0,"last_update":"0001-01-01T00:00:00Z","name_a2s":"Uncletopia | London | 8 | Community","protocol":17,"map":"workshop/koth_bagel_rc6.ugc2514036946","folder":"tf","game":"Team Fortress","app_id":440,"player_count":0,"max_players":24,"Bots":0,"server_type":"Dedicated","server_os":"Linux","password":true,"vac":true,"version":"7757534","steam_id":85568392924964315,"keywords":["cp","nocrits","nodmgspread","uncletopia"],"game_id":440,"stv_port":27086,"stv_name":"Uncletopia | London | 8 | Community | STV","players":null},{"server_id":300,"name":"Uncletopia | Montréal | 1 | All Maps","name_short":"mtl-1","host":"mtl-1.ca.uncletopia.com","port":27015,"enabled":true,"region":"us-east","cc":"ca","latitude":45.50889,"longitude":-73.56167,"reserved":0,"last_update":"0001-01-01T00:00:00Z","name_a2s":"Uncletopia | Montréal | 1 | All Maps","protocol":17,"map":"koth_lakeside_final","folder":"tf","game":"Team Fortress","app_id":440,"player_count":0,"max_players":24,"Bots":0,"server_type":"Dedicated","server_os":"Linux","password":true,"vac":true,"version":"7757534","steam_id":85568392924500087,"keywords":["cp","nocrits","nodmgspread","uncletopia"],"game_id":440,"stv_port":27016,"stv_name":"Uncletopia | Montréal | 1 | All Maps | STV","players":null},{"server_id":301,"name":"Uncletopia | Montréal | 2 | All Maps","name_short":"mtl-2","host":"mtl-1.ca.uncletopia.com","port":27025,"enabled":true,"region":"us-east","cc":"ca","latitude":45.50889,"longitude":-73.56167,"reserved":0,"last_update":"0001-01-01T00:00:00Z","name_a2s":"Uncletopia | Montréal | 2 | All Maps","protocol":17,"map":"cp_sunshine","folder":"tf","game":"Team Fortress","app_id":440,"player_count":0,"max_players":24,"Bots":0,"server_type":"Dedicated","server_os":"Linux","password":true,"vac":true,"version":"7757534","steam_id":85568392924500088,"keywords":["cp","nocrits","nodmgspread","uncletopia"],"game_id":440,"stv_port":27026,"stv_name":"Uncletopia | Montréal | 2 | All Maps | STV","players":null},{"server_id":302,"name":"Uncletopia | Montréal | 3 | All Maps","name_short":"mtl-3","host":"mtl-1.ca.uncletopia.com","port":27035,"enabled":true,"region":"us-east","cc":"ca","latitude":45.50889,"longitude":-73.56167,"reserved":0,"last_update":"0001-01-01T00:00:00Z","name_a2s":"Uncletopia | Montréal | 3 | All Maps","protocol":17,"map":"pl_upward","folder":"tf","game":"Team Fortress","app_id":440,"player_count":0,"max_players":24,"Bots":0,"server_type":"Dedicated","server_os":"Linux","password":true,"vac":true,"version":"7757534","steam_id":85568392924500089,"keywords":["nocrits","nodmgspread","payload","uncletopia"],"game_id":440,"stv_port":27036,"stv_name":"Uncletopia | Montréal | 3 | All Maps | STV","players":null},{"server_id":303,"name":"Uncletopia | Montréal | 4 | No Payload","name_short":"mtl-4","host":"mtl-1.ca.uncletopia.com","port":27045,"enabled":true,"region":"us-east","cc":"ca","latitude":45.50889,"longitude":-73.56167,"reserved":0,"last_update":"0001-01-01T00:00:00Z","name_a2s":"Uncletopia | Montréal | 4 | No Payload","protocol":17,"map":"cp_process_final","folder":"tf","game":"Team Fortress","app_id":440,"player_count":0,"max_players":24,"Bots":0,"server_type":"Dedicated","server_os":"Linux","password":true,"vac":true,"version":"7757534","steam_id":85568392924500090,"keywords":["cp","nocrits","nodmgspread","uncletopia"],"game_id":440,"stv_port":27046,"stv_name":"Uncletopia | Montréal | 4 | No Payload | STV","players":null},{"server_id":13,"name":"Uncletopia | New York City | 1 | All Maps","name_short":"nyc-1","host":"nyc-1.us.uncletopia.com","port":27015,"enabled":true,"region":"us-east","cc":"us","latitude":40.73061,"longitude":-73.93524,"reserved":0,"last_update":"0001-01-01T00:00:00Z","name_a2s":"Uncletopia | New York City | 1 | All Maps","protocol":17,"map":"cp_snakewater_final1","folder":"tf","game":"Team Fortress","app_id":440,"player_count":0,"max_players":24,"Bots":0,"server_type":"Dedicated","server_os":"Linux","password":true,"vac":true,"version":"7757534","steam_id":85568392924469993,"keywords":["cp","nocrits","nodmgspread","uncletopia"],"game_id":440,"stv_port":27016,"stv_name":"Uncletopia | New York City | 1 | All Maps | STV","players":null},{"server_id":14,"name":"Uncletopia | New York City | 2 | All Maps","name_short":"nyc-2","host":"nyc-1.us.uncletopia.com","port":27025,"enabled":true,"region":"us-east","cc":"us","latitude":40.73061,"longitude":-73.93524,"reserved":0,"last_update":"0001-01-01T00:00:00Z","name_a2s":"Uncletopia | New York City | 2 | All Maps","protocol":17,"map":"cp_mercenarypark","folder":"tf","game":"Team Fortress","app_id":440,"player_count":21,"max_players":24,"Bots":0,"server_type":"Dedicated","server_os":"Linux","password":true,"vac":true,"version":"7757534","steam_id":85568392924469994,"keywords":["cp","nocrits","nodmgspread","uncletopia"],"game_id":440,"stv_port":27026,"stv_name":"Uncletopia | New York City | 2 | All Maps | STV","players":[{"user_id":1082,"name":"Anax Alter","steam_id":76561198110249546,"connected_time":1373000000000,"state":"active","ping":45},{"user_id":1097,"name":"morphtext","steam_id":76561199021314980,"connected_time":698000000000,"state":"active","ping":84},{"user_id":1083,"name":"Hope","steam_id":76561199201900779,"connected_time":1289000000000,"state":"active","ping":67},{"user_id":1080,"name":"Wique","steam_id":76561198071217597,"connected_time":1765000000000,"state":"active","ping":67},{"user_id":1070,"name":"Argo","steam_id":76561198353725622,"connected_time":2532000000000,"state":"active","ping":72},{"user_id":1102,"name":"Zho Biden","steam_id":76561198079224101,"connected_time":156000000000,"state":"active","ping":63},{"user_id":1087,"name":"Dabbin Blackbeard","steam_id":76561198046130846,"connected_time":1134000000000,"state":"active","ping":112},{"user_id":1095,"name":"Horizon","steam_id":76561198088957930,"connected_time":899000000000,"state":"active","ping":75},{"user_id":1050,"name":"Jesus Hooves She/Her Trans Righ","steam_id":76561198884198807,"connected_time":4455000000000,"state":"active","ping":110},{"user_id":1101,"name":"bliZZard","steam_id":76561199107709623,"connected_time":428000000000,"state":"active","ping":133},{"user_id":1040,"name":"frappe444","steam_id":76561199032973937,"connected_time":4733000000000,"state":"active","ping":123},{"user_id":1041,"name":"Makali","steam_id":76561198839601234,"connected_time":4727000000000,"state":"active","ping":126},{"user_id":1042,"name":"Fi \u003c3","steam_id":76561198315348942,"connected_time":4721000000000,"state":"active","ping":130},{"user_id":1085,"name":"Creamy","steam_id":76561198063907478,"connected_time":1223000000000,"state":"active","ping":135},{"user_id":1086,"name":"Besten44","steam_id":76561198145140832,"connected_time":1218000000000,"state":"active","ping":162},{"user_id":1089,"name":"Sybil","steam_id":76561198042533062,"connected_time":1108000000000,"state":"active","ping":111},{"user_id":1098,"name":"Aü","steam_id":76561199031241776,"connected_time":543000000000,"state":"active","ping":78},{"user_id":1091,"name":"perkaperkins","steam_id":76561198870734551,"connected_time":996000000000,"state":"active","ping":135},{"user_id":1092,"name":"844box","steam_id":76561198368131280,"connected_time":982000000000,"state":"active","ping":189},{"user_id":1093,"name":"SchmitySchmit","steam_id":76561198127024448,"connected_time":979000000000,"state":"active","ping":73},{"user_id":1096,"name":"Mother Cybele","steam_id":76561198138577355,"connected_time":863000000000,"state":"active","ping":85}]},{"server_id":15,"name":"Uncletopia | New York City | 3 | Stopwatch Beta","name_short":"nyc-3","host":"nyc-1.us.uncletopia.com","port":27035,"enabled":true,"region":"us-east","cc":"us","latitude":40.73061,"longitude":-73.93524,"reserved":0,"last_update":"0001-01-01T00:00:00Z","name_a2s":"Uncletopia | New York City | 3 | Stopwatch Beta","protocol":17,"map":"workshop/koth_product_final.ugc454272353","folder":"tf","game":"Team Fortress","app_id":440,"player_count":0,"max_players":24,"Bots":0,"server_type":"Dedicated","server_os":"Linux","password":true,"vac":true,"version":"7757534","steam_id":85568392924742820,"keywords":["cp","nocrits","nodmgspread","uncletopia"],"game_id":440,"stv_port":27036,"stv_name":"Uncletopia | New York City | 3 | Stopwatch Beta | STV","players":null},{"server_id":16,"name":"Uncletopia | New York City | 4 | Community","name_short":"nyc-4","host":"nyc-1.us.uncletopia.com","port":27045,"enabled":true,"region":"us-east","cc":"us","latitude":40.73061,"longitude":-73.93524,"reserved":0,"last_update":"0001-01-01T00:00:00Z","name_a2s":"Uncletopia | New York City | 4 | Community","protocol":17,"map":"workshop/pl_boundary_final1.ugc456799153","folder":"tf","game":"Team Fortress","app_id":440,"player_count":0,"max_players":24,"Bots":0,"server_type":"Dedicated","server_os":"Linux","password":true,"vac":true,"version":"7757534","steam_id":85568392924742821,"keywords":["nocrits","nodmgspread","payload","uncletopia"],"game_id":440,"stv_port":27046,"stv_name":"Uncletopia | New York City | 4 | Community | STV","players":null},{"server_id":142,"name":"Uncletopia | São Paulo | 1 | All Maps","name_short":"sao-1","host":"sao-1.br.uncletopia.com","port":27015,"enabled":true,"region":"sa","cc":"br","latitude":-23.533773,"longitude":-46.62529,"reserved":0,"last_update":"0001-01-01T00:00:00Z","name_a2s":"Uncletopia | São Paulo | 1 | All Maps","protocol":17,"map":"koth_viaduct","folder":"tf","game":"Team Fortress","app_id":440,"player_count":0,"max_players":24,"Bots":0,"server_type":"Dedicated","server_os":"Linux","password":true,"vac":true,"version":"7757534","steam_id":85568392924469996,"keywords":["cp","nocrits","nodmgspread","uncletopia"],"game_id":440,"stv_port":27016,"stv_name":"Uncletopia | São Paulo | 1 | All Maps | STV","players":null},{"server_id":143,"name":"Uncletopia | São Paulo | 2 | All Maps","name_short":"sao-2","host":"sao-2.br.uncletopia.com","port":27015,"enabled":true,"region":"sa","cc":"br","latitude":-23.533773,"longitude":-46.62529,"reserved":0,"last_update":"0001-01-01T00:00:00Z","name_a2s":"Uncletopia | São Paulo | 2 | All Maps","protocol":17,"map":"koth_harvest_final","folder":"tf","game":"Team Fortress","app_id":440,"player_count":0,"max_players":24,"Bots":0,"server_type":"Dedicated","server_os":"Linux","password":true,"vac":true,"version":"7757534","steam_id":85568392924485349,"keywords":["cp","nocrits","nodmgspread","uncletopia"],"game_id":440,"stv_port":27016,"stv_name":"Uncletopia | São Paulo | 2 | All Maps | STV","players":null},{"server_id":7,"name":"Uncletopia | Seattle | 1 | All Maps","name_short":"sea-1","host":"sea-1.us.uncletopia.com","port":27015,"enabled":true,"region":"us-west","cc":"us","latitude":47.608013,"longitude":-122.33517,"reserved":0,"last_update":"0001-01-01T00:00:00Z","name_a2s":"Uncletopia | Seattle | 1 | All Maps","protocol":17,"map":"cp_mossrock","folder":"tf","game":"Team Fortress","app_id":440,"player_count":24,"max_players":24,"Bots":0,"server_type":"Dedicated","server_os":"Linux","password":true,"vac":true,"version":"7757534","steam_id":85568392924469997,"keywords":["cp","nocrits","nodmgspread","uncletopia"],"game_id":440,"stv_port":27016,"stv_name":"Uncletopia | Seattle | 1 | All Maps | STV","players":[{"user_id":704,"name":"Lord Hater","steam_id":76561199158148782,"connected_time":14437000000000,"state":"active","ping":51},{"user_id":849,"name":"profile name","steam_id":76561198032625036,"connected_time":4101000000000,"state":"active","ping":59},{"user_id":794,"name":"rorywashere /ᐠ - ˕ -マ Ⳋ","steam_id":76561198009121060,"connected_time":8045000000000,"state":"active","ping":46},{"user_id":853,"name":"jole","steam_id":76561198037292232,"connected_time":3553000000000,"state":"active","ping":132},{"user_id":885,"name":"(1)rorywashere /ᐠ - ˕ -マ \ufffd","steam_id":76561198065825165,"connected_time":217000000000,"state":"active","ping":102},{"user_id":872,"name":"Cricket","steam_id":76561198268349382,"connected_time":1574000000000,"state":"active","ping":43},{"user_id":882,"name":"exephur","steam_id":76561198135763234,"connected_time":707000000000,"state":"active","ping":70},{"user_id":855,"name":"NEBULA","steam_id":76561198086878595,"connected_time":3407000000000,"state":"active","ping":74},{"user_id":886,"name":"They/Them Rattussy","steam_id":76561198238186628,"connected_time":162000000000,"state":"active","ping":77},{"user_id":860,"name":"Tweeterhead","steam_id":76561198399117913,"connected_time":3070000000000,"state":"active","ping":53},{"user_id":736,"name":"Gary, 40, soul sucking 9-5","steam_id":76561198073812888,"connected_time":10647000000000,"state":"active","ping":50},{"user_id":868,"name":"gorlab","steam_id":76561198025089694,"connected_time":1769000000000,"state":"active","ping":72},{"user_id":881,"name":"Skoad","steam_id":76561198104650528,"connected_time":734000000000,"state":"active","ping":58},{"user_id":873,"name":"Michael \"PEEMSTER\" Pemulis","steam_id":76561198069217742,"connected_time":1493000000000,"state":"active","ping":89},{"user_id":825,"name":"Level 99 Mudcrab","steam_id":76561198077452771,"connected_time":5789000000000,"state":"active","ping":60},{"user_id":879,"name":"Hifumi Togo","steam_id":76561198074930636,"connected_time":1260000000000,"state":"active","ping":99},{"user_id":819,"name":"delight","steam_id":76561197980280272,"connected_time":6833000000000,"state":"active","ping":46},{"user_id":874,"name":"touka","steam_id":76561198171521806,"connected_time":1472000000000,"state":"active","ping":68},{"user_id":815,"name":"Attrition","steam_id":76561197969881916,"connected_time":7262000000000,"state":"active","ping":58},{"user_id":878,"name":"rxqueen","steam_id":76561198049258493,"connected_time":1408000000000,"state":"active","ping":53},{"user_id":880,"name":"Psychic Tandem War Elephant","steam_id":76561198040742185,"connected_time":1235000000000,"state":"active","ping":130},{"user_id":804,"name":"p9 jorts","steam_id":76561199041179985,"connected_time":7915000000000,"state":"active","ping":69},{"user_id":870,"name":"Lord Krit","steam_id":76561198014819670,"connected_time":1675000000000,"state":"active","ping":66},{"user_id":884,"name":"John Calibur","steam_id":76561197999986606,"connected_time":522000000000,"state":"active","ping":75}]},{"server_id":119,"name":"Uncletopia | Seattle | 2 | All Maps","name_short":"sea-2","host":"sea-1.us.uncletopia.com","port":27025,"enabled":true,"region":"us-west","cc":"us","latitude":47.608013,"longitude":-122.33517,"reserved":0,"last_update":"0001-01-01T00:00:00Z","name_a2s":"Uncletopia | Seattle | 2 | All Maps","protocol":17,"map":"pl_upward","folder":"tf","game":"Team Fortress","app_id":440,"player_count":16,"max_players":24,"Bots":0,"server_type":"Dedicated","server_os":"Linux","password":true,"vac":true,"version":"7757534","steam_id":85568392924469998,"keywords":["nocrits","nodmgspread","payload","uncletopia"],"game_id":440,"stv_port":27026,"stv_name":"Uncletopia | Seattle | 2 | All Maps | STV","players":[{"user_id":780,"name":"VongolaKingdom","steam_id":76561198420459886,"connected_time":251000000000,"state":"active","ping":96},{"user_id":781,"name":"soup enjoyer","steam_id":76561199439318225,"connected_time":85000000000,"state":"active","ping":220},{"user_id":779,"name":"jadeite","steam_id":76561198022298676,"connected_time":574000000000,"state":"active","ping":33},{"user_id":768,"name":"ark","steam_id":76561198041066271,"connected_time":1484000000000,"state":"active","ping":75},{"user_id":756,"name":"Username","steam_id":76561198855586261,"connected_time":3329000000000,"state":"active","ping":68},{"user_id":775,"name":"PopePurple","steam_id":76561198080955830,"connected_time":1183000000000,"state":"active","ping":54},{"user_id":776,"name":"kevin shields #1 fan","steam_id":76561197995200743,"connected_time":1099000000000,"state":"active","ping":74},{"user_id":782,"name":"ChuChu","steam_id":76561199443647976,"connected_time":2000000000,"state":"spawning","ping":153},{"user_id":783,"name":"Sunny","steam_id":76561198261667312,"connected_time":0,"state":"spawning","ping":0},{"user_id":741,"name":"ElectronX","steam_id":76561198116034988,"connected_time":4192000000000,"state":"active","ping":77},{"user_id":762,"name":"im so fucking repressed","steam_id":76561198029396836,"connected_time":2719000000000,"state":"active","ping":43},{"user_id":745,"name":"Karl Wheezer","steam_id":76561198848722936,"connected_time":4074000000000,"state":"active","ping":57},{"user_id":718,"name":"SvicidalBug","steam_id":76561198221390504,"connected_time":6203000000000,"state":"active","ping":67},{"user_id":778,"name":"Thexx ❤","steam_id":76561198113823050,"connected_time":743000000000,"state":"active","ping":46},{"user_id":771,"name":"reiidaya","steam_id":76561198325306660,"connected_time":1376000000000,"state":"active","ping":54},{"user_id":749,"name":"charley","steam_id":76561198828238339,"connected_time":4023000000000,"state":"active","ping":96}]},{"server_id":406,"name":"Uncletopia | Seattle | 3 | Stopwatch Beta","name_short":"sea-3","host":"sea-1.us.uncletopia.com","port":27035,"enabled":true,"region":"us-west","cc":"us","latitude":47.608013,"longitude":-122.33517,"reserved":0,"last_update":"0001-01-01T00:00:00Z","name_a2s":"Uncletopia | Seattle | 3 | Stopwatch Beta","protocol":17,"map":"workshop/koth_ashville_final.ugc2130459942","folder":"tf","game":"Team Fortress","app_id":440,"player_count":0,"max_players":24,"Bots":0,"server_type":"Dedicated","server_os":"Linux","password":true,"vac":true,"version":"7757534","steam_id":85568392924515217,"keywords":["cp","nocrits","nodmgspread","uncletopia"],"game_id":440,"stv_port":27036,"stv_name":"Uncletopia | Seattle | 3 | Stopwatch Beta | STV","players":null},{"server_id":17,"name":"Uncletopia | San Francisco | 1 | All Maps","name_short":"sfo-1","host":"sfo-1.us.uncletopia.com","port":27015,"enabled":true,"region":"us-west","cc":"us","latitude":37.77397,"longitude":-122.4313,"reserved":0,"last_update":"0001-01-01T00:00:00Z","name_a2s":"Uncletopia | San Francisco | 1 | All Maps","protocol":17,"map":"pl_upward","folder":"tf","game":"Team Fortress","app_id":440,"player_count":24,"max_players":24,"Bots":0,"server_type":"Dedicated","server_os":"Linux","password":true,"vac":true,"version":"7757534","steam_id":85568392924469999,"keywords":["nocrits","nodmgspread","payload","uncletopia"],"game_id":440,"stv_port":27016,"stv_name":"Uncletopia | San Francisco | 1 | All Maps | STV","players":[{"user_id":939,"name":"Xevon","steam_id":76561198355618921,"connected_time":417000000000,"state":"active","ping":87},{"user_id":940,"name":"vaccine dildo","steam_id":76561198092139690,"connected_time":409000000000,"state":"active","ping":59},{"user_id":934,"name":"asphalt eater","steam_id":76561198844273999,"connected_time":761000000000,"state":"active","ping":62},{"user_id":938,"name":"SpringIvan","steam_id":76561199133179509,"connected_time":595000000000,"state":"active","ping":44},{"user_id":867,"name":"MegaBron James","steam_id":76561198066091050,"connected_time":6481000000000,"state":"active","ping":74},{"user_id":927,"name":"Mad Italian","steam_id":76561198083529973,"connected_time":1854000000000,"state":"active","ping":69},{"user_id":895,"name":"Thunder","steam_id":76561198097721532,"connected_time":5112000000000,"state":"active","ping":57},{"user_id":871,"name":"Buswolley","steam_id":76561197995205571,"connected_time":6304000000000,"state":"active","ping":50},{"user_id":896,"name":"Courier711","steam_id":76561198053232343,"connected_time":5082000000000,"state":"active","ping":65},{"user_id":933,"name":"smiley","steam_id":76561198240116276,"connected_time":838000000000,"state":"active","ping":101},{"user_id":908,"name":"Pie","steam_id":76561198054721133,"connected_time":4591000000000,"state":"active","ping":66},{"user_id":942,"name":"Flipari","steam_id":76561198399012971,"connected_time":297000000000,"state":"active","ping":56},{"user_id":840,"name":"lol","steam_id":76561198026491738,"connected_time":8940000000000,"state":"active","ping":65},{"user_id":936,"name":"served","steam_id":76561199438267625,"connected_time":647000000000,"state":"active","ping":86},{"user_id":762,"name":"Dr. B Busta","steam_id":76561198206387303,"connected_time":12319000000000,"state":"active","ping":47},{"user_id":914,"name":"PunishedCrab","steam_id":76561198079650017,"connected_time":3588000000000,"state":"active","ping":77},{"user_id":932,"name":"goldhed","steam_id":76561198051751133,"connected_time":980000000000,"state":"active","ping":77},{"user_id":882,"name":"SadVeggie","steam_id":76561198163430099,"connected_time":5629000000000,"state":"active","ping":147},{"user_id":929,"name":"SnaggzHaki","steam_id":76561198065282605,"connected_time":1773000000000,"state":"active","ping":98},{"user_id":930,"name":"SWANG","steam_id":76561198269180990,"connected_time":1762000000000,"state":"active","ping":93},{"user_id":921,"name":"Danmnation","steam_id":76561199029201184,"connected_time":3384000000000,"state":"active","ping":64},{"user_id":941,"name":"Jack from Jack in The Box","steam_id":76561199083594971,"connected_time":395000000000,"state":"active","ping":64},{"user_id":918,"name":"Cinna Mon","steam_id":76561198005840633,"connected_time":3506000000000,"state":"active","ping":72},{"user_id":931,"name":"Beno","steam_id":76561198164251467,"connected_time":1754000000000,"state":"active","ping":95}]},{"server_id":18,"name":"Uncletopia | San Francisco | 2 | All Maps","name_short":"sfo-2","host":"sfo-1.us.uncletopia.com","port":27025,"enabled":true,"region":"us-west","cc":"us","latitude":37.77397,"longitude":-122.4313,"reserved":0,"last_update":"0001-01-01T00:00:00Z","name_a2s":"Uncletopia | San Francisco | 2 | All Maps","protocol":17,"map":"pl_snowycoast","folder":"tf","game":"Team Fortress","app_id":440,"player_count":24,"max_players":24,"Bots":0,"server_type":"Dedicated","server_os":"Linux","password":true,"vac":true,"version":"7757534","steam_id":85568392924470000,"keywords":["nocrits","nodmgspread","payload","uncletopia"],"game_id":440,"stv_port":27026,"stv_name":"Uncletopia | San Francisco | 2 | All Maps | STV","players":[{"user_id":90,"name":"Satori Komeiji","steam_id":76561198158211423,"connected_time":3738000000000,"state":"active","ping":57},{"user_id":54,"name":"perc 10","steam_id":76561198116471653,"connected_time":5510000000000,"state":"active","ping":57},{"user_id":110,"name":"Eremital","steam_id":76561198069557669,"connected_time":3016000000000,"state":"active","ping":67},{"user_id":141,"name":"Ghwhaine","steam_id":76561199045414702,"connected_time":174000000000,"state":"active","ping":71},{"user_id":114,"name":"Cactus","steam_id":76561198149762619,"connected_time":2953000000000,"state":"active","ping":69},{"user_id":130,"name":"cream team","steam_id":76561198139043953,"connected_time":1957000000000,"state":"active","ping":78},{"user_id":92,"name":"ScreamingGoaten","steam_id":76561199245321424,"connected_time":3638000000000,"state":"active","ping":115},{"user_id":115,"name":"IHUNTZ","steam_id":76561198390109907,"connected_time":2952000000000,"state":"active","ping":70},{"user_id":94,"name":"Qrowniniee","steam_id":76561198273028245,"connected_time":3517000000000,"state":"active","ping":71},{"user_id":116,"name":"JayLatne","steam_id":76561198258221077,"connected_time":2949000000000,"state":"active","ping":61},{"user_id":142,"name":"Tankun","steam_id":76561198020365510,"connected_time":50000000000,"state":"active","ping":97},{"user_id":143,"name":"why do i play video games","steam_id":76561199476816590,"connected_time":38000000000,"state":"active","ping":76},{"user_id":131,"name":"salad","steam_id":76561198199055635,"connected_time":1886000000000,"state":"active","ping":64},{"user_id":140,"name":"bingus","steam_id":76561199198633203,"connected_time":1450000000000,"state":"active","ping":91},{"user_id":53,"name":"eau:","steam_id":76561198110020262,"connected_time":5698000000000,"state":"active","ping":45},{"user_id":124,"name":"The dreaded jar","steam_id":76561199087010656,"connected_time":2298000000000,"state":"active","ping":82},{"user_id":144,"name":"Dagoth Ur","steam_id":76561198117028805,"connected_time":36000000000,"state":"active","ping":91},{"user_id":138,"name":"CreativeUsername","steam_id":76561198186045503,"connected_time":1594000000000,"state":"active","ping":96},{"user_id":109,"name":"Rusty","steam_id":76561198178868626,"connected_time":3028000000000,"state":"active","ping":94},{"user_id":105,"name":"Darth Humis","steam_id":76561198879506239,"connected_time":3095000000000,"state":"active","ping":71},{"user_id":133,"name":"bonk man","steam_id":76561198386542309,"connected_time":1763000000000,"state":"active","ping":102},{"user_id":145,"name":"Scoliosis King","steam_id":76561199143329892,"connected_time":6000000000,"state":"spawning","ping":64},{"user_id":135,"name":"CUBICLE #35","steam_id":76561198799010228,"connected_time":1703000000000,"state":"active","ping":69},{"user_id":137,"name":"Sir Galahad","steam_id":76561198195999859,"connected_time":1694000000000,"state":"active","ping":71}]},{"server_id":19,"name":"Uncletopia | San Francisco | 3 | Stopwatch Beta","name_short":"sfo-3","host":"sfo-1.us.uncletopia.com","port":27035,"enabled":true,"region":"us-west","cc":"us","latitude":37.77397,"longitude":-122.4313,"reserved":0,"last_update":"0001-01-01T00:00:00Z","name_a2s":"Uncletopia | San Francisco | 3 | Stopwatch Beta","protocol":17,"map":"pl_swiftwater_final1","folder":"tf","game":"Team Fortress","app_id":440,"player_count":0,"max_players":24,"Bots":0,"server_type":"Dedicated","server_os":"Linux","password":true,"vac":true,"version":"7757534","steam_id":85568392924742824,"keywords":["nocrits","nodmgspread","payload","uncletopia"],"game_id":440,"stv_port":27036,"stv_name":"Uncletopia | San Francisco | 3 | Stopwatch Beta | STV","players":null},{"server_id":20,"name":"Uncletopia | San Francisco | 4 | Community","name_short":"sfo-4","host":"sfo-1.us.uncletopia.com","port":27045,"enabled":true,"region":"us-west","cc":"us","latitude":37.77397,"longitude":-122.4313,"reserved":0,"last_update":"0001-01-01T00:00:00Z","name_a2s":"Uncletopia | San Francisco | 4 | Community","protocol":17,"map":"workshop/koth_slaughter_rc1.ugc1712845210","folder":"tf","game":"Team Fortress","app_id":440,"player_count":7,"max_players":24,"Bots":0,"server_type":"Dedicated","server_os":"Linux","password":true,"vac":true,"version":"7757534","steam_id":85568392924742826,"keywords":["cp","nocrits","nodmgspread","uncletopia"],"game_id":440,"stv_port":27046,"stv_name":"Uncletopia | San Francisco | 4 | Community | STV","players":[{"user_id":320,"name":"Honey Boo Boo","steam_id":76561198119340886,"connected_time":4337000000000,"state":"active","ping":760},{"user_id":179,"name":"SOLDIER TF2","steam_id":76561198203170652,"connected_time":15753000000000,"state":"active","ping":80},{"user_id":348,"name":"BaklanbI","steam_id":76561198081663522,"connected_time":1795000000000,"state":"active","ping":234},{"user_id":355,"name":"tracy","steam_id":76561198319677284,"connected_time":705000000000,"state":"active","ping":51},{"user_id":352,"name":"JU67","steam_id":76561199054875735,"connected_time":990000000000,"state":"active","ping":247},{"user_id":353,"name":"awning","steam_id":76561198202285760,"connected_time":971000000000,"state":"active","ping":66},{"user_id":252,"name":"Auynonymous","steam_id":76561198027509458,"connected_time":11372000000000,"state":"active","ping":88}]},{"server_id":141,"name":"Uncletopia | Sydney | 1 | All Maps","name_short":"syd-1","host":"syd-1.au.uncletopia.com","port":27015,"enabled":true,"region":"au","cc":"au","latitude":-33.865143,"longitude":151.2099,"reserved":0,"last_update":"0001-01-01T00:00:00Z","name_a2s":"Uncletopia | Sydney | 1 | All Maps","protocol":17,"map":"cp_steel","folder":"tf","game":"Team Fortress","app_id":440,"player_count":22,"max_players":24,"Bots":0,"server_type":"Dedicated","server_os":"Linux","password":true,"vac":true,"version":"7757534","steam_id":85568392924470001,"keywords":["cp","nocrits","nodmgspread","uncletopia"],"game_id":440,"stv_port":27016,"stv_name":"Uncletopia | Sydney | 1 | All Maps | STV","players":[{"user_id":313,"name":"GoodoDarco","steam_id":76561198322623838,"connected_time":7092000000000,"state":"active","ping":57},{"user_id":342,"name":"primal","steam_id":76561198257852006,"connected_time":4869000000000,"state":"active","ping":59},{"user_id":407,"name":"Mr Mahal","steam_id":76561198123234137,"connected_time":407000000000,"state":"active","ping":68},{"user_id":363,"name":"weezer","steam_id":76561199439508788,"connected_time":3290000000000,"state":"active","ping":64},{"user_id":394,"name":"bonaparte napoleon","steam_id":76561199021649596,"connected_time":1109000000000,"state":"active","ping":75},{"user_id":356,"name":"smite","steam_id":76561198845304189,"connected_time":4195000000000,"state":"active","ping":82},{"user_id":399,"name":"Bin","steam_id":76561199117653318,"connected_time":972000000000,"state":"active","ping":78},{"user_id":346,"name":"numbers on the boards","steam_id":76561198034306834,"connected_time":4628000000000,"state":"active","ping":42},{"user_id":404,"name":"Rainbowchimp33","steam_id":76561198340487560,"connected_time":618000000000,"state":"active","ping":62},{"user_id":410,"name":"beth.cubitt","steam_id":76561198454733447,"connected_time":394000000000,"state":"active","ping":91},{"user_id":375,"name":"ToadFungus","steam_id":76561199219667039,"connected_time":2331000000000,"state":"active","ping":102},{"user_id":412,"name":"SupersawLead","steam_id":76561197998934553,"connected_time":221000000000,"state":"active","ping":66},{"user_id":347,"name":"Ethos","steam_id":76561197970514852,"connected_time":4612000000000,"state":"active","ping":59},{"user_id":367,"name":"bison","steam_id":76561198183851230,"connected_time":3073000000000,"state":"active","ping":82},{"user_id":323,"name":"Mail Bomb Victim","steam_id":76561198284533039,"connected_time":6717000000000,"state":"active","ping":48},{"user_id":402,"name":"Blazey 伊達 政宗","steam_id":76561197971082275,"connected_time":713000000000,"state":"active","ping":118},{"user_id":389,"name":"LightningBlock","steam_id":76561198289997742,"connected_time":1479000000000,"state":"active","ping":31},{"user_id":384,"name":"THE GREAT AND POWERFUL TRIXIE","steam_id":76561198040018349,"connected_time":1776000000000,"state":"active","ping":44},{"user_id":403,"name":"Sinister80s","steam_id":76561198343540472,"connected_time":696000000000,"state":"active","ping":74},{"user_id":411,"name":"KindredGarlic","steam_id":76561198862857120,"connected_time":288000000000,"state":"active","ping":38},{"user_id":405,"name":"BaconUndies","steam_id":76561198281809824,"connected_time":576000000000,"state":"active","ping":107},{"user_id":386,"name":"mushroom","steam_id":76561197992336470,"connected_time":1631000000000,"state":"active","ping":92}]},{"server_id":123,"name":"Uncletopia | Sydney | 2 | All Maps","name_short":"syd-2","host":"syd-1.au.uncletopia.com","port":27025,"enabled":true,"region":"au","cc":"au","latitude":-33.865143,"longitude":151.2099,"reserved":0,"last_update":"0001-01-01T00:00:00Z","name_a2s":"Uncletopia | Sydney | 2 | All Maps","protocol":17,"map":"pl_upward","folder":"tf","game":"Team Fortress","app_id":440,"player_count":20,"max_players":24,"Bots":0,"server_type":"Dedicated","server_os":"Linux","password":true,"vac":true,"version":"7757534","steam_id":85568392924470002,"keywords":["nocrits","nodmgspread","payload","uncletopia"],"game_id":440,"stv_port":27026,"stv_name":"Uncletopia | Sydney | 2 | All Maps | STV","players":[{"user_id":243,"name":"POLEMICIST FOREVER","steam_id":76561198142607019,"connected_time":7000000000,"state":"spawning","ping":285},{"user_id":225,"name":"Wildermold","steam_id":76561198147047060,"connected_time":1591000000000,"state":"active","ping":68},{"user_id":238,"name":"krandlez` (Any/All)","steam_id":76561198044839726,"connected_time":461000000000,"state":"active","ping":41},{"user_id":216,"name":"Pat","steam_id":76561198244663182,"connected_time":1843000000000,"state":"active","ping":63},{"user_id":209,"name":"Crabloid","steam_id":76561199081848498,"connected_time":2042000000000,"state":"active","ping":70},{"user_id":224,"name":"Swate","steam_id":76561198042991670,"connected_time":1598000000000,"state":"active","ping":55},{"user_id":211,"name":"WishMount","steam_id":76561198104683446,"connected_time":1964000000000,"state":"active","ping":52},{"user_id":202,"name":"kamO","steam_id":76561198000303139,"connected_time":2260000000000,"state":"active","ping":60},{"user_id":239,"name":"Apteryx","steam_id":76561197976460834,"connected_time":436000000000,"state":"active","ping":75},{"user_id":176,"name":"SaltierThanYou","steam_id":76561198444395188,"connected_time":3794000000000,"state":"active","ping":82},{"user_id":220,"name":"Pompadouraus","steam_id":76561198327530525,"connected_time":1760000000000,"state":"active","ping":75},{"user_id":235,"name":"The_Green_Jelly","steam_id":76561198381061704,"connected_time":962000000000,"state":"active","ping":94},{"user_id":236,"name":"Dustin Poirier","steam_id":76561198060677406,"connected_time":581000000000,"state":"active","ping":101},{"user_id":226,"name":"smol_","steam_id":76561198350975045,"connected_time":1586000000000,"state":"active","ping":75},{"user_id":227,"name":"Joe Fast","steam_id":76561198039631813,"connected_time":1569000000000,"state":"active","ping":73},{"user_id":185,"name":"xtra","steam_id":76561197998962418,"connected_time":3155000000000,"state":"active","ping":73},{"user_id":230,"name":"ApolloCJ","steam_id":76561198050304077,"connected_time":1379000000000,"state":"active","ping":54},{"user_id":241,"name":"Spicy Baguette","steam_id":76561198238030210,"connected_time":394000000000,"state":"active","ping":51},{"user_id":183,"name":"Matchfighter","steam_id":76561198043200309,"connected_time":3559000000000,"state":"active","ping":49},{"user_id":195,"name":"Paula","steam_id":76561198010688399,"connected_time":2563000000000,"state":"active","ping":66}]},{"server_id":395,"name":"Uncletopia | Sydney | 3 | All Maps","name_short":"syd-3","host":"syd-1.au.uncletopia.com","port":27035,"enabled":true,"region":"au","cc":"au","latitude":-33.865143,"longitude":151.2099,"reserved":0,"last_update":"0001-01-01T00:00:00Z","name_a2s":"Uncletopia | Sydney | 3 | All Maps","protocol":17,"map":"cp_sunshine","folder":"tf","game":"Team Fortress","app_id":440,"player_count":0,"max_players":24,"Bots":0,"server_type":"Dedicated","server_os":"Linux","password":true,"vac":true,"version":"7757534","steam_id":85568392925194467,"keywords":["cp","nocrits","nodmgspread","uncletopia"],"game_id":440,"stv_port":27036,"stv_name":"Uncletopia | Sydney | 3 | All Maps | STV","players":null},{"server_id":396,"name":"Uncletopia | Sydney | 4 | All Maps","name_short":"syd-4","host":"syd-1.au.uncletopia.com","port":27045,"enabled":true,"region":"au","cc":"au","latitude":-33.865143,"longitude":151.2099,"reserved":0,"last_update":"0001-01-01T00:00:00Z","name_a2s":"Uncletopia | Sydney | 4 | All Maps","protocol":17,"map":"koth_lakeside_final","folder":"tf","game":"Team Fortress","app_id":440,"player_count":0,"max_players":24,"Bots":0,"server_type":"Dedicated","server_os":"Linux","password":true,"vac":true,"version":"7757534","steam_id":85568392925397958,"keywords":["cp","nocrits","nodmgspread","uncletopia"],"game_id":440,"stv_port":27046,"stv_name":"Uncletopia | Sydney | 4 | All Maps | STV","players":null},{"server_id":58,"name":"Uncletopia | Sydney | 5 | Stopwatch Beta","name_short":"syd-5","host":"syd-1.au.uncletopia.com","port":27055,"enabled":true,"region":"au","cc":"au","latitude":-33.865143,"longitude":151.2099,"reserved":0,"last_update":"0001-01-01T00:00:00Z","name_a2s":"Uncletopia | Sydney | 5 | Stopwatch Beta","protocol":17,"map":"pl_upward","folder":"tf","game":"Team Fortress","app_id":440,"player_count":0,"max_players":24,"Bots":0,"server_type":"Dedicated","server_os":"Linux","password":true,"vac":true,"version":"7757534","steam_id":85568392925397959,"keywords":["nocrits","nodmgspread","payload","uncletopia"],"game_id":440,"stv_port":27056,"stv_name":"Uncletopia | Sydney | 5 | Stopwatch Beta | STV","players":null},{"server_id":59,"name":"Uncletopia | Sydney | 6 | Community","name_short":"syd-6","host":"syd-1.au.uncletopia.com","port":27065,"enabled":true,"region":"au","cc":"au","latitude":-33.865143,"longitude":151.2099,"reserved":0,"last_update":"0001-01-01T00:00:00Z","name_a2s":"Uncletopia | Sydney | 6 | Community","protocol":17,"map":"workshop/cp_glassworks_rc6a.ugc454118349","folder":"tf","game":"Team Fortress","app_id":440,"player_count":1,"max_players":24,"Bots":0,"server_type":"Dedicated","server_os":"Linux","password":true,"vac":true,"version":"7757534","steam_id":85568392925397960,"keywords":["cp","nocrits","nodmgspread","uncletopia"],"game_id":440,"stv_port":27066,"stv_name":"Uncletopia | Sydney | 6 | Community | STV","players":[{"user_id":8,"name":"Zilvera","steam_id":76561198065801850,"connected_time":3482000000000,"state":"active","ping":43}]},{"server_id":49,"name":"Uncletopia | Warsaw | 1 | All Maps","name_short":"waw-1","host":"waw-1.pl.uncletopia.com","port":27015,"enabled":true,"region":"eu","cc":"pl","latitude":52.2297,"longitude":21.017532,"reserved":0,"last_update":"0001-01-01T00:00:00Z","name_a2s":"","protocol":0,"map":"","folder":"","game":"","app_id":0,"player_count":0,"max_players":0,"Bots":0,"server_type":"","server_os":"","password":false,"vac":false,"version":"","steam_id":0,"keywords":null,"game_id":0,"stv_port":0,"stv_name":"","players":null},{"server_id":50,"name":"Uncletopia | Warsaw | 2 | All Maps","name_short":"waw-2","host":"waw-1.pl.uncletopia.com","port":27025,"enabled":true,"region":"eu","cc":"pl","latitude":52.2297,"longitude":21.017532,"reserved":0,"last_update":"0001-01-01T00:00:00Z","name_a2s":"Uncletopia | Warsaw | 2 | All Maps","protocol":17,"map":"koth_viaduct","folder":"tf","game":"Team Fortress","app_id":440,"player_count":0,"max_players":24,"Bots":0,"server_type":"Dedicated","server_os":"Linux","password":true,"vac":true,"version":"7757534","steam_id":85568392925397851,"keywords":["cp","nocrits","nodmgspread","uncletopia"],"game_id":440,"stv_port":27026,"stv_name":"Uncletopia | Warsaw | 2 | All Maps | STV","players":null},{"server_id":51,"name":"Uncletopia | Warsaw | 3 | All Maps","name_short":"waw-3","host":"waw-1.pl.uncletopia.com","port":27035,"enabled":true,"region":"eu","cc":"pl","latitude":52.2297,"longitude":21.017532,"reserved":0,"last_update":"0001-01-01T00:00:00Z","name_a2s":"Uncletopia | Warsaw | 3 | All Maps","protocol":17,"map":"pl_badwater","folder":"tf","game":"Team Fortress","app_id":440,"player_count":0,"max_players":24,"Bots":0,"server_type":"Dedicated","server_os":"Linux","password":true,"vac":true,"version":"7757534","steam_id":85568392925397852,"keywords":["nocrits","nodmgspread","payload","uncletopia"],"game_id":440,"stv_port":27036,"stv_name":"Uncletopia | Warsaw | 3 | All Maps | STV","players":null},{"server_id":52,"name":"Uncletopia | Warsaw | 4 | All Maps","name_short":"waw-4","host":"waw-1.pl.uncletopia.com","port":27045,"enabled":true,"region":"eu","cc":"pl","latitude":52.2297,"longitude":21.017532,"reserved":0,"last_update":"0001-01-01T00:00:00Z","name_a2s":"Uncletopia | Warsaw | 4 | All Maps","protocol":17,"map":"koth_lakeside_final","folder":"tf","game":"Team Fortress","app_id":440,"player_count":0,"max_players":24,"Bots":0,"server_type":"Dedicated","server_os":"Linux","password":true,"vac":true,"version":"7757534","steam_id":85568392925397853,"keywords":["cp","nocrits","nodmgspread","uncletopia"],"game_id":440,"stv_port":27046,"stv_name":"Uncletopia | Warsaw | 4 | All Maps | STV","players":null},{"server_id":53,"name":"Uncletopia | Warsaw | 5 | Stopwatch Beta","name_short":"waw-5","host":"waw-1.pl.uncletopia.com","port":27055,"enabled":true,"region":"eu","cc":"pl","latitude":52.2297,"longitude":21.017532,"reserved":0,"last_update":"0001-01-01T00:00:00Z","name_a2s":"Uncletopia | Warsaw | 5 | Stopwatch Beta","protocol":17,"map":"pl_borneo","folder":"tf","game":"Team Fortress","app_id":440,"player_count":0,"max_players":24,"Bots":0,"server_type":"Dedicated","server_os":"Linux","password":true,"vac":true,"version":"7757534","steam_id":85568392925397854,"keywords":["nocrits","nodmgspread","payload","uncletopia"],"game_id":440,"stv_port":27056,"stv_name":"Uncletopia | Warsaw | 5 | Stopwatch Beta | STV","players":null},{"server_id":54,"name":"Uncletopia | Warsaw | 6 | Community","name_short":"waw-6","host":"waw-1.pl.uncletopia.com","port":27065,"enabled":true,"region":"eu","cc":"pl","latitude":52.2297,"longitude":21.017532,"reserved":0,"last_update":"0001-01-01T00:00:00Z","name_a2s":"Uncletopia | Warsaw | 6 | Community","protocol":17,"map":"koth_lakeside_final","folder":"tf","game":"Team Fortress","app_id":440,"player_count":0,"max_players":24,"Bots":0,"server_type":"Dedicated","server_os":"Linux","password":true,"vac":true,"version":"7757534","steam_id":85568392925397856,"keywords":["cp","nocrits","nodmgspread","uncletopia"],"game_id":440,"stv_port":27066,"stv_name":"Uncletopia | Warsaw | 6 | Community | STV","players":null}]}