{"status":true,"message":"","result":[{"server_id":9,"name":"Uncletopia | Atlanta | 1 | All Maps","name_short":"atl-1","host":"atl-1.us.uncletopia.com","port":27015,"enabled":true,"region":"us-east","cc":"us","latitude":33.753746,"longitude":-84.38633,"reserved":0,"last_update":"0001-01-01T00:00:00Z","name_a2s":"Uncletopia | Atlanta | 1 | All Maps","protocol":17,"map":"pl_borneo","folder":"tf","game":"Team Fortress","app_id":440,"player_count":24,"max_players":24,"Bots":0,"server_type":"Dedicated","server_os":"Linux","password":true,"vac":true,"version":"7742253","steam_id":85568392924469982,"keywords":["nocrits","nodmgspread","payload","uncletopia"],"game_id":440,"stv_port":27016,"stv_name":"Uncletopia | Atlanta | 1 | All Maps | STV","players":[{"user_id":148,"name":"Jellyboi","steam_id":76561197995758438,"connected_time":1005000000000,"state":"active","ping":70},{"user_id":82,"name":"noelle","steam_id":76561198386344068,"connected_time":5931000000000,"state":"active","ping":70},{"user_id":162,"name":"Dumbass Shpee","steam_id":76561199145807937,"connected_time":205000000000,"state":"active","ping":136},{"user_id":125,"name":"The ATF","steam_id":76561198046518234,"connected_time":2923000000000,"state":"active","ping":60},{"user_id":146,"name":"Stampdawg","steam_id":76561198050500060,"connected_time":1195000000000,"state":"active","ping":89},{"user_id":163,"name":"novu","steam_id":76561198886997024,"connected_time":149000000000,"state":"active","ping":70},{"user_id":159,"name":"Ultra-X","steam_id":76561199201770653,"connected_time":257000000000,"state":"active","ping":77},{"user_id":151,"name":"Fawny","steam_id":76561198311363172,"connected_time":707000000000,"state":"active","ping":75},{"user_id":152,"name":"Coup de Grass","steam_id":76561198011643226,"connected_time":345000000000,"state":"active","ping":59},{"user_id":138,"name":"Quiggles lft","steam_id":76561199177247655,"connected_time":1756000000000,"state":"active","ping":55},{"user_id":135,"name":"Haiti's Space Agency","steam_id":76561197997819072,"connected_time":2273000000000,"state":"active","ping":81},{"user_id":127,"name":"finnegan","steam_id":76561199245670274,"connected_time":2751000000000,"state":"active","ping":105},{"user_id":140,"name":"Master Of Whales","steam_id":76561198349104889,"connected_time":1735000000000,"state":"active","ping":100},{"user_id":136,"name":"Giddy","steam_id":76561198103183739,"connected_time":2085000000000,"state":"active","ping":69},{"user_id":160,"name":"Oliver Clozoff556","steam_id":76561199170979993,"connected_time":244000000000,"state":"active","ping":82},{"user_id":118,"name":"Cthulwho?","steam_id":76561198165550810,"connected_time":3522000000000,"state":"active","ping":76},{"user_id":126,"name":"ATL1 | on my hunting trip","steam_id":76561198315341646,"connected_time":2804000000000,"state":"active","ping":78},{"user_id":141,"name":"M.L.JEW","steam_id":76561198997375055,"connected_time":1725000000000,"state":"active","ping":76},{"user_id":142,"name":"KaleidoscopeOk7981","steam_id":76561198110449520,"connected_time":1717000000000,"state":"active","ping":77},{"user_id":128,"name":"Spirit","steam_id":76561199069322627,"connected_time":2750000000000,"state":"active","ping":76},{"user_id":154,"name":"Husker414Pupper","steam_id":76561198812776770,"connected_time":331000000000,"state":"active","ping":73},{"user_id":161,"name":"Lady Duckland","steam_id":76561198077092840,"connected_time":229000000000,"state":"active","ping":76},{"user_id":150,"name":"Strawburrr","steam_id":76561199208694620,"connected_time":750000000000,"state":"active","ping":63},{"user_id":109,"name":"Quansen","steam_id":76561198151594550,"connected_time":4530000000000,"state":"active","ping":87}]},{"server_id":400,"name":"Uncletopia | Atlanta | 3 | Stopwatch Beta","name_short":"atl-3","host":"atl-1.us.uncletopia.com","port":27035,"enabled":true,"region":"us-east","cc":"us","latitude":33.753746,"longitude":-84.38633,"reserved":0,"last_update":"0001-01-01T00:00:00Z","name_a2s":"Uncletopia | Atlanta | 3 | Stopwatch Beta","protocol":17,"map":"pl_upward","folder":"tf","game":"Team Fortress","app_id":440,"player_count":0,"max_players":24,"Bots":0,"server_type":"Dedicated","server_os":"Linux","password":true,"vac":true,"version":"7742253","steam_id":85568392924515187,"keywords":["nocrits","nodmgspread","payload","uncletopia"],"game_id":440,"stv_port":27036,"stv_name":"Uncletopia | Atlanta | 3 | Stopwatch Beta | STV","players":null},{"server_id":401,"name":"Uncletopia | Atlanta | 4 | No Payload","name_short":"atl-4","host":"atl-1.us.uncletopia.com","port":27045,"enabled":true,"region":"us-east","cc":"us","latitude":33.753746,"longitude":-84.38633,"reserved":0,"last_update":"0001-01-01T00:00:00Z","name_a2s":"Uncletopia | Atlanta | 4 | No Payload","protocol":17,"map":"pl_pier","folder":"tf","game":"Team Fortress","app_id":440,"player_count":0,"max_players":24,"Bots":0,"server_type":"Dedicated","server_os":"Linux","password":true,"vac":true,"version":"7723704","steam_id":85568392924515188,"keywords":["nocrits","nodmgspread","payload","uncletopia"],"game_id":440,"stv_port":27046,"stv_name":"Uncletopia | Atlanta | 4 | No Payload | STV","players":null},{"server_id":2,"name":"Uncletopia | Chicago | 1 | All Maps","name_short":"chi-1","host":"chi-1.us.uncletopia.com","port":27015,"enabled":true,"region":"us-central","cc":"us","latitude":41.881832,"longitude":-87.62318,"reserved":0,"last_update":"0001-01-01T00:00:00Z","name_a2s":"Uncletopia | Chicago | 1 | All Maps","protocol":17,"map":"pl_frontier_final","folder":"tf","game":"Team Fortress","app_id":440,"player_count":24,"max_players":24,"Bots":0,"server_type":"Dedicated","server_os":"Linux","password":true,"vac":true,"version":"7742253","steam_id":85568392924469984,"keywords":["nocrits","nodmgspread","payload","uncletopia"],"game_id":440,"stv_port":27016,"stv_name":"Uncletopia | Chicago | 1 | All Maps | STV","players":[{"user_id":103,"name":"TastethePain(DyngOfHypothermia)","steam_id":76561198081617990,"connected_time":2103000000000,"state":"active","ping":92},{"user_id":75,"name":"Wormy Getting Coal","steam_id":76561198054539200,"connected_time":4605000000000,"state":"active","ping":88},{"user_id":60,"name":"HAT-WEARING‚Ñ¢ Maggot Gamer Cat","steam_id":76561197973992705,"connected_time":5444000000000,"state":"active","ping":96},{"user_id":108,"name":"yomommasabitch","steam_id":76561198323217150,"connected_time":1948000000000,"state":"active","ping":71},{"user_id":39,"name":"JA","steam_id":76561198308183330,"connected_time":7141000000000,"state":"active","ping":52},{"user_id":123,"name":"Andromeda","steam_id":76561198113620464,"connected_time":553000000000,"state":"active","ping":85},{"user_id":80,"name":"Michaelpc1","steam_id":76561198088365519,"connected_time":4225000000000,"state":"active","ping":72},{"user_id":90,"name":"Bubbamanme","steam_id":76561198119778504,"connected_time":3312000000000,"state":"active","ping":104},{"user_id":126,"name":"HellRaiser","steam_id":76561199051660033,"connected_time":69000000000,"state":"active","ping":74},{"user_id":113,"name":"kosova numer 1","steam_id":76561198114713240,"connected_time":1267000000000,"state":"active","ping":63},{"user_id":120,"name":"CHIPS","steam_id":76561199085414584,"connected_time":739000000000,"state":"active","ping":74},{"user_id":124,"name":"the grunch","steam_id":76561199013160273,"connected_time":511000000000,"state":"active","ping":80},{"user_id":115,"name":"vartion","steam_id":76561198272996824,"connected_time":1042000000000,"state":"active","ping":102},{"user_id":121,"name":"FP","steam_id":76561198111259720,"connected_time":697000000000,"state":"active","ping":68},{"user_id":106,"name":"Light","steam_id":76561198009169048,"connected_time":1966000000000,"state":"active","ping":73},{"user_id":104,"name":"Big Fig","steam_id":76561198035454162,"connected_time":1970000000000,"state":"active","ping":62},{"user_id":107,"name":"Shaizo","steam_id":76561199118241286,"connected_time":1959000000000,"state":"active","ping":72},{"user_id":122,"name":"Diesel of Alrest","steam_id":76561198143450491,"connected_time":586000000000,"state":"active","ping":62},{"user_id":114,"name":"ccat","steam_id":76561198281773224,"connected_time":1067000000000,"state":"active","ping":92},{"user_id":118,"name":"Gary Budussy","steam_id":76561197969793969,"connected_time":773000000000,"state":"active","ping":65},{"user_id":109,"name":"Pixler544","steam_id":76561198240575132,"connected_time":1940000000000,"state":"active","ping":84},{"user_id":111,"name":"DEATHzoid","steam_id":76561198977603374,"connected_time":1716000000000,"state":"active","ping":92},{"user_id":105,"name":"Sir, this is a Wendy's","steam_id":76561198983656317,"connected_time":1970000000000,"state":"active","ping":73},{"user_id":86,"name":"Hell's Reindeer","steam_id":76561198065310364,"connected_time":3715000000000,"state":"active","ping":59}]},{"server_id":106,"name":"Uncletopia | Chicago | 2 | All Maps","name_short":"chi-2","host":"chi-1.us.uncletopia.com","port":27025,"enabled":true,"region":"us-central","cc":"us","latitude":41.881832,"longitude":-87.62318,"reserved":0,"last_update":"0001-01-01T00:00:00Z","name_a2s":"Uncletopia | Chicago | 2 | All Maps","protocol":17,"map":"pl_snowycoast","folder":"tf","game":"Team Fortress","app_id":440,"player_count":21,"max_players":24,"Bots":0,"server_type":"Dedicated","server_os":"Linux","password":true,"vac":true,"version":"7742253","steam_id":85568392924469985,"keywords":["nocrits","nodmgspread","payload","uncletopia"],"game_id":440,"stv_port":27026,"stv_name":"Uncletopia | Chicago | 2 | All Maps | STV","players":[{"user_id":101,"name":"viagra addict","steam_id":76561198017705248,"connected_time":739000000000,"state":"active","ping":58},{"user_id":90,"name":"KOOSTIFF","steam_id":76561198053727976,"connected_time":1369000000000,"state":"active","ping":61},{"user_id":97,"name":"Typical","steam_id":76561199009805172,"connected_time":1179000000000,"state":"active","ping":129},{"user_id":63,"name":"-flagellum","steam_id":76561198006297974,"connected_time":2968000000000,"state":"active","ping":51},{"user_id":65,"name":"BigBubble42","steam_id":76561198136286123,"connected_time":2934000000000,"state":"active","ping":52},{"user_id":96,"name":"Fishstall","steam_id":76561198038126034,"connected_time":1196000000000,"state":"active","ping":83},{"user_id":105,"name":"‚àÄ…ê","steam_id":76561198139718219,"connected_time":69000000000,"state":"active","ping":63},{"user_id":80,"name":"Anononomous Dumbo Octopus","steam_id":76561198252522394,"connected_time":2375000000000,"state":"active","ping":60},{"user_id":89,"name":"·πΩ‚ßâ cookie","steam_id":76561197998884823,"connected_time":1410000000000,"state":"active","ping":65},{"user_id":103,"name":"Bobble Hat Kujo","steam_id":76561198364283803,"connected_time":296000000000,"state":"active","ping":77},{"user_id":78,"name":"Loogus","steam_id":76561198811561721,"connected_time":2722000000000,"state":"active","ping":91},{"user_id":106,"name":"Kora (It/Its)","steam_id":76561198128017814,"connected_time":20000000000,"state":"active","ping":81},{"user_id":20,"name":"Dr. Enforcicle (real)","steam_id":76561198964471859,"connected_time":6195000000000,"state":"active","ping":77},{"user_id":91,"name":"1HandsomeLAD","steam_id":76561198807047496,"connected_time":1355000000000,"state":"active","ping":75},{"user_id":98,"name":"King6h4","steam_id":76561198996536718,"connected_time":1176000000000,"state":"active","ping":85},{"user_id":94,"name":"a real fish","steam_id":76561198845824198,"connected_time":1334000000000,"state":"active","ping":89},{"user_id":95,"name":"steakfarmasian","steam_id":76561198212754036,"connected_time":1327000000000,"state":"active","ping":60},{"user_id":87,"name":"squib cakes but with rizz","steam_id":76561198106849547,"connected_time":1858000000000,"state":"active","ping":52},{"user_id":100,"name":"Scorpie Doodle","steam_id":76561198021845763,"connected_time":763000000000,"state":"active","ping":47},{"user_id":102,"name":"ScreamCram","steam_id":76561199114068524,"connected_time":732000000000,"state":"active","ping":60},{"user_id":84,"name":"Swag Messiah","steam_id":76561198329720191,"connected_time":2107000000000,"state":"active","ping":45}]},{"server_id":402,"name":"Uncletopia | Chicago | 3 | All Maps","name_short":"chi-3","host":"chi-1.us.uncletopia.com","port":27035,"enabled":true,"region":"us-central","cc":"us","latitude":41.881832,"longitude":-87.62318,"reserved":0,"last_update":"0001-01-01T00:00:00Z","name_a2s":"Uncletopia | Chicago | 3 | All Maps","protocol":17,"map":"koth_viaduct","folder":"tf","game":"Team Fortress","app_id":440,"player_count":12,"max_players":24,"Bots":0,"server_type":"Dedicated","server_os":"Linux","password":true,"vac":true,"version":"7742253","steam_id":85568392924515191,"keywords":["cp","nocrits","nodmgspread","uncletopia"],"game_id":440,"stv_port":27036,"stv_name":"Uncletopia | Chicago | 3 | All Maps | STV","players":[{"user_id":20,"name":"Rugbmilk","steam_id":76561199389283507,"connected_time":1054000000000,"state":"active","ping":66},{"user_id":19,"name":"PACKED_420","steam_id":76561199199932446,"connected_time":1061000000000,"state":"active","ping":57},{"user_id":21,"name":"Kindagoodplayer","steam_id":76561198814625843,"connected_time":1030000000000,"state":"active","ping":45},{"user_id":39,"name":"Locar","steam_id":76561198365417023,"connected_time":452000000000,"state":"active","ping":78},{"user_id":40,"name":"Ch4rl33","steam_id":76561198037008621,"connected_time":210000000000,"state":"active","ping":46},{"user_id":23,"name":"Regi","steam_id":76561198271508598,"connected_time":1011000000000,"state":"active","ping":59},{"user_id":28,"name":"VX Ghost (Holiday)","steam_id":76561198072541436,"connected_time":825000000000,"state":"active","ping":43},{"user_id":31,"name":"blind4545","steam_id":76561198983194317,"connected_time":607000000000,"state":"active","ping":90},{"user_id":33,"name":"Nordrengr","steam_id":76561198053361274,"connected_time":561000000000,"state":"active","ping":45},{"user_id":35,"name":"Rocky","steam_id":76561198048158539,"connected_time":522000000000,"state":"active","ping":60},{"user_id":37,"name":"Drinkable Milk","steam_id":76561199418706430,"connected_time":512000000000,"state":"active","ping":76},{"user_id":38,"name":"pinglefingle","steam_id":76561198216580197,"connected_time":511000000000,"state":"active","ping":75}]},{"server_id":403,"name":"Uncletopia | Chicago | 4 | All Maps","name_short":"chi-4","host":"chi-1.us.uncletopia.com","port":27045,"enabled":true,"region":"us-central","cc":"us","latitude":41.881832,"longitude":-87.62318,"reserved":0,"last_update":"0001-01-01T00:00:00Z","name_a2s":"Uncletopia | Chicago | 4 | All Maps","protocol":17,"map":"cp_process_final","folder":"tf","game":"Team Fortress","app_id":440,"player_count":0,"max_players":24,"Bots":0,"server_type":"Dedicated","server_os":"Linux","password":true,"vac":true,"version":"7742253","steam_id":85568392924515193,"keywords":["cp","nocrits","nodmgspread","uncletopia"],"game_id":440,"stv_port":27046,"stv_name":"Uncletopia | Chicago | 4 | All Maps | STV","players":null},{"server_id":36,"name":"Uncletopia | Chicago | 5 | All Maps","name_short":"chi-5","host":"chi-2.us.uncletopia.com","port":27015,"enabled":true,"region":"us-central","cc":"us","latitude":41.881832,"longitude":-87.62318,"reserved":0,"last_update":"0001-01-01T00:00:00Z","name_a2s":"Uncletopia | Chicago | 5 | All Maps","protocol":17,"map":"koth_highpass","folder":"tf","game":"Team Fortress","app_id":440,"player_count":0,"max_players":24,"Bots":0,"server_type":"Dedicated","server_os":"Linux","password":true,"vac":true,"version":"7742253","steam_id":85568392924866362,"keywords":["cp","nocrits","nodmgspread","uncletopia"],"game_id":440,"stv_port":27016,"stv_name":"Uncletopia | Chicago | 5 | All Maps | STV","players":null},{"server_id":37,"name":"Uncletopia | Chicago | 6 | All Maps","name_short":"chi-6","host":"chi-2.us.uncletopia.com","port":27025,"enabled":true,"region":"us-central","cc":"us","latitude":41.881832,"longitude":-87.62318,"reserved":0,"last_update":"0001-01-01T00:00:00Z","name_a2s":"Uncletopia | Chicago | 6 | All Maps","protocol":17,"map":"pl_frontier_final","folder":"tf","game":"Team Fortress","app_id":440,"player_count":0,"max_players":24,"Bots":0,"server_type":"Dedicated","server_os":"Linux","password":true,"vac":true,"version":"7742253","steam_id":85568392924866363,"keywords":["nocrits","nodmgspread","payload","uncletopia"],"game_id":440,"stv_port":27026,"stv_name":"Uncletopia | Chicago | 6 | All Maps | STV","players":null},{"server_id":38,"name":"Uncletopia | Chicago | 7 | Stopwatch Beta","name_short":"chi-7","host":"chi-2.us.uncletopia.com","port":27035,"enabled":true,"region":"us-central","cc":"us","latitude":41.881832,"longitude":-87.62318,"reserved":0,"last_update":"0001-01-01T00:00:00Z","name_a2s":"Uncletopia | Chicago | 7 | Stopwatch Beta","protocol":17,"map":"cp_altitude","folder":"tf","game":"Team Fortress","app_id":440,"player_count":0,"max_players":24,"Bots":0,"server_type":"Dedicated","server_os":"Linux","password":true,"vac":true,"version":"7742253","steam_id":85568392924866364,"keywords":["cp","nocrits","nodmgspread","uncletopia"],"game_id":440,"stv_port":27036,"stv_name":"Uncletopia | Chicago | 7 | Stopwatch Beta | STV","players":null},{"server_id":39,"name":"Uncletopia | Chicago | 8 | Community","name_short":"chi-8","host":"chi-2.us.uncletopia.com","port":27045,"enabled":true,"region":"us-central","cc":"us","latitude":41.881832,"longitude":-87.62318,"reserved":0,"last_update":"0001-01-01T00:00:00Z","name_a2s":"Uncletopia | Chicago | 8 | Community","protocol":17,"map":"koth_cascade","folder":"tf","game":"Team Fortress","app_id":440,"player_count":0,"max_players":24,"Bots":0,"server_type":"Dedicated","server_os":"Linux","password":true,"vac":true,"version":"7742253","steam_id":85568392924866365,"keywords":["cp","nocrits","nodmgspread","uncletopia"],"game_id":440,"stv_port":27046,"stv_name":"Uncletopia | Chicago | 8 | Community | STV","players":null},{"server_id":8,"name":"Uncletopia | Dallas | 1 | All Maps","name_short":"dal-1","host":"dal-1.us.uncletopia.com","port":27015,"enabled":true,"region":"us-central","cc":"us","latitude":32.779167,"longitude":-96.80889,"reserved":0,"last_update":"0001-01-01T00:00:00Z","name_a2s":"Uncletopia | Dallas | 1 | All Maps","protocol":17,"map":"koth_viaduct","folder":"tf","game":"Team Fortress","app_id":440,"player_count":0,"max_players":24,"Bots":0,"server_type":"Dedicated","server_os":"Linux","password":true,"vac":true,"version":"7742253","steam_id":85568392924469986,"keywords":["cp","nocrits","nodmgspread","uncletopia"],"game_id":440,"stv_port":27016,"stv_name":"Uncletopia | Dallas | 1 | All Maps | STV","players":null},{"server_id":108,"name":"Uncletopia | Dallas | 2 | All Maps","name_short":"dal-2","host":"dal-1.us.uncletopia.com","port":27025,"enabled":true,"region":"us-central","cc":"us","latitude":32.779167,"longitude":-96.80889,"reserved":0,"last_update":"0001-01-01T00:00:00Z","name_a2s":"Uncletopia | Dallas | 2 | All Maps","protocol":17,"map":"pl_barnblitz","folder":"tf","game":"Team Fortress","app_id":440,"player_count":0,"max_players":24,"Bots":0,"server_type":"Dedicated","server_os":"Linux","password":true,"vac":true,"version":"7742253","steam_id":85568392924469988,"keywords":["nocrits","nodmgspread","payload","uncletopia"],"game_id":440,"stv_port":27026,"stv_name":"Uncletopia | Dallas | 2 | All Maps | STV","players":null},{"server_id":5,"name":"Uncletopia | Frankfurt | 1 | All Maps","name_short":"frk-1","host":"frk-1.de.uncletopia.com","port":27015,"enabled":true,"region":"eu","cc":"de","latitude":50.110924,"longitude":8.682127,"reserved":0,"last_update":"0001-01-01T00:00:00Z","name_a2s":"Uncletopia | Frankfurt | 1 | All Maps","protocol":17,"map":"pl_coal_event","folder":"tf","game":"Team Fortress","app_id":440,"player_count":24,"max_players":24,"Bots":0,"server_type":"Dedicated","server_os":"Linux","password":true,"vac":true,"version":"7742253","steam_id":85568392924469989,"keywords":["nocrits","nodmgspread","payload","uncletopia"],"game_id":440,"stv_port":27016,"stv_name":"Uncletopia | Frankfurt | 1 | All Maps | STV","players":[{"user_id":208,"name":"manure merchant","steam_id":76561198010109316,"connected_time":1426000000000,"state":"active","ping":53},{"user_id":187,"name":"Radical priest","steam_id":76561198110470565,"connected_time":2747000000000,"state":"active","ping":97},{"user_id":170,"name":"citronous","steam_id":76561198093290934,"connected_time":3403000000000,"state":"active","ping":57},{"user_id":229,"name":"freemantel30","steam_id":76561198065669800,"connected_time":9000000000,"state":"spawning","ping":58},{"user_id":190,"name":"√Ñ√§rik ‚ô£","steam_id":76561198131871737,"connected_time":2269000000000,"state":"active","ping":53},{"user_id":191,"name":"Mayor Wank from Wanker Town","steam_id":76561197998253588,"connected_time":2171000000000,"state":"active","ping":47},{"user_id":150,"name":"Soap","steam_id":76561198074619142,"connected_time":4978000000000,"state":"active","ping":161},{"user_id":201,"name":"I-I","steam_id":76561198267969436,"connected_time":1707000000000,"state":"active","ping":55},{"user_id":214,"name":"mzorno_","steam_id":76561198135722240,"connected_time":933000000000,"state":"active","ping":49},{"user_id":193,"name":"Bruschetta","steam_id":76561198251927162,"connected_time":1937000000000,"state":"active","ping":59},{"user_id":184,"name":"RedFog","steam_id":76561198284713081,"connected_time":2824000000000,"state":"active","ping":45},{"user_id":228,"name":"Smissmin","steam_id":76561198005342133,"connected_time":88000000000,"state":"active","ping":58},{"user_id":217,"name":"Kowalski","steam_id":76561198004218740,"connected_time":869000000000,"state":"active","ping":63},{"user_id":218,"name":"wide","steam_id":76561198875441652,"connected_time":823000000000,"state":"active","ping":82},{"user_id":194,"name":":\u003e","steam_id":76561198349324196,"connected_time":1932000000000,"state":"active","ping":166},{"user_id":176,"name":"Johnny Boy","steam_id":76561197969525453,"connected_time":3114000000000,"state":"active","ping":69},{"user_id":199,"name":"Makeways","steam_id":76561198274466477,"connected_time":1801000000000,"state":"active","ping":70},{"user_id":185,"name":"waluigi","steam_id":76561198215809251,"connected_time":2768000000000,"state":"active","ping":56},{"user_id":195,"name":"sleep","steam_id":76561198049652518,"connected_time":1931000000000,"state":"active","ping":73},{"user_id":219,"name":"Mekowa","steam_id":76561198098142278,"connected_time":797000000000,"state":"active","ping":71},{"user_id":220,"name":"Packet","steam_id":76561199173195875,"connected_time":792000000000,"state":"active","ping":90},{"user_id":227,"name":"DirtyFred","steam_id":76561198031814950,"connected_time":219000000000,"state":"active","ping":74},{"user_id":225,"name":"Jendos","steam_id":76561198026471272,"connected_time":547000000000,"state":"active","ping":104},{"user_id":226,"name":"ashley...","steam_id":76561198056152479,"connected_time":528000000000,"state":"active","ping":60}]},{"server_id":110,"name":"Uncletopia | Frankfurt | 2 | All Maps","name_short":"frk-2","host":"frk-1.de.uncletopia.com","port":27025,"enabled":true,"region":"eu","cc":"de","latitude":50.110924,"longitude":8.682127,"reserved":0,"last_update":"0001-01-01T00:00:00Z","name_a2s":"Uncletopia | Frankfurt | 2 | All Maps","protocol":17,"map":"pl_pier","folder":"tf","game":"Team Fortress","app_id":440,"player_count":0,"max_players":24,"Bots":0,"server_type":"Dedicated","server_os":"Linux","password":true,"vac":true,"version":"7742253","steam_id":85568392924469990,"keywords":["nocrits","nodmgspread","payload","uncletopia"],"game_id":440,"stv_port":27026,"stv_name":"Uncletopia | Frankfurt | 2 | All Maps | STV","players":null},{"server_id":308,"name":"Uncletopia | Frankfurt | 3 | All Maps","name_short":"frk-3","host":"frk-1.de.uncletopia.com","port":27035,"enabled":true,"region":"eu","cc":"de","latitude":50.110924,"longitude":8.682127,"reserved":0,"last_update":"0001-01-01T00:00:00Z","name_a2s":"Uncletopia | Frankfurt | 3 | All Maps","protocol":17,"map":"pl_upward","folder":"tf","game":"Team Fortress","app_id":440,"player_count":23,"max_players":24,"Bots":0,"server_type":"Dedicated","server_os":"Linux","password":true,"vac":true,"version":"7742253","steam_id":85568392924504274,"keywords":["nocrits","nodmgspread","payload","uncletopia"],"game_id":440,"stv_port":27036,"stv_name":"Uncletopia | Frankfurt | 3 | All Maps | STV","players":[{"user_id":297,"name":"1_M_W","steam_id":76561199091749430,"connected_time":1327000000000,"state":"active","ping":88},{"user_id":322,"name":"kreeekz","steam_id":76561198014431602,"connected_time":25000000000,"state":"active","ping":70},{"user_id":292,"name":"Gabys","steam_id":76561198282892553,"connected_time":2096000000000,"state":"active","ping":74},{"user_id":323,"name":"Goliath","steam_id":76561198088583638,"connected_time":3000000000,"state":"spawning","ping":56},{"user_id":295,"name":"Cocsam","steam_id":76561198050827179,"connected_time":1714000000000,"state":"active","ping":55},{"user_id":287,"name":"Miton","steam_id":76561197970323209,"connected_time":2971000000000,"state":"active","ping":82},{"user_id":288,"name":"Jack Dickfister","steam_id":76561198145145810,"connected_time":2956000000000,"state":"active","ping":45},{"user_id":301,"name":"V1 is in my ass","steam_id":76561198107362485,"connected_time":1136000000000,"state":"active","ping":62},{"user_id":170,"name":"powerbottom","steam_id":76561198049405872,"connected_time":11393000000000,"state":"active","ping":35},{"user_id":294,"name":"Guru","steam_id":76561198093853069,"connected_time":1832000000000,"state":"active","ping":57},{"user_id":318,"name":"Toxic√≤","steam_id":76561199031920676,"connected_time":255000000000,"state":"active","ping":73},{"user_id":293,"name":"Wookie","steam_id":76561198019780053,"connected_time":2069000000000,"state":"active","ping":147},{"user_id":302,"name":"Bobo","steam_id":76561198052308399,"connected_time":1064000000000,"state":"active","ping":49},{"user_id":273,"name":"Harpenden, Harpenden, Harpenden","steam_id":76561198118138546,"connected_time":4175000000000,"state":"active","ping":58},{"user_id":314,"name":"B0r–µal","steam_id":76561198268369013,"connected_time":504000000000,"state":"active","ping":76},{"user_id":306,"name":"≈Ωgr√¶√êek113","steam_id":76561198306883632,"connected_time":963000000000,"state":"active","ping":65},{"user_id":305,"name":"SuijinForever2009","steam_id":76561198430050570,"connected_time":1002000000000,"state":"active","ping":76},{"user_id":171,"name":"mountaindrill","steam_id":76561198864327475,"connected_time":11285000000000,"state":"active","ping":44},{"user_id":313,"name":"Kruthal","steam_id":76561198245726582,"connected_time":511000000000,"state":"active","ping":74},{"user_id":316,"name":"muza‚ô•","steam_id":76561198220183377,"connected_time":311000000000,"state":"active","ping":96},{"user_id":253,"name":"Raivop","steam_id":76561197980854307,"connected_time":5598000000000,"state":"active","ping":98},{"user_id":240,"name":"YeetusFeetus","steam_id":76561199043598948,"connected_time":6359000000000,"state":"active","ping":103},{"user_id":321,"name":"Hool","steam_id":76561198108733152,"connected_time":93000000000,"state":"spawning","ping":94}]},{"server_id":309,"name":"Uncletopia | Frankfurt | 4 | All Maps","name_short":"frk-4","host":"frk-1.de.uncletopia.com","port":27045,"enabled":true,"region":"eu","cc":"de","latitude":50.110924,"longitude":8.682127,"reserved":0,"last_update":"0001-01-01T00:00:00Z","name_a2s":"Uncletopia | Frankfurt | 4 | All Maps","protocol":17,"map":"cp_sunshine","folder":"tf","game":"Team Fortress","app_id":440,"player_count":24,"max_players":24,"Bots":0,"server_type":"Dedicated","server_os":"Linux","password":true,"vac":true,"version":"7742253","steam_id":85568392924504275,"keywords":["cp","nocrits","nodmgspread","uncletopia"],"game_id":440,"stv_port":27046,"stv_name":"Uncletopia | Frankfurt | 4 | All Maps | STV","players":[{"user_id":414,"name":"Heavy like a Brinks truck","steam_id":76561198197304886,"connected_time":45000000000,"state":"active","ping":123},{"user_id":371,"name":"kamekame","steam_id":76561198047108054,"connected_time":3084000000000,"state":"active","ping":95},{"user_id":401,"name":"charlag_khan","steam_id":76561197991768268,"connected_time":323000000000,"state":"active","ping":47},{"user_id":394,"name":"fmdi","steam_id":76561199433879329,"connected_time":796000000000,"state":"active","ping":60},{"user_id":378,"name":"Mr.Schnittlauch","steam_id":76561198295868113,"connected_time":2721000000000,"state":"active","ping":61},{"user_id":250,"name":"ducksattack","steam_id":76561198074706076,"connected_time":9651000000000,"state":"active","ping":73},{"user_id":408,"name":"cow child","steam_id":76561199431003443,"connected_time":194000000000,"state":"active","ping":57},{"user_id":386,"name":"Dmitry Kerman","steam_id":76561198300020540,"connected_time":2224000000000,"state":"active","ping":96},{"user_id":399,"name":"loveless","steam_id":76561198142256651,"connected_time":402000000000,"state":"active","ping":84},{"user_id":402,"name":"Dominus.","steam_id":76561199065917088,"connected_time":308000000000,"state":"active","ping":73},{"user_id":381,"name":"ivanmixo","steam_id":76561198160213989,"connected_time":2693000000000,"state":"active","ping":68},{"user_id":404,"name":"Airon","steam_id":76561197970481950,"connected_time":258000000000,"state":"active","ping":61},{"user_id":405,"name":"üåº Hugee","steam_id":76561198245495152,"connected_time":218000000000,"state":"active","ping":60},{"user_id":230,"name":"16s","steam_id":76561199118850564,"connected_time":11663000000000,"state":"active","ping":105},{"user_id":392,"name":"Mi Manchi","steam_id":76561198171573129,"connected_time":1132000000000,"state":"active","ping":60},{"user_id":379,"name":"Charlie","steam_id":76561198091070593,"connected_time":2713000000000,"state":"active","ping":66},{"user_id":406,"name":"fishska","steam_id":76561198051166015,"connected_time":204000000000,"state":"active","ping":65},{"user_id":412,"name":"LasagnaLarry22","steam_id":76561198089478290,"connected_time":74000000000,"state":"active","ping":59},{"user_id":409,"name":"—É–±–∏–π—Ü–∞_–≥–æ–º–∏–∫–æ–≤256","steam_id":76561198129314304,"connected_time":189000000000,"state":"active","ping":134},{"user_id":395,"name":"Rob Rotten","steam_id":76561198170543542,"connected_time":759000000000,"state":"active","ping":143},{"user_id":385,"name":"Dashei","steam_id":76561198027044994,"connected_time":2412000000000,"state":"active","ping":77},{"user_id":410,"name":"tristan","steam_id":76561198096097448,"connected_time":175000000000,"state":"active","ping":59},{"user_id":391,"name":"Gordon Birdman","steam_id":76561198013382324,"connected_time":1216000000000,"state":"active","ping":62},{"user_id":376,"name":"Klinmir","steam_id":76561198352339376,"connected_time":2821000000000,"state":"active","ping":96}]},{"server_id":310,"name":"Uncletopia | Frankfurt | 5 | All Maps","name_short":"frk-5","host":"frk-1.de.uncletopia.com","port":27055,"enabled":true,"region":"eu","cc":"de","latitude":50.110924,"longitude":8.682127,"reserved":0,"last_update":"0001-01-01T00:00:00Z","name_a2s":"Uncletopia | Frankfurt | 5 | All Maps","protocol":17,"map":"koth_viaduct","folder":"tf","game":"Team Fortress","app_id":440,"player_count":3,"max_players":24,"Bots":0,"server_type":"Dedicated","server_os":"Linux","password":true,"vac":true,"version":"7742253","steam_id":85568392924504277,"keywords":["cp","nocrits","nodmgspread","uncletopia"],"game_id":440,"stv_port":27056,"stv_name":"Uncletopia | Frankfurt | 5 | All Maps | STV","players":[{"user_id":31,"name":"InfamousAxe","steam_id":76561198099504739,"connected_time":1636000000000,"state":"active","ping":105},{"user_id":32,"name":"Sneaky L√∂g","steam_id":76561198990438917,"connected_time":997000000000,"state":"active","ping":63},{"user_id":34,"name":"Brinier","steam_id":76561199012604288,"connected_time":618000000000,"state":"active","ping":49}]},{"server_id":311,"name":"Uncletopia | Frankfurt | 6 | All Maps","name_short":"frk-6","host":"frk-1.de.uncletopia.com","port":27065,"enabled":true,"region":"eu","cc":"de","latitude":50.110924,"longitude":8.682127,"reserved":0,"last_update":"0001-01-01T00:00:00Z","name_a2s":"Uncletopia | Frankfurt | 6 | All Maps","protocol":17,"map":"pl_frontier_final","folder":"tf","game":"Team Fortress","app_id":440,"player_count":24,"max_players":24,"Bots":0,"server_type":"Dedicated","server_os":"Linux","password":true,"vac":true,"version":"7742253","steam_id":85568392924504278,"keywords":["nocrits","nodmgspread","payload","uncletopia"],"game_id":440,"stv_port":27066,"stv_name":"Uncletopia | Frankfurt | 6 | All Maps | STV","players":[{"user_id":317,"name":"SpilledMilk","steam_id":76561198174123971,"connected_time":882000000000,"state":"active","ping":51},{"user_id":306,"name":"VioBeeyo","steam_id":76561198066258544,"connected_time":1859000000000,"state":"active","ping":72},{"user_id":324,"name":"Gordon Feetman","steam_id":76561198047577393,"connected_time":581000000000,"state":"active","ping":59},{"user_id":273,"name":"ronnie","steam_id":76561198377533237,"connected_time":2831000000000,"state":"active","ping":68},{"user_id":318,"name":"avnya","steam_id":76561198863728032,"connected_time":858000000000,"state":"active","ping":87},{"user_id":313,"name":"kgf","steam_id":76561198181442259,"connected_time":1273000000000,"state":"active","ping":66},{"user_id":269,"name":"Badrock 1","steam_id":76561198368513115,"connected_time":3281000000000,"state":"active","ping":115},{"user_id":319,"name":"GodOfGobboz","steam_id":76561198154677956,"connected_time":852000000000,"state":"active","ping":67},{"user_id":263,"name":"Duck_gaming","steam_id":76561198841587079,"connected_time":3558000000000,"state":"active","ping":56},{"user_id":275,"name":"Iphy","steam_id":76561198137519489,"connected_time":2798000000000,"state":"active","ping":74},{"user_id":276,"name":"MasterNaglis","steam_id":76561198348834177,"connected_time":2792000000000,"state":"active","ping":70},{"user_id":278,"name":"Borko","steam_id":76561199097266352,"connected_time":2768000000000,"state":"active","ping":82},{"user_id":279,"name":"Sad German","steam_id":76561198178100797,"connected_time":2721000000000,"state":"active","ping":158},{"user_id":280,"name":"Alegz","steam_id":76561198287810139,"connected_time":2610000000000,"state":"active","ping":50},{"user_id":315,"name":"ChesseKnight","steam_id":76561198102476339,"connected_time":1081000000000,"state":"active","ping":84},{"user_id":321,"name":"ToniGAM3S","steam_id":76561198128605351,"connected_time":843000000000,"state":"active","ping":60},{"user_id":288,"name":"spy","steam_id":76561199053898447,"connected_time":2443000000000,"state":"active","ping":86},{"user_id":323,"name":"yuh","steam_id":76561199005555839,"connected_time":651000000000,"state":"active","ping":67},{"user_id":290,"name":"HeteroCharlie","steam_id":76561198103885945,"connected_time":2430000000000,"state":"active","ping":66},{"user_id":300,"name":"NO end to POOTIS","steam_id":76561198144879361,"connected_time":2123000000000,"state":"active","ping":110},{"user_id":296,"name":"TylowStar","steam_id":76561198357107806,"connected_time":2249000000000,"state":"active","ping":69},{"user_id":297,"name":"Whatever","steam_id":76561198003946394,"connected_time":2244000000000,"state":"active","ping":80},{"user_id":303,"name":"Grunf","steam_id":76561199006140585,"connected_time":1968000000000,"state":"active","ping":81},{"user_id":325,"name":"Silky smooth","steam_id":76561198345773558,"connected_time":388000000000,"state":"active","ping":112}]},{"server_id":23,"name":"Uncletopia | Frankfurt | 7 | Stopwatch Beta","name_short":"frk-7","host":"frk-1.de.uncletopia.com","port":27075,"enabled":true,"region":"eu","cc":"de","latitude":50.110924,"longitude":8.682127,"reserved":0,"last_update":"0001-01-01T00:00:00Z","name_a2s":"Uncletopia | Frankfurt | 7 | Stopwatch Beta","protocol":17,"map":"koth_lakeside_final","folder":"tf","game":"Team Fortress","app_id":440,"player_count":11,"max_players":24,"Bots":0,"server_type":"Dedicated","server_os":"Linux","password":true,"vac":true,"version":"7742253","steam_id":85568392924742827,"keywords":["cp","nocrits","nodmgspread","uncletopia"],"game_id":440,"stv_port":27076,"stv_name":"Uncletopia | Frankfurt | 7 | Stopwatch Beta | STV","players":[{"user_id":32,"name":"Pan Pan","steam_id":76561199074670515,"connected_time":7503000000000,"state":"active","ping":101},{"user_id":67,"name":"Abdulbaki","steam_id":76561198839075858,"connected_time":539000000000,"state":"active","ping":87},{"user_id":70,"name":"Senfbaron","steam_id":76561198070370608,"connected_time":106000000000,"state":"active","ping":56},{"user_id":55,"name":"Bendy_Tank","steam_id":76561199438911774,"connected_time":2588000000000,"state":"active","ping":54},{"user_id":65,"name":"jShroom","steam_id":76561198833885769,"connected_time":598000000000,"state":"active","ping":68},{"user_id":62,"name":"jr_rusty","steam_id":76561198313937899,"connected_time":875000000000,"state":"active","ping":242},{"user_id":60,"name":"MrMethor","steam_id":76561198155992717,"connected_time":1184000000000,"state":"active","ping":63},{"user_id":50,"name":"Alex","steam_id":76561199108180200,"connected_time":3964000000000,"state":"active","ping":78},{"user_id":63,"name":"FestivePurple","steam_id":76561198426831610,"connected_time":761000000000,"state":"active","ping":76},{"user_id":69,"name":"mimi","steam_id":76561198060648946,"connected_time":208000000000,"state":"active","ping":59},{"user_id":71,"name":"Buried 18 children alive","steam_id":76561199027474274,"connected_time":41000000000,"state":"active","ping":159}]},{"server_id":24,"name":"Uncletopia | Frankfurt | 8 | Community","name_short":"frk-8","host":"frk-1.de.uncletopia.com","port":27085,"enabled":true,"region":"eu","cc":"de","latitude":50.110924,"longitude":8.682127,"reserved":0,"last_update":"0001-01-01T00:00:00Z","name_a2s":"Uncletopia | Frankfurt | 8 | Community","protocol":17,"map":"workshop/cp_villa_b19.ugc2113052569","folder":"tf","game":"Team Fortress","app_id":440,"player_count":2,"max_players":24,"Bots":0,"server_type":"Dedicated","server_os":"Linux","password":true,"vac":true,"version":"7742253","steam_id":85568392924742828,"keywords":["cp","nocrits","nodmgspread","uncletopia"],"game_id":440,"stv_port":27086,"stv_name":"Uncletopia | Frankfurt | 8 | Community | STV","players":[{"user_id":8,"name":"DOMINOS","steam_id":76561198334591211,"connected_time":1111000000000,"state":"active","ping":66},{"user_id":9,"name":"Fill","steam_id":76561198337431955,"connected_time":1070000000000,"state":"active","ping":80}]},{"server_id":202,"name":"Uncletopia | Hong Kong | 1 | All Maps","name_short":"hgk-1","host":"hgk-1.hk.uncletopia.com","port":27015,"enabled":true,"region":"asia","cc":"hk","latitude":22.302711,"longitude":114.177216,"reserved":0,"last_update":"0001-01-01T00:00:00Z","name_a2s":"Uncletopia | Hong Kong | 1 | All Maps","protocol":17,"map":"cp_snakewater_final1","folder":"tf","game":"Team Fortress","app_id":440,"player_count":9,"max_players":24,"Bots":0,"server_type":"Dedicated","server_os":"Linux","password":true,"vac":true,"version":"7742253","steam_id":85568392924494504,"keywords":["cp","nocrits","nodmgspread","uncletopia"],"game_id":440,"stv_port":27016,"stv_name":"Uncletopia | Hong Kong | 1 | All Maps | STV","players":[{"user_id":828,"name":"Waltuh (CEO of Chicanery)","steam_id":76561199257300024,"connected_time":1573000000000,"state":"active","ping":63},{"user_id":845,"name":"Tribal Mana","steam_id":76561198011757567,"connected_time":252000000000,"state":"active","ping":67},{"user_id":847,"name":"Kpba32(Lego)","steam_id":76561198051927766,"connected_time":122000000000,"state":"active","ping":102},{"user_id":846,"name":"Yuudachi0228","steam_id":76561199059472783,"connected_time":242000000000,"state":"active","ping":68},{"user_id":734,"name":"Noyour","steam_id":76561198323259830,"connected_time":9541000000000,"state":"active","ping":110},{"user_id":780,"name":"ÊØç„ÅÆËÇâÂõ£Â≠ê","steam_id":76561198069561896,"connected_time":5623000000000,"state":"active","ping":37},{"user_id":837,"name":":)","steam_id":76561198437941450,"connected_time":1018000000000,"state":"active","ping":70},{"user_id":815,"name":"AmaiToxic","steam_id":76561199122491157,"connected_time":2657000000000,"state":"active","ping":72},{"user_id":643,"name":"Kurtie","steam_id":76561198144737876,"connected_time":19540000000000,"state":"active","ping":57}]},{"server_id":1,"name":"Uncletopia | Los Angeles | 1 | All Maps","name_short":"lax-1","host":"lax-1.us.uncletopia.com","port":27015,"enabled":true,"region":"us-west","cc":"us","latitude":33.94279,"longitude":-118.41004,"reserved":0,"last_update":"0001-01-01T00:00:00Z","name_a2s":"Uncletopia | Los Angeles | 1 | All Maps","protocol":17,"map":"cp_dustbowl","folder":"tf","game":"Team Fortress","app_id":440,"player_count":0,"max_players":24,"Bots":0,"server_type":"Dedicated","server_os":"Linux","password":true,"vac":true,"version":"7742253","steam_id":85568392924469991,"keywords":["cp","nocrits","nodmgspread","uncletopia"],"game_id":440,"stv_port":27016,"stv_name":"Uncletopia | Los Angeles | 1 | All Maps | STV","players":null},{"server_id":112,"name":"Uncletopia | Los Angeles | 2 | All Maps","name_short":"lax-2","host":"lax-1.us.uncletopia.com","port":27025,"enabled":true,"region":"us-west","cc":"us","latitude":33.94279,"longitude":-118.41004,"reserved":0,"last_update":"0001-01-01T00:00:00Z","name_a2s":"Uncletopia | Los Angeles | 2 | All Maps","protocol":17,"map":"pl_upward","folder":"tf","game":"Team Fortress","app_id":440,"player_count":0,"max_players":24,"Bots":0,"server_type":"Dedicated","server_os":"Linux","password":true,"vac":true,"version":"7742253","steam_id":85568392924469992,"keywords":["nocrits","nodmgspread","payload","uncletopia"],"game_id":440,"stv_port":27026,"stv_name":"Uncletopia | Los Angeles | 2 | All Maps | STV","players":null},{"server_id":324,"name":"Uncletopia | Los Angeles | 3 | All Maps","name_short":"lax-3","host":"lax-1.us.uncletopia.com","port":27035,"enabled":true,"region":"us-west","cc":"us","latitude":33.94279,"longitude":-118.41004,"reserved":0,"last_update":"0001-01-01T00:00:00Z","name_a2s":"Uncletopia | Los Angeles | 3 | All Maps","protocol":17,"map":"pl_borneo","folder":"tf","game":"Team Fortress","app_id":440,"player_count":0,"max_players":24,"Bots":0,"server_type":"Dedicated","server_os":"Linux","password":true,"vac":true,"version":"7742253","steam_id":85568392924510198,"keywords":["nocrits","nodmgspread","payload","uncletopia"],"game_id":440,"stv_port":27036,"stv_name":"Uncletopia | Los Angeles | 3 | All Maps | STV","players":null},{"server_id":25,"name":"Uncletopia | Los Angeles | 4 | Stopwatch Beta","name_short":"lax-4","host":"lax-1.us.uncletopia.com","port":27045,"enabled":true,"region":"us-west","cc":"us","latitude":33.94279,"longitude":-118.41004,"reserved":0,"last_update":"0001-01-01T00:00:00Z","name_a2s":"Uncletopia | Los Angeles | 4 | Stopwatch Beta","protocol":17,"map":"cp_process_final","folder":"tf","game":"Team Fortress","app_id":440,"player_count":0,"max_players":24,"Bots":0,"server_type":"Dedicated","server_os":"Linux","password":true,"vac":true,"version":"7742253","steam_id":85568392924510199,"keywords":["cp","nocrits","nodmgspread","uncletopia"],"game_id":440,"stv_port":27046,"stv_name":"Uncletopia | Los Angeles | 4 | Stopwatch Beta | STV","players":null},{"server_id":11,"name":"Uncletopia | London | 1 | All Maps","name_short":"lon-1","host":"lon-1.uk.uncletopia.com","port":27015,"enabled":true,"region":"eu","cc":"gb","latitude":51.509865,"longitude":-0.118092,"reserved":0,"last_update":"0001-01-01T00:00:00Z","name_a2s":"Uncletopia | London | 1 | All Maps","protocol":17,"map":"cp_snakewater_final1","folder":"tf","game":"Team Fortress","app_id":440,"player_count":23,"max_players":24,"Bots":0,"server_type":"Dedicated","server_os":"Linux","password":true,"vac":true,"version":"7742253","steam_id":85568392924367362,"keywords":["cp","nocrits","nodmgspread","uncletopia"],"game_id":440,"stv_port":27016,"stv_name":"Uncletopia | London | 1 | All Maps | STV","players":[{"user_id":387,"name":"catface :3","steam_id":76561198963378933,"connected_time":732000000000,"state":"active","ping":43},{"user_id":341,"name":"yawnne","steam_id":76561198088624259,"connected_time":3972000000000,"state":"active","ping":63},{"user_id":382,"name":"-.-gusfring-.-","steam_id":76561198986630786,"connected_time":1441000000000,"state":"active","ping":36},{"user_id":386,"name":"Estamie","steam_id":76561198058527691,"connected_time":946000000000,"state":"active","ping":77},{"user_id":400,"name":"cosmetical","steam_id":76561198444036574,"connected_time":57000000000,"state":"active","ping":72},{"user_id":401,"name":"Senator Armstrong","steam_id":76561198984346408,"connected_time":31000000000,"state":"active","ping":85},{"user_id":380,"name":"Thors","steam_id":76561197968739075,"connected_time":1574000000000,"state":"active","ping":48},{"user_id":293,"name":"LordTrap.exe","steam_id":76561198318089716,"connected_time":9017000000000,"state":"active","ping":52},{"user_id":367,"name":"KAZAM | Tervez","steam_id":76561198045459068,"connected_time":2533000000000,"state":"active","ping":95},{"user_id":372,"name":"The REAL fat scout","steam_id":76561199083379217,"connected_time":2204000000000,"state":"active","ping":155},{"user_id":376,"name":"Twin Fantasy (Mirror To Mirror)","steam_id":76561198397024973,"connected_time":2052000000000,"state":"active","ping":36},{"user_id":357,"name":"Mike Myers","steam_id":76561199021342831,"connected_time":3199000000000,"state":"active","ping":44},{"user_id":364,"name":"random_player691","steam_id":76561199209946306,"connected_time":2816000000000,"state":"active","ping":78},{"user_id":385,"name":"PerskuleBenener","steam_id":76561198156899375,"connected_time":1008000000000,"state":"active","ping":92},{"user_id":375,"name":"HUGE ANIME TITTIES","steam_id":76561198208316165,"connected_time":2093000000000,"state":"active","ping":163},{"user_id":365,"name":"kul","steam_id":76561198065179630,"connected_time":2800000000000,"state":"active","ping":71},{"user_id":356,"name":"Buddy","steam_id":76561198050185582,"connected_time":3264000000000,"state":"active","ping":61},{"user_id":349,"name":"robbob","steam_id":76561198137375391,"connected_time":3794000000000,"state":"active","ping":91},{"user_id":374,"name":"Shabab","steam_id":76561198095932210,"connected_time":2138000000000,"state":"active","ping":66},{"user_id":399,"name":"Uncle Lame","steam_id":76561198089003514,"connected_time":85000000000,"state":"active","ping":51}]},{"server_id":114,"name":"Uncletopia | London | 2 | All Maps","name_short":"lon-2","host":"lon-1.uk.uncletopia.com","port":27025,"enabled":true,"region":"eu","cc":"gb","latitude":51.509865,"longitude":-0.118092,"reserved":0,"last_update":"0001-01-01T00:00:00Z","name_a2s":"Uncletopia | London | 2 | All Maps","protocol":17,"map":"cp_sunshine","folder":"tf","game":"Team Fortress","app_id":440,"player_count":23,"max_players":24,"Bots":0,"server_type":"Dedicated","server_os":"Linux","password":true,"vac":true,"version":"7742253","steam_id":85568392924470941,"keywords":["cp","nocrits","nodmgspread","uncletopia"],"game_id":440,"stv_port":27026,"stv_name":"Uncletopia | London | 2 | All Maps | STV","players":[{"user_id":185,"name":"Vibing Wave [IRan]","steam_id":76561198866358613,"connected_time":67000000000,"state":"active","ping":152},{"user_id":178,"name":"Sloppyspider","steam_id":76561198178869441,"connected_time":158000000000,"state":"active","ping":49},{"user_id":179,"name":"Paranoob","steam_id":76561199093369711,"connected_time":150000000000,"state":"active","ping":94},{"user_id":144,"name":"–î–µ–Ω–∏—Å –ë–∞–∑—É–∫–∞","steam_id":76561198835849082,"connected_time":1849000000000,"state":"active","ping":105},{"user_id":176,"name":"Bargon","steam_id":76561198964641940,"connected_time":191000000000,"state":"active","ping":73},{"user_id":180,"name":"Paper plane Mike","steam_id":76561198367921934,"connected_time":143000000000,"state":"active","ping":52},{"user_id":181,"name":"Cool Beans","steam_id":76561197995130085,"connected_time":140000000000,"state":"active","ping":45},{"user_id":182,"name":"TheAnonymeKiller","steam_id":76561198190680978,"connected_time":132000000000,"state":"active","ping":58},{"user_id":183,"name":"Arizona Ranger","steam_id":76561198859118707,"connected_time":124000000000,"state":"active","ping":61},{"user_id":186,"name":"Donete333","steam_id":76561198409266344,"connected_time":24000000000,"state":"spawning","ping":68},{"user_id":139,"name":"Wolvithe","steam_id":76561198142555612,"connected_time":2232000000000,"state":"active","ping":47},{"user_id":150,"name":"Falconetti","steam_id":76561198029930580,"connected_time":1629000000000,"state":"active","ping":63},{"user_id":184,"name":".quickfast.","steam_id":76561199438900919,"connected_time":95000000000,"state":"active","ping":42},{"user_id":162,"name":"snoowbrigade","steam_id":76561197989507394,"connected_time":949000000000,"state":"active","ping":71},{"user_id":160,"name":"Metalface","steam_id":76561198400510465,"connected_time":1034000000000,"state":"active","ping":46},{"user_id":166,"name":"stoppen","steam_id":76561197960281482,"connected_time":849000000000,"state":"active","ping":74},{"user_id":158,"name":"Jelly","steam_id":76561198153248293,"connected_time":1082000000000,"state":"active","ping":167},{"user_id":175,"name":"waffle toaster","steam_id":76561198799089628,"connected_time":264000000000,"state":"active","ping":55},{"user_id":157,"name":"|SoW| IgI","steam_id":76561198001541383,"connected_time":1160000000000,"state":"active","ping":78}]},{"server_id":320,"name":"Uncletopia | London | 3 | All Maps","name_short":"lon-3","host":"lon-1.uk.uncletopia.com","port":27035,"enabled":true,"region":"eu","cc":"gb","latitude":51.509865,"longitude":-0.118092,"reserved":0,"last_update":"0001-01-01T00:00:00Z","name_a2s":"Uncletopia | London | 3 | All Maps","protocol":17,"map":"pl_pier","folder":"tf","game":"Team Fortress","app_id":440,"player_count":24,"max_players":24,"Bots":0,"server_type":"Dedicated","server_os":"Linux","password":true,"vac":true,"version":"7742253","steam_id":85568392924510192,"keywords":["nocrits","nodmgspread","payload","uncletopia"],"game_id":440,"stv_port":27036,"stv_name":"Uncletopia | London | 3 | All Maps | STV","players":[{"user_id":296,"name":"hushhx","steam_id":76561198216200092,"connected_time":1092000000000,"state":"active","ping":49},{"user_id":276,"name":"a Cat that cry","steam_id":76561198134378108,"connected_time":3223000000000,"state":"active","ping":76},{"user_id":285,"name":"Nuuskis","steam_id":76561198084042012,"connected_time":1936000000000,"state":"active","ping":76},{"user_id":268,"name":"FaceShackle","steam_id":76561198038371397,"connected_time":3577000000000,"state":"active","ping":52},{"user_id":298,"name":"dongus","steam_id":76561198042774930,"connected_time":903000000000,"state":"active","ping":62},{"user_id":307,"name":"kbbq","steam_id":76561198346638308,"connected_time":375000000000,"state":"active","ping":59},{"user_id":309,"name":"Oriuke","steam_id":76561197992166123,"connected_time":292000000000,"state":"active","ping":53},{"user_id":253,"name":"Sipsu","steam_id":76561198059424107,"connected_time":4588000000000,"state":"active","ping":77},{"user_id":251,"name":"gagalak","steam_id":76561198089979108,"connected_time":4647000000000,"state":"active","ping":104},{"user_id":312,"name":"reho-iwnw","steam_id":76561198348062373,"connected_time":56000000000,"state":"active","ping":95},{"user_id":311,"name":"OnniVonManni","steam_id":76561198012236005,"connected_time":246000000000,"state":"active","ping":99},{"user_id":208,"name":"Bob","steam_id":76561198218200489,"connected_time":6973000000000,"state":"active","ping":51},{"user_id":286,"name":"Mass","steam_id":76561198432195204,"connected_time":1920000000000,"state":"active","ping":72},{"user_id":273,"name":"LAN-","steam_id":76561199444121228,"connected_time":3263000000000,"state":"active","ping":50},{"user_id":274,"name":"Pungkrockaren","steam_id":76561198050214002,"connected_time":3233000000000,"state":"active","ping":63},{"user_id":304,"name":"El Hunter'os","steam_id":76561198024684138,"connected_time":476000000000,"state":"active","ping":80},{"user_id":258,"name":"Wardruna96","steam_id":76561199057083828,"connected_time":4529000000000,"state":"active","ping":88},{"user_id":275,"name":"Ariel ‚®Å ·ö®·ö±·õÅ·õñ·õöüå™","steam_id":76561198011340227,"connected_time":3229000000000,"state":"active","ping":70},{"user_id":306,"name":"frbuz","steam_id":76561198327135462,"connected_time":458000000000,"state":"active","ping":172},{"user_id":301,"name":"iBeKelsey","steam_id":76561198426604784,"connected_time":861000000000,"state":"active","ping":36},{"user_id":242,"name":"OH_","steam_id":76561197986134103,"connected_time":5054000000000,"state":"active","ping":46},{"user_id":262,"name":"DrExplosive","steam_id":76561198063678579,"connected_time":3977000000000,"state":"active","ping":44},{"user_id":308,"name":"—Ç–æ–ª—è","steam_id":76561199098518615,"connected_time":364000000000,"state":"active","ping":78},{"user_id":291,"name":"where is my egg?","steam_id":76561198172542535,"connected_time":1637000000000,"state":"active","ping":97}]},{"server_id":321,"name":"Uncletopia | London | 4 | All Maps","name_short":"lon-4","host":"lon-1.uk.uncletopia.com","port":27045,"enabled":true,"region":"eu","cc":"gb","latitude":51.509865,"longitude":-0.118092,"reserved":0,"last_update":"0001-01-01T00:00:00Z","name_a2s":"Uncletopia | London | 4 | All Maps","protocol":17,"map":"pl_borneo","folder":"tf","game":"Team Fortress","app_id":440,"player_count":24,"max_players":24,"Bots":0,"server_type":"Dedicated","server_os":"Linux","password":true,"vac":true,"version":"7742253","steam_id":85568392924510193,"keywords":["nocrits","nodmgspread","payload","uncletopia"],"game_id":440,"stv_port":27046,"stv_name":"Uncletopia | London | 4 | All Maps | STV","players":[{"user_id":259,"name":"disposablesuperbread","steam_id":76561199074703607,"connected_time":425000000000,"state":"active","ping":98},{"user_id":256,"name":"ArekanPL","steam_id":76561198306811916,"connected_time":566000000000,"state":"active","ping":80},{"user_id":231,"name":"Penis Contortionist","steam_id":76561198073663784,"connected_time":1393000000000,"state":"active","ping":38},{"user_id":220,"name":"FurryLover","steam_id":76561198159328061,"connected_time":1651000000000,"state":"active","ping":96},{"user_id":224,"name":"GOUD","steam_id":76561198071823072,"connected_time":1481000000000,"state":"active","ping":75},{"user_id":263,"name":"your dads bald spot","steam_id":76561199383437138,"connected_time":32000000000,"state":"active","ping":147},{"user_id":250,"name":"Bigson","steam_id":76561198114214362,"connected_time":768000000000,"state":"active","ping":49},{"user_id":237,"name":"Okonell[HUN]","steam_id":76561198032216617,"connected_time":1287000000000,"state":"active","ping":77},{"user_id":242,"name":"üúè Drepp","steam_id":76561197998867164,"connected_time":1069000000000,"state":"active","ping":65},{"user_id":262,"name":"iAmBack!\u003c3","steam_id":76561198004525276,"connected_time":269000000000,"state":"active","ping":79},{"user_id":206,"name":"lucas","steam_id":76561198401773652,"connected_time":2765000000000,"state":"active","ping":62},{"user_id":229,"name":"the joy of recycling","steam_id":76561198415564349,"connected_time":1432000000000,"state":"active","ping":60},{"user_id":223,"name":"MAJAX","steam_id":76561198254828632,"connected_time":1558000000000,"state":"active","ping":66},{"user_id":251,"name":"Kamanie","steam_id":76561198135448255,"connected_time":754000000000,"state":"active","ping":56},{"user_id":258,"name":"purplecan","steam_id":76561199208283508,"connected_time":433000000000,"state":"active","ping":69},{"user_id":204,"name":"Milosz52","steam_id":76561199060940204,"connected_time":2814000000000,"state":"active","ping":81},{"user_id":234,"name":"Mr. Cakes","steam_id":76561198007400043,"connected_time":1370000000000,"state":"active","ping":134},{"user_id":261,"name":"mineblast99","steam_id":76561199065648954,"connected_time":381000000000,"state":"active","ping":146},{"user_id":200,"name":"Human Rights","steam_id":76561198102420849,"connected_time":2889000000000,"state":"active","ping":68},{"user_id":178,"name":"Untermenshh","steam_id":76561198284636705,"connected_time":4196000000000,"state":"active","ping":91},{"user_id":246,"name":"Pizza/Cheese/Pepperoni","steam_id":76561198174510235,"connected_time":973000000000,"state":"active","ping":51},{"user_id":240,"name":"Kahvi","steam_id":76561198723244199,"connected_time":1222000000000,"state":"active","ping":76},{"user_id":260,"name":"Joseph Stalin LFT","steam_id":76561198033199746,"connected_time":420000000000,"state":"active","ping":47},{"user_id":241,"name":"EastmoreRandoms.","steam_id":76561198048921203,"connected_time":1207000000000,"state":"active","ping":65}]},{"server_id":21,"name":"Uncletopia | London | 5 | All Maps","name_short":"lon-5","host":"lon-1.uk.uncletopia.com","port":27055,"enabled":true,"region":"eu","cc":"gb","latitude":51.509865,"longitude":-0.118092,"reserved":0,"last_update":"0001-01-01T00:00:00Z","name_a2s":"Uncletopia | London | 5 | All Maps","protocol":17,"map":"pl_badwater","folder":"tf","game":"Team Fortress","app_id":440,"player_count":0,"max_players":24,"Bots":0,"server_type":"Dedicated","server_os":"Linux","password":true,"vac":true,"version":"7742253","steam_id":85568392924742829,"keywords":["nocrits","nodmgspread","payload","uncletopia"],"game_id":440,"stv_port":27056,"stv_name":"Uncletopia | London | 5 | All Maps | STV","players":null},{"server_id":22,"name":"Uncletopia | London | 6 | All Maps","name_short":"lon-6","host":"lon-1.uk.uncletopia.com","port":27065,"enabled":true,"region":"eu","cc":"gb","latitude":51.509865,"longitude":-0.118092,"reserved":0,"last_update":"0001-01-01T00:00:00Z","name_a2s":"Uncletopia | London | 6 | All Maps","protocol":17,"map":"koth_cascade","folder":"tf","game":"Team Fortress","app_id":440,"player_count":0,"max_players":24,"Bots":0,"server_type":"Dedicated","server_os":"Linux","password":true,"vac":true,"version":"7742253","steam_id":85568392924742830,"keywords":["cp","nocrits","nodmgspread","uncletopia"],"game_id":440,"stv_port":27066,"stv_name":"Uncletopia | London | 6 | All Maps | STV","players":null},{"server_id":40,"name":"Uncletopia | London | 7 | No Payload","name_short":"lon-7","host":"lon-1.uk.uncletopia.com","port":27075,"enabled":true,"region":"eu","cc":"gb","latitude":51.509865,"longitude":-0.118092,"reserved":0,"last_update":"0001-01-01T00:00:00Z","name_a2s":"Uncletopia | London | 7 | No Payload","protocol":17,"map":"cp_well","folder":"tf","game":"Team Fortress","app_id":440,"player_count":0,"max_players":24,"Bots":0,"server_type":"Dedicated","server_os":"Linux","password":true,"vac":true,"version":"7742253","steam_id":85568392924964314,"keywords":["cp","nocrits","nodmgspread","uncletopia"],"game_id":440,"stv_port":27076,"stv_name":"Uncletopia | London | 7 | No Payload | STV","players":null},{"server_id":41,"name":"Uncletopia | London | 8 | Community","name_short":"lon-8","host":"lon-1.uk.uncletopia.com","port":27085,"enabled":true,"region":"eu","cc":"gb","latitude":51.509865,"longitude":-0.118092,"reserved":0,"last_update":"0001-01-01T00:00:00Z","name_a2s":"Uncletopia | London | 8 | Community","protocol":17,"map":"workshop/cp_caldera_rc2.ugc2834196889","folder":"tf","game":"Team Fortress","app_id":440,"player_count":0,"max_players":24,"Bots":0,"server_type":"Dedicated","server_os":"Linux","password":true,"vac":true,"version":"7742253","steam_id":85568392924964315,"keywords":["cp","nocrits","nodmgspread","uncletopia"],"game_id":440,"stv_port":27086,"stv_name":"Uncletopia | London | 8 | Community | STV","players":null},{"server_id":300,"name":"Uncletopia | Montr√©al | 1 | All Maps","name_short":"mtl-1","host":"mtl-1.ca.uncletopia.com","port":27015,"enabled":true,"region":"us-east","cc":"ca","latitude":45.50889,"longitude":-73.56167,"reserved":0,"last_update":"0001-01-01T00:00:00Z","name_a2s":"Uncletopia | Montr√©al | 1 | All Maps","protocol":17,"map":"koth_lakeside_final","folder":"tf","game":"Team Fortress","app_id":440,"player_count":0,"max_players":24,"Bots":0,"server_type":"Dedicated","server_os":"Linux","password":true,"vac":true,"version":"7742253","steam_id":85568392924500087,"keywords":["cp","nocrits","nodmgspread","uncletopia"],"game_id":440,"stv_port":27016,"stv_name":"Uncletopia | Montr√©al | 1 | All Maps | STV","players":null},{"server_id":301,"name":"Uncletopia | Montr√©al | 2 | All Maps","name_short":"mtl-2","host":"mtl-1.ca.uncletopia.com","port":27025,"enabled":true,"region":"us-east","cc":"ca","latitude":45.50889,"longitude":-73.56167,"reserved":0,"last_update":"0001-01-01T00:00:00Z","name_a2s":"Uncletopia | Montr√©al | 2 | All Maps","protocol":17,"map":"koth_lakeside_final","folder":"tf","game":"Team Fortress","app_id":440,"player_count":0,"max_players":24,"Bots":0,"server_type":"Dedicated","server_os":"Linux","password":true,"vac":true,"version":"7742253","steam_id":85568392924500088,"keywords":["cp","nocrits","nodmgspread","uncletopia"],"game_id":440,"stv_port":27026,"stv_name":"Uncletopia | Montr√©al | 2 | All Maps | STV","players":null},{"server_id":302,"name":"Uncletopia | Montr√©al | 3 | All Maps","name_short":"mtl-3","host":"mtl-1.ca.uncletopia.com","port":27035,"enabled":true,"region":"us-east","cc":"ca","latitude":45.50889,"longitude":-73.56167,"reserved":0,"last_update":"0001-01-01T00:00:00Z","name_a2s":"Uncletopia | Montr√©al | 3 | All Maps","protocol":17,"map":"cp_altitude","folder":"tf","game":"Team Fortress","app_id":440,"player_count":0,"max_players":24,"Bots":0,"server_type":"Dedicated","server_os":"Linux","password":true,"vac":true,"version":"7742253","steam_id":85568392924500089,"keywords":["cp","nocrits","nodmgspread","uncletopia"],"game_id":440,"stv_port":27036,"stv_name":"Uncletopia | Montr√©al | 3 | All Maps | STV","players":null},{"server_id":303,"name":"Uncletopia | Montr√©al | 4 | No Payload","name_short":"mtl-4","host":"mtl-1.ca.uncletopia.com","port":27045,"enabled":true,"region":"us-east","cc":"ca","latitude":45.50889,"longitude":-73.56167,"reserved":0,"last_update":"0001-01-01T00:00:00Z","name_a2s":"Uncletopia | Montr√©al | 4 | No Payload","protocol":17,"map":"koth_highpass","folder":"tf","game":"Team Fortress","app_id":440,"player_count":0,"max_players":24,"Bots":0,"server_type":"Dedicated","server_os":"Linux","password":true,"vac":true,"version":"7742253","steam_id":85568392924500090,"keywords":["cp","nocrits","nodmgspread","uncletopia"],"game_id":440,"stv_port":27046,"stv_name":"Uncletopia | Montr√©al | 4 | No Payload | STV","players":null},{"server_id":13,"name":"Uncletopia | New York City | 1 | All Maps","name_short":"nyc-1","host":"nyc-1.us.uncletopia.com","port":27015,"enabled":true,"region":"us-east","cc":"us","latitude":40.73061,"longitude":-73.93524,"reserved":0,"last_update":"0001-01-01T00:00:00Z","name_a2s":"Uncletopia | New York City | 1 | All Maps","protocol":17,"map":"pl_borneo","folder":"tf","game":"Team Fortress","app_id":440,"player_count":0,"max_players":24,"Bots":0,"server_type":"Dedicated","server_os":"Linux","password":true,"vac":true,"version":"7742253","steam_id":85568392924469993,"keywords":["nocrits","nodmgspread","payload","uncletopia"],"game_id":440,"stv_port":27016,"stv_name":"Uncletopia | New York City | 1 | All Maps | STV","players":null},{"server_id":14,"name":"Uncletopia | New York City | 2 | All Maps","name_short":"nyc-2","host":"nyc-1.us.uncletopia.com","port":27025,"enabled":true,"region":"us-east","cc":"us","latitude":40.73061,"longitude":-73.93524,"reserved":0,"last_update":"0001-01-01T00:00:00Z","name_a2s":"Uncletopia | New York City | 2 | All Maps","protocol":17,"map":"pl_upward","folder":"tf","game":"Team Fortress","app_id":440,"player_count":23,"max_players":24,"Bots":0,"server_type":"Dedicated","server_os":"Linux","password":true,"vac":true,"version":"7742253","steam_id":85568392924469994,"keywords":["nocrits","nodmgspread","payload","uncletopia"],"game_id":440,"stv_port":27026,"stv_name":"Uncletopia | New York City | 2 | All Maps | STV","players":[{"user_id":4,"name":"Amphetamine Gun","steam_id":76561199029189825,"connected_time":4474000000000,"state":"active","ping":43},{"user_id":73,"name":"‚ò£ cat fock ‚ò£","steam_id":76561198264641620,"connected_time":48000000000,"state":"active","ping":46},{"user_id":66,"name":"carter","steam_id":76561198285295764,"connected_time":459000000000,"state":"active","ping":67},{"user_id":45,"name":"T-jizzle","steam_id":76561198040332264,"connected_time":1392000000000,"state":"active","ping":75},{"user_id":55,"name":"Samus","steam_id":76561198121933439,"connected_time":740000000000,"state":"active","ping":54},{"user_id":18,"name":"9:02","steam_id":76561198795862574,"connected_time":2189000000000,"state":"active","ping":50},{"user_id":53,"name":"still overextending?","steam_id":76561198073639489,"connected_time":1077000000000,"state":"active","ping":117},{"user_id":25,"name":"Yimi","steam_id":76561198097984345,"connected_time":1874000000000,"state":"active","ping":104},{"user_id":57,"name":"smocc","steam_id":76561197993726746,"connected_time":699000000000,"state":"active","ping":45},{"user_id":60,"name":"sasharudzik","steam_id":76561199126617781,"connected_time":591000000000,"state":"active","ping":68},{"user_id":59,"name":"Hol Horse","steam_id":76561198078207743,"connected_time":649000000000,"state":"active","ping":45},{"user_id":61,"name":"Clanker","steam_id":76561198164315915,"connected_time":580000000000,"state":"active","ping":82},{"user_id":65,"name":"cyzer","steam_id":76561198051920905,"connected_time":495000000000,"state":"active","ping":61},{"user_id":69,"name":"uzr","steam_id":76561198799343084,"connected_time":367000000000,"state":"active","ping":114},{"user_id":32,"name":"Mythical Lag","steam_id":76561198347031281,"connected_time":1768000000000,"state":"active","ping":80},{"user_id":50,"name":"Vibey","steam_id":76561198342873474,"connected_time":1141000000000,"state":"active","ping":64},{"user_id":68,"name":"Hemiphix","steam_id":76561198329316429,"connected_time":382000000000,"state":"active","ping":53},{"user_id":44,"name":"the gamer hermit crab","steam_id":76561198969402276,"connected_time":1466000000000,"state":"active","ping":52},{"user_id":48,"name":"centuronstar","steam_id":76561198277177841,"connected_time":1283000000000,"state":"active","ping":55},{"user_id":70,"name":"Nic0","steam_id":76561198305690218,"connected_time":289000000000,"state":"active","ping":73},{"user_id":72,"name":"jae are","steam_id":76561198027906463,"connected_time":100000000000,"state":"active","ping":74},{"user_id":42,"name":"champion  turkey","steam_id":76561198151338482,"connected_time":1591000000000,"state":"active","ping":57}]},{"server_id":15,"name":"Uncletopia | New York City | 3 | Stopwatch Beta","name_short":"nyc-3","host":"nyc-1.us.uncletopia.com","port":27035,"enabled":true,"region":"us-east","cc":"us","latitude":40.73061,"longitude":-73.93524,"reserved":0,"last_update":"0001-01-01T00:00:00Z","name_a2s":"Uncletopia | New York City | 3 | Stopwatch Beta","protocol":17,"map":"cp_altitude","folder":"tf","game":"Team Fortress","app_id":440,"player_count":0,"max_players":24,"Bots":0,"server_type":"Dedicated","server_os":"Linux","password":true,"vac":true,"version":"7742253","steam_id":85568392924742820,"keywords":["cp","nocrits","nodmgspread","uncletopia"],"game_id":440,"stv_port":27036,"stv_name":"Uncletopia | New York City | 3 | Stopwatch Beta | STV","players":null},{"server_id":16,"name":"Uncletopia | New York City | 4 | Community","name_short":"nyc-4","host":"nyc-1.us.uncletopia.com","port":27045,"enabled":true,"region":"us-east","cc":"us","latitude":40.73061,"longitude":-73.93524,"reserved":0,"last_update":"0001-01-01T00:00:00Z","name_a2s":"Uncletopia | New York City | 4 | Community","protocol":17,"map":"pl_barnblitz","folder":"tf","game":"Team Fortress","app_id":440,"player_count":0,"max_players":24,"Bots":0,"server_type":"Dedicated","server_os":"Linux","password":true,"vac":true,"version":"7742253","steam_id":85568392924742821,"keywords":["nocrits","nodmgspread","payload","uncletopia"],"game_id":440,"stv_port":27046,"stv_name":"Uncletopia | New York City | 4 | Community | STV","players":null},{"server_id":142,"name":"Uncletopia | S√£o Paulo | 1 | All Maps","name_short":"sao-1","host":"sao-1.br.uncletopia.com","port":27015,"enabled":true,"region":"sa","cc":"br","latitude":-23.533773,"longitude":-46.62529,"reserved":0,"last_update":"0001-01-01T00:00:00Z","name_a2s":"Uncletopia | S√£o Paulo | 1 | All Maps","protocol":17,"map":"koth_viaduct","folder":"tf","game":"Team Fortress","app_id":440,"player_count":0,"max_players":24,"Bots":0,"server_type":"Dedicated","server_os":"Linux","password":true,"vac":true,"version":"7742253","steam_id":85568392924469996,"keywords":["cp","nocrits","nodmgspread","uncletopia"],"game_id":440,"stv_port":27016,"stv_name":"Uncletopia | S√£o Paulo | 1 | All Maps | STV","players":null},{"server_id":143,"name":"Uncletopia | S√£o Paulo | 2 | All Maps","name_short":"sao-2","host":"sao-2.br.uncletopia.com","port":27015,"enabled":true,"region":"sa","cc":"br","latitude":-23.533773,"longitude":-46.62529,"reserved":0,"last_update":"0001-01-01T00:00:00Z","name_a2s":"Uncletopia | S√£o Paulo | 2 | All Maps","protocol":17,"map":"cp_dustbowl","folder":"tf","game":"Team Fortress","app_id":440,"player_count":0,"max_players":24,"Bots":0,"server_type":"Dedicated","server_os":"Linux","password":true,"vac":true,"version":"7742253","steam_id":85568392924485349,"keywords":["cp","nocrits","nodmgspread","uncletopia"],"game_id":440,"stv_port":27016,"stv_name":"Uncletopia | S√£o Paulo | 2 | All Maps | STV","players":null},{"server_id":7,"name":"Uncletopia | Seattle | 1 | All Maps","name_short":"sea-1","host":"sea-1.us.uncletopia.com","port":27015,"enabled":true,"region":"us-west","cc":"us","latitude":47.608013,"longitude":-122.33517,"reserved":0,"last_update":"0001-01-01T00:00:00Z","name_a2s":"Uncletopia | Seattle | 1 | All Maps","protocol":17,"map":"cp_snakewater_final1","folder":"tf","game":"Team Fortress","app_id":440,"player_count":0,"max_players":24,"Bots":0,"server_type":"Dedicated","server_os":"Linux","password":true,"vac":true,"version":"7742253","steam_id":85568392924469997,"keywords":["cp","nocrits","nodmgspread","uncletopia"],"game_id":440,"stv_port":27016,"stv_name":"Uncletopia | Seattle | 1 | All Maps | STV","players":null},{"server_id":119,"name":"Uncletopia | Seattle | 2 | All Maps","name_short":"sea-2","host":"sea-1.us.uncletopia.com","port":27025,"enabled":true,"region":"us-west","cc":"us","latitude":47.608013,"longitude":-122.33517,"reserved":0,"last_update":"0001-01-01T00:00:00Z","name_a2s":"Uncletopia | Seattle | 2 | All Maps","protocol":17,"map":"pl_barnblitz","folder":"tf","game":"Team Fortress","app_id":440,"player_count":0,"max_players":24,"Bots":0,"server_type":"Dedicated","server_os":"Linux","password":true,"vac":true,"version":"7742253","steam_id":85568392924469998,"keywords":["nocrits","nodmgspread","payload","uncletopia"],"game_id":440,"stv_port":27026,"stv_name":"Uncletopia | Seattle | 2 | All Maps | STV","players":null},{"server_id":406,"name":"Uncletopia | Seattle | 3 | Stopwatch Beta","name_short":"sea-3","host":"sea-1.us.uncletopia.com","port":27035,"enabled":true,"region":"us-west","cc":"us","latitude":47.608013,"longitude":-122.33517,"reserved":0,"last_update":"0001-01-01T00:00:00Z","name_a2s":"Uncletopia | Seattle | 3 | Stopwatch Beta","protocol":17,"map":"pl_upward","folder":"tf","game":"Team Fortress","app_id":440,"player_count":0,"max_players":24,"Bots":0,"server_type":"Dedicated","server_os":"Linux","password":true,"vac":false,"version":"7742253","steam_id":0,"keywords":["nocrits","nodmgspread","payload","uncletopia"],"game_id":440,"stv_port":27036,"stv_name":"Uncletopia | Seattle | 3 | Stopwatch Beta | STV","players":null},{"server_id":17,"name":"Uncletopia | San Francisco | 1 | All Maps","name_short":"sfo-1","host":"sfo-1.us.uncletopia.com","port":27015,"enabled":true,"region":"us-west","cc":"us","latitude":37.77397,"longitude":-122.4313,"reserved":0,"last_update":"0001-01-01T00:00:00Z","name_a2s":"Uncletopia | San Francisco | 1 | All Maps","protocol":17,"map":"koth_cascade","folder":"tf","game":"Team Fortress","app_id":440,"player_count":0,"max_players":24,"Bots":0,"server_type":"Dedicated","server_os":"Linux","password":true,"vac":true,"version":"7742253","steam_id":85568392924469999,"keywords":["cp","nocrits","nodmgspread","uncletopia"],"game_id":440,"stv_port":27016,"stv_name":"Uncletopia | San Francisco | 1 | All Maps | STV","players":null},{"server_id":18,"name":"Uncletopia | San Francisco | 2 | All Maps","name_short":"sfo-2","host":"sfo-1.us.uncletopia.com","port":27025,"enabled":true,"region":"us-west","cc":"us","latitude":37.77397,"longitude":-122.4313,"reserved":0,"last_update":"0001-01-01T00:00:00Z","name_a2s":"Uncletopia | San Francisco | 2 | All Maps","protocol":17,"map":"cp_process_final","folder":"tf","game":"Team Fortress","app_id":440,"player_count":0,"max_players":24,"Bots":0,"server_type":"Dedicated","server_os":"Linux","password":true,"vac":true,"version":"7742253","steam_id":85568392924470000,"keywords":["cp","nocrits","nodmgspread","uncletopia"],"game_id":440,"stv_port":27026,"stv_name":"Uncletopia | San Francisco | 2 | All Maps | STV","players":null},{"server_id":19,"name":"Uncletopia | San Francisco | 3 | Stopwatch Beta","name_short":"sfo-3","host":"sfo-1.us.uncletopia.com","port":27035,"enabled":true,"region":"us-west","cc":"us","latitude":37.77397,"longitude":-122.4313,"reserved":0,"last_update":"0001-01-01T00:00:00Z","name_a2s":"Uncletopia | San Francisco | 3 | Stopwatch Beta","protocol":17,"map":"cp_snakewater_final1","folder":"tf","game":"Team Fortress","app_id":440,"player_count":0,"max_players":24,"Bots":0,"server_type":"Dedicated","server_os":"Linux","password":true,"vac":true,"version":"7742253","steam_id":85568392924742824,"keywords":["cp","nocrits","nodmgspread","uncletopia"],"game_id":440,"stv_port":27036,"stv_name":"Uncletopia | San Francisco | 3 | Stopwatch Beta | STV","players":null},{"server_id":20,"name":"Uncletopia | San Francisco | 4 | Community","name_short":"sfo-4","host":"sfo-1.us.uncletopia.com","port":27045,"enabled":true,"region":"us-west","cc":"us","latitude":37.77397,"longitude":-122.4313,"reserved":0,"last_update":"0001-01-01T00:00:00Z","name_a2s":"Uncletopia | San Francisco | 4 | Community","protocol":17,"map":"cp_altitude","folder":"tf","game":"Team Fortress","app_id":440,"player_count":0,"max_players":24,"Bots":0,"server_type":"Dedicated","server_os":"Linux","password":true,"vac":true,"version":"7742253","steam_id":85568392924742826,"keywords":["cp","nocrits","nodmgspread","uncletopia"],"game_id":440,"stv_port":27046,"stv_name":"Uncletopia | San Francisco | 4 | Community | STV","players":null},{"server_id":141,"name":"Uncletopia | Sydney | 1 | All Maps","name_short":"syd-1","host":"syd-1.au.uncletopia.com","port":27015,"enabled":true,"region":"au","cc":"au","latitude":-33.865143,"longitude":151.2099,"reserved":0,"last_update":"0001-01-01T00:00:00Z","name_a2s":"Uncletopia | Sydney | 1 | All Maps","protocol":17,"map":"koth_viaduct","folder":"tf","game":"Team Fortress","app_id":440,"player_count":0,"max_players":24,"Bots":0,"server_type":"Dedicated","server_os":"Linux","password":true,"vac":true,"version":"7742253","steam_id":85568392924470001,"keywords":["cp","nocrits","nodmgspread","uncletopia"],"game_id":440,"stv_port":27016,"stv_name":"Uncletopia | Sydney | 1 | All Maps | STV","players":null},{"server_id":123,"name":"Uncletopia | Sydney | 2 | All Maps","name_short":"syd-2","host":"syd-1.au.uncletopia.com","port":27025,"enabled":true,"region":"au","cc":"au","latitude":-33.865143,"longitude":151.2099,"reserved":0,"last_update":"0001-01-01T00:00:00Z","name_a2s":"Uncletopia | Sydney | 2 | All Maps","protocol":17,"map":"cp_snakewater_final1","folder":"tf","game":"Team Fortress","app_id":440,"player_count":0,"max_players":24,"Bots":0,"server_type":"Dedicated","server_os":"Linux","password":true,"vac":true,"version":"7742253","steam_id":85568392924470002,"keywords":["cp","nocrits","nodmgspread","uncletopia"],"game_id":440,"stv_port":27026,"stv_name":"Uncletopia | Sydney | 2 | All Maps | STV","players":null},{"server_id":395,"name":"Uncletopia | Sydney | 3 | All Maps","name_short":"syd-3","host":"syd-1.au.uncletopia.com","port":27035,"enabled":true,"region":"au","cc":"au","latitude":-33.865143,"longitude":151.2099,"reserved":0,"last_update":"0001-01-01T00:00:00Z","name_a2s":"Uncletopia | Sydney | 3 | All Maps","protocol":17,"map":"pl_snowycoast","folder":"tf","game":"Team Fortress","app_id":440,"player_count":0,"max_players":24,"Bots":0,"server_type":"Dedicated","server_os":"Linux","password":true,"vac":true,"version":"7742253","steam_id":85568392925194467,"keywords":["nocrits","nodmgspread","payload","uncletopia"],"game_id":440,"stv_port":27036,"stv_name":"Uncletopia | Sydney | 3 | All Maps | STV","players":null},{"server_id":396,"name":"Uncletopia | Sydney | 4 | All Maps","name_short":"syd-4","host":"syd-1.au.uncletopia.com","port":27045,"enabled":true,"region":"au","cc":"au","latitude":-33.865143,"longitude":151.2099,"reserved":0,"last_update":"0001-01-01T00:00:00Z","name_a2s":"Uncletopia | Sydney | 4 | All Maps","protocol":17,"map":"koth_viaduct","folder":"tf","game":"Team Fortress","app_id":440,"player_count":0,"max_players":24,"Bots":0,"server_type":"Dedicated","server_os":"Linux","password":true,"vac":true,"version":"7742253","steam_id":85568392925397958,"keywords":["cp","nocrits","nodmgspread","uncletopia"],"game_id":440,"stv_port":27046,"stv_name":"Uncletopia | Sydney | 4 | All Maps | STV","players":null},{"server_id":58,"name":"Uncletopia | Sydney | 5 | Stopwatch Beta","name_short":"syd-5","host":"syd-1.au.uncletopia.com","port":27055,"enabled":true,"region":"au","cc":"au","latitude":-33.865143,"longitude":151.2099,"reserved":0,"last_update":"0001-01-01T00:00:00Z","name_a2s":"Uncletopia | Sydney | 5 | Stopwatch Beta","protocol":17,"map":"cp_snakewater_final1","folder":"tf","game":"Team Fortress","app_id":440,"player_count":0,"max_players":24,"Bots":0,"server_type":"Dedicated","server_os":"Linux","password":true,"vac":true,"version":"7742253","steam_id":85568392925397959,"keywords":["cp","nocrits","nodmgspread","uncletopia"],"game_id":440,"stv_port":27056,"stv_name":"Uncletopia | Sydney | 5 | Stopwatch Beta | STV","players":null},{"server_id":59,"name":"Uncletopia | Sydney | 6 | Community","name_short":"syd-6","host":"syd-1.au.uncletopia.com","port":27065,"enabled":true,"region":"au","cc":"au","latitude":-33.865143,"longitude":151.2099,"reserved":0,"last_update":"0001-01-01T00:00:00Z","name_a2s":"Uncletopia | Sydney | 6 | Community","protocol":17,"map":"workshop/koth_product_final.ugc454272353","folder":"tf","game":"Team Fortress","app_id":440,"player_count":0,"max_players":24,"Bots":0,"server_type":"Dedicated","server_os":"Linux","password":true,"vac":true,"version":"7742253","steam_id":85568392925397960,"keywords":["cp","nocrits","nodmgspread","uncletopia"],"game_id":440,"stv_port":27066,"stv_name":"Uncletopia | Sydney | 6 | Community | STV","players":null},{"server_id":49,"name":"Uncletopia | Warsaw | 1 | All Maps","name_short":"waw-1","host":"waw-1.pl.uncletopia.com","port":27015,"enabled":true,"region":"eu","cc":"pl","latitude":52.2297,"longitude":21.017532,"reserved":0,"last_update":"0001-01-01T00:00:00Z","name_a2s":"Uncletopia | Warsaw | 1 | All Maps","protocol":17,"map":"koth_lakeside_final","folder":"tf","game":"Team Fortress","app_id":440,"player_count":0,"max_players":24,"Bots":0,"server_type":"Dedicated","server_os":"Linux","password":true,"vac":true,"version":"7723704","steam_id":85568392925397850,"keywords":["cp","nocrits","nodmgspread","uncletopia"],"game_id":440,"stv_port":27016,"stv_name":"Uncletopia | Warsaw | 1 | All Maps | STV","players":null},{"server_id":50,"name":"Uncletopia | Warsaw | 2 | All Maps","name_short":"waw-2","host":"waw-1.pl.uncletopia.com","port":27025,"enabled":true,"region":"eu","cc":"pl","latitude":52.2297,"longitude":21.017532,"reserved":0,"last_update":"0001-01-01T00:00:00Z","name_a2s":"Uncletopia | Warsaw | 2 | All Maps","protocol":17,"map":"koth_highpass","folder":"tf","game":"Team Fortress","app_id":440,"player_count":0,"max_players":24,"Bots":0,"server_type":"Dedicated","server_os":"Linux","password":true,"vac":true,"version":"7742253","steam_id":85568392925397851,"keywords":["cp","nocrits","nodmgspread","uncletopia"],"game_id":440,"stv_port":27026,"stv_name":"Uncletopia | Warsaw | 2 | All Maps | STV","players":null},{"server_id":51,"name":"Uncletopia | Warsaw | 3 | All Maps","name_short":"waw-3","host":"waw-1.pl.uncletopia.com","port":27035,"enabled":true,"region":"eu","cc":"pl","latitude":52.2297,"longitude":21.017532,"reserved":0,"last_update":"0001-01-01T00:00:00Z","name_a2s":"Uncletopia | Warsaw | 3 | All Maps","protocol":17,"map":"pl_frontier_final","folder":"tf","game":"Team Fortress","app_id":440,"player_count":0,"max_players":24,"Bots":0,"server_type":"Dedicated","server_os":"Linux","password":true,"vac":true,"version":"7742253","steam_id":85568392925397852,"keywords":["nocrits","nodmgspread","payload","uncletopia"],"game_id":440,"stv_port":27036,"stv_name":"Uncletopia | Warsaw | 3 | All Maps | STV","players":null},{"server_id":52,"name":"Uncletopia | Warsaw | 4 | All Maps","name_short":"waw-4","host":"waw-1.pl.uncletopia.com","port":27045,"enabled":true,"region":"eu","cc":"pl","latitude":52.2297,"longitude":21.017532,"reserved":0,"last_update":"0001-01-01T00:00:00Z","name_a2s":"Uncletopia | Warsaw | 4 | All Maps","protocol":17,"map":"pl_swiftwater_final1","folder":"tf","game":"Team Fortress","app_id":440,"player_count":0,"max_players":24,"Bots":0,"server_type":"Dedicated","server_os":"Linux","password":true,"vac":true,"version":"7742253","steam_id":85568392925397853,"keywords":["nocrits","nodmgspread","payload","uncletopia"],"game_id":440,"stv_port":27046,"stv_name":"Uncletopia | Warsaw | 4 | All Maps | STV","players":null},{"server_id":53,"name":"Uncletopia | Warsaw | 5 | Stopwatch Beta","name_short":"waw-5","host":"waw-1.pl.uncletopia.com","port":27055,"enabled":true,"region":"eu","cc":"pl","latitude":52.2297,"longitude":21.017532,"reserved":0,"last_update":"0001-01-01T00:00:00Z","name_a2s":"Uncletopia | Warsaw | 5 | Stopwatch Beta","protocol":17,"map":"pl_pier","folder":"tf","game":"Team Fortress","app_id":440,"player_count":0,"max_players":24,"Bots":0,"server_type":"Dedicated","server_os":"Linux","password":true,"vac":true,"version":"7742253","steam_id":85568392925397854,"keywords":["nocrits","nodmgspread","payload","uncletopia"],"game_id":440,"stv_port":27056,"stv_name":"Uncletopia | Warsaw | 5 | Stopwatch Beta | STV","players":null},{"server_id":54,"name":"Uncletopia | Warsaw | 6 | Community","name_short":"waw-6","host":"waw-1.pl.uncletopia.com","port":27065,"enabled":true,"region":"eu","cc":"pl","latitude":52.2297,"longitude":21.017532,"reserved":0,"last_update":"0001-01-01T00:00:00Z","name_a2s":"Uncletopia | Warsaw | 6 | Community","protocol":17,"map":"workshop/cp_reckoner_rc6.ugc674719999","folder":"tf","game":"Team Fortress","app_id":440,"player_count":0,"max_players":24,"Bots":0,"server_type":"Dedicated","server_os":"Linux","password":true,"vac":true,"version":"7742253","steam_id":85568392925397856,"keywords":["cp","nocrits","nodmgspread","uncletopia"],"game_id":440,"stv_port":27066,"stv_name":"Uncletopia | Warsaw | 6 | Community | STV","players":null}]}