{"status":true,"message":"","result":[{"server_id":9,"name":"Uncletopia | Atlanta | 1 | All Maps","name_short":"atl-1","host":"atl-1.us.uncletopia.com","port":27015,"enabled":true,"region":"us-east","cc":"us","latitude":33.753746,"longitude":-84.38633,"reserved":0,"last_update":"0001-01-01T00:00:00Z","name_a2s":"Uncletopia | Atlanta | 1 | All Maps","protocol":17,"map":"pl_badwater","folder":"tf","game":"Team Fortress","app_id":440,"player_count":24,"max_players":24,"Bots":0,"server_type":"Dedicated","server_os":"Linux","password":true,"vac":true,"version":"7961495","steam_id":85568392924469982,"keywords":["nocrits","nodmgspread","payload","uncletopia"],"game_id":440,"stv_port":27016,"stv_name":"Uncletopia | Atlanta | 1 | All Maps | STV","players":[{"user_id":364,"name":"com lag","steam_id":76561198019019392,"connected_time":4396000000000,"state":"active","ping":78},{"user_id":391,"name":"Lord_Manship","steam_id":76561198045168765,"connected_time":1604000000000,"state":"active","ping":104},{"user_id":389,"name":"Periergos","steam_id":76561198062030412,"connected_time":1942000000000,"state":"active","ping":78},{"user_id":398,"name":"epiczlolz","steam_id":76561198208369443,"connected_time":934000000000,"state":"active","ping":38},{"user_id":378,"name":"WhoIsFrosty","steam_id":76561198880588117,"connected_time":3169000000000,"state":"active","ping":71},{"user_id":400,"name":"raya","steam_id":76561198051504581,"connected_time":555000000000,"state":"active","ping":75},{"user_id":372,"name":"row","steam_id":76561198040946044,"connected_time":3936000000000,"state":"active","ping":82},{"user_id":390,"name":"oppenheimer style","steam_id":76561198026664629,"connected_time":1794000000000,"state":"active","ping":51},{"user_id":375,"name":"ATL 1 | Save your wifi","steam_id":76561198286147372,"connected_time":3275000000000,"state":"active","ping":60},{"user_id":385,"name":"Ace Visconti","steam_id":76561198982247060,"connected_time":2483000000000,"state":"active","ping":71},{"user_id":392,"name":"aaaxel","steam_id":76561198137430598,"connected_time":1571000000000,"state":"active","ping":75},{"user_id":401,"name":"punk cock","steam_id":76561198418182764,"connected_time":337000000000,"state":"active","ping":70},{"user_id":349,"name":"Heathcliff","steam_id":76561198044288534,"connected_time":5982000000000,"state":"active","ping":79},{"user_id":386,"name":"Albino Jellyfish","steam_id":76561198208561097,"connected_time":2445000000000,"state":"active","ping":59},{"user_id":358,"name":"lil hog","steam_id":76561199230929836,"connected_time":5210000000000,"state":"active","ping":87},{"user_id":370,"name":"BIG HOG","steam_id":76561198079923652,"connected_time":4272000000000,"state":"active","ping":67},{"user_id":395,"name":"totally not a pile of beans","steam_id":76561198119851931,"connected_time":1510000000000,"state":"active","ping":81},{"user_id":384,"name":"Hunterkio1222","steam_id":76561198240237672,"connected_time":2682000000000,"state":"active","ping":73},{"user_id":396,"name":"dipp","steam_id":76561198395577807,"connected_time":1508000000000,"state":"active","ping":76},{"user_id":342,"name":"ATL1 | cola","steam_id":76561198374390458,"connected_time":6060000000000,"state":"active","ping":60},{"user_id":399,"name":"bendera","steam_id":76561197965486503,"connected_time":930000000000,"state":"active","ping":85},{"user_id":397,"name":"badasscoolboy57","steam_id":76561198795412055,"connected_time":1504000000000,"state":"active","ping":107},{"user_id":343,"name":"Squanchy","steam_id":76561198036319676,"connected_time":6060000000000,"state":"active","ping":45},{"user_id":371,"name":"Exetior","steam_id":76561198978688451,"connected_time":4262000000000,"state":"active","ping":53}]},{"server_id":104,"name":"Uncletopia | Atlanta | 2 | All Maps","name_short":"atl-2","host":"atl-1.us.uncletopia.com","port":27025,"enabled":true,"region":"us-east","cc":"us","latitude":33.753746,"longitude":-84.38633,"reserved":0,"last_update":"0001-01-01T00:00:00Z","name_a2s":"Uncletopia | Atlanta | 2 | All Maps","protocol":17,"map":"cp_dustbowl","folder":"tf","game":"Team Fortress","app_id":440,"player_count":14,"max_players":24,"Bots":0,"server_type":"Dedicated","server_os":"Linux","password":true,"vac":true,"version":"7961495","steam_id":85568392924469983,"keywords":["cp","nocrits","nodmgspread","uncletopia"],"game_id":440,"stv_port":27026,"stv_name":"Uncletopia | Atlanta | 2 | All Maps | STV","players":[{"user_id":16,"name":"tac","steam_id":76561198408477421,"connected_time":13662000000000,"state":"active","ping":78},{"user_id":199,"name":"ravN :)","steam_id":76561198272366231,"connected_time":1135000000000,"state":"active","ping":71},{"user_id":212,"name":"Sirgioblayde","steam_id":76561198059445113,"connected_time":245000000000,"state":"active","ping":90},{"user_id":214,"name":"AMistake","steam_id":76561199379196708,"connected_time":98000000000,"state":"active","ping":51},{"user_id":215,"name":"rattlin' bog","steam_id":76561198224551028,"connected_time":89000000000,"state":"active","ping":72},{"user_id":182,"name":"cwnz2","steam_id":76561198418170535,"connected_time":2290000000000,"state":"active","ping":79},{"user_id":216,"name":"over 9000 at owning you","steam_id":76561198112297509,"connected_time":54000000000,"state":"active","ping":60},{"user_id":148,"name":"Fart Huffer","steam_id":76561198094125834,"connected_time":4351000000000,"state":"active","ping":85},{"user_id":187,"name":"combine gaming","steam_id":76561198143371318,"connected_time":1964000000000,"state":"active","ping":88},{"user_id":202,"name":"Wither","steam_id":76561199273891607,"connected_time":1057000000000,"state":"active","ping":87},{"user_id":193,"name":"Breakaway","steam_id":76561198089308523,"connected_time":1521000000000,"state":"active","ping":72},{"user_id":166,"name":"Vordt","steam_id":76561198040942866,"connected_time":3300000000000,"state":"active","ping":50},{"user_id":211,"name":"Jared","steam_id":76561198027210228,"connected_time":370000000000,"state":"active","ping":75},{"user_id":206,"name":"Jack Meehoff","steam_id":76561199246237446,"connected_time":1026000000000,"state":"active","ping":78}]},{"server_id":400,"name":"Uncletopia | Atlanta | 3 | Stopwatch","name_short":"atl-3","host":"atl-1.us.uncletopia.com","port":27035,"enabled":true,"region":"us-east","cc":"us","latitude":33.753746,"longitude":-84.38633,"reserved":0,"last_update":"0001-01-01T00:00:00Z","name_a2s":"Uncletopia | Atlanta | 3 | Stopwatch","protocol":17,"map":"workshop/koth_ashville_final.ugc2130459942","folder":"tf","game":"Team Fortress","app_id":440,"player_count":20,"max_players":24,"Bots":0,"server_type":"Dedicated","server_os":"Linux","password":true,"vac":true,"version":"7961495","steam_id":85568392924515187,"keywords":["cp","nocrits","nodmgspread","uncletopia"],"game_id":440,"stv_port":27036,"stv_name":"Uncletopia | Atlanta | 3 | Stopwatch | STV","players":[{"user_id":311,"name":"Chilithium","steam_id":76561198073081345,"connected_time":3112000000000,"state":"active","ping":56},{"user_id":331,"name":"Captain Chicken","steam_id":76561198047767530,"connected_time":2062000000000,"state":"active","ping":92},{"user_id":361,"name":"Walla","steam_id":76561198103379757,"connected_time":543000000000,"state":"active","ping":45},{"user_id":374,"name":"Zeke l","steam_id":76561198811359709,"connected_time":156000000000,"state":"active","ping":80},{"user_id":370,"name":"lew","steam_id":76561198088682495,"connected_time":275000000000,"state":"active","ping":123},{"user_id":364,"name":"Sceptimus","steam_id":76561198179580927,"connected_time":467000000000,"state":"active","ping":124},{"user_id":356,"name":"â™¦â™£Quadricâ™¥â™ ","steam_id":76561198061003853,"connected_time":1137000000000,"state":"active","ping":70},{"user_id":377,"name":"murph","steam_id":76561198122847065,"connected_time":13000000000,"state":"spawning","ping":120},{"user_id":337,"name":"sam","steam_id":76561198088504281,"connected_time":1824000000000,"state":"active","ping":68},{"user_id":342,"name":"ApleBottom7","steam_id":76561199189620400,"connected_time":1481000000000,"state":"active","ping":74},{"user_id":365,"name":"Peepster","steam_id":76561198297854733,"connected_time":459000000000,"state":"active","ping":90},{"user_id":376,"name":"Captain Malarkey","steam_id":76561198869924281,"connected_time":27000000000,"state":"spawning","ping":561},{"user_id":351,"name":"Duck","steam_id":76561198303483056,"connected_time":1248000000000,"state":"active","ping":87},{"user_id":359,"name":"papyrus","steam_id":76561199123470562,"connected_time":986000000000,"state":"active","ping":71},{"user_id":159,"name":"Elijah123","steam_id":76561199037648021,"connected_time":12853000000000,"state":"active","ping":70},{"user_id":339,"name":"MLG_Doge","steam_id":76561198106449532,"connected_time":1744000000000,"state":"active","ping":69},{"user_id":373,"name":"ethan","steam_id":76561198171232129,"connected_time":172000000000,"state":"active","ping":81},{"user_id":366,"name":"Dark Souls","steam_id":76561198131174016,"connected_time":429000000000,"state":"active","ping":85},{"user_id":355,"name":"Echo","steam_id":76561198044265873,"connected_time":1151000000000,"state":"active","ping":85},{"user_id":349,"name":"baconandx","steam_id":76561198355074004,"connected_time":1310000000000,"state":"active","ping":73}]},{"server_id":401,"name":"Uncletopia | Atlanta | 4 | Community","name_short":"atl-4","host":"atl-1.us.uncletopia.com","port":27045,"enabled":true,"region":"us-east","cc":"us","latitude":33.753746,"longitude":-84.38633,"reserved":0,"last_update":"0001-01-01T00:00:00Z","name_a2s":"Uncletopia | Atlanta | 4 | Community","protocol":17,"map":"workshop/koth_product_final.ugc454272353","folder":"tf","game":"Team Fortress","app_id":440,"player_count":0,"max_players":24,"Bots":0,"server_type":"Dedicated","server_os":"Linux","password":true,"vac":true,"version":"7961495","steam_id":85568392924515188,"keywords":["cp","nocrits","nodmgspread","uncletopia"],"game_id":440,"stv_port":27046,"stv_name":"Uncletopia | Atlanta | 4 | Community | STV","players":null},{"server_id":2,"name":"Uncletopia | Chicago | 1 | All Maps","name_short":"chi-1","host":"chi-1.us.uncletopia.com","port":27015,"enabled":true,"region":"us-central","cc":"us","latitude":41.881832,"longitude":-87.62318,"reserved":0,"last_update":"0001-01-01T00:00:00Z","name_a2s":"Uncletopia | Chicago | 1 | All Maps","protocol":17,"map":"pl_thundermountain","folder":"tf","game":"Team Fortress","app_id":440,"player_count":24,"max_players":24,"Bots":0,"server_type":"Dedicated","server_os":"Linux","password":true,"vac":true,"version":"7961495","steam_id":85568392924469984,"keywords":["nocrits","nodmgspread","payload","uncletopia"],"game_id":440,"stv_port":27016,"stv_name":"Uncletopia | Chicago | 1 | All Maps | STV","players":[{"user_id":630,"name":"hej","steam_id":76561197996366940,"connected_time":4710000000000,"state":"active","ping":60},{"user_id":535,"name":"TheGreythreat","steam_id":76561198021995538,"connected_time":11703000000000,"state":"active","ping":67},{"user_id":722,"name":"Sketchdude","steam_id":76561198428554205,"connected_time":395000000000,"state":"active","ping":92},{"user_id":717,"name":"Word To Your Mothership","steam_id":76561198034329138,"connected_time":1721000000000,"state":"active","ping":103},{"user_id":647,"name":"Joebobio","steam_id":76561198024442760,"connected_time":3280000000000,"state":"active","ping":74},{"user_id":712,"name":"Crab Rangoon","steam_id":76561198059310510,"connected_time":2297000000000,"state":"active","ping":65},{"user_id":718,"name":"Noudele","steam_id":76561198164370912,"connected_time":1091000000000,"state":"active","ping":88},{"user_id":639,"name":"KingCrawful","steam_id":76561198104291657,"connected_time":4089000000000,"state":"active","ping":60},{"user_id":648,"name":"Ryaâ˜º","steam_id":76561198370128860,"connected_time":3256000000000,"state":"active","ping":72},{"user_id":719,"name":"loser","steam_id":76561198259380127,"connected_time":461000000000,"state":"active","ping":59},{"user_id":611,"name":"Snom","steam_id":76561198333827920,"connected_time":5900000000000,"state":"active","ping":292},{"user_id":610,"name":".JIFF","steam_id":76561198045181760,"connected_time":5902000000000,"state":"active","ping":59},{"user_id":709,"name":"Der Krieger105","steam_id":76561197978384609,"connected_time":2500000000000,"state":"active","ping":88},{"user_id":591,"name":"Buckler","steam_id":76561197969421355,"connected_time":7664000000000,"state":"active","ping":60},{"user_id":721,"name":"Hawkborne, Team Fortress 2","steam_id":76561198107249245,"connected_time":420000000000,"state":"active","ping":75},{"user_id":559,"name":"MedRedâ„¢ #IATAH","steam_id":76561198002962970,"connected_time":9827000000000,"state":"active","ping":95},{"user_id":560,"name":"Ras","steam_id":76561198123546775,"connected_time":9826000000000,"state":"active","ping":60},{"user_id":715,"name":"Cooler Ye","steam_id":76561198068830312,"connected_time":2194000000000,"state":"active","ping":45},{"user_id":713,"name":"XeroDollars","steam_id":76561198137858047,"connected_time":2273000000000,"state":"active","ping":63},{"user_id":716,"name":"Bee","steam_id":76561198074681324,"connected_time":1933000000000,"state":"active","ping":67},{"user_id":643,"name":"Dieu-Sama","steam_id":76561198002075862,"connected_time":3597000000000,"state":"active","ping":80},{"user_id":720,"name":"Râ™¡bert Leonard III","steam_id":76561197995560676,"connected_time":459000000000,"state":"active","ping":73},{"user_id":708,"name":"girls frotting","steam_id":76561198249206656,"connected_time":2538000000000,"state":"active","ping":63},{"user_id":619,"name":"Lia_Rein","steam_id":76561198151569597,"connected_time":5726000000000,"state":"active","ping":150}]},{"server_id":106,"name":"Uncletopia | Chicago | 2 | All Maps","name_short":"chi-2","host":"chi-1.us.uncletopia.com","port":27025,"enabled":true,"region":"us-central","cc":"us","latitude":41.881832,"longitude":-87.62318,"reserved":0,"last_update":"0001-01-01T00:00:00Z","name_a2s":"Uncletopia | Chicago | 2 | All Maps","protocol":17,"map":"pl_frontier_final","folder":"tf","game":"Team Fortress","app_id":440,"player_count":24,"max_players":24,"Bots":0,"server_type":"Dedicated","server_os":"Linux","password":true,"vac":true,"version":"7961495","steam_id":85568392924469985,"keywords":["nocrits","nodmgspread","payload","uncletopia"],"game_id":440,"stv_port":27026,"stv_name":"Uncletopia | Chicago | 2 | All Maps | STV","players":[{"user_id":486,"name":"BÃ¼berLarge","steam_id":76561198306965757,"connected_time":2530000000000,"state":"active","ping":87},{"user_id":506,"name":"Misanthrope","steam_id":76561198090692884,"connected_time":569000000000,"state":"active","ping":79},{"user_id":500,"name":"Vernas","steam_id":76561198118897256,"connected_time":806000000000,"state":"active","ping":56},{"user_id":501,"name":"bengineer","steam_id":76561198171912174,"connected_time":786000000000,"state":"active","ping":101},{"user_id":410,"name":"Ajax","steam_id":76561197962240140,"connected_time":10220000000000,"state":"active","ping":69},{"user_id":482,"name":"Piyono","steam_id":76561197962188504,"connected_time":2766000000000,"state":"active","ping":72},{"user_id":507,"name":"stick","steam_id":76561198049489094,"connected_time":314000000000,"state":"active","ping":58},{"user_id":447,"name":"SPIRE_FAN","steam_id":76561198001486573,"connected_time":5449000000000,"state":"active","ping":67},{"user_id":497,"name":"bob dylan","steam_id":76561198207881077,"connected_time":1098000000000,"state":"active","ping":84},{"user_id":478,"name":"30Hz Gaming","steam_id":76561198095550617,"connected_time":3200000000000,"state":"active","ping":99},{"user_id":477,"name":"Dinosaur","steam_id":76561199079626189,"connected_time":3502000000000,"state":"active","ping":71},{"user_id":234,"name":"Sonic Mania 2 [100 Real Leaked","steam_id":76561198062764039,"connected_time":21467000000000,"state":"active","ping":51},{"user_id":445,"name":"AJTarcza","steam_id":76561198070800190,"connected_time":5528000000000,"state":"active","ping":88},{"user_id":498,"name":"uzr","steam_id":76561198799343084,"connected_time":985000000000,"state":"active","ping":105},{"user_id":484,"name":"Gutso","steam_id":76561198089973383,"connected_time":2713000000000,"state":"active","ping":183},{"user_id":434,"name":"Flowers","steam_id":76561198031669899,"connected_time":7244000000000,"state":"active","ping":90},{"user_id":493,"name":"Digresser","steam_id":76561198016426367,"connected_time":1522000000000,"state":"active","ping":55},{"user_id":490,"name":"V_","steam_id":76561198147577835,"connected_time":1779000000000,"state":"active","ping":93},{"user_id":504,"name":"MONKEY | videogamer1002","steam_id":76561198157110599,"connected_time":714000000000,"state":"active","ping":114},{"user_id":481,"name":"chesterwnimitz","steam_id":76561198062664377,"connected_time":2793000000000,"state":"active","ping":82},{"user_id":505,"name":"Sgt. Pepper","steam_id":76561198063674627,"connected_time":695000000000,"state":"active","ping":83},{"user_id":406,"name":"Yarman53","steam_id":76561198099889202,"connected_time":10351000000000,"state":"active","ping":35},{"user_id":444,"name":"Sigmar Male","steam_id":76561198067584440,"connected_time":5655000000000,"state":"active","ping":83},{"user_id":397,"name":"Beebo, Son of Beebo","steam_id":76561198055948497,"connected_time":10493000000000,"state":"active","ping":55}]},{"server_id":402,"name":"Uncletopia | Chicago | 3 | All Maps","name_short":"chi-3","host":"chi-1.us.uncletopia.com","port":27035,"enabled":true,"region":"us-central","cc":"us","latitude":41.881832,"longitude":-87.62318,"reserved":0,"last_update":"0001-01-01T00:00:00Z","name_a2s":"Uncletopia | Chicago | 3 | All Maps","protocol":17,"map":"pl_rumford_event","folder":"tf","game":"Team Fortress","app_id":440,"player_count":24,"max_players":24,"Bots":0,"server_type":"Dedicated","server_os":"Linux","password":true,"vac":true,"version":"7961495","steam_id":85568392924515191,"keywords":["nocrits","nodmgspread","payload","uncletopia"],"game_id":440,"stv_port":27036,"stv_name":"Uncletopia | Chicago | 3 | All Maps | STV","players":[{"user_id":447,"name":"The_RainbowTrout","steam_id":76561199309554436,"connected_time":1046000000000,"state":"active","ping":84},{"user_id":450,"name":"Blade Racer","steam_id":76561198155896703,"connected_time":815000000000,"state":"active","ping":74},{"user_id":459,"name":"Space Lizard","steam_id":76561198056798193,"connected_time":445000000000,"state":"active","ping":79},{"user_id":451,"name":"Mom","steam_id":76561198207936000,"connected_time":778000000000,"state":"active","ping":90},{"user_id":374,"name":"Shemply","steam_id":76561198193658910,"connected_time":7516000000000,"state":"active","ping":77},{"user_id":422,"name":"Bobato Chaps","steam_id":76561198065103552,"connected_time":2817000000000,"state":"active","ping":46},{"user_id":382,"name":"RusticCarp42989","steam_id":76561198361151865,"connected_time":6217000000000,"state":"active","ping":118},{"user_id":452,"name":"BananaMangoFestival2013","steam_id":76561198218558897,"connected_time":776000000000,"state":"active","ping":153},{"user_id":455,"name":"Black Mesa Security","steam_id":76561198161608111,"connected_time":584000000000,"state":"active","ping":78},{"user_id":461,"name":"fruitslicer","steam_id":76561198100015794,"connected_time":94000000000,"state":"active","ping":60},{"user_id":457,"name":"ninety9dragonfly","steam_id":76561198363406983,"connected_time":533000000000,"state":"active","ping":106},{"user_id":441,"name":"Coffee Instant Type 2","steam_id":76561198307845869,"connected_time":1432000000000,"state":"active","ping":70},{"user_id":438,"name":"Sydney","steam_id":76561198422048189,"connected_time":2023000000000,"state":"active","ping":62},{"user_id":417,"name":"Dr. Dick","steam_id":76561198138011922,"connected_time":3321000000000,"state":"active","ping":78},{"user_id":437,"name":"ItsThatBear","steam_id":76561198169617659,"connected_time":2041000000000,"state":"active","ping":86},{"user_id":431,"name":"RAWRWAIFU","steam_id":76561198032118386,"connected_time":2236000000000,"state":"active","ping":92},{"user_id":443,"name":"Dad","steam_id":76561198089213897,"connected_time":1177000000000,"state":"active","ping":94},{"user_id":446,"name":"Joe Camel","steam_id":76561198205531739,"connected_time":1095000000000,"state":"active","ping":118},{"user_id":458,"name":"baguette","steam_id":76561198138807741,"connected_time":527000000000,"state":"active","ping":70},{"user_id":454,"name":"ðŸŽ„AndreaJinglingðŸŽ„","steam_id":76561198198658783,"connected_time":691000000000,"state":"active","ping":124},{"user_id":460,"name":"roast pig with apple in mouth","steam_id":76561198051353647,"connected_time":439000000000,"state":"active","ping":65},{"user_id":378,"name":"SiltyStar85","steam_id":76561198309175923,"connected_time":6735000000000,"state":"active","ping":96},{"user_id":449,"name":"bocchi is my rock","steam_id":76561198043907258,"connected_time":848000000000,"state":"active","ping":72},{"user_id":425,"name":"Shoeshocker","steam_id":76561198174302467,"connected_time":2500000000000,"state":"active","ping":81}]},{"server_id":403,"name":"Uncletopia | Chicago | 4 | All Maps","name_short":"chi-4","host":"chi-1.us.uncletopia.com","port":27045,"enabled":true,"region":"us-central","cc":"us","latitude":41.881832,"longitude":-87.62318,"reserved":0,"last_update":"0001-01-01T00:00:00Z","name_a2s":"Uncletopia | Chicago | 4 | All Maps","protocol":17,"map":"cp_dustbowl","folder":"tf","game":"Team Fortress","app_id":440,"player_count":2,"max_players":24,"Bots":0,"server_type":"Dedicated","server_os":"Linux","password":true,"vac":true,"version":"7961495","steam_id":85568392924515193,"keywords":["cp","nocrits","nodmgspread","uncletopia"],"game_id":440,"stv_port":27046,"stv_name":"Uncletopia | Chicago | 4 | All Maps | STV","players":[{"user_id":337,"name":"zuma deluxe","steam_id":76561198059041027,"connected_time":20000000000,"state":"active","ping":97},{"user_id":338,"name":"FROGGY","steam_id":76561199196374308,"connected_time":15000000000,"state":"spawning","ping":75}]},{"server_id":36,"name":"Uncletopia | Chicago | 5 | All Maps","name_short":"chi-5","host":"chi-2.us.uncletopia.com","port":27015,"enabled":true,"region":"us-central","cc":"us","latitude":41.881832,"longitude":-87.62318,"reserved":0,"last_update":"0001-01-01T00:00:00Z","name_a2s":"Uncletopia | Chicago | 5 | All Maps","protocol":17,"map":"pl_barnblitz","folder":"tf","game":"Team Fortress","app_id":440,"player_count":24,"max_players":24,"Bots":0,"server_type":"Dedicated","server_os":"Linux","password":true,"vac":true,"version":"7961495","steam_id":85568392924866362,"keywords":["nocrits","nodmgspread","payload","uncletopia"],"game_id":440,"stv_port":27016,"stv_name":"Uncletopia | Chicago | 5 | All Maps | STV","players":[{"user_id":440,"name":"ultralisk52","steam_id":76561198051666604,"connected_time":180000000000,"state":"active","ping":65},{"user_id":436,"name":"Gigglesâ„¢","steam_id":76561198058708019,"connected_time":420000000000,"state":"active","ping":57},{"user_id":441,"name":"Dullahan","steam_id":76561198119668908,"connected_time":143000000000,"state":"active","ping":96},{"user_id":428,"name":"turnip","steam_id":76561197999375941,"connected_time":1074000000000,"state":"active","ping":82},{"user_id":423,"name":"The Washer of Dishes","steam_id":76561198028157625,"connected_time":1715000000000,"state":"active","ping":89},{"user_id":442,"name":"Useless","steam_id":76561198116079299,"connected_time":128000000000,"state":"active","ping":90},{"user_id":426,"name":"big tim","steam_id":76561198075510786,"connected_time":1342000000000,"state":"active","ping":79},{"user_id":438,"name":"Merchant","steam_id":76561198130468663,"connected_time":352000000000,"state":"active","ping":57},{"user_id":439,"name":"120/80","steam_id":76561198069029617,"connected_time":187000000000,"state":"active","ping":103},{"user_id":387,"name":"chill","steam_id":76561198313364985,"connected_time":3489000000000,"state":"active","ping":108},{"user_id":427,"name":"Beef Wellington","steam_id":76561198049837377,"connected_time":1157000000000,"state":"active","ping":50},{"user_id":393,"name":"DaPiÍ¯nkiÌšÍ¦e","steam_id":76561198022362795,"connected_time":3137000000000,"state":"active","ping":72},{"user_id":443,"name":"ZenkoZSprite","steam_id":76561198190132250,"connected_time":123000000000,"state":"active","ping":70},{"user_id":366,"name":"gulch","steam_id":76561199227946025,"connected_time":5414000000000,"state":"active","ping":76},{"user_id":394,"name":"Wunderpicka","steam_id":76561198049846440,"connected_time":3133000000000,"state":"active","ping":119},{"user_id":404,"name":"dance monkey","steam_id":76561198188722751,"connected_time":2545000000000,"state":"active","ping":101},{"user_id":396,"name":"Aieykins","steam_id":76561199036575278,"connected_time":3125000000000,"state":"active","ping":112},{"user_id":430,"name":"Dr Oshawott","steam_id":76561198042021629,"connected_time":1020000000000,"state":"active","ping":65},{"user_id":432,"name":"Discourse","steam_id":76561198984286678,"connected_time":711000000000,"state":"active","ping":59},{"user_id":398,"name":"Atomic West","steam_id":76561197995038281,"connected_time":3109000000000,"state":"active","ping":104},{"user_id":444,"name":"Pyroshark","steam_id":76561198133599422,"connected_time":108000000000,"state":"active","ping":73},{"user_id":434,"name":"GreenApples","steam_id":76561198120559543,"connected_time":677000000000,"state":"active","ping":105},{"user_id":400,"name":"marrimae","steam_id":76561198077579990,"connected_time":3066000000000,"state":"active","ping":141},{"user_id":419,"name":"NovaSc6ut","steam_id":76561198277163301,"connected_time":1886000000000,"state":"active","ping":73}]},{"server_id":37,"name":"Uncletopia | Chicago | 6 | All Maps","name_short":"chi-6","host":"chi-2.us.uncletopia.com","port":27025,"enabled":true,"region":"us-central","cc":"us","latitude":41.881832,"longitude":-87.62318,"reserved":0,"last_update":"0001-01-01T00:00:00Z","name_a2s":"Uncletopia | Chicago | 6 | All Maps","protocol":17,"map":"cp_dustbowl","folder":"tf","game":"Team Fortress","app_id":440,"player_count":24,"max_players":24,"Bots":0,"server_type":"Dedicated","server_os":"Linux","password":true,"vac":true,"version":"7961495","steam_id":85568392924866363,"keywords":["cp","nocrits","nodmgspread","uncletopia"],"game_id":440,"stv_port":27026,"stv_name":"Uncletopia | Chicago | 6 | All Maps | STV","players":[{"user_id":340,"name":"CapitÃ¡n Ã„xis-Flores Kuroki","steam_id":76561198353865006,"connected_time":4791000000000,"state":"active","ping":78},{"user_id":432,"name":"HooHay","steam_id":76561199350870177,"connected_time":379000000000,"state":"active","ping":59},{"user_id":298,"name":"IcyScrumpy","steam_id":76561198084605065,"connected_time":7263000000000,"state":"active","ping":57},{"user_id":347,"name":"Wayan","steam_id":76561198354695464,"connected_time":4030000000000,"state":"active","ping":70},{"user_id":434,"name":"BigNugs","steam_id":76561198056402610,"connected_time":354000000000,"state":"active","ping":64},{"user_id":436,"name":"jneubauer1620","steam_id":76561199228634006,"connected_time":315000000000,"state":"active","ping":59},{"user_id":430,"name":"DivineBanana","steam_id":76561198026529731,"connected_time":746000000000,"state":"active","ping":90},{"user_id":425,"name":"Madhayter","steam_id":76561197967315930,"connected_time":1566000000000,"state":"active","ping":67},{"user_id":442,"name":"menonamed","steam_id":76561198199564382,"connected_time":237000000000,"state":"active","ping":70},{"user_id":437,"name":"tek lintowe fan","steam_id":76561198206177593,"connected_time":301000000000,"state":"active","ping":102},{"user_id":444,"name":"thats not milk :]","steam_id":76561198194253377,"connected_time":30000000000,"state":"spawning","ping":112},{"user_id":438,"name":"imagine no burger","steam_id":76561198149666258,"connected_time":294000000000,"state":"active","ping":76},{"user_id":422,"name":"MorganXVA","steam_id":76561198132246961,"connected_time":1639000000000,"state":"active","ping":78},{"user_id":439,"name":"Rix FPV","steam_id":76561198299320893,"connected_time":291000000000,"state":"active","ping":61},{"user_id":295,"name":"Kaiori","steam_id":76561198166480653,"connected_time":7428000000000,"state":"active","ping":74},{"user_id":386,"name":"ShawnsPvz","steam_id":76561198350691501,"connected_time":2589000000000,"state":"active","ping":72},{"user_id":392,"name":"FAKE TAXI PRANKS","steam_id":76561198136746987,"connected_time":2493000000000,"state":"active","ping":71},{"user_id":361,"name":"Kerpal45","steam_id":76561198153340350,"connected_time":3541000000000,"state":"active","ping":86},{"user_id":352,"name":"Owls = Government Drones","steam_id":76561198439793697,"connected_time":3734000000000,"state":"active","ping":80},{"user_id":440,"name":"emerge","steam_id":76561198186882891,"connected_time":285000000000,"state":"active","ping":66},{"user_id":441,"name":"lily","steam_id":76561198420237035,"connected_time":279000000000,"state":"active","ping":119},{"user_id":443,"name":"Orca?","steam_id":76561198164341099,"connected_time":222000000000,"state":"active","ping":85},{"user_id":341,"name":"tubby","steam_id":76561198174982661,"connected_time":4773000000000,"state":"active","ping":85},{"user_id":379,"name":"Tri-Dot","steam_id":76561199075186597,"connected_time":2727000000000,"state":"active","ping":70}]},{"server_id":38,"name":"Uncletopia | Chicago | 7 | Stopwatch","name_short":"chi-7","host":"chi-2.us.uncletopia.com","port":27035,"enabled":true,"region":"us-central","cc":"us","latitude":41.881832,"longitude":-87.62318,"reserved":0,"last_update":"0001-01-01T00:00:00Z","name_a2s":"Uncletopia | Chicago | 7 | Stopwatch","protocol":17,"map":"cp_sunshine","folder":"tf","game":"Team Fortress","app_id":440,"player_count":23,"max_players":24,"Bots":0,"server_type":"Dedicated","server_os":"Linux","password":true,"vac":true,"version":"7961495","steam_id":85568392924866364,"keywords":["cp","nocrits","nodmgspread","uncletopia"],"game_id":440,"stv_port":27036,"stv_name":"Uncletopia | Chicago | 7 | Stopwatch | STV","players":[{"user_id":316,"name":"LetsWinCarlos2012","steam_id":76561199084826822,"connected_time":677000000000,"state":"active","ping":81},{"user_id":226,"name":"Cameron","steam_id":76561198103496593,"connected_time":5158000000000,"state":"active","ping":67},{"user_id":219,"name":"9gon Rez LeRoux","steam_id":76561198451503538,"connected_time":5347000000000,"state":"active","ping":77},{"user_id":285,"name":"Mazel-Tovâœ¡Cocktail","steam_id":76561197979855281,"connected_time":2202000000000,"state":"active","ping":30},{"user_id":227,"name":"9gon Salt","steam_id":76561198116645978,"connected_time":5152000000000,"state":"active","ping":52},{"user_id":304,"name":"o:faded:o","steam_id":76561198020710341,"connected_time":846000000000,"state":"active","ping":77},{"user_id":305,"name":"Vanilla Guerilla","steam_id":76561198027302117,"connected_time":845000000000,"state":"active","ping":61},{"user_id":306,"name":"Asanez3","steam_id":76561198037381436,"connected_time":839000000000,"state":"active","ping":77},{"user_id":311,"name":"perro","steam_id":76561199055667840,"connected_time":749000000000,"state":"active","ping":81},{"user_id":288,"name":"Minion Bob","steam_id":76561198023938170,"connected_time":2018000000000,"state":"active","ping":83},{"user_id":317,"name":"1998 Summer Tax Fraud","steam_id":76561198096366496,"connected_time":127000000000,"state":"active","ping":45},{"user_id":310,"name":"TurkishArmada","steam_id":76561198132068284,"connected_time":764000000000,"state":"active","ping":78},{"user_id":314,"name":"Poopisviel Von Einzbern","steam_id":76561198259260433,"connected_time":708000000000,"state":"active","ping":121},{"user_id":289,"name":"Gram Tokers Count Doinkula","steam_id":76561198112811565,"connected_time":1994000000000,"state":"active","ping":74},{"user_id":313,"name":"6 feet deep like skeletons","steam_id":76561198138221795,"connected_time":715000000000,"state":"active","ping":75},{"user_id":299,"name":"java","steam_id":76561198030276792,"connected_time":1831000000000,"state":"active","ping":60},{"user_id":292,"name":"Mithrildo","steam_id":76561198000564263,"connected_time":1927000000000,"state":"active","ping":74},{"user_id":217,"name":"9gon Danmar33","steam_id":76561198056453091,"connected_time":5499000000000,"state":"active","ping":60},{"user_id":315,"name":"c","steam_id":76561198881665250,"connected_time":700000000000,"state":"active","ping":98},{"user_id":298,"name":"Mr. Bojangles","steam_id":76561198010019214,"connected_time":1873000000000,"state":"active","ping":71},{"user_id":295,"name":"lanoc","steam_id":76561198055415367,"connected_time":1923000000000,"state":"active","ping":75},{"user_id":296,"name":"Lone_Bacon2","steam_id":76561198067488643,"connected_time":1908000000000,"state":"active","ping":106},{"user_id":297,"name":"Calypso","steam_id":76561198082939544,"connected_time":1904000000000,"state":"active","ping":89}]},{"server_id":39,"name":"Uncletopia | Chicago | 8 | Community","name_short":"chi-8","host":"chi-2.us.uncletopia.com","port":27045,"enabled":true,"region":"us-central","cc":"us","latitude":41.881832,"longitude":-87.62318,"reserved":0,"last_update":"0001-01-01T00:00:00Z","name_a2s":"Uncletopia | Chicago | 8 | Community","protocol":17,"map":"workshop/koth_ramjam_rc1.ugc459778887","folder":"tf","game":"Team Fortress","app_id":440,"player_count":0,"max_players":24,"Bots":0,"server_type":"Dedicated","server_os":"Linux","password":true,"vac":true,"version":"7961495","steam_id":85568392924866365,"keywords":["cp","nocrits","nodmgspread","uncletopia"],"game_id":440,"stv_port":27046,"stv_name":"Uncletopia | Chicago | 8 | Community | STV","players":null},{"server_id":8,"name":"Uncletopia | Dallas | 1 | All Maps","name_short":"dal-1","host":"dal-1.us.uncletopia.com","port":27015,"enabled":true,"region":"us-central","cc":"us","latitude":32.779167,"longitude":-96.80889,"reserved":0,"last_update":"0001-01-01T00:00:00Z","name_a2s":"Uncletopia | Dallas | 1 | All Maps","protocol":17,"map":"pl_swiftwater_final1","folder":"tf","game":"Team Fortress","app_id":440,"player_count":23,"max_players":24,"Bots":0,"server_type":"Dedicated","server_os":"Linux","password":true,"vac":true,"version":"7961495","steam_id":85568392924469986,"keywords":["nocrits","nodmgspread","payload","uncletopia"],"game_id":440,"stv_port":27016,"stv_name":"Uncletopia | Dallas | 1 | All Maps | STV","players":[{"user_id":257,"name":"Shabooyaroll-call","steam_id":76561198112306237,"connected_time":1933000000000,"state":"active","ping":91},{"user_id":283,"name":"(TTV) The_Astrum_Guardian","steam_id":76561198130134103,"connected_time":735000000000,"state":"active","ping":61},{"user_id":295,"name":"Theo","steam_id":76561198147484780,"connected_time":48000000000,"state":"active","ping":85},{"user_id":280,"name":"GoblinActual","steam_id":76561198330743199,"connected_time":888000000000,"state":"active","ping":101},{"user_id":264,"name":"Unlimited_Trees","steam_id":76561198299141443,"connected_time":1719000000000,"state":"active","ping":86},{"user_id":251,"name":"WaywardFinn","steam_id":76561198040391296,"connected_time":2510000000000,"state":"active","ping":101},{"user_id":281,"name":"Legendary Gunther","steam_id":76561198441804455,"connected_time":883000000000,"state":"active","ping":110},{"user_id":285,"name":"turingsghost","steam_id":76561198029318657,"connected_time":621000000000,"state":"active","ping":35},{"user_id":278,"name":"QRANXDM","steam_id":76561198956441323,"connected_time":972000000000,"state":"active","ping":81},{"user_id":246,"name":"Moth Beam","steam_id":76561198005069202,"connected_time":3948000000000,"state":"active","ping":50},{"user_id":269,"name":"TANK DAVIS","steam_id":76561198015327889,"connected_time":1647000000000,"state":"active","ping":94},{"user_id":248,"name":"PROUD DADneet","steam_id":76561198156651777,"connected_time":3122000000000,"state":"active","ping":71},{"user_id":288,"name":"Gengar","steam_id":76561198061247147,"connected_time":510000000000,"state":"active","ping":75},{"user_id":291,"name":"Willy","steam_id":76561198046508940,"connected_time":210000000000,"state":"active","ping":81},{"user_id":286,"name":"Pablo.Gonzalez.2007","steam_id":76561199083115222,"connected_time":614000000000,"state":"active","ping":129},{"user_id":276,"name":"rexelfhcir","steam_id":76561199018207049,"connected_time":1301000000000,"state":"active","ping":68},{"user_id":247,"name":"DejectedKiwi","steam_id":76561198115055574,"connected_time":3875000000000,"state":"active","ping":49},{"user_id":250,"name":"Tommy Provolone","steam_id":76561198170062377,"connected_time":2786000000000,"state":"active","ping":65},{"user_id":279,"name":"V. G. Sunderland","steam_id":76561198161839980,"connected_time":953000000000,"state":"active","ping":89},{"user_id":273,"name":"cycoone","steam_id":76561198059745285,"connected_time":1557000000000,"state":"active","ping":77},{"user_id":274,"name":"Caught a Thundah","steam_id":76561198054495572,"connected_time":1556000000000,"state":"active","ping":52},{"user_id":293,"name":"Captain Zyrin","steam_id":76561197983121824,"connected_time":86000000000,"state":"active","ping":98},{"user_id":294,"name":"pyrotechnic","steam_id":76561198043558709,"connected_time":68000000000,"state":"active","ping":98}]},{"server_id":108,"name":"Uncletopia | Dallas | 2 | All Maps","name_short":"dal-2","host":"dal-1.us.uncletopia.com","port":27025,"enabled":true,"region":"us-central","cc":"us","latitude":32.779167,"longitude":-96.80889,"reserved":0,"last_update":"0001-01-01T00:00:00Z","name_a2s":"Uncletopia | Dallas | 2 | All Maps","protocol":17,"map":"koth_cascade","folder":"tf","game":"Team Fortress","app_id":440,"player_count":5,"max_players":24,"Bots":0,"server_type":"Dedicated","server_os":"Linux","password":true,"vac":true,"version":"7961495","steam_id":85568392924469988,"keywords":["cp","nocrits","nodmgspread","uncletopia"],"game_id":440,"stv_port":27026,"stv_name":"Uncletopia | Dallas | 2 | All Maps | STV","players":[{"user_id":759,"name":"Pie Eater 9000","steam_id":76561198003791564,"connected_time":1173000000000,"state":"active","ping":76},{"user_id":765,"name":"No Justice No Peace","steam_id":76561198095200552,"connected_time":649000000000,"state":"active","ping":75},{"user_id":766,"name":"Lichey","steam_id":76561198345670004,"connected_time":565000000000,"state":"active","ping":195},{"user_id":768,"name":"Lumpy the Illegally Blind","steam_id":76561198053125768,"connected_time":312000000000,"state":"active","ping":88},{"user_id":769,"name":"Venumb Bengal","steam_id":76561198156498290,"connected_time":303000000000,"state":"active","ping":94}]},{"server_id":404,"name":"Uncletopia | Dallas | 3 | All Maps","name_short":"dal-3","host":"dal-1.us.uncletopia.com","port":27035,"enabled":true,"region":"us-central","cc":"us","latitude":32.779167,"longitude":-96.80889,"reserved":0,"last_update":"0001-01-01T00:00:00Z","name_a2s":"Uncletopia | Dallas | 3 | All Maps","protocol":17,"map":"pl_swiftwater_final1","folder":"tf","game":"Team Fortress","app_id":440,"player_count":24,"max_players":24,"Bots":0,"server_type":"Dedicated","server_os":"Linux","password":true,"vac":true,"version":"7961495","steam_id":85568392924515219,"keywords":["nocrits","nodmgspread","payload","uncletopia"],"game_id":440,"stv_port":27036,"stv_name":"Uncletopia | Dallas | 3 | All Maps | STV","players":[{"user_id":110,"name":"PhantaZm","steam_id":76561198049362351,"connected_time":2369000000000,"state":"active","ping":65},{"user_id":103,"name":"[DATSâž¡] Sugar Meowth","steam_id":76561197995251793,"connected_time":3129000000000,"state":"active","ping":92},{"user_id":111,"name":"fast pistols.TV","steam_id":76561198065477866,"connected_time":2349000000000,"state":"active","ping":74},{"user_id":132,"name":"wile","steam_id":76561198125261443,"connected_time":1118000000000,"state":"active","ping":108},{"user_id":133,"name":"RC","steam_id":76561198048127881,"connected_time":1106000000000,"state":"active","ping":60},{"user_id":143,"name":"Rearranging furniture","steam_id":76561199054971009,"connected_time":538000000000,"state":"active","ping":52},{"user_id":113,"name":"Chans","steam_id":76561198046161073,"connected_time":2337000000000,"state":"active","ping":66},{"user_id":42,"name":"PokÃ©","steam_id":76561198100167641,"connected_time":5198000000000,"state":"active","ping":71},{"user_id":105,"name":"á²¼á²¼á²¼","steam_id":76561198845246815,"connected_time":2889000000000,"state":"active","ping":76},{"user_id":45,"name":"Squigly","steam_id":76561198084811625,"connected_time":5127000000000,"state":"active","ping":74},{"user_id":124,"name":"plink","steam_id":76561198057829889,"connected_time":2020000000000,"state":"active","ping":56},{"user_id":123,"name":"big d","steam_id":76561198968470496,"connected_time":2075000000000,"state":"active","ping":102},{"user_id":127,"name":"Rilille","steam_id":76561198049316465,"connected_time":1875000000000,"state":"active","ping":75},{"user_id":142,"name":"Skip Hop Doo Bop","steam_id":76561199161571849,"connected_time":690000000000,"state":"active","ping":84},{"user_id":134,"name":"pup","steam_id":76561198206523304,"connected_time":1104000000000,"state":"active","ping":103},{"user_id":128,"name":"Geight","steam_id":76561197991645292,"connected_time":1673000000000,"state":"active","ping":109},{"user_id":141,"name":"nuke da globe","steam_id":76561198091460662,"connected_time":743000000000,"state":"active","ping":75},{"user_id":135,"name":"â™¡espritâ™¡","steam_id":76561198161227789,"connected_time":1094000000000,"state":"active","ping":104},{"user_id":129,"name":"GangstaPuddin","steam_id":76561198045414782,"connected_time":1586000000000,"state":"active","ping":79},{"user_id":91,"name":"Whiamy Aleeve","steam_id":76561199007736086,"connected_time":3518000000000,"state":"active","ping":70},{"user_id":145,"name":"Purplecc","steam_id":76561198169924039,"connected_time":323000000000,"state":"active","ping":74},{"user_id":62,"name":"ArmyGuyIan","steam_id":76561198120926552,"connected_time":4118000000000,"state":"active","ping":87},{"user_id":139,"name":"Keyboardbreaker","steam_id":76561198372836132,"connected_time":1041000000000,"state":"active","ping":104}]},{"server_id":405,"name":"Uncletopia | Dallas | 4 | Community","name_short":"dal-4","host":"dal-1.us.uncletopia.com","port":27045,"enabled":true,"region":"us-central","cc":"us","latitude":32.779167,"longitude":-96.80889,"reserved":0,"last_update":"0001-01-01T00:00:00Z","name_a2s":"Uncletopia | Dallas | 4 | Community","protocol":17,"map":"workshop/cp_hazyfort_rc6.ugc1365963729","folder":"tf","game":"Team Fortress","app_id":440,"player_count":0,"max_players":24,"Bots":0,"server_type":"Dedicated","server_os":"Linux","password":true,"vac":true,"version":"7961495","steam_id":85568392924515220,"keywords":["cp","nocrits","nodmgspread","uncletopia"],"game_id":440,"stv_port":27046,"stv_name":"Uncletopia | Dallas | 4 | Community | STV","players":null},{"server_id":5,"name":"Uncletopia | Frankfurt | 1 | All Maps","name_short":"frk-1","host":"frk-1.de.uncletopia.com","port":27015,"enabled":true,"region":"eu","cc":"de","latitude":50.110924,"longitude":8.682127,"reserved":0,"last_update":"0001-01-01T00:00:00Z","name_a2s":"Uncletopia | Frankfurt | 1 | All Maps","protocol":17,"map":"pl_frontier_final","folder":"tf","game":"Team Fortress","app_id":440,"player_count":0,"max_players":24,"Bots":0,"server_type":"Dedicated","server_os":"Linux","password":true,"vac":true,"version":"7961495","steam_id":85568392924469989,"keywords":["nocrits","nodmgspread","payload","uncletopia"],"game_id":440,"stv_port":27016,"stv_name":"Uncletopia | Frankfurt | 1 | All Maps | STV","players":null},{"server_id":110,"name":"Uncletopia | Frankfurt | 2 | All Maps","name_short":"frk-2","host":"frk-1.de.uncletopia.com","port":27025,"enabled":true,"region":"eu","cc":"de","latitude":50.110924,"longitude":8.682127,"reserved":0,"last_update":"0001-01-01T00:00:00Z","name_a2s":"Uncletopia | Frankfurt | 2 | All Maps","protocol":17,"map":"koth_viaduct","folder":"tf","game":"Team Fortress","app_id":440,"player_count":0,"max_players":24,"Bots":0,"server_type":"Dedicated","server_os":"Linux","password":true,"vac":true,"version":"7961495","steam_id":85568392924469990,"keywords":["cp","nocrits","nodmgspread","uncletopia"],"game_id":440,"stv_port":27026,"stv_name":"Uncletopia | Frankfurt | 2 | All Maps | STV","players":null},{"server_id":308,"name":"Uncletopia | Frankfurt | 3 | All Maps","name_short":"frk-3","host":"frk-1.de.uncletopia.com","port":27035,"enabled":true,"region":"eu","cc":"de","latitude":50.110924,"longitude":8.682127,"reserved":0,"last_update":"0001-01-01T00:00:00Z","name_a2s":"Uncletopia | Frankfurt | 3 | All Maps","protocol":17,"map":"koth_harvest_final","folder":"tf","game":"Team Fortress","app_id":440,"player_count":0,"max_players":24,"Bots":0,"server_type":"Dedicated","server_os":"Linux","password":true,"vac":true,"version":"7961495","steam_id":85568392924504274,"keywords":["cp","nocrits","nodmgspread","uncletopia"],"game_id":440,"stv_port":27036,"stv_name":"Uncletopia | Frankfurt | 3 | All Maps | STV","players":null},{"server_id":309,"name":"Uncletopia | Frankfurt | 4 | All Maps","name_short":"frk-4","host":"frk-1.de.uncletopia.com","port":27045,"enabled":true,"region":"eu","cc":"de","latitude":50.110924,"longitude":8.682127,"reserved":0,"last_update":"0001-01-01T00:00:00Z","name_a2s":"Uncletopia | Frankfurt | 4 | All Maps","protocol":17,"map":"pl_badwater","folder":"tf","game":"Team Fortress","app_id":440,"player_count":0,"max_players":24,"Bots":0,"server_type":"Dedicated","server_os":"Linux","password":true,"vac":true,"version":"7961495","steam_id":85568392924504275,"keywords":["nocrits","nodmgspread","payload","uncletopia"],"game_id":440,"stv_port":27046,"stv_name":"Uncletopia | Frankfurt | 4 | All Maps | STV","players":null},{"server_id":310,"name":"Uncletopia | Frankfurt | 5 | All Maps","name_short":"frk-5","host":"frk-1.de.uncletopia.com","port":27055,"enabled":true,"region":"eu","cc":"de","latitude":50.110924,"longitude":8.682127,"reserved":0,"last_update":"0001-01-01T00:00:00Z","name_a2s":"Uncletopia | Frankfurt | 5 | All Maps","protocol":17,"map":"pl_swiftwater_final1","folder":"tf","game":"Team Fortress","app_id":440,"player_count":0,"max_players":24,"Bots":0,"server_type":"Dedicated","server_os":"Linux","password":true,"vac":true,"version":"7961495","steam_id":85568392924504277,"keywords":["nocrits","nodmgspread","payload","uncletopia"],"game_id":440,"stv_port":27056,"stv_name":"Uncletopia | Frankfurt | 5 | All Maps | STV","players":null},{"server_id":311,"name":"Uncletopia | Frankfurt | 6 | All Maps","name_short":"frk-6","host":"frk-1.de.uncletopia.com","port":27065,"enabled":true,"region":"eu","cc":"de","latitude":50.110924,"longitude":8.682127,"reserved":0,"last_update":"0001-01-01T00:00:00Z","name_a2s":"Uncletopia | Frankfurt | 6 | All Maps","protocol":17,"map":"pl_badwater","folder":"tf","game":"Team Fortress","app_id":440,"player_count":0,"max_players":24,"Bots":0,"server_type":"Dedicated","server_os":"Linux","password":true,"vac":true,"version":"7961495","steam_id":85568392924504278,"keywords":["nocrits","nodmgspread","payload","uncletopia"],"game_id":440,"stv_port":27066,"stv_name":"Uncletopia | Frankfurt | 6 | All Maps | STV","players":null},{"server_id":23,"name":"Uncletopia | Frankfurt | 7 | Stopwatch","name_short":"frk-7","host":"frk-1.de.uncletopia.com","port":27075,"enabled":true,"region":"eu","cc":"de","latitude":50.110924,"longitude":8.682127,"reserved":0,"last_update":"0001-01-01T00:00:00Z","name_a2s":"Uncletopia | Frankfurt | 7 | Stopwatch","protocol":17,"map":"workshop/koth_ashville_final.ugc2130459942","folder":"tf","game":"Team Fortress","app_id":440,"player_count":0,"max_players":24,"Bots":0,"server_type":"Dedicated","server_os":"Linux","password":true,"vac":true,"version":"7961495","steam_id":85568392924742827,"keywords":["cp","nocrits","nodmgspread","uncletopia"],"game_id":440,"stv_port":27076,"stv_name":"Uncletopia | Frankfurt | 7 | Stopwatch | STV","players":null},{"server_id":24,"name":"Uncletopia | Frankfurt | 8 | Community","name_short":"frk-8","host":"frk-1.de.uncletopia.com","port":27085,"enabled":true,"region":"eu","cc":"de","latitude":50.110924,"longitude":8.682127,"reserved":0,"last_update":"0001-01-01T00:00:00Z","name_a2s":"Uncletopia | Frankfurt | 8 | Community","protocol":17,"map":"workshop/koth_slaughter_rc1.ugc1712845210","folder":"tf","game":"Team Fortress","app_id":440,"player_count":0,"max_players":24,"Bots":0,"server_type":"Dedicated","server_os":"Linux","password":true,"vac":true,"version":"7961495","steam_id":85568392924742828,"keywords":["cp","nocrits","nodmgspread","uncletopia"],"game_id":440,"stv_port":27086,"stv_name":"Uncletopia | Frankfurt | 8 | Community | STV","players":null},{"server_id":202,"name":"Uncletopia | Hong Kong | 1 | All Maps","name_short":"hgk-1","host":"hgk-1.hk.uncletopia.com","port":27015,"enabled":true,"region":"asia","cc":"hk","latitude":22.302711,"longitude":114.177216,"reserved":0,"last_update":"0001-01-01T00:00:00Z","name_a2s":"Uncletopia | Hong Kong | 1 | All Maps","protocol":17,"map":"pl_frontier_final","folder":"tf","game":"Team Fortress","app_id":440,"player_count":0,"max_players":24,"Bots":0,"server_type":"Dedicated","server_os":"Linux","password":true,"vac":true,"version":"7961495","steam_id":85568392924494504,"keywords":["nocrits","nodmgspread","payload","uncletopia"],"game_id":440,"stv_port":27016,"stv_name":"Uncletopia | Hong Kong | 1 | All Maps | STV","players":null},{"server_id":1,"name":"Uncletopia | Los Angeles | 1 | All Maps","name_short":"lax-1","host":"lax-1.us.uncletopia.com","port":27015,"enabled":true,"region":"us-west","cc":"us","latitude":33.94279,"longitude":-118.41004,"reserved":0,"last_update":"0001-01-01T00:00:00Z","name_a2s":"Uncletopia | Los Angeles | 1 | All Maps","protocol":17,"map":"pl_borneo","folder":"tf","game":"Team Fortress","app_id":440,"player_count":24,"max_players":24,"Bots":0,"server_type":"Dedicated","server_os":"Linux","password":true,"vac":true,"version":"7961495","steam_id":85568392924469991,"keywords":["nocrits","nodmgspread","payload","uncletopia"],"game_id":440,"stv_port":27016,"stv_name":"Uncletopia | Los Angeles | 1 | All Maps | STV","players":[{"user_id":161,"name":"sloth","steam_id":76561198318126190,"connected_time":1425000000000,"state":"active","ping":152},{"user_id":129,"name":"EggPencil","steam_id":76561198043633284,"connected_time":3453000000000,"state":"active","ping":72},{"user_id":125,"name":"Whapper","steam_id":76561198044029606,"connected_time":3568000000000,"state":"active","ping":89},{"user_id":77,"name":"rat","steam_id":76561198130412963,"connected_time":5078000000000,"state":"active","ping":87},{"user_id":158,"name":"thug shaker central","steam_id":76561198202170860,"connected_time":1719000000000,"state":"active","ping":56},{"user_id":171,"name":"Ralph Kramden (Slim Charles)","steam_id":76561197981687895,"connected_time":289000000000,"state":"active","ping":52},{"user_id":167,"name":"gi hun","steam_id":76561198156308788,"connected_time":1232000000000,"state":"active","ping":45},{"user_id":126,"name":"Nathan Kress","steam_id":76561198982399602,"connected_time":3559000000000,"state":"active","ping":55},{"user_id":168,"name":"Tam Honks","steam_id":76561198044347961,"connected_time":425000000000,"state":"active","ping":70},{"user_id":145,"name":"XanoCanon","steam_id":76561198397553773,"connected_time":2596000000000,"state":"active","ping":58},{"user_id":169,"name":"Mexican Hippo","steam_id":76561199133475495,"connected_time":362000000000,"state":"active","ping":86},{"user_id":151,"name":"femboy on hrt","steam_id":76561198204075083,"connected_time":2387000000000,"state":"active","ping":110},{"user_id":163,"name":"incredirocks","steam_id":76561198061079993,"connected_time":1345000000000,"state":"active","ping":104},{"user_id":130,"name":"lker","steam_id":76561197976975075,"connected_time":3438000000000,"state":"active","ping":91},{"user_id":155,"name":"Franticraven177","steam_id":76561198334105579,"connected_time":1931000000000,"state":"active","ping":88},{"user_id":166,"name":"greentop_","steam_id":76561198209650964,"connected_time":1252000000000,"state":"active","ping":49},{"user_id":152,"name":"NAWWWWWWWWWWW","steam_id":76561198878913441,"connected_time":2352000000000,"state":"active","ping":45},{"user_id":146,"name":"doughboy","steam_id":76561198219012928,"connected_time":2596000000000,"state":"active","ping":51},{"user_id":172,"name":"jc71777","steam_id":76561199124210364,"connected_time":238000000000,"state":"active","ping":49},{"user_id":92,"name":"Culprit Shy","steam_id":76561198206506481,"connected_time":4400000000000,"state":"active","ping":51},{"user_id":111,"name":"goober","steam_id":76561198032675272,"connected_time":3845000000000,"state":"active","ping":122},{"user_id":164,"name":"Giantbob","steam_id":76561199043760220,"connected_time":1329000000000,"state":"active","ping":67},{"user_id":128,"name":"desinn","steam_id":76561198065434191,"connected_time":3539000000000,"state":"active","ping":117},{"user_id":160,"name":"awe","steam_id":76561198338739253,"connected_time":1447000000000,"state":"active","ping":63}]},{"server_id":112,"name":"Uncletopia | Los Angeles | 2 | All Maps","name_short":"lax-2","host":"lax-1.us.uncletopia.com","port":27025,"enabled":true,"region":"us-west","cc":"us","latitude":33.94279,"longitude":-118.41004,"reserved":0,"last_update":"0001-01-01T00:00:00Z","name_a2s":"Uncletopia | Los Angeles | 2 | All Maps","protocol":17,"map":"ctf_2fort","folder":"tf","game":"Team Fortress","app_id":440,"player_count":22,"max_players":24,"Bots":0,"server_type":"Dedicated","server_os":"Linux","password":true,"vac":true,"version":"7961495","steam_id":85568392924469992,"keywords":["ctf","nocrits","nodmgspread","uncletopia"],"game_id":440,"stv_port":27026,"stv_name":"Uncletopia | Los Angeles | 2 | All Maps | STV","players":[{"user_id":551,"name":"look at me hector","steam_id":76561198168492250,"connected_time":1152000000000,"state":"active","ping":45},{"user_id":539,"name":"theslayert4","steam_id":76561199258578780,"connected_time":1592000000000,"state":"active","ping":84},{"user_id":535,"name":"RedReimu","steam_id":76561199211311731,"connected_time":1692000000000,"state":"active","ping":49},{"user_id":507,"name":"BitPieStudios","steam_id":76561198059216393,"connected_time":4641000000000,"state":"active","ping":76},{"user_id":531,"name":"â™¥butter dogâ™¥ (real)","steam_id":76561198844648825,"connected_time":2132000000000,"state":"active","ping":85},{"user_id":530,"name":"RoastyToast408","steam_id":76561198273018783,"connected_time":2436000000000,"state":"active","ping":59},{"user_id":536,"name":"nym","steam_id":76561198444633925,"connected_time":1679000000000,"state":"active","ping":54},{"user_id":448,"name":"Jazpy","steam_id":76561198036872545,"connected_time":9417000000000,"state":"active","ping":77},{"user_id":537,"name":"southern hospitality","steam_id":76561198862785401,"connected_time":1652000000000,"state":"active","ping":57},{"user_id":559,"name":"Max Headass","steam_id":76561198964210411,"connected_time":4000000000,"state":"spawning","ping":45},{"user_id":549,"name":"cupsovietxeno","steam_id":76561198997539399,"connected_time":1290000000000,"state":"active","ping":59},{"user_id":532,"name":"Home Depot Theme","steam_id":76561198084997965,"connected_time":1883000000000,"state":"active","ping":44},{"user_id":540,"name":"Angus Mackenzie","steam_id":76561198060624982,"connected_time":1586000000000,"state":"active","ping":59},{"user_id":434,"name":"Sharp","steam_id":76561198044565001,"connected_time":11693000000000,"state":"active","ping":120},{"user_id":541,"name":"Quaalude","steam_id":76561198100177449,"connected_time":1532000000000,"state":"active","ping":82},{"user_id":542,"name":"jdm","steam_id":76561199497603020,"connected_time":1500000000000,"state":"active","ping":45},{"user_id":543,"name":"Pengo","steam_id":76561198980031255,"connected_time":1493000000000,"state":"active","ping":57},{"user_id":552,"name":"Tmiracle","steam_id":76561198052375275,"connected_time":940000000000,"state":"active","ping":59},{"user_id":545,"name":"HopeTheNeko","steam_id":76561199159285465,"connected_time":1461000000000,"state":"active","ping":59},{"user_id":547,"name":"boku macadamia","steam_id":76561198131804732,"connected_time":1436000000000,"state":"active","ping":129},{"user_id":548,"name":"Bimbonito","steam_id":76561198069676563,"connected_time":1423000000000,"state":"active","ping":97},{"user_id":554,"name":"moosein","steam_id":76561198354272434,"connected_time":902000000000,"state":"active","ping":113}]},{"server_id":324,"name":"Uncletopia | Los Angeles | 3 | All Maps","name_short":"lax-3","host":"lax-1.us.uncletopia.com","port":27035,"enabled":true,"region":"us-west","cc":"us","latitude":33.94279,"longitude":-118.41004,"reserved":0,"last_update":"0001-01-01T00:00:00Z","name_a2s":"Uncletopia | Los Angeles | 3 | All Maps","protocol":17,"map":"cp_snakewater_final1","folder":"tf","game":"Team Fortress","app_id":440,"player_count":24,"max_players":24,"Bots":0,"server_type":"Dedicated","server_os":"Linux","password":true,"vac":true,"version":"7961495","steam_id":85568392924510198,"keywords":["cp","nocrits","nodmgspread","uncletopia"],"game_id":440,"stv_port":27036,"stv_name":"Uncletopia | Los Angeles | 3 | All Maps | STV","players":[{"user_id":103,"name":"exx","steam_id":76561198090552145,"connected_time":427000000000,"state":"active","ping":49},{"user_id":105,"name":"SanitysEdge","steam_id":76561198130732813,"connected_time":2000000000,"state":"spawning","ping":68},{"user_id":58,"name":"AzuriousAlex","steam_id":76561198158026405,"connected_time":5094000000000,"state":"active","ping":86},{"user_id":78,"name":"adapt","steam_id":76561198156181017,"connected_time":2003000000000,"state":"active","ping":59},{"user_id":25,"name":"Gerbias","steam_id":76561198001002427,"connected_time":7225000000000,"state":"active","ping":62},{"user_id":72,"name":"Brody Yukin","steam_id":76561198084712019,"connected_time":2816000000000,"state":"active","ping":60},{"user_id":100,"name":"090-nsalih","steam_id":76561199467467873,"connected_time":742000000000,"state":"active","ping":179},{"user_id":21,"name":"mrthugpug1732","steam_id":76561198881200768,"connected_time":7443000000000,"state":"active","ping":58},{"user_id":104,"name":"All Tomorrow's Parties","steam_id":76561197995936212,"connected_time":143000000000,"state":"active","ping":75},{"user_id":87,"name":"psi","steam_id":76561198061497429,"connected_time":1443000000000,"state":"active","ping":75},{"user_id":70,"name":"Renz","steam_id":76561198118995036,"connected_time":3849000000000,"state":"active","ping":82},{"user_id":93,"name":"Irks","steam_id":76561198048243510,"connected_time":1221000000000,"state":"active","ping":57},{"user_id":102,"name":"Lee?","steam_id":76561199060892634,"connected_time":622000000000,"state":"active","ping":97},{"user_id":101,"name":"inoricaM","steam_id":76561199199257149,"connected_time":718000000000,"state":"active","ping":56},{"user_id":92,"name":"JustAnotherHuman","steam_id":76561199018122924,"connected_time":1242000000000,"state":"active","ping":102},{"user_id":94,"name":"Dongus","steam_id":76561197979056451,"connected_time":1177000000000,"state":"active","ping":77},{"user_id":96,"name":"BLANK3T They/He femboy on THC","steam_id":76561198028875624,"connected_time":1028000000000,"state":"active","ping":73},{"user_id":46,"name":"beatrice III","steam_id":76561198319897635,"connected_time":6376000000000,"state":"active","ping":73},{"user_id":85,"name":"Antonpirulero10","steam_id":76561198253036781,"connected_time":1522000000000,"state":"active","ping":70},{"user_id":35,"name":"OneMisguidedSlyGuy","steam_id":76561198372243261,"connected_time":6712000000000,"state":"active","ping":47},{"user_id":55,"name":"Kamin","steam_id":76561198255299559,"connected_time":5631000000000,"state":"active","ping":99},{"user_id":89,"name":"donutdagger","steam_id":76561199203048300,"connected_time":1298000000000,"state":"active","ping":59},{"user_id":84,"name":"Obrodai","steam_id":76561199465783209,"connected_time":1666000000000,"state":"active","ping":46},{"user_id":49,"name":"gohadoken","steam_id":76561198430889640,"connected_time":6266000000000,"state":"active","ping":115}]},{"server_id":25,"name":"Uncletopia | Los Angeles | 4 | Stopwatch","name_short":"lax-4","host":"lax-1.us.uncletopia.com","port":27045,"enabled":true,"region":"us-west","cc":"us","latitude":33.94279,"longitude":-118.41004,"reserved":0,"last_update":"0001-01-01T00:00:00Z","name_a2s":"Uncletopia | Los Angeles | 4 | Stopwatch","protocol":17,"map":"koth_lakeside_final","folder":"tf","game":"Team Fortress","app_id":440,"player_count":0,"max_players":24,"Bots":0,"server_type":"Dedicated","server_os":"Linux","password":true,"vac":true,"version":"7961495","steam_id":85568392924510199,"keywords":["cp","nocrits","nodmgspread","uncletopia"],"game_id":440,"stv_port":27046,"stv_name":"Uncletopia | Los Angeles | 4 | Stopwatch | STV","players":null},{"server_id":11,"name":"Uncletopia | London | 1 | All Maps","name_short":"lon-1","host":"lon-1.uk.uncletopia.com","port":27015,"enabled":true,"region":"eu","cc":"gb","latitude":51.509865,"longitude":-0.118092,"reserved":0,"last_update":"0001-01-01T00:00:00Z","name_a2s":"Uncletopia | London | 1 | All Maps","protocol":17,"map":"pl_borneo","folder":"tf","game":"Team Fortress","app_id":440,"player_count":0,"max_players":24,"Bots":0,"server_type":"Dedicated","server_os":"Linux","password":true,"vac":true,"version":"7961495","steam_id":85568392924367362,"keywords":["nocrits","nodmgspread","payload","uncletopia"],"game_id":440,"stv_port":27016,"stv_name":"Uncletopia | London | 1 | All Maps | STV","players":null},{"server_id":114,"name":"Uncletopia | London | 2 | All Maps","name_short":"lon-2","host":"lon-1.uk.uncletopia.com","port":27025,"enabled":true,"region":"eu","cc":"gb","latitude":51.509865,"longitude":-0.118092,"reserved":0,"last_update":"0001-01-01T00:00:00Z","name_a2s":"Uncletopia | London | 2 | All Maps","protocol":17,"map":"koth_lakeside_final","folder":"tf","game":"Team Fortress","app_id":440,"player_count":0,"max_players":24,"Bots":0,"server_type":"Dedicated","server_os":"Linux","password":true,"vac":true,"version":"7961495","steam_id":85568392924470941,"keywords":["cp","nocrits","nodmgspread","uncletopia"],"game_id":440,"stv_port":27026,"stv_name":"Uncletopia | London | 2 | All Maps | STV","players":null},{"server_id":320,"name":"Uncletopia | London | 3 | All Maps","name_short":"lon-3","host":"lon-1.uk.uncletopia.com","port":27035,"enabled":true,"region":"eu","cc":"gb","latitude":51.509865,"longitude":-0.118092,"reserved":0,"last_update":"0001-01-01T00:00:00Z","name_a2s":"Uncletopia | London | 3 | All Maps","protocol":17,"map":"pl_upward","folder":"tf","game":"Team Fortress","app_id":440,"player_count":0,"max_players":24,"Bots":0,"server_type":"Dedicated","server_os":"Linux","password":true,"vac":true,"version":"7961495","steam_id":85568392924510192,"keywords":["nocrits","nodmgspread","payload","uncletopia"],"game_id":440,"stv_port":27036,"stv_name":"Uncletopia | London | 3 | All Maps | STV","players":null},{"server_id":321,"name":"Uncletopia | London | 4 | All Maps","name_short":"lon-4","host":"lon-1.uk.uncletopia.com","port":27045,"enabled":true,"region":"eu","cc":"gb","latitude":51.509865,"longitude":-0.118092,"reserved":0,"last_update":"0001-01-01T00:00:00Z","name_a2s":"Uncletopia | London | 4 | All Maps","protocol":17,"map":"koth_viaduct","folder":"tf","game":"Team Fortress","app_id":440,"player_count":0,"max_players":24,"Bots":0,"server_type":"Dedicated","server_os":"Linux","password":true,"vac":true,"version":"7961495","steam_id":85568392924510193,"keywords":["cp","nocrits","nodmgspread","uncletopia"],"game_id":440,"stv_port":27046,"stv_name":"Uncletopia | London | 4 | All Maps | STV","players":null},{"server_id":21,"name":"Uncletopia | London | 5 | All Maps","name_short":"lon-5","host":"lon-1.uk.uncletopia.com","port":27055,"enabled":true,"region":"eu","cc":"gb","latitude":51.509865,"longitude":-0.118092,"reserved":0,"last_update":"0001-01-01T00:00:00Z","name_a2s":"Uncletopia | London | 5 | All Maps","protocol":17,"map":"cp_sunshine","folder":"tf","game":"Team Fortress","app_id":440,"player_count":0,"max_players":24,"Bots":0,"server_type":"Dedicated","server_os":"Linux","password":true,"vac":true,"version":"7961495","steam_id":85568392924742829,"keywords":["cp","nocrits","nodmgspread","uncletopia"],"game_id":440,"stv_port":27056,"stv_name":"Uncletopia | London | 5 | All Maps | STV","players":null},{"server_id":22,"name":"Uncletopia | London | 6 | All Maps","name_short":"lon-6","host":"lon-1.uk.uncletopia.com","port":27065,"enabled":true,"region":"eu","cc":"gb","latitude":51.509865,"longitude":-0.118092,"reserved":0,"last_update":"0001-01-01T00:00:00Z","name_a2s":"Uncletopia | London | 6 | All Maps","protocol":17,"map":"cp_snakewater_final1","folder":"tf","game":"Team Fortress","app_id":440,"player_count":22,"max_players":24,"Bots":0,"server_type":"Dedicated","server_os":"Linux","password":true,"vac":true,"version":"7961495","steam_id":85568392924742830,"keywords":["cp","nocrits","nodmgspread","uncletopia"],"game_id":440,"stv_port":27066,"stv_name":"Uncletopia | London | 6 | All Maps | STV","players":[{"user_id":674,"name":"Akuma","steam_id":76561198355141374,"connected_time":1743000000000,"state":"active","ping":76},{"user_id":669,"name":"â™‚Kipuâ™‚","steam_id":76561198046239061,"connected_time":2077000000000,"state":"active","ping":85},{"user_id":679,"name":"Jakk","steam_id":76561198041537908,"connected_time":572000000000,"state":"active","ping":78},{"user_id":680,"name":"Trying my best","steam_id":76561199492480629,"connected_time":570000000000,"state":"active","ping":124},{"user_id":682,"name":"Grease Goblin","steam_id":76561198311224530,"connected_time":426000000000,"state":"active","ping":40},{"user_id":683,"name":"Guppy","steam_id":76561198135398757,"connected_time":404000000000,"state":"active","ping":45},{"user_id":684,"name":"ó €¡ó €¡","steam_id":76561198399390201,"connected_time":372000000000,"state":"active","ping":101},{"user_id":685,"name":"Penis Contortionist","steam_id":76561198073663784,"connected_time":359000000000,"state":"active","ping":33},{"user_id":654,"name":"Omeven","steam_id":76561198256387155,"connected_time":3013000000000,"state":"active","ping":89},{"user_id":686,"name":"LonelyScot","steam_id":76561198190830395,"connected_time":357000000000,"state":"active","ping":44},{"user_id":661,"name":"Rhen","steam_id":76561198280814136,"connected_time":2780000000000,"state":"active","ping":90},{"user_id":687,"name":"LeonCactus","steam_id":76561198102360825,"connected_time":280000000000,"state":"active","ping":55},{"user_id":645,"name":"21","steam_id":76561199184578185,"connected_time":4066000000000,"state":"active","ping":73},{"user_id":688,"name":"Seanstarman Phillips","steam_id":76561198059812384,"connected_time":239000000000,"state":"active","ping":53},{"user_id":689,"name":"Marker06","steam_id":76561198277310442,"connected_time":218000000000,"state":"active","ping":63},{"user_id":691,"name":"M7MD3BD0","steam_id":76561199072750769,"connected_time":108000000000,"state":"active","ping":85},{"user_id":677,"name":"no dm","steam_id":76561198031087615,"connected_time":796000000000,"state":"active","ping":109},{"user_id":690,"name":"Mr. Cakes","steam_id":76561198007400043,"connected_time":204000000000,"state":"active","ping":122},{"user_id":662,"name":"jmp","steam_id":76561198168283286,"connected_time":2716000000000,"state":"active","ping":80},{"user_id":615,"name":"AMDA10SERIES","steam_id":76561198869269479,"connected_time":5796000000000,"state":"active","ping":45},{"user_id":692,"name":"QuestionMark","steam_id":76561198976108019,"connected_time":92000000000,"state":"active","ping":152},{"user_id":663,"name":"Nittugai","steam_id":76561198067366462,"connected_time":2630000000000,"state":"active","ping":61}]},{"server_id":40,"name":"Uncletopia | London | 7 | Stopwatch","name_short":"lon-7","host":"lon-1.uk.uncletopia.com","port":27075,"enabled":true,"region":"eu","cc":"gb","latitude":51.509865,"longitude":-0.118092,"reserved":0,"last_update":"0001-01-01T00:00:00Z","name_a2s":"Uncletopia | London | 7 | Stopwatch","protocol":17,"map":"workshop/koth_product_final.ugc454272353","folder":"tf","game":"Team Fortress","app_id":440,"player_count":0,"max_players":24,"Bots":0,"server_type":"Dedicated","server_os":"Linux","password":true,"vac":true,"version":"7961495","steam_id":85568392924964314,"keywords":["cp","nocrits","nodmgspread","uncletopia"],"game_id":440,"stv_port":27076,"stv_name":"Uncletopia | London | 7 | Stopwatch | STV","players":null},{"server_id":41,"name":"Uncletopia | London | 8 | Community","name_short":"lon-8","host":"lon-1.uk.uncletopia.com","port":27085,"enabled":true,"region":"eu","cc":"gb","latitude":51.509865,"longitude":-0.118092,"reserved":0,"last_update":"0001-01-01T00:00:00Z","name_a2s":"Uncletopia | London | 8 | Community","protocol":17,"map":"workshop/pl_shoreleave_rc2.ugc1238849347","folder":"tf","game":"Team Fortress","app_id":440,"player_count":0,"max_players":24,"Bots":0,"server_type":"Dedicated","server_os":"Linux","password":true,"vac":true,"version":"7961495","steam_id":85568392924964315,"keywords":["nocrits","nodmgspread","payload","uncletopia"],"game_id":440,"stv_port":27086,"stv_name":"Uncletopia | London | 8 | Community | STV","players":null},{"server_id":300,"name":"Uncletopia | MontrÃ©al | 1 | One Thousand Uncles","name_short":"mtl-1","host":"mtl-1.ca.uncletopia.com","port":27015,"enabled":true,"region":"us-east","cc":"ca","latitude":45.50889,"longitude":-73.56167,"reserved":0,"last_update":"0001-01-01T00:00:00Z","name_a2s":"","protocol":0,"map":"","folder":"","game":"","app_id":0,"player_count":0,"max_players":0,"Bots":0,"server_type":"","server_os":"","password":false,"vac":false,"version":"","steam_id":0,"keywords":null,"game_id":0,"stv_port":0,"stv_name":"","players":null},{"server_id":301,"name":"Uncletopia | MontrÃ©al | 2 | One Thousand Uncles","name_short":"mtl-2","host":"mtl-1.ca.uncletopia.com","port":27025,"enabled":true,"region":"us-east","cc":"ca","latitude":45.50889,"longitude":-73.56167,"reserved":0,"last_update":"0001-01-01T00:00:00Z","name_a2s":"","protocol":0,"map":"","folder":"","game":"","app_id":0,"player_count":3,"max_players":0,"Bots":0,"server_type":"","server_os":"","password":false,"vac":false,"version":"","steam_id":0,"keywords":null,"game_id":0,"stv_port":0,"stv_name":"","players":[{"user_id":247,"name":"Larry T.G","steam_id":76561198140157079,"connected_time":559000000000,"state":"active","ping":75},{"user_id":264,"name":"Star_Mann_Jr.","steam_id":76561198071148924,"connected_time":353000000000,"state":"active","ping":117},{"user_id":265,"name":"Xyverle","steam_id":76561198799726415,"connected_time":53000000000,"state":"active","ping":73}]},{"server_id":302,"name":"Uncletopia | MontrÃ©al | 3 | One Thousand Uncles","name_short":"mtl-3","host":"mtl-1.ca.uncletopia.com","port":27035,"enabled":true,"region":"us-east","cc":"ca","latitude":45.50889,"longitude":-73.56167,"reserved":0,"last_update":"0001-01-01T00:00:00Z","name_a2s":"","protocol":0,"map":"","folder":"","game":"","app_id":0,"player_count":0,"max_players":0,"Bots":0,"server_type":"","server_os":"","password":false,"vac":false,"version":"","steam_id":0,"keywords":null,"game_id":0,"stv_port":0,"stv_name":"","players":null},{"server_id":13,"name":"Uncletopia | New York City | 1 | All Maps","name_short":"nyc-1","host":"nyc-1.us.uncletopia.com","port":27015,"enabled":true,"region":"us-east","cc":"us","latitude":40.73061,"longitude":-73.93524,"reserved":0,"last_update":"0001-01-01T00:00:00Z","name_a2s":"Uncletopia | New York City | 1 | All Maps","protocol":17,"map":"pl_upward","folder":"tf","game":"Team Fortress","app_id":440,"player_count":24,"max_players":24,"Bots":0,"server_type":"Dedicated","server_os":"Linux","password":true,"vac":true,"version":"7961495","steam_id":85568392924469993,"keywords":["nocrits","nodmgspread","payload","uncletopia"],"game_id":440,"stv_port":27016,"stv_name":"Uncletopia | New York City | 1 | All Maps | STV","players":[{"user_id":545,"name":"yourlocalforecast","steam_id":76561198042243083,"connected_time":1037000000000,"state":"active","ping":46},{"user_id":555,"name":"lemon","steam_id":76561199025265182,"connected_time":393000000000,"state":"active","ping":49},{"user_id":558,"name":"Ting","steam_id":76561198111669760,"connected_time":299000000000,"state":"active","ping":78},{"user_id":534,"name":"TheGuyWhoPlays","steam_id":76561198277363002,"connected_time":2114000000000,"state":"active","ping":64},{"user_id":549,"name":"Scautis ( Roof Monkey )","steam_id":76561198018619027,"connected_time":606000000000,"state":"active","ping":64},{"user_id":523,"name":"BadLuck","steam_id":76561198096452401,"connected_time":3568000000000,"state":"active","ping":60},{"user_id":520,"name":"Bacchus","steam_id":76561198113244990,"connected_time":4048000000000,"state":"active","ping":73},{"user_id":530,"name":"NinjaLau95","steam_id":76561198001069938,"connected_time":2371000000000,"state":"active","ping":51},{"user_id":491,"name":"googa","steam_id":76561198133130452,"connected_time":6537000000000,"state":"active","ping":45},{"user_id":518,"name":"WitheringLeo","steam_id":76561198046722918,"connected_time":4186000000000,"state":"active","ping":56},{"user_id":548,"name":"CHAI","steam_id":76561198119556082,"connected_time":685000000000,"state":"active","ping":71},{"user_id":542,"name":"Jpxfred","steam_id":76561199414783749,"connected_time":1383000000000,"state":"active","ping":130},{"user_id":543,"name":"kefkja","steam_id":76561198283963218,"connected_time":1382000000000,"state":"active","ping":58},{"user_id":552,"name":"Bogg","steam_id":76561198111417325,"connected_time":575000000000,"state":"active","ping":61},{"user_id":560,"name":"Strangelove","steam_id":76561198353773611,"connected_time":195000000000,"state":"active","ping":86},{"user_id":531,"name":"GSP","steam_id":76561197997012669,"connected_time":2157000000000,"state":"active","ping":51},{"user_id":550,"name":"comet sooicidy","steam_id":76561198025173479,"connected_time":598000000000,"state":"active","ping":81},{"user_id":553,"name":"CopperBox","steam_id":76561198068217248,"connected_time":549000000000,"state":"active","ping":121},{"user_id":490,"name":"SpaceSanctum","steam_id":76561198805242305,"connected_time":6552000000000,"state":"active","ping":45},{"user_id":561,"name":"batheman63","steam_id":76561198881818552,"connected_time":123000000000,"state":"active","ping":66},{"user_id":554,"name":"Napoleon Dynamite","steam_id":76561198068064706,"connected_time":544000000000,"state":"active","ping":51},{"user_id":557,"name":"y!","steam_id":76561199342162423,"connected_time":368000000000,"state":"active","ping":74},{"user_id":559,"name":"hamilton","steam_id":76561198034096096,"connected_time":299000000000,"state":"active","ping":69},{"user_id":532,"name":"ED","steam_id":76561198441715445,"connected_time":2146000000000,"state":"active","ping":68}]},{"server_id":14,"name":"Uncletopia | New York City | 2 | All Maps","name_short":"nyc-2","host":"nyc-1.us.uncletopia.com","port":27025,"enabled":true,"region":"us-east","cc":"us","latitude":40.73061,"longitude":-73.93524,"reserved":0,"last_update":"0001-01-01T00:00:00Z","name_a2s":"Uncletopia | New York City | 2 | All Maps","protocol":17,"map":"pl_borneo","folder":"tf","game":"Team Fortress","app_id":440,"player_count":24,"max_players":24,"Bots":0,"server_type":"Dedicated","server_os":"Linux","password":true,"vac":true,"version":"7961495","steam_id":85568392924469994,"keywords":["nocrits","nodmgspread","payload","uncletopia"],"game_id":440,"stv_port":27026,"stv_name":"Uncletopia | New York City | 2 | All Maps | STV","players":[{"user_id":433,"name":"Primitive","steam_id":76561198060500671,"connected_time":3768000000000,"state":"active","ping":43},{"user_id":461,"name":"Scremz","steam_id":76561198090314229,"connected_time":260000000000,"state":"active","ping":98},{"user_id":459,"name":"Dirty Harry","steam_id":76561198328356716,"connected_time":339000000000,"state":"active","ping":85},{"user_id":441,"name":"Onix","steam_id":76561198043256782,"connected_time":2409000000000,"state":"active","ping":73},{"user_id":460,"name":"Inevitable","steam_id":76561198210050169,"connected_time":278000000000,"state":"active","ping":56},{"user_id":393,"name":"daemon","steam_id":76561198001541433,"connected_time":6458000000000,"state":"active","ping":62},{"user_id":418,"name":"Scoot the Burbs","steam_id":76561198079507179,"connected_time":5284000000000,"state":"active","ping":84},{"user_id":362,"name":"The One True Luke","steam_id":76561198180891187,"connected_time":9253000000000,"state":"active","ping":53},{"user_id":429,"name":"Geodude","steam_id":76561198113364714,"connected_time":3962000000000,"state":"active","ping":48},{"user_id":468,"name":"gIBBY","steam_id":76561198080099598,"connected_time":84000000000,"state":"active","ping":35},{"user_id":462,"name":"reem","steam_id":76561198050767193,"connected_time":214000000000,"state":"active","ping":105},{"user_id":463,"name":"Lmnop","steam_id":76561198038458838,"connected_time":212000000000,"state":"active","ping":73},{"user_id":395,"name":"Strange Festive Femboy","steam_id":76561198050385093,"connected_time":6437000000000,"state":"active","ping":65},{"user_id":451,"name":"Fat Kid In a Dragonball T-Shirt","steam_id":76561198182589975,"connected_time":1208000000000,"state":"active","ping":50},{"user_id":464,"name":"The Professor","steam_id":76561198113760863,"connected_time":209000000000,"state":"active","ping":46},{"user_id":465,"name":"rome","steam_id":76561198124561260,"connected_time":209000000000,"state":"active","ping":67},{"user_id":428,"name":"aversa","steam_id":76561198840460101,"connected_time":3980000000000,"state":"active","ping":54},{"user_id":466,"name":"a narwhal","steam_id":76561198014527353,"connected_time":159000000000,"state":"active","ping":68},{"user_id":453,"name":"Cooldog","steam_id":76561198080548713,"connected_time":1183000000000,"state":"active","ping":60},{"user_id":467,"name":"Cordial_Lump","steam_id":76561198027777950,"connected_time":133000000000,"state":"active","ping":68},{"user_id":469,"name":"bitches dont know bout my pinga","steam_id":76561198069814977,"connected_time":78000000000,"state":"active","ping":55},{"user_id":470,"name":"GardenOfStone","steam_id":76561199069870534,"connected_time":11000000000,"state":"spawning","ping":88},{"user_id":471,"name":"Frugal (AKA me juggle)","steam_id":76561198398918486,"connected_time":9000000000,"state":"active","ping":71},{"user_id":458,"name":"crusty toilet stains","steam_id":76561198156873737,"connected_time":436000000000,"state":"active","ping":134}]},{"server_id":15,"name":"Uncletopia | New York City | 3 | Stopwatch","name_short":"nyc-3","host":"nyc-1.us.uncletopia.com","port":27035,"enabled":true,"region":"us-east","cc":"us","latitude":40.73061,"longitude":-73.93524,"reserved":0,"last_update":"0001-01-01T00:00:00Z","name_a2s":"Uncletopia | New York City | 3 | Stopwatch","protocol":17,"map":"workshop/koth_ashville_final.ugc2130459942","folder":"tf","game":"Team Fortress","app_id":440,"player_count":0,"max_players":24,"Bots":0,"server_type":"Dedicated","server_os":"Linux","password":true,"vac":true,"version":"7961495","steam_id":85568392924742820,"keywords":["cp","nocrits","nodmgspread","uncletopia"],"game_id":440,"stv_port":27036,"stv_name":"Uncletopia | New York City | 3 | Stopwatch | STV","players":null},{"server_id":16,"name":"Uncletopia | New York City | 4 | Community","name_short":"nyc-4","host":"nyc-1.us.uncletopia.com","port":27045,"enabled":true,"region":"us-east","cc":"us","latitude":40.73061,"longitude":-73.93524,"reserved":0,"last_update":"0001-01-01T00:00:00Z","name_a2s":"Uncletopia | New York City | 4 | Community","protocol":17,"map":"workshop/rd_asteroid_redux_b1.ugc2154902912","folder":"tf","game":"Team Fortress","app_id":440,"player_count":0,"max_players":24,"Bots":0,"server_type":"Dedicated","server_os":"Linux","password":true,"vac":true,"version":"7961495","steam_id":85568392924742821,"keywords":["beta","nocrits","nodmgspread","rd","uncletopia"],"game_id":440,"stv_port":27046,"stv_name":"Uncletopia | New York City | 4 | Community | STV","players":null},{"server_id":142,"name":"Uncletopia | SÃ£o Paulo | 1 | All Maps","name_short":"sao-1","host":"sao-1.br.uncletopia.com","port":27015,"enabled":true,"region":"sa","cc":"br","latitude":-23.533773,"longitude":-46.62529,"reserved":0,"last_update":"0001-01-01T00:00:00Z","name_a2s":"Uncletopia | SÃ£o Paulo | 1 | All Maps","protocol":17,"map":"koth_highpass","folder":"tf","game":"Team Fortress","app_id":440,"player_count":0,"max_players":24,"Bots":0,"server_type":"Dedicated","server_os":"Linux","password":true,"vac":true,"version":"7961495","steam_id":85568392924469996,"keywords":["cp","nocrits","nodmgspread","uncletopia"],"game_id":440,"stv_port":27016,"stv_name":"Uncletopia | SÃ£o Paulo | 1 | All Maps | STV","players":null},{"server_id":143,"name":"Uncletopia | SÃ£o Paulo | 2 | Community","name_short":"sao-2","host":"sao-2.br.uncletopia.com","port":27015,"enabled":true,"region":"sa","cc":"br","latitude":-23.533773,"longitude":-46.62529,"reserved":0,"last_update":"0001-01-01T00:00:00Z","name_a2s":"Uncletopia | SÃ£o Paulo | 2 | Community","protocol":17,"map":"workshop/cp_mannbase_rc2a.ugc1900737467","folder":"tf","game":"Team Fortress","app_id":440,"player_count":0,"max_players":24,"Bots":0,"server_type":"Dedicated","server_os":"Linux","password":true,"vac":true,"version":"7961495","steam_id":85568392924485349,"keywords":["cp","nocrits","nodmgspread","uncletopia"],"game_id":440,"stv_port":27016,"stv_name":"Uncletopia | SÃ£o Paulo | 2 | Community | STV","players":null},{"server_id":7,"name":"Uncletopia | Seattle | 1 | All Maps","name_short":"sea-1","host":"sea-1.us.uncletopia.com","port":27015,"enabled":true,"region":"us-west","cc":"us","latitude":47.608013,"longitude":-122.33517,"reserved":0,"last_update":"0001-01-01T00:00:00Z","name_a2s":"Uncletopia | Seattle | 1 | All Maps","protocol":17,"map":"pl_snowycoast","folder":"tf","game":"Team Fortress","app_id":440,"player_count":25,"max_players":24,"Bots":0,"server_type":"Dedicated","server_os":"Linux","password":true,"vac":true,"version":"7961495","steam_id":85568392924469997,"keywords":["nocrits","nodmgspread","payload","uncletopia"],"game_id":440,"stv_port":27016,"stv_name":"Uncletopia | Seattle | 1 | All Maps | STV","players":[{"user_id":376,"name":"Sweets","steam_id":76561198998446307,"connected_time":3269000000000,"state":"active","ping":70},{"user_id":448,"name":"pepe warlord","steam_id":76561198080819197,"connected_time":1614000000000,"state":"active","ping":76},{"user_id":499,"name":"CALsHero09","steam_id":76561198155881095,"connected_time":716000000000,"state":"active","ping":86},{"user_id":360,"name":"NEBULA","steam_id":76561198086878595,"connected_time":4959000000000,"state":"active","ping":74},{"user_id":473,"name":"invenomious","steam_id":76561199032714821,"connected_time":1247000000000,"state":"active","ping":43},{"user_id":386,"name":"Havi","steam_id":76561198197832829,"connected_time":2460000000000,"state":"active","ping":46},{"user_id":283,"name":"Alchemist","steam_id":76561198094238189,"connected_time":10822000000000,"state":"active","ping":90},{"user_id":484,"name":"WillieMakit","steam_id":76561197985391684,"connected_time":975000000000,"state":"active","ping":90},{"user_id":458,"name":"Naughty Nurses 2","steam_id":76561198083032219,"connected_time":1514000000000,"state":"active","ping":95},{"user_id":372,"name":"CraftOfDoom","steam_id":76561198856919544,"connected_time":3473000000000,"state":"active","ping":60},{"user_id":356,"name":"LÃ© Mon","steam_id":76561198078626283,"connected_time":5237000000000,"state":"active","ping":37},{"user_id":379,"name":"porfer","steam_id":76561199118049168,"connected_time":2996000000000,"state":"active","ping":76},{"user_id":482,"name":"Babushka Lady","steam_id":76561198153280053,"connected_time":1003000000000,"state":"active","ping":121},{"user_id":389,"name":"Cheezbeargur","steam_id":76561198164702899,"connected_time":2380000000000,"state":"active","ping":67},{"user_id":486,"name":"Drilly22","steam_id":76561198068838338,"connected_time":942000000000,"state":"active","ping":99},{"user_id":385,"name":"Attrition","steam_id":76561197969881916,"connected_time":2481000000000,"state":"active","ping":49},{"user_id":475,"name":"Inflight","steam_id":76561198920049475,"connected_time":1227000000000,"state":"active","ping":98},{"user_id":347,"name":"CashGordon","steam_id":76561197975594096,"connected_time":6431000000000,"state":"active","ping":45},{"user_id":383,"name":"PvZ Enthusiast","steam_id":76561199089562026,"connected_time":2739000000000,"state":"active","ping":44},{"user_id":537,"name":"Daz","steam_id":76561198041431938,"connected_time":5000000000,"state":"spawning","ping":50},{"user_id":457,"name":"Skabbety","steam_id":76561198168044257,"connected_time":1532000000000,"state":"active","ping":45},{"user_id":421,"name":"Ayayayayayayayayahuasca","steam_id":76561199002906056,"connected_time":1905000000000,"state":"active","ping":50},{"user_id":472,"name":"PoofBallzZzZ","steam_id":76561197992257816,"connected_time":1267000000000,"state":"active","ping":71},{"user_id":527,"name":"hazel","steam_id":76561198037292232,"connected_time":358000000000,"state":"active","ping":120},{"user_id":430,"name":"Dog","steam_id":76561198041841128,"connected_time":1842000000000,"state":"active","ping":76}]},{"server_id":119,"name":"Uncletopia | Seattle | 2 | All Maps","name_short":"sea-2","host":"sea-1.us.uncletopia.com","port":27025,"enabled":true,"region":"us-west","cc":"us","latitude":47.608013,"longitude":-122.33517,"reserved":0,"last_update":"0001-01-01T00:00:00Z","name_a2s":"Uncletopia | Seattle | 2 | All Maps","protocol":17,"map":"pl_badwater","folder":"tf","game":"Team Fortress","app_id":440,"player_count":24,"max_players":24,"Bots":0,"server_type":"Dedicated","server_os":"Linux","password":true,"vac":true,"version":"7961495","steam_id":85568392924469998,"keywords":["nocrits","nodmgspread","payload","uncletopia"],"game_id":440,"stv_port":27026,"stv_name":"Uncletopia | Seattle | 2 | All Maps | STV","players":[{"user_id":147,"name":"cob","steam_id":76561198040642125,"connected_time":3386000000000,"state":"active","ping":54},{"user_id":141,"name":"Escapism","steam_id":76561198045302512,"connected_time":3774000000000,"state":"active","ping":50},{"user_id":134,"name":"Rhymloh","steam_id":76561198056788413,"connected_time":4020000000000,"state":"active","ping":40},{"user_id":170,"name":"Nom Skirrett","steam_id":76561198014600788,"connected_time":1702000000000,"state":"active","ping":63},{"user_id":178,"name":"BoxCann0n","steam_id":76561199153390130,"connected_time":565000000000,"state":"active","ping":183},{"user_id":182,"name":"Lobstyr","steam_id":76561198884406859,"connected_time":478000000000,"state":"active","ping":76},{"user_id":159,"name":"Day Man","steam_id":76561198067154807,"connected_time":2829000000000,"state":"active","ping":45},{"user_id":173,"name":"Dogg wader","steam_id":76561199090314340,"connected_time":1586000000000,"state":"active","ping":46},{"user_id":187,"name":"Lily Thorn","steam_id":76561198305488625,"connected_time":38000000000,"state":"active","ping":51},{"user_id":151,"name":"KitKat","steam_id":76561198191536489,"connected_time":3340000000000,"state":"active","ping":80},{"user_id":169,"name":"ï½‡ï½ï½ï½‚ï½“","steam_id":76561198041331272,"connected_time":1804000000000,"state":"active","ping":54},{"user_id":181,"name":"*The* Wardoug41","steam_id":76561198255780869,"connected_time":499000000000,"state":"active","ping":96},{"user_id":160,"name":"Coffeemelon","steam_id":76561198285891257,"connected_time":2785000000000,"state":"active","ping":70},{"user_id":186,"name":"MrBurgerItHere","steam_id":76561198902777035,"connected_time":207000000000,"state":"active","ping":51},{"user_id":185,"name":"fwoov","steam_id":76561198129166260,"connected_time":342000000000,"state":"active","ping":90},{"user_id":132,"name":"Lord Pretty Flocko Jordye","steam_id":76561198962880749,"connected_time":4095000000000,"state":"active","ping":39},{"user_id":168,"name":"JSHERIFF187","steam_id":76561199427900685,"connected_time":2039000000000,"state":"active","ping":90},{"user_id":96,"name":"enhanced with disney's FastPlay","steam_id":76561198164134387,"connected_time":6128000000000,"state":"active","ping":46},{"user_id":97,"name":"Digitic","steam_id":76561198080295536,"connected_time":6126000000000,"state":"active","ping":105},{"user_id":171,"name":"Strangest","steam_id":76561198076592068,"connected_time":1701000000000,"state":"active","ping":48},{"user_id":188,"name":"Roberto Del Fuego","steam_id":76561198043458554,"connected_time":0,"state":"connecting","ping":0},{"user_id":183,"name":"Average Toothless Enjoyer","steam_id":76561198368346904,"connected_time":466000000000,"state":"active","ping":105},{"user_id":184,"name":"Red","steam_id":76561198001939529,"connected_time":457000000000,"state":"active","ping":122},{"user_id":164,"name":"fly","steam_id":76561199003715735,"connected_time":2285000000000,"state":"active","ping":90}]},{"server_id":406,"name":"Uncletopia | Seattle | 3 | Stopwatch","name_short":"sea-3","host":"sea-1.us.uncletopia.com","port":27035,"enabled":true,"region":"us-west","cc":"us","latitude":47.608013,"longitude":-122.33517,"reserved":0,"last_update":"0001-01-01T00:00:00Z","name_a2s":"Uncletopia | Seattle | 3 | Stopwatch","protocol":17,"map":"workshop/koth_ashville_final.ugc2130459942","folder":"tf","game":"Team Fortress","app_id":440,"player_count":0,"max_players":24,"Bots":0,"server_type":"Dedicated","server_os":"Linux","password":true,"vac":true,"version":"7961495","steam_id":85568392924515217,"keywords":["cp","nocrits","nodmgspread","uncletopia"],"game_id":440,"stv_port":27036,"stv_name":"Uncletopia | Seattle | 3 | Stopwatch | STV","players":null},{"server_id":17,"name":"Uncletopia | San Francisco | 1 | All Maps","name_short":"sfo-1","host":"sfo-1.us.uncletopia.com","port":27015,"enabled":true,"region":"us-west","cc":"us","latitude":37.77397,"longitude":-122.4313,"reserved":0,"last_update":"0001-01-01T00:00:00Z","name_a2s":"Uncletopia | San Francisco | 1 | All Maps","protocol":17,"map":"cp_steel","folder":"tf","game":"Team Fortress","app_id":440,"player_count":23,"max_players":24,"Bots":0,"server_type":"Dedicated","server_os":"Linux","password":true,"vac":true,"version":"7961495","steam_id":85568392924469999,"keywords":["cp","nocrits","nodmgspread","uncletopia"],"game_id":440,"stv_port":27016,"stv_name":"Uncletopia | San Francisco | 1 | All Maps | STV","players":[{"user_id":92,"name":"[Industrial] A_HUMBLEBUMBLED","steam_id":76561198064771878,"connected_time":1380000000000,"state":"active","ping":49},{"user_id":93,"name":"Mikke","steam_id":76561198170234003,"connected_time":1189000000000,"state":"active","ping":76},{"user_id":74,"name":"5kPrime","steam_id":76561198039471915,"connected_time":3164000000000,"state":"active","ping":72},{"user_id":47,"name":"SolarusD","steam_id":76561198029279861,"connected_time":4402000000000,"state":"active","ping":46},{"user_id":82,"name":"deadpixel","steam_id":76561198150249843,"connected_time":2349000000000,"state":"active","ping":104},{"user_id":98,"name":"johnny","steam_id":76561198050225055,"connected_time":281000000000,"state":"active","ping":60},{"user_id":84,"name":"melon soda","steam_id":76561198066748230,"connected_time":2321000000000,"state":"active","ping":108},{"user_id":76,"name":"somewhat silly","steam_id":76561198010269150,"connected_time":3105000000000,"state":"active","ping":54},{"user_id":45,"name":"cajun thotsauce","steam_id":76561198101636066,"connected_time":4480000000000,"state":"active","ping":55},{"user_id":95,"name":"Quigi","steam_id":76561198144645874,"connected_time":804000000000,"state":"active","ping":71},{"user_id":105,"name":"Not a Can","steam_id":76561198064264767,"connected_time":39000000000,"state":"spawning","ping":59},{"user_id":58,"name":"Creature","steam_id":76561198194585781,"connected_time":3690000000000,"state":"active","ping":55},{"user_id":59,"name":"Weed Dealer","steam_id":76561198418604400,"connected_time":3689000000000,"state":"active","ping":71},{"user_id":86,"name":"Lucky","steam_id":76561198124910662,"connected_time":2246000000000,"state":"active","ping":60},{"user_id":87,"name":"Guavaz!","steam_id":76561198282290924,"connected_time":2229000000000,"state":"active","ping":53},{"user_id":88,"name":"engineer gaming","steam_id":76561198105347620,"connected_time":2227000000000,"state":"active","ping":64},{"user_id":91,"name":"Quantum Sex","steam_id":76561198976521735,"connected_time":1572000000000,"state":"active","ping":60},{"user_id":103,"name":"Gwuf","steam_id":76561198091503282,"connected_time":127000000000,"state":"active","ping":81},{"user_id":96,"name":"ClosetBotany","steam_id":76561198088324821,"connected_time":691000000000,"state":"active","ping":65},{"user_id":100,"name":"selling rice","steam_id":76561198063357023,"connected_time":191000000000,"state":"active","ping":44},{"user_id":67,"name":"Sgt_Rathbone","steam_id":76561198171705397,"connected_time":3499000000000,"state":"active","ping":99},{"user_id":68,"name":"buhers256","steam_id":76561198927077674,"connected_time":3454000000000,"state":"active","ping":53},{"user_id":78,"name":"Squibbzin","steam_id":76561198254519678,"connected_time":2938000000000,"state":"active","ping":76}]},{"server_id":18,"name":"Uncletopia | San Francisco | 2 | All Maps","name_short":"sfo-2","host":"sfo-1.us.uncletopia.com","port":27025,"enabled":true,"region":"us-west","cc":"us","latitude":37.77397,"longitude":-122.4313,"reserved":0,"last_update":"0001-01-01T00:00:00Z","name_a2s":"Uncletopia | San Francisco | 2 | All Maps","protocol":17,"map":"cp_altitude","folder":"tf","game":"Team Fortress","app_id":440,"player_count":3,"max_players":24,"Bots":0,"server_type":"Dedicated","server_os":"Linux","password":true,"vac":true,"version":"7961495","steam_id":85568392924470000,"keywords":["cp","nocrits","nodmgspread","uncletopia"],"game_id":440,"stv_port":27026,"stv_name":"Uncletopia | San Francisco | 2 | All Maps | STV","players":[{"user_id":19,"name":"scary tob","steam_id":76561199122534070,"connected_time":556000000000,"state":"active","ping":64},{"user_id":20,"name":"BadWolf_33","steam_id":76561199113970887,"connected_time":546000000000,"state":"active","ping":69},{"user_id":22,"name":"Chef Molbo","steam_id":76561198089045454,"connected_time":95000000000,"state":"spawning","ping":93}]},{"server_id":19,"name":"Uncletopia | San Francisco | 3 | Stopwatch","name_short":"sfo-3","host":"sfo-1.us.uncletopia.com","port":27035,"enabled":true,"region":"us-west","cc":"us","latitude":37.77397,"longitude":-122.4313,"reserved":0,"last_update":"0001-01-01T00:00:00Z","name_a2s":"Uncletopia | San Francisco | 3 | Stopwatch","protocol":17,"map":"pl_pier","folder":"tf","game":"Team Fortress","app_id":440,"player_count":0,"max_players":24,"Bots":0,"server_type":"Dedicated","server_os":"Linux","password":true,"vac":true,"version":"7961495","steam_id":85568392924742824,"keywords":["nocrits","nodmgspread","payload","uncletopia"],"game_id":440,"stv_port":27036,"stv_name":"Uncletopia | San Francisco | 3 | Stopwatch | STV","players":null},{"server_id":20,"name":"Uncletopia | San Francisco | 4 | Community","name_short":"sfo-4","host":"sfo-1.us.uncletopia.com","port":27045,"enabled":true,"region":"us-west","cc":"us","latitude":37.77397,"longitude":-122.4313,"reserved":0,"last_update":"0001-01-01T00:00:00Z","name_a2s":"Uncletopia | San Francisco | 4 | Community","protocol":17,"map":"workshop/koth_trenchfoot_ab1.ugc731436616","folder":"tf","game":"Team Fortress","app_id":440,"player_count":0,"max_players":24,"Bots":0,"server_type":"Dedicated","server_os":"Linux","password":true,"vac":true,"version":"7961495","steam_id":85568392924742826,"keywords":["cp","nocrits","nodmgspread","uncletopia"],"game_id":440,"stv_port":27046,"stv_name":"Uncletopia | San Francisco | 4 | Community | STV","players":null},{"server_id":141,"name":"Uncletopia | Sydney | 1 | All Maps","name_short":"syd-1","host":"syd-1.au.uncletopia.com","port":27015,"enabled":true,"region":"au","cc":"au","latitude":-33.865143,"longitude":151.2099,"reserved":0,"last_update":"0001-01-01T00:00:00Z","name_a2s":"Uncletopia | Sydney | 1 | All Maps","protocol":17,"map":"koth_viaduct","folder":"tf","game":"Team Fortress","app_id":440,"player_count":0,"max_players":24,"Bots":0,"server_type":"Dedicated","server_os":"Linux","password":true,"vac":true,"version":"7961495","steam_id":85568392924470001,"keywords":["cp","nocrits","nodmgspread","uncletopia"],"game_id":440,"stv_port":27016,"stv_name":"Uncletopia | Sydney | 1 | All Maps | STV","players":null},{"server_id":123,"name":"Uncletopia | Sydney | 2 | All Maps","name_short":"syd-2","host":"syd-1.au.uncletopia.com","port":27025,"enabled":true,"region":"au","cc":"au","latitude":-33.865143,"longitude":151.2099,"reserved":0,"last_update":"0001-01-01T00:00:00Z","name_a2s":"Uncletopia | Sydney | 2 | All Maps","protocol":17,"map":"koth_lakeside_final","folder":"tf","game":"Team Fortress","app_id":440,"player_count":1,"max_players":24,"Bots":0,"server_type":"Dedicated","server_os":"Linux","password":true,"vac":true,"version":"7961495","steam_id":85568392924470002,"keywords":["cp","nocrits","nodmgspread","uncletopia"],"game_id":440,"stv_port":27026,"stv_name":"Uncletopia | Sydney | 2 | All Maps | STV","players":[{"user_id":3,"name":"Foap","steam_id":76561198110418119,"connected_time":125000000000,"state":"active","ping":87}]},{"server_id":395,"name":"Uncletopia | Sydney | 3 | All Maps","name_short":"syd-3","host":"syd-1.au.uncletopia.com","port":27035,"enabled":true,"region":"au","cc":"au","latitude":-33.865143,"longitude":151.2099,"reserved":0,"last_update":"0001-01-01T00:00:00Z","name_a2s":"Uncletopia | Sydney | 3 | All Maps","protocol":17,"map":"pl_frontier_final","folder":"tf","game":"Team Fortress","app_id":440,"player_count":0,"max_players":24,"Bots":0,"server_type":"Dedicated","server_os":"Linux","password":true,"vac":true,"version":"7961495","steam_id":85568392925194467,"keywords":["nocrits","nodmgspread","payload","uncletopia"],"game_id":440,"stv_port":27036,"stv_name":"Uncletopia | Sydney | 3 | All Maps | STV","players":null},{"server_id":396,"name":"Uncletopia | Sydney | 4 | All Maps","name_short":"syd-4","host":"syd-1.au.uncletopia.com","port":27045,"enabled":true,"region":"au","cc":"au","latitude":-33.865143,"longitude":151.2099,"reserved":0,"last_update":"0001-01-01T00:00:00Z","name_a2s":"Uncletopia | Sydney | 4 | All Maps","protocol":17,"map":"koth_lakeside_final","folder":"tf","game":"Team Fortress","app_id":440,"player_count":0,"max_players":24,"Bots":0,"server_type":"Dedicated","server_os":"Linux","password":true,"vac":true,"version":"7961495","steam_id":85568392925397958,"keywords":["cp","nocrits","nodmgspread","uncletopia"],"game_id":440,"stv_port":27046,"stv_name":"Uncletopia | Sydney | 4 | All Maps | STV","players":null},{"server_id":58,"name":"Uncletopia | Sydney | 5 | Stopwatch","name_short":"syd-5","host":"syd-1.au.uncletopia.com","port":27055,"enabled":true,"region":"au","cc":"au","latitude":-33.865143,"longitude":151.2099,"reserved":0,"last_update":"0001-01-01T00:00:00Z","name_a2s":"Uncletopia | Sydney | 5 | Stopwatch","protocol":17,"map":"pl_frontier_final","folder":"tf","game":"Team Fortress","app_id":440,"player_count":0,"max_players":24,"Bots":0,"server_type":"Dedicated","server_os":"Linux","password":true,"vac":true,"version":"7961495","steam_id":85568392925397959,"keywords":["nocrits","nodmgspread","payload","uncletopia"],"game_id":440,"stv_port":27056,"stv_name":"Uncletopia | Sydney | 5 | Stopwatch | STV","players":null},{"server_id":59,"name":"Uncletopia | Sydney | 6 | Community","name_short":"syd-6","host":"syd-1.au.uncletopia.com","port":27065,"enabled":true,"region":"au","cc":"au","latitude":-33.865143,"longitude":151.2099,"reserved":0,"last_update":"0001-01-01T00:00:00Z","name_a2s":"Uncletopia | Sydney | 6 | Community","protocol":17,"map":"cp_sunshine","folder":"tf","game":"Team Fortress","app_id":440,"player_count":0,"max_players":24,"Bots":0,"server_type":"Dedicated","server_os":"Linux","password":true,"vac":true,"version":"7961495","steam_id":85568392925397960,"keywords":["cp","nocrits","nodmgspread","uncletopia"],"game_id":440,"stv_port":27066,"stv_name":"Uncletopia | Sydney | 6 | Community | STV","players":null},{"server_id":49,"name":"Uncletopia | Warsaw | 1 | One Thousand Uncles","name_short":"waw-1","host":"waw-1.pl.uncletopia.com","port":27015,"enabled":true,"region":"eu","cc":"pl","latitude":52.2297,"longitude":21.017532,"reserved":0,"last_update":"0001-01-01T00:00:00Z","name_a2s":"Uncletopia | Warsaw | 1 | One Thousand Uncles","protocol":17,"map":"cp_mossrock","folder":"tf","game":"Team Fortress","app_id":440,"player_count":0,"max_players":32,"Bots":0,"server_type":"Dedicated","server_os":"Linux","password":true,"vac":true,"version":"7961495","steam_id":85568392925397850,"keywords":["alltalk","cp","danepve","increased_maxplayers","nocrits","norespawntime","uncletopia"],"game_id":440,"stv_port":0,"stv_name":"","players":null},{"server_id":50,"name":"Uncletopia | Warsaw | 2 | One Thousand Uncles","name_short":"waw-2","host":"waw-1.pl.uncletopia.com","port":27025,"enabled":true,"region":"eu","cc":"pl","latitude":52.2297,"longitude":21.017532,"reserved":0,"last_update":"0001-01-01T00:00:00Z","name_a2s":"Uncletopia | Warsaw | 2 | One Thousand Uncles","protocol":17,"map":"pl_hoodoo_final","folder":"tf","game":"Team Fortress","app_id":440,"player_count":0,"max_players":32,"Bots":0,"server_type":"Dedicated","server_os":"Linux","password":true,"vac":true,"version":"7961495","steam_id":85568392925397851,"keywords":["alltalk","danepve","increased_maxplayers","nocrits","norespawntime","payload","uncletopia"],"game_id":440,"stv_port":0,"stv_name":"","players":null},{"server_id":51,"name":"Uncletopia | Warsaw | 3 | All Maps","name_short":"waw-3","host":"waw-1.pl.uncletopia.com","port":27035,"enabled":true,"region":"eu","cc":"pl","latitude":52.2297,"longitude":21.017532,"reserved":0,"last_update":"0001-01-01T00:00:00Z","name_a2s":"Uncletopia | Warsaw | 3 | All Maps","protocol":17,"map":"plr_pipeline","folder":"tf","game":"Team Fortress","app_id":440,"player_count":0,"max_players":24,"Bots":0,"server_type":"Dedicated","server_os":"Linux","password":true,"vac":true,"version":"7961495","steam_id":85568392925397852,"keywords":["nocrits","nodmgspread","payload","uncletopia"],"game_id":440,"stv_port":27036,"stv_name":"Uncletopia | Warsaw | 3 | All Maps | STV","players":null},{"server_id":52,"name":"Uncletopia | Warsaw | 4 | All Maps","name_short":"waw-4","host":"waw-1.pl.uncletopia.com","port":27045,"enabled":true,"region":"eu","cc":"pl","latitude":52.2297,"longitude":21.017532,"reserved":0,"last_update":"0001-01-01T00:00:00Z","name_a2s":"Uncletopia | Warsaw | 4 | All Maps","protocol":17,"map":"koth_viaduct","folder":"tf","game":"Team Fortress","app_id":440,"player_count":0,"max_players":24,"Bots":0,"server_type":"Dedicated","server_os":"Linux","password":true,"vac":true,"version":"7961495","steam_id":85568392925397853,"keywords":["cp","nocrits","nodmgspread","uncletopia"],"game_id":440,"stv_port":27046,"stv_name":"Uncletopia | Warsaw | 4 | All Maps | STV","players":null},{"server_id":53,"name":"Uncletopia | Warsaw | 5 | Stopwatch","name_short":"waw-5","host":"waw-1.pl.uncletopia.com","port":27055,"enabled":true,"region":"eu","cc":"pl","latitude":52.2297,"longitude":21.017532,"reserved":0,"last_update":"0001-01-01T00:00:00Z","name_a2s":"Uncletopia | Warsaw | 5 | Stopwatch","protocol":17,"map":"workshop/koth_ramjam_rc1.ugc459778887","folder":"tf","game":"Team Fortress","app_id":440,"player_count":0,"max_players":24,"Bots":0,"server_type":"Dedicated","server_os":"Linux","password":true,"vac":true,"version":"7961495","steam_id":85568392925397854,"keywords":["cp","nocrits","nodmgspread","uncletopia"],"game_id":440,"stv_port":27056,"stv_name":"Uncletopia | Warsaw | 5 | Stopwatch | STV","players":null},{"server_id":54,"name":"Uncletopia | Warsaw | 6 | Community","name_short":"waw-6","host":"waw-1.pl.uncletopia.com","port":27065,"enabled":true,"region":"eu","cc":"pl","latitude":52.2297,"longitude":21.017532,"reserved":0,"last_update":"0001-01-01T00:00:00Z","name_a2s":"Uncletopia | Warsaw | 6 | Community","protocol":17,"map":"workshop/koth_trenchfoot_ab1.ugc731436616","folder":"tf","game":"Team Fortress","app_id":440,"player_count":0,"max_players":24,"Bots":0,"server_type":"Dedicated","server_os":"Linux","password":true,"vac":true,"version":"7961495","steam_id":85568392925397856,"keywords":["cp","nocrits","nodmgspread","uncletopia"],"game_id":440,"stv_port":27066,"stv_name":"Uncletopia | Warsaw | 6 | Community | STV","players":null}]}