{"status":true,"message":"","result":[{"server_id":9,"name":"Uncletopia | Atlanta | 1 | All Maps","name_short":"atl-1","host":"atl-1.us.uncletopia.com","port":27015,"enabled":true,"region":"us-east","cc":"us","latitude":33.753746,"longitude":-84.38633,"reserved":0,"last_update":"0001-01-01T00:00:00Z","name_a2s":"Uncletopia | Atlanta | 1 | All Maps","protocol":17,"map":"pl_upward","folder":"tf","game":"Team Fortress","app_id":440,"player_count":24,"max_players":24,"Bots":0,"server_type":"Dedicated","server_os":"Linux","password":true,"vac":true,"version":"7882260","steam_id":85568392924469982,"keywords":["nocrits","nodmgspread","payload","uncletopia"],"game_id":440,"stv_port":27016,"stv_name":"Uncletopia | Atlanta | 1 | All Maps | STV","players":[{"user_id":77,"name":"trepidotractatos","steam_id":76561198815950232,"connected_time":5437000000000,"state":"active","ping":73},{"user_id":148,"name":"atl1icyy","steam_id":76561198968001329,"connected_time":565000000000,"state":"active","ping":48},{"user_id":131,"name":"HavocsHollyTree","steam_id":76561198982631429,"connected_time":1414000000000,"state":"active","ping":76},{"user_id":149,"name":"Don't ask me to talk","steam_id":76561199388826335,"connected_time":341000000000,"state":"active","ping":77},{"user_id":136,"name":"schteewpid rat","steam_id":76561199262600666,"connected_time":1086000000000,"state":"active","ping":86},{"user_id":145,"name":"Stapler","steam_id":76561198099295077,"connected_time":776000000000,"state":"active","ping":105},{"user_id":137,"name":"Achtan","steam_id":76561198078189844,"connected_time":1079000000000,"state":"active","ping":68},{"user_id":100,"name":"marguerite","steam_id":76561198170873495,"connected_time":4298000000000,"state":"active","ping":56},{"user_id":106,"name":"_S","steam_id":76561198050136796,"connected_time":3929000000000,"state":"active","ping":90},{"user_id":123,"name":"DrLuciferWinchester","steam_id":76561198261849661,"connected_time":2329000000000,"state":"active","ping":168},{"user_id":141,"name":"HollowMan","steam_id":76561198967266827,"connected_time":1051000000000,"state":"active","ping":99},{"user_id":135,"name":"--_Cook_--","steam_id":76561198080855748,"connected_time":1150000000000,"state":"active","ping":48},{"user_id":147,"name":"LerN","steam_id":76561198083463877,"connected_time":596000000000,"state":"active","ping":75},{"user_id":144,"name":"krabby","steam_id":76561199072773402,"connected_time":865000000000,"state":"active","ping":67},{"user_id":116,"name":"A_Malebolgia","steam_id":76561198097722818,"connected_time":2982000000000,"state":"active","ping":89},{"user_id":78,"name":"Death By Killing","steam_id":76561198857643139,"connected_time":5414000000000,"state":"active","ping":74},{"user_id":140,"name":"Mcfighter2","steam_id":76561198168073956,"connected_time":1063000000000,"state":"active","ping":73},{"user_id":98,"name":"HarryjusttHarry","steam_id":76561198982810452,"connected_time":4606000000000,"state":"active","ping":76},{"user_id":128,"name":"chubbbo","steam_id":76561198943598378,"connected_time":1656000000000,"state":"active","ping":42},{"user_id":124,"name":"mayhem","steam_id":76561199246637881,"connected_time":2326000000000,"state":"active","ping":57},{"user_id":150,"name":"kite","steam_id":76561198346516392,"connected_time":62000000000,"state":"active","ping":83},{"user_id":146,"name":"Jack","steam_id":76561198197733817,"connected_time":616000000000,"state":"active","ping":87},{"user_id":129,"name":"LG_Fridge_User","steam_id":76561198977815014,"connected_time":1620000000000,"state":"active","ping":114},{"user_id":142,"name":"minly","steam_id":76561199078991134,"connected_time":1040000000000,"state":"active","ping":60}]},{"server_id":104,"name":"Uncletopia | Atlanta | 2 | All Maps","name_short":"atl-2","host":"atl-1.us.uncletopia.com","port":27025,"enabled":true,"region":"us-east","cc":"us","latitude":33.753746,"longitude":-84.38633,"reserved":0,"last_update":"0001-01-01T00:00:00Z","name_a2s":"Uncletopia | Atlanta | 2 | All Maps","protocol":17,"map":"koth_lakeside_final","folder":"tf","game":"Team Fortress","app_id":440,"player_count":6,"max_players":24,"Bots":0,"server_type":"Dedicated","server_os":"Linux","password":true,"vac":true,"version":"7882260","steam_id":85568392924469983,"keywords":["cp","nocrits","nodmgspread","uncletopia"],"game_id":440,"stv_port":27026,"stv_name":"Uncletopia | Atlanta | 2 | All Maps | STV","players":[{"user_id":11,"name":"Elpepe","steam_id":76561198845797105,"connected_time":954000000000,"state":"active","ping":178},{"user_id":12,"name":"filet minion","steam_id":76561198067950862,"connected_time":855000000000,"state":"active","ping":38},{"user_id":13,"name":"lodediper","steam_id":76561198049606896,"connected_time":853000000000,"state":"active","ping":50},{"user_id":15,"name":"Erlenmeyer","steam_id":76561199044703828,"connected_time":584000000000,"state":"active","ping":65},{"user_id":20,"name":"Yeoman","steam_id":76561198049472346,"connected_time":139000000000,"state":"active","ping":61},{"user_id":18,"name":"Valenmirrus","steam_id":76561198849526367,"connected_time":438000000000,"state":"active","ping":79}]},{"server_id":400,"name":"Uncletopia | Atlanta | 3 | Community","name_short":"atl-3","host":"atl-1.us.uncletopia.com","port":27035,"enabled":true,"region":"us-east","cc":"us","latitude":33.753746,"longitude":-84.38633,"reserved":0,"last_update":"0001-01-01T00:00:00Z","name_a2s":"Uncletopia | Atlanta | 3 | Community","protocol":17,"map":"workshop/pl_fifthcurve_rc1.ugc648227046","folder":"tf","game":"Team Fortress","app_id":440,"player_count":0,"max_players":24,"Bots":0,"server_type":"Dedicated","server_os":"Linux","password":true,"vac":true,"version":"7882260","steam_id":85568392924515187,"keywords":["nocrits","nodmgspread","payload","uncletopia"],"game_id":440,"stv_port":27036,"stv_name":"Uncletopia | Atlanta | 3 | Community | STV","players":null},{"server_id":401,"name":"Uncletopia | Atlanta | 4 | No Payload","name_short":"atl-4","host":"atl-1.us.uncletopia.com","port":27045,"enabled":true,"region":"us-east","cc":"us","latitude":33.753746,"longitude":-84.38633,"reserved":0,"last_update":"0001-01-01T00:00:00Z","name_a2s":"","protocol":0,"map":"","folder":"","game":"","app_id":0,"player_count":0,"max_players":0,"Bots":0,"server_type":"","server_os":"","password":false,"vac":false,"version":"","steam_id":0,"keywords":null,"game_id":0,"stv_port":0,"stv_name":"","players":null},{"server_id":2,"name":"Uncletopia | Chicago | 1 | All Maps","name_short":"chi-1","host":"chi-1.us.uncletopia.com","port":27015,"enabled":true,"region":"us-central","cc":"us","latitude":41.881832,"longitude":-87.62318,"reserved":0,"last_update":"0001-01-01T00:00:00Z","name_a2s":"Uncletopia | Chicago | 1 | All Maps","protocol":17,"map":"cp_freight_final1","folder":"tf","game":"Team Fortress","app_id":440,"player_count":24,"max_players":24,"Bots":0,"server_type":"Dedicated","server_os":"Linux","password":true,"vac":true,"version":"7882260","steam_id":85568392924469984,"keywords":["cp","nocrits","nodmgspread","uncletopia"],"game_id":440,"stv_port":27016,"stv_name":"Uncletopia | Chicago | 1 | All Maps | STV","players":[{"user_id":251,"name":"Morgster","steam_id":76561198131697761,"connected_time":1209000000000,"state":"active","ping":79},{"user_id":266,"name":"Manic Lunatic","steam_id":76561199022053857,"connected_time":324000000000,"state":"active","ping":66},{"user_id":235,"name":"That One Spy Who Dies","steam_id":76561198157183216,"connected_time":2332000000000,"state":"active","ping":46},{"user_id":255,"name":"Randumb","steam_id":76561199083286636,"connected_time":968000000000,"state":"active","ping":60},{"user_id":224,"name":"Filthy Acts at Reasonable Price","steam_id":76561198354615890,"connected_time":3148000000000,"state":"active","ping":57},{"user_id":252,"name":"Rornir","steam_id":76561198081829615,"connected_time":1100000000000,"state":"active","ping":33},{"user_id":245,"name":"dirty tuna --F2--","steam_id":76561198021535785,"connected_time":1648000000000,"state":"active","ping":77},{"user_id":212,"name":"i thought you were my friend","steam_id":76561198929646112,"connected_time":3685000000000,"state":"active","ping":73},{"user_id":130,"name":"tacofever","steam_id":76561198010966507,"connected_time":9880000000000,"state":"active","ping":103},{"user_id":82,"name":"larry","steam_id":76561198236166288,"connected_time":13478000000000,"state":"active","ping":62},{"user_id":261,"name":"Average_Medal_Enjoyer","steam_id":76561198267485096,"connected_time":808000000000,"state":"active","ping":89},{"user_id":267,"name":"jim bob","steam_id":76561198815547064,"connected_time":56000000000,"state":"active","ping":61},{"user_id":263,"name":"LtK","steam_id":76561197993180943,"connected_time":778000000000,"state":"active","ping":60},{"user_id":248,"name":"‚ô• memegamer23123 ‚ô•","steam_id":76561198048478450,"connected_time":1508000000000,"state":"active","ping":71},{"user_id":260,"name":"Lunacy","steam_id":76561199386273760,"connected_time":836000000000,"state":"active","ping":103},{"user_id":243,"name":"Tyco","steam_id":76561197978414167,"connected_time":1731000000000,"state":"active","ping":74},{"user_id":231,"name":"Gnarly Shark Bite","steam_id":76561198004058342,"connected_time":2496000000000,"state":"active","ping":74},{"user_id":264,"name":"|WS| Don't_Taze_Me_Bro","steam_id":76561198043289495,"connected_time":755000000000,"state":"active","ping":75},{"user_id":240,"name":"Willy Wonker","steam_id":76561198082944789,"connected_time":1923000000000,"state":"active","ping":92},{"user_id":187,"name":"wifi warrior","steam_id":76561198058485742,"connected_time":5262000000000,"state":"active","ping":98},{"user_id":254,"name":"Wiggee","steam_id":76561197972792989,"connected_time":997000000000,"state":"active","ping":66},{"user_id":247,"name":"lost in spaaaaace","steam_id":76561199085974120,"connected_time":1552000000000,"state":"active","ping":70},{"user_id":265,"name":"ColonelKermit","steam_id":76561198318215660,"connected_time":446000000000,"state":"active","ping":56},{"user_id":269,"name":"TallBit","steam_id":76561199059748976,"connected_time":3000000000,"state":"spawning","ping":51}]},{"server_id":106,"name":"Uncletopia | Chicago | 2 | All Maps","name_short":"chi-2","host":"chi-1.us.uncletopia.com","port":27025,"enabled":true,"region":"us-central","cc":"us","latitude":41.881832,"longitude":-87.62318,"reserved":0,"last_update":"0001-01-01T00:00:00Z","name_a2s":"Uncletopia | Chicago | 2 | All Maps","protocol":17,"map":"pl_swiftwater_final1","folder":"tf","game":"Team Fortress","app_id":440,"player_count":0,"max_players":24,"Bots":0,"server_type":"Dedicated","server_os":"Linux","password":true,"vac":true,"version":"7882260","steam_id":85568392924469985,"keywords":["nocrits","nodmgspread","payload","uncletopia"],"game_id":440,"stv_port":27026,"stv_name":"Uncletopia | Chicago | 2 | All Maps | STV","players":null},{"server_id":402,"name":"Uncletopia | Chicago | 3 | All Maps","name_short":"chi-3","host":"chi-1.us.uncletopia.com","port":27035,"enabled":true,"region":"us-central","cc":"us","latitude":41.881832,"longitude":-87.62318,"reserved":0,"last_update":"0001-01-01T00:00:00Z","name_a2s":"Uncletopia | Chicago | 3 | All Maps","protocol":17,"map":"cp_steel","folder":"tf","game":"Team Fortress","app_id":440,"player_count":24,"max_players":24,"Bots":0,"server_type":"Dedicated","server_os":"Linux","password":true,"vac":true,"version":"7882260","steam_id":85568392924515191,"keywords":["cp","nocrits","nodmgspread","uncletopia"],"game_id":440,"stv_port":27036,"stv_name":"Uncletopia | Chicago | 3 | All Maps | STV","players":[{"user_id":260,"name":"nhbiker","steam_id":76561198081277675,"connected_time":4929000000000,"state":"active","ping":52},{"user_id":315,"name":"CapnKris22","steam_id":76561198049010994,"connected_time":1055000000000,"state":"active","ping":45},{"user_id":309,"name":"brozier","steam_id":76561198823526581,"connected_time":1941000000000,"state":"active","ping":72},{"user_id":297,"name":"Feesh","steam_id":76561198817024734,"connected_time":2638000000000,"state":"active","ping":54},{"user_id":319,"name":"Obama F. Kennedy","steam_id":76561198282499318,"connected_time":866000000000,"state":"active","ping":67},{"user_id":314,"name":"Ac√≥manas","steam_id":76561199031977210,"connected_time":1074000000000,"state":"active","ping":73},{"user_id":321,"name":"soymole","steam_id":76561199072327562,"connected_time":326000000000,"state":"active","ping":55},{"user_id":316,"name":"Walmart Employee","steam_id":76561198840373909,"connected_time":1021000000000,"state":"active","ping":97},{"user_id":283,"name":"Coolshroomish","steam_id":76561199109440924,"connected_time":2932000000000,"state":"active","ping":99},{"user_id":289,"name":"canakblasteran","steam_id":76561199472518822,"connected_time":2857000000000,"state":"active","ping":99},{"user_id":312,"name":"KingOfNova","steam_id":76561198127412813,"connected_time":1504000000000,"state":"active","ping":56},{"user_id":254,"name":"teleportless husk","steam_id":76561198882404753,"connected_time":6109000000000,"state":"active","ping":72},{"user_id":313,"name":"PaperJamming","steam_id":76561198042335495,"connected_time":1495000000000,"state":"active","ping":81},{"user_id":302,"name":"Motreir","steam_id":76561198151717946,"connected_time":2410000000000,"state":"active","ping":78},{"user_id":225,"name":"Xx_Monty2k_xX","steam_id":76561198346070981,"connected_time":7834000000000,"state":"active","ping":62},{"user_id":208,"name":"FunH8r","steam_id":76561199013705323,"connected_time":8457000000000,"state":"active","ping":61},{"user_id":305,"name":"‚Ä¢SoraNyaa‚Ä¢","steam_id":76561198308439576,"connected_time":2335000000000,"state":"active","ping":69},{"user_id":317,"name":"to sem ideia #savetf2","steam_id":76561199052177486,"connected_time":1003000000000,"state":"active","ping":193},{"user_id":307,"name":"minuscule amounts of tomfoolery","steam_id":76561199118049168,"connected_time":2070000000000,"state":"active","ping":94},{"user_id":323,"name":"Griff Applewood","steam_id":76561198091512776,"connected_time":136000000000,"state":"active","ping":51},{"user_id":257,"name":"Carpigani","steam_id":76561199472897062,"connected_time":5619000000000,"state":"active","ping":135},{"user_id":324,"name":"sunny","steam_id":76561198069380992,"connected_time":122000000000,"state":"active","ping":80},{"user_id":304,"name":"Furious George","steam_id":76561198405111646,"connected_time":2388000000000,"state":"active","ping":99},{"user_id":311,"name":"Alpaca Mc Maca","steam_id":76561198301576115,"connected_time":1565000000000,"state":"active","ping":67}]},{"server_id":403,"name":"Uncletopia | Chicago | 4 | All Maps","name_short":"chi-4","host":"chi-1.us.uncletopia.com","port":27045,"enabled":true,"region":"us-central","cc":"us","latitude":41.881832,"longitude":-87.62318,"reserved":0,"last_update":"0001-01-01T00:00:00Z","name_a2s":"Uncletopia | Chicago | 4 | All Maps","protocol":17,"map":"pl_badwater","folder":"tf","game":"Team Fortress","app_id":440,"player_count":24,"max_players":24,"Bots":0,"server_type":"Dedicated","server_os":"Linux","password":true,"vac":true,"version":"7882260","steam_id":85568392924515193,"keywords":["nocrits","nodmgspread","payload","uncletopia"],"game_id":440,"stv_port":27046,"stv_name":"Uncletopia | Chicago | 4 | All Maps | STV","players":[{"user_id":95,"name":"be","steam_id":76561198000824533,"connected_time":2770000000000,"state":"active","ping":86},{"user_id":125,"name":"Fred","steam_id":76561198114281255,"connected_time":1964000000000,"state":"active","ping":76},{"user_id":98,"name":"The MilkMann","steam_id":76561199006503777,"connected_time":2691000000000,"state":"active","ping":56},{"user_id":99,"name":"bonk","steam_id":76561198821774697,"connected_time":2687000000000,"state":"active","ping":52},{"user_id":145,"name":"Rukks","steam_id":76561197993918954,"connected_time":9000000000,"state":"active","ping":87},{"user_id":102,"name":"Crab Shack #savetf2","steam_id":76561198187973071,"connected_time":2516000000000,"state":"active","ping":66},{"user_id":103,"name":"Kedata","steam_id":76561198047750050,"connected_time":2496000000000,"state":"active","ping":45},{"user_id":137,"name":"Blitzy","steam_id":76561198149472890,"connected_time":1044000000000,"state":"active","ping":75},{"user_id":144,"name":"Cottontail","steam_id":76561198213634567,"connected_time":107000000000,"state":"active","ping":103},{"user_id":106,"name":"GENTLE MANNE of LEISURE","steam_id":76561198348647978,"connected_time":2348000000000,"state":"active","ping":71},{"user_id":140,"name":"scungo","steam_id":76561198316654855,"connected_time":798000000000,"state":"active","ping":79},{"user_id":136,"name":"johnson exam","steam_id":76561198838784551,"connected_time":1178000000000,"state":"active","ping":72},{"user_id":111,"name":"hex","steam_id":76561198857112337,"connected_time":2273000000000,"state":"active","ping":88},{"user_id":121,"name":"tinkercrab11","steam_id":76561198881792140,"connected_time":2156000000000,"state":"active","ping":79},{"user_id":131,"name":"Punished Kong","steam_id":76561198973620882,"connected_time":1715000000000,"state":"active","ping":83},{"user_id":133,"name":"threethree","steam_id":76561198177354155,"connected_time":1376000000000,"state":"active","ping":48},{"user_id":115,"name":"steelzepplin","steam_id":76561197993182335,"connected_time":2196000000000,"state":"active","ping":92},{"user_id":135,"name":"m3lody","steam_id":76561199474189433,"connected_time":1281000000000,"state":"active","ping":105},{"user_id":138,"name":"Jon Snuh","steam_id":76561198075298635,"connected_time":996000000000,"state":"active","ping":59},{"user_id":118,"name":"DJ Chalice","steam_id":76561197974872458,"connected_time":2184000000000,"state":"active","ping":75},{"user_id":142,"name":"SirJellyRolls","steam_id":76561198119277244,"connected_time":428000000000,"state":"active","ping":71},{"user_id":130,"name":"zSkele","steam_id":76561198128960931,"connected_time":1721000000000,"state":"active","ping":58},{"user_id":122,"name":"sir barry lyndon","steam_id":76561198017539604,"connected_time":2154000000000,"state":"active","ping":72},{"user_id":143,"name":"Anomalous Materials Scientist","steam_id":76561198092542997,"connected_time":427000000000,"state":"active","ping":67}]},{"server_id":36,"name":"Uncletopia | Chicago | 5 | All Maps","name_short":"chi-5","host":"chi-2.us.uncletopia.com","port":27015,"enabled":true,"region":"us-central","cc":"us","latitude":41.881832,"longitude":-87.62318,"reserved":0,"last_update":"0001-01-01T00:00:00Z","name_a2s":"Uncletopia | Chicago | 5 | All Maps","protocol":17,"map":"pl_swiftwater_final1","folder":"tf","game":"Team Fortress","app_id":440,"player_count":24,"max_players":24,"Bots":0,"server_type":"Dedicated","server_os":"Linux","password":true,"vac":true,"version":"7882260","steam_id":85568392924866362,"keywords":["nocrits","nodmgspread","payload","uncletopia"],"game_id":440,"stv_port":27016,"stv_name":"Uncletopia | Chicago | 5 | All Maps | STV","players":[{"user_id":128,"name":"MJ Bombastic","steam_id":76561199132802395,"connected_time":197000000000,"state":"active","ping":123},{"user_id":122,"name":"Professional Clicker","steam_id":76561199210799428,"connected_time":419000000000,"state":"active","ping":65},{"user_id":112,"name":"PlasmaElk","steam_id":76561198823281802,"connected_time":1072000000000,"state":"active","ping":66},{"user_id":123,"name":"Bottle","steam_id":76561198044031558,"connected_time":397000000000,"state":"active","ping":70},{"user_id":129,"name":"Jade Greenleaf","steam_id":76561198304845413,"connected_time":191000000000,"state":"active","ping":87},{"user_id":103,"name":"Cr√∏ss","steam_id":76561198051474409,"connected_time":1232000000000,"state":"active","ping":143},{"user_id":53,"name":"The DeadMan","steam_id":76561198209955879,"connected_time":4757000000000,"state":"active","ping":82},{"user_id":125,"name":"Voljun","steam_id":76561198412014820,"connected_time":262000000000,"state":"active","ping":62},{"user_id":130,"name":"Rhutebeer","steam_id":76561198018302761,"connected_time":173000000000,"state":"active","ping":101},{"user_id":127,"name":"RefriedToast","steam_id":76561198166187853,"connected_time":228000000000,"state":"active","ping":85},{"user_id":115,"name":"green bean","steam_id":76561198113099204,"connected_time":846000000000,"state":"active","ping":76},{"user_id":104,"name":"izzydex","steam_id":76561199101531034,"connected_time":1170000000000,"state":"active","ping":76},{"user_id":100,"name":"bogus binted","steam_id":76561198203329842,"connected_time":1871000000000,"state":"active","ping":77},{"user_id":138,"name":"Bonk Co.","steam_id":76561198009355408,"connected_time":69000000000,"state":"active","ping":104},{"user_id":42,"name":"deadface","steam_id":76561198055494297,"connected_time":4978000000000,"state":"active","ping":68},{"user_id":126,"name":"lampin","steam_id":76561197964367078,"connected_time":242000000000,"state":"active","ping":50},{"user_id":132,"name":"Cuttle's Fish","steam_id":76561198280483257,"connected_time":168000000000,"state":"active","ping":60},{"user_id":121,"name":"Kevin Y.","steam_id":76561198364331423,"connected_time":553000000000,"state":"active","ping":70},{"user_id":141,"name":"‚ú∞ DOC ROBOT K-176 ‚ú∞","steam_id":76561198280315202,"connected_time":28000000000,"state":"active","ping":87},{"user_id":139,"name":"090-nsalih","steam_id":76561199467467873,"connected_time":66000000000,"state":"active","ping":222},{"user_id":135,"name":"yeyoi","steam_id":76561198069821885,"connected_time":144000000000,"state":"active","ping":73},{"user_id":137,"name":"triangleman","steam_id":76561198972733542,"connected_time":93000000000,"state":"active","ping":64},{"user_id":99,"name":"goblino","steam_id":76561198068260422,"connected_time":1889000000000,"state":"active","ping":50},{"user_id":140,"name":"neph","steam_id":76561198962318010,"connected_time":59000000000,"state":"active","ping":57}]},{"server_id":37,"name":"Uncletopia | Chicago | 6 | All Maps","name_short":"chi-6","host":"chi-2.us.uncletopia.com","port":27025,"enabled":true,"region":"us-central","cc":"us","latitude":41.881832,"longitude":-87.62318,"reserved":0,"last_update":"0001-01-01T00:00:00Z","name_a2s":"Uncletopia | Chicago | 6 | All Maps","protocol":17,"map":"koth_cascade","folder":"tf","game":"Team Fortress","app_id":440,"player_count":0,"max_players":24,"Bots":0,"server_type":"Dedicated","server_os":"Linux","password":true,"vac":true,"version":"7882260","steam_id":85568392924866363,"keywords":["cp","nocrits","nodmgspread","uncletopia"],"game_id":440,"stv_port":27026,"stv_name":"Uncletopia | Chicago | 6 | All Maps | STV","players":null},{"server_id":38,"name":"Uncletopia | Chicago | 7 | Stopwatch Beta","name_short":"chi-7","host":"chi-2.us.uncletopia.com","port":27035,"enabled":true,"region":"us-central","cc":"us","latitude":41.881832,"longitude":-87.62318,"reserved":0,"last_update":"0001-01-01T00:00:00Z","name_a2s":"Uncletopia | Chicago | 7 | Stopwatch Beta","protocol":17,"map":"pl_borneo","folder":"tf","game":"Team Fortress","app_id":440,"player_count":0,"max_players":24,"Bots":0,"server_type":"Dedicated","server_os":"Linux","password":true,"vac":true,"version":"7882260","steam_id":85568392924866364,"keywords":["nocrits","nodmgspread","payload","uncletopia"],"game_id":440,"stv_port":27036,"stv_name":"Uncletopia | Chicago | 7 | Stopwatch Beta | STV","players":null},{"server_id":39,"name":"Uncletopia | Chicago | 8 | Community","name_short":"chi-8","host":"chi-2.us.uncletopia.com","port":27045,"enabled":true,"region":"us-central","cc":"us","latitude":41.881832,"longitude":-87.62318,"reserved":0,"last_update":"0001-01-01T00:00:00Z","name_a2s":"Uncletopia | Chicago | 8 | Community","protocol":17,"map":"workshop/pl_cashworks_final1.ugc2904065412","folder":"tf","game":"Team Fortress","app_id":440,"player_count":23,"max_players":24,"Bots":0,"server_type":"Dedicated","server_os":"Linux","password":true,"vac":true,"version":"7882260","steam_id":85568392924866365,"keywords":["nocrits","nodmgspread","payload","uncletopia"],"game_id":440,"stv_port":27046,"stv_name":"Uncletopia | Chicago | 8 | Community | STV","players":[{"user_id":105,"name":"voidpuppy","steam_id":76561198799922000,"connected_time":623000000000,"state":"active","ping":106},{"user_id":62,"name":"Goobed!","steam_id":76561198804349470,"connected_time":4106000000000,"state":"active","ping":69},{"user_id":109,"name":"Peepster","steam_id":76561198297854733,"connected_time":480000000000,"state":"active","ping":71},{"user_id":99,"name":"DiscoTraveler","steam_id":76561199240168088,"connected_time":1632000000000,"state":"active","ping":60},{"user_id":86,"name":"sailaser","steam_id":76561198035752229,"connected_time":2829000000000,"state":"active","ping":67},{"user_id":87,"name":"Xurany","steam_id":76561199005012427,"connected_time":2825000000000,"state":"active","ping":75},{"user_id":44,"name":"Sussin'","steam_id":76561198059813696,"connected_time":6302000000000,"state":"active","ping":72},{"user_id":88,"name":"TJGSASQUATCH","steam_id":76561198077806921,"connected_time":2825000000000,"state":"active","ping":75},{"user_id":89,"name":"Sobokhan","steam_id":76561197969214734,"connected_time":2813000000000,"state":"active","ping":90},{"user_id":106,"name":"Mikael_01","steam_id":76561199080253129,"connected_time":616000000000,"state":"active","ping":193},{"user_id":110,"name":"Minecraft Women","steam_id":76561198012083339,"connected_time":468000000000,"state":"active","ping":79},{"user_id":57,"name":"DOMO_MR_ROBOTO","steam_id":76561198077108345,"connected_time":4667000000000,"state":"active","ping":96},{"user_id":58,"name":"Corpse01","steam_id":76561198153671643,"connected_time":4658000000000,"state":"active","ping":74},{"user_id":100,"name":"sassy loli","steam_id":76561198402316065,"connected_time":1118000000000,"state":"active","ping":98},{"user_id":51,"name":"indi","steam_id":76561198045917538,"connected_time":5782000000000,"state":"active","ping":54},{"user_id":101,"name":"Aeris","steam_id":76561198287271028,"connected_time":884000000000,"state":"active","ping":68},{"user_id":71,"name":"yoodle doodle","steam_id":76561198054897884,"connected_time":3803000000000,"state":"active","ping":74},{"user_id":111,"name":"I, Goku LOVE weed","steam_id":76561198256886614,"connected_time":453000000000,"state":"active","ping":94},{"user_id":108,"name":"Anyar","steam_id":76561198160174097,"connected_time":590000000000,"state":"active","ping":65},{"user_id":94,"name":"‚ô• PsychicCellar ‚ô•","steam_id":76561198045923020,"connected_time":2438000000000,"state":"active","ping":68},{"user_id":102,"name":"Big black balls of summer fun","steam_id":76561198329087915,"connected_time":712000000000,"state":"active","ping":105},{"user_id":93,"name":"Servitz","steam_id":76561198194446835,"connected_time":2778000000000,"state":"active","ping":71}]},{"server_id":8,"name":"Uncletopia | Dallas | 1 | All Maps","name_short":"dal-1","host":"dal-1.us.uncletopia.com","port":27015,"enabled":true,"region":"us-central","cc":"us","latitude":32.779167,"longitude":-96.80889,"reserved":0,"last_update":"0001-01-01T00:00:00Z","name_a2s":"Uncletopia | Dallas | 1 | All Maps","protocol":17,"map":"pl_upward","folder":"tf","game":"Team Fortress","app_id":440,"player_count":24,"max_players":24,"Bots":0,"server_type":"Dedicated","server_os":"Linux","password":true,"vac":true,"version":"7882260","steam_id":85568392924469986,"keywords":["nocrits","nodmgspread","payload","uncletopia"],"game_id":440,"stv_port":27016,"stv_name":"Uncletopia | Dallas | 1 | All Maps | STV","players":[{"user_id":124,"name":"Utopia","steam_id":76561198330205913,"connected_time":7465000000000,"state":"active","ping":94},{"user_id":193,"name":"BigPimpin","steam_id":76561198119549348,"connected_time":3209000000000,"state":"active","ping":45},{"user_id":224,"name":"KingOyster","steam_id":76561198322567830,"connected_time":72000000000,"state":"active","ping":62},{"user_id":196,"name":"orange rind (3 cent wifi)","steam_id":76561198130242461,"connected_time":2807000000000,"state":"active","ping":49},{"user_id":225,"name":"Rocky","steam_id":76561198048158539,"connected_time":64000000000,"state":"active","ping":103},{"user_id":213,"name":"Coleslavv","steam_id":76561199293350435,"connected_time":1336000000000,"state":"active","ping":134},{"user_id":205,"name":"i never watched duck dynasty","steam_id":76561199105729447,"connected_time":2390000000000,"state":"active","ping":53},{"user_id":167,"name":"Dreamzapp","steam_id":76561199084936632,"connected_time":5007000000000,"state":"active","ping":85},{"user_id":223,"name":"Max Piss","steam_id":76561198050204475,"connected_time":104000000000,"state":"active","ping":60},{"user_id":209,"name":"FanaticSalt","steam_id":76561199380123059,"connected_time":1865000000000,"state":"active","ping":48},{"user_id":219,"name":"inzang","steam_id":76561198088318074,"connected_time":716000000000,"state":"active","ping":47},{"user_id":199,"name":"Walmus","steam_id":76561198111416393,"connected_time":2713000000000,"state":"active","ping":68},{"user_id":222,"name":"Woozy","steam_id":76561198008220735,"connected_time":107000000000,"state":"active","ping":86},{"user_id":215,"name":"zinnk","steam_id":76561198092081825,"connected_time":853000000000,"state":"active","ping":75},{"user_id":194,"name":"Cretronus","steam_id":76561198160854358,"connected_time":2824000000000,"state":"active","ping":85},{"user_id":217,"name":"Hot Milk + Sweet Delight","steam_id":76561197988989149,"connected_time":798000000000,"state":"active","ping":84},{"user_id":226,"name":"Shamrock Shake Oct.10.2020 @8pm","steam_id":76561198833313201,"connected_time":60000000000,"state":"active","ping":247},{"user_id":204,"name":"Piethon","steam_id":76561198880995645,"connected_time":2501000000000,"state":"active","ping":89},{"user_id":171,"name":"y=mx+b","steam_id":76561198119826352,"connected_time":4997000000000,"state":"active","ping":45},{"user_id":221,"name":"Hungry for Big Dave?","steam_id":76561198164206451,"connected_time":128000000000,"state":"active","ping":71},{"user_id":227,"name":"Toasty303","steam_id":76561198092609840,"connected_time":35000000000,"state":"active","ping":106},{"user_id":82,"name":"Pyrite","steam_id":76561198158817820,"connected_time":11266000000000,"state":"active","ping":72},{"user_id":185,"name":"rawrie","steam_id":76561198005371178,"connected_time":3732000000000,"state":"active","ping":63},{"user_id":220,"name":"simondean2005","steam_id":76561198061738700,"connected_time":651000000000,"state":"active","ping":91}]},{"server_id":108,"name":"Uncletopia | Dallas | 2 | All Maps","name_short":"dal-2","host":"dal-1.us.uncletopia.com","port":27025,"enabled":true,"region":"us-central","cc":"us","latitude":32.779167,"longitude":-96.80889,"reserved":0,"last_update":"0001-01-01T00:00:00Z","name_a2s":"Uncletopia | Dallas | 2 | All Maps","protocol":17,"map":"pl_snowycoast","folder":"tf","game":"Team Fortress","app_id":440,"player_count":24,"max_players":24,"Bots":0,"server_type":"Dedicated","server_os":"Linux","password":true,"vac":true,"version":"7882260","steam_id":85568392924469988,"keywords":["nocrits","nodmgspread","payload","uncletopia"],"game_id":440,"stv_port":27026,"stv_name":"Uncletopia | Dallas | 2 | All Maps | STV","players":[{"user_id":120,"name":"Gavial the Invincible","steam_id":76561198348354629,"connected_time":120000000000,"state":"active","ping":70},{"user_id":101,"name":"Merekitten","steam_id":76561198066307477,"connected_time":1500000000000,"state":"active","ping":95},{"user_id":87,"name":"dweamy","steam_id":76561198119181880,"connected_time":2659000000000,"state":"active","ping":72},{"user_id":121,"name":"Rasmosis","steam_id":76561198118914598,"connected_time":95000000000,"state":"active","ping":81},{"user_id":112,"name":"webaline","steam_id":76561199052450127,"connected_time":911000000000,"state":"active","ping":78},{"user_id":104,"name":"bruh_guy45","steam_id":76561198801073169,"connected_time":1300000000000,"state":"active","ping":59},{"user_id":122,"name":"thedoud1201","steam_id":76561199007734851,"connected_time":54000000000,"state":"active","ping":83},{"user_id":123,"name":"Batman in one piece","steam_id":76561199129969202,"connected_time":46000000000,"state":"spawning","ping":73},{"user_id":113,"name":"RagingBagon","steam_id":76561198255453127,"connected_time":856000000000,"state":"active","ping":69},{"user_id":77,"name":"TheDanmanz","steam_id":76561198870519817,"connected_time":3153000000000,"state":"active","ping":113},{"user_id":98,"name":"G–µ—è–æ","steam_id":76561198082463658,"connected_time":1763000000000,"state":"active","ping":105},{"user_id":97,"name":"Scotty","steam_id":76561198268006443,"connected_time":1860000000000,"state":"active","ping":78},{"user_id":119,"name":"teatimesukka","steam_id":76561198978749594,"connected_time":140000000000,"state":"active","ping":35},{"user_id":118,"name":"challen","steam_id":76561197961277967,"connected_time":261000000000,"state":"active","ping":44},{"user_id":124,"name":"The Undone Sage","steam_id":76561198261998561,"connected_time":32000000000,"state":"active","ping":74},{"user_id":125,"name":"golem","steam_id":76561198355040593,"connected_time":32000000000,"state":"active","ping":93},{"user_id":90,"name":"Wounded","steam_id":76561199440954924,"connected_time":2621000000000,"state":"active","ping":121},{"user_id":82,"name":"Phosu","steam_id":76561198180162801,"connected_time":2966000000000,"state":"active","ping":65},{"user_id":115,"name":"K","steam_id":76561198400247388,"connected_time":755000000000,"state":"active","ping":61},{"user_id":117,"name":"Meat Mans Meat","steam_id":76561198062149455,"connected_time":425000000000,"state":"active","ping":58},{"user_id":126,"name":"Drapph","steam_id":76561199384213314,"connected_time":23000000000,"state":"active","ping":77},{"user_id":99,"name":"Bolder","steam_id":76561199061754867,"connected_time":1701000000000,"state":"active","ping":104},{"user_id":89,"name":"HanakoToast","steam_id":76561198045233131,"connected_time":2643000000000,"state":"active","ping":85},{"user_id":106,"name":"Scooty","steam_id":76561199119671659,"connected_time":1293000000000,"state":"active","ping":102}]},{"server_id":5,"name":"Uncletopia | Frankfurt | 1 | All Maps","name_short":"frk-1","host":"frk-1.de.uncletopia.com","port":27015,"enabled":true,"region":"eu","cc":"de","latitude":50.110924,"longitude":8.682127,"reserved":0,"last_update":"0001-01-01T00:00:00Z","name_a2s":"Uncletopia | Frankfurt | 1 | All Maps","protocol":17,"map":"cp_powerhouse","folder":"tf","game":"Team Fortress","app_id":440,"player_count":24,"max_players":24,"Bots":0,"server_type":"Dedicated","server_os":"Linux","password":true,"vac":true,"version":"7882260","steam_id":85568392924469989,"keywords":["cp","nocrits","nodmgspread","uncletopia"],"game_id":440,"stv_port":27016,"stv_name":"Uncletopia | Frankfurt | 1 | All Maps | STV","players":[{"user_id":531,"name":"Zero (Orbital Gear Mastermind)","steam_id":76561198017416816,"connected_time":891000000000,"state":"active","ping":57},{"user_id":517,"name":"fluury","steam_id":76561198040769881,"connected_time":1588000000000,"state":"active","ping":47},{"user_id":520,"name":"Myrmodion","steam_id":76561198054746247,"connected_time":1541000000000,"state":"active","ping":57},{"user_id":466,"name":"The.Real.Genesis","steam_id":76561198999652040,"connected_time":3702000000000,"state":"active","ping":37},{"user_id":518,"name":"Chromega","steam_id":76561199075307750,"connected_time":1548000000000,"state":"active","ping":57},{"user_id":523,"name":"Alarmed Felix","steam_id":76561198167208311,"connected_time":1470000000000,"state":"active","ping":69},{"user_id":537,"name":"Artificial.Ignorance","steam_id":76561198453090180,"connected_time":72000000000,"state":"active","ping":165},{"user_id":510,"name":"mmlock","steam_id":76561198069516191,"connected_time":2614000000000,"state":"active","ping":57},{"user_id":521,"name":"HoLy","steam_id":76561197997431870,"connected_time":1531000000000,"state":"active","ping":54},{"user_id":499,"name":"EGirl | Klarra [New Mouse]","steam_id":76561198077745407,"connected_time":3125000000000,"state":"active","ping":61},{"user_id":515,"name":"JackButNotBlack","steam_id":76561198199196931,"connected_time":1733000000000,"state":"active","ping":70},{"user_id":535,"name":"‚úé Spicy","steam_id":76561198313533067,"connected_time":580000000000,"state":"active","ping":166},{"user_id":471,"name":"ùïäùïíùïüùïïùïûùïíùïü\ufffd\ufffd\ufffd","steam_id":76561199012566222,"connected_time":3652000000000,"state":"active","ping":49},{"user_id":522,"name":"stroke","steam_id":76561199118897910,"connected_time":1523000000000,"state":"active","ping":149},{"user_id":526,"name":"Boltingstorm","steam_id":76561199068433052,"connected_time":1390000000000,"state":"active","ping":85},{"user_id":516,"name":"Ostara","steam_id":76561198200054489,"connected_time":1729000000000,"state":"active","ping":72},{"user_id":513,"name":"Testicular torsion","steam_id":76561198119547399,"connected_time":1888000000000,"state":"active","ping":49},{"user_id":482,"name":"Eggcracker","steam_id":76561199274850641,"connected_time":3460000000000,"state":"active","ping":97},{"user_id":483,"name":"Vermuth","steam_id":76561198013515390,"connected_time":3457000000000,"state":"active","ping":56},{"user_id":484,"name":"CollDragon","steam_id":76561198067534450,"connected_time":3451000000000,"state":"active","ping":140},{"user_id":524,"name":"FoOzTV","steam_id":76561197998636728,"connected_time":1465000000000,"state":"active","ping":73},{"user_id":525,"name":"INKA","steam_id":76561198352479900,"connected_time":1461000000000,"state":"active","ping":50},{"user_id":504,"name":"Emma","steam_id":76561198076724979,"connected_time":2789000000000,"state":"active","ping":60},{"user_id":532,"name":"Rambi","steam_id":76561199058078505,"connected_time":869000000000,"state":"active","ping":153}]},{"server_id":110,"name":"Uncletopia | Frankfurt | 2 | All Maps","name_short":"frk-2","host":"frk-1.de.uncletopia.com","port":27025,"enabled":true,"region":"eu","cc":"de","latitude":50.110924,"longitude":8.682127,"reserved":0,"last_update":"0001-01-01T00:00:00Z","name_a2s":"Uncletopia | Frankfurt | 2 | All Maps","protocol":17,"map":"pl_snowycoast","folder":"tf","game":"Team Fortress","app_id":440,"player_count":24,"max_players":24,"Bots":0,"server_type":"Dedicated","server_os":"Linux","password":true,"vac":true,"version":"7882260","steam_id":85568392924469990,"keywords":["nocrits","nodmgspread","payload","uncletopia"],"game_id":440,"stv_port":27026,"stv_name":"Uncletopia | Frankfurt | 2 | All Maps | STV","players":[{"user_id":230,"name":"[waffles]","steam_id":76561198951206047,"connected_time":1323000000000,"state":"active","ping":76},{"user_id":251,"name":"honzajspv","steam_id":76561198434476343,"connected_time":184000000000,"state":"active","ping":47},{"user_id":189,"name":"Zeta","steam_id":76561198101917105,"connected_time":4290000000000,"state":"active","ping":148},{"user_id":234,"name":"–ê–Ω–∞–ª—å–Ω—ã–π —â–µ–∫–æ—Ç—É–Ω","steam_id":76561199032765923,"connected_time":1279000000000,"state":"active","ping":99},{"user_id":232,"name":"Charles McGill","steam_id":76561198965191846,"connected_time":1293000000000,"state":"active","ping":89},{"user_id":253,"name":"TAAAAAAAAAAAAAAAAANNNNNNNKKKKKK","steam_id":76561198836004668,"connected_time":106000000000,"state":"active","ping":60},{"user_id":233,"name":"loter32432499","steam_id":76561199196077672,"connected_time":1289000000000,"state":"active","ping":93},{"user_id":235,"name":"Bambi","steam_id":76561198166972711,"connected_time":1235000000000,"state":"active","ping":70},{"user_id":257,"name":"Brian","steam_id":76561198077756206,"connected_time":24000000000,"state":"active","ping":53},{"user_id":255,"name":"pootis dispenser","steam_id":76561198818060075,"connected_time":57000000000,"state":"active","ping":246},{"user_id":249,"name":"M.Bou","steam_id":76561199097750260,"connected_time":381000000000,"state":"active","ping":126},{"user_id":237,"name":"devious looking apple","steam_id":76561198100414245,"connected_time":1140000000000,"state":"active","ping":78},{"user_id":238,"name":"Akiron","steam_id":76561199267799044,"connected_time":1130000000000,"state":"active","ping":93},{"user_id":256,"name":"qqqqqqq","steam_id":76561198084062882,"connected_time":51000000000,"state":"active","ping":46},{"user_id":243,"name":"20BB Raxor","steam_id":76561198239927434,"connected_time":927000000000,"state":"active","ping":76},{"user_id":258,"name":"Marky","steam_id":76561199474556920,"connected_time":20000000000,"state":"active","ping":112},{"user_id":259,"name":"Kyred;[0]","steam_id":76561198087392533,"connected_time":15000000000,"state":"spawning","ping":50},{"user_id":178,"name":"gegit08","steam_id":76561199040010283,"connected_time":4882000000000,"state":"active","ping":91},{"user_id":150,"name":"OreHaX","steam_id":76561198272166623,"connected_time":7031000000000,"state":"active","ping":76},{"user_id":221,"name":"Vidrox #savetf2","steam_id":76561199217854983,"connected_time":2056000000000,"state":"active","ping":86},{"user_id":244,"name":"bAdmon","steam_id":76561197961785793,"connected_time":643000000000,"state":"active","ping":57},{"user_id":227,"name":"rex110","steam_id":76561198159631448,"connected_time":1423000000000,"state":"active","ping":83},{"user_id":224,"name":"√ÉNVS DR√ÉNVS","steam_id":76561198138733015,"connected_time":1749000000000,"state":"active","ping":109},{"user_id":247,"name":"Cars","steam_id":76561198173329977,"connected_time":563000000000,"state":"active","ping":65}]},{"server_id":308,"name":"Uncletopia | Frankfurt | 3 | All Maps","name_short":"frk-3","host":"frk-1.de.uncletopia.com","port":27035,"enabled":true,"region":"eu","cc":"de","latitude":50.110924,"longitude":8.682127,"reserved":0,"last_update":"0001-01-01T00:00:00Z","name_a2s":"Uncletopia | Frankfurt | 3 | All Maps","protocol":17,"map":"pl_upward","folder":"tf","game":"Team Fortress","app_id":440,"player_count":24,"max_players":24,"Bots":0,"server_type":"Dedicated","server_os":"Linux","password":true,"vac":true,"version":"7882260","steam_id":85568392924504274,"keywords":["nocrits","nodmgspread","payload","uncletopia"],"game_id":440,"stv_port":27036,"stv_name":"Uncletopia | Frankfurt | 3 | All Maps | STV","players":[{"user_id":150,"name":"Better Call Medic","steam_id":76561198939711234,"connected_time":1800000000000,"state":"active","ping":113},{"user_id":175,"name":"presidentialAIDS","steam_id":76561199257284077,"connected_time":62000000000,"state":"active","ping":136},{"user_id":151,"name":"theBula","steam_id":76561197981756404,"connected_time":1797000000000,"state":"active","ping":78},{"user_id":152,"name":"Master Of Noob","steam_id":76561198217926783,"connected_time":1796000000000,"state":"active","ping":70},{"user_id":101,"name":"Slifer the Sky Dragon","steam_id":76561198062255803,"connected_time":5625000000000,"state":"active","ping":60},{"user_id":134,"name":"megamash","steam_id":76561198042672341,"connected_time":2778000000000,"state":"active","ping":60},{"user_id":153,"name":"REN","steam_id":76561198000596385,"connected_time":1796000000000,"state":"active","ping":70},{"user_id":130,"name":"slim skulla","steam_id":76561198048721726,"connected_time":3137000000000,"state":"active","ping":46},{"user_id":77,"name":"The Grave Hunter","steam_id":76561198143586002,"connected_time":7221000000000,"state":"active","ping":73},{"user_id":173,"name":"Hat Lover","steam_id":76561198312283433,"connected_time":411000000000,"state":"active","ping":83},{"user_id":170,"name":"mr.MR","steam_id":76561198151980974,"connected_time":670000000000,"state":"active","ping":60},{"user_id":166,"name":"Civil Melon","steam_id":76561198988309618,"connected_time":926000000000,"state":"active","ping":97},{"user_id":157,"name":"Aximus","steam_id":76561198024575710,"connected_time":1443000000000,"state":"active","ping":61},{"user_id":156,"name":"disposablesuperbread","steam_id":76561199074703607,"connected_time":1531000000000,"state":"active","ping":70},{"user_id":171,"name":"addicted","steam_id":76561199129801006,"connected_time":620000000000,"state":"active","ping":53},{"user_id":112,"name":"WATANG!","steam_id":76561198040478926,"connected_time":4846000000000,"state":"active","ping":62},{"user_id":113,"name":"Poleeyan","steam_id":76561198885522435,"connected_time":4834000000000,"state":"active","ping":64},{"user_id":165,"name":"Egor Pomidor","steam_id":76561199175688390,"connected_time":941000000000,"state":"active","ping":78},{"user_id":167,"name":"HelwiiHill","steam_id":76561198066730552,"connected_time":801000000000,"state":"active","ping":83},{"user_id":86,"name":"XPullaHiiri","steam_id":76561198031652375,"connected_time":7024000000000,"state":"active","ping":98},{"user_id":172,"name":"Hedge Knight","steam_id":76561198989449047,"connected_time":615000000000,"state":"active","ping":123},{"user_id":124,"name":"tallen","steam_id":76561198061708595,"connected_time":3800000000000,"state":"active","ping":89},{"user_id":144,"name":"Kaishakunin","steam_id":76561198028123874,"connected_time":2463000000000,"state":"active","ping":102},{"user_id":174,"name":"Kubsj","steam_id":76561198446916275,"connected_time":94000000000,"state":"active","ping":76}]},{"server_id":309,"name":"Uncletopia | Frankfurt | 4 | All Maps","name_short":"frk-4","host":"frk-1.de.uncletopia.com","port":27045,"enabled":true,"region":"eu","cc":"de","latitude":50.110924,"longitude":8.682127,"reserved":0,"last_update":"0001-01-01T00:00:00Z","name_a2s":"Uncletopia | Frankfurt | 4 | All Maps","protocol":17,"map":"koth_lakeside_final","folder":"tf","game":"Team Fortress","app_id":440,"player_count":0,"max_players":24,"Bots":0,"server_type":"Dedicated","server_os":"Linux","password":true,"vac":true,"version":"7882260","steam_id":85568392924504275,"keywords":["cp","nocrits","nodmgspread","uncletopia"],"game_id":440,"stv_port":27046,"stv_name":"Uncletopia | Frankfurt | 4 | All Maps | STV","players":null},{"server_id":310,"name":"Uncletopia | Frankfurt | 5 | All Maps","name_short":"frk-5","host":"frk-1.de.uncletopia.com","port":27055,"enabled":true,"region":"eu","cc":"de","latitude":50.110924,"longitude":8.682127,"reserved":0,"last_update":"0001-01-01T00:00:00Z","name_a2s":"Uncletopia | Frankfurt | 5 | All Maps","protocol":17,"map":"pl_barnblitz","folder":"tf","game":"Team Fortress","app_id":440,"player_count":0,"max_players":24,"Bots":0,"server_type":"Dedicated","server_os":"Linux","password":true,"vac":true,"version":"7882260","steam_id":85568392924504277,"keywords":["nocrits","nodmgspread","payload","uncletopia"],"game_id":440,"stv_port":27056,"stv_name":"Uncletopia | Frankfurt | 5 | All Maps | STV","players":null},{"server_id":311,"name":"Uncletopia | Frankfurt | 6 | All Maps","name_short":"frk-6","host":"frk-1.de.uncletopia.com","port":27065,"enabled":true,"region":"eu","cc":"de","latitude":50.110924,"longitude":8.682127,"reserved":0,"last_update":"0001-01-01T00:00:00Z","name_a2s":"Uncletopia | Frankfurt | 6 | All Maps","protocol":17,"map":"pl_borneo","folder":"tf","game":"Team Fortress","app_id":440,"player_count":0,"max_players":24,"Bots":0,"server_type":"Dedicated","server_os":"Linux","password":true,"vac":true,"version":"7882260","steam_id":85568392924504278,"keywords":["nocrits","nodmgspread","payload","uncletopia"],"game_id":440,"stv_port":27066,"stv_name":"Uncletopia | Frankfurt | 6 | All Maps | STV","players":null},{"server_id":23,"name":"Uncletopia | Frankfurt | 7 | Stopwatch Beta","name_short":"frk-7","host":"frk-1.de.uncletopia.com","port":27075,"enabled":true,"region":"eu","cc":"de","latitude":50.110924,"longitude":8.682127,"reserved":0,"last_update":"0001-01-01T00:00:00Z","name_a2s":"Uncletopia | Frankfurt | 7 | Stopwatch Beta","protocol":17,"map":"workshop/pl_summercoast_rc8e.ugc1761528829","folder":"tf","game":"Team Fortress","app_id":440,"player_count":0,"max_players":24,"Bots":0,"server_type":"Dedicated","server_os":"Linux","password":true,"vac":true,"version":"7882260","steam_id":85568392924742827,"keywords":["nocrits","nodmgspread","payload","uncletopia"],"game_id":440,"stv_port":27076,"stv_name":"Uncletopia | Frankfurt | 7 | Stopwatch Beta | STV","players":null},{"server_id":24,"name":"Uncletopia | Frankfurt | 8 | Community","name_short":"frk-8","host":"frk-1.de.uncletopia.com","port":27085,"enabled":true,"region":"eu","cc":"de","latitude":50.110924,"longitude":8.682127,"reserved":0,"last_update":"0001-01-01T00:00:00Z","name_a2s":"Uncletopia | Frankfurt | 8 | Community","protocol":17,"map":"workshop/cp_bruhstbowl_b5.ugc2878604990","folder":"tf","game":"Team Fortress","app_id":440,"player_count":17,"max_players":24,"Bots":0,"server_type":"Dedicated","server_os":"Linux","password":true,"vac":true,"version":"7882260","steam_id":85568392924742828,"keywords":["cp","nocrits","nodmgspread","uncletopia"],"game_id":440,"stv_port":27086,"stv_name":"Uncletopia | Frankfurt | 8 | Community | STV","players":[{"user_id":163,"name":"Tomfool","steam_id":76561197993256481,"connected_time":638000000000,"state":"active","ping":72},{"user_id":152,"name":"K.V. #RemoveRandomCrits","steam_id":76561197994832993,"connected_time":1332000000000,"state":"active","ping":71},{"user_id":127,"name":"Snd","steam_id":76561198010816408,"connected_time":2306000000000,"state":"active","ping":106},{"user_id":165,"name":"ultimate piggy","steam_id":76561198801456129,"connected_time":542000000000,"state":"active","ping":154},{"user_id":160,"name":"hud_saytext_time 0","steam_id":76561198010327228,"connected_time":1041000000000,"state":"active","ping":52},{"user_id":176,"name":"Reverend","steam_id":76561198059847638,"connected_time":71000000000,"state":"spawning","ping":188},{"user_id":109,"name":"tntsimo","steam_id":76561198145601863,"connected_time":2761000000000,"state":"active","ping":76},{"user_id":156,"name":"Rez","steam_id":76561198410598772,"connected_time":1227000000000,"state":"active","ping":54},{"user_id":141,"name":"Tison","steam_id":76561199127635841,"connected_time":1953000000000,"state":"active","ping":47},{"user_id":78,"name":"Penology","steam_id":76561198192805279,"connected_time":4173000000000,"state":"active","ping":107},{"user_id":113,"name":"night.s","steam_id":76561198326287823,"connected_time":2661000000000,"state":"active","ping":84},{"user_id":158,"name":"roby","steam_id":76561198044660393,"connected_time":1191000000000,"state":"active","ping":55},{"user_id":171,"name":"Slim3rs","steam_id":76561199088010585,"connected_time":438000000000,"state":"active","ping":176},{"user_id":93,"name":"Jolper","steam_id":76561198313821666,"connected_time":3451000000000,"state":"active","ping":88},{"user_id":159,"name":"Dandroid7","steam_id":76561198947673092,"connected_time":1138000000000,"state":"active","ping":45},{"user_id":144,"name":"Mariana","steam_id":76561198278437249,"connected_time":1677000000000,"state":"active","ping":83},{"user_id":142,"name":"üå¥ AN üåÖ","steam_id":76561198111953519,"connected_time":1831000000000,"state":"active","ping":65}]},{"server_id":202,"name":"Uncletopia | Hong Kong | 1 | All Maps","name_short":"hgk-1","host":"hgk-1.hk.uncletopia.com","port":27015,"enabled":true,"region":"asia","cc":"hk","latitude":22.302711,"longitude":114.177216,"reserved":0,"last_update":"0001-01-01T00:00:00Z","name_a2s":"Uncletopia | Hong Kong | 1 | All Maps","protocol":17,"map":"koth_cascade","folder":"tf","game":"Team Fortress","app_id":440,"player_count":0,"max_players":24,"Bots":0,"server_type":"Dedicated","server_os":"Linux","password":true,"vac":true,"version":"7882260","steam_id":85568392924494504,"keywords":["cp","nocrits","nodmgspread","uncletopia"],"game_id":440,"stv_port":27016,"stv_name":"Uncletopia | Hong Kong | 1 | All Maps | STV","players":null},{"server_id":1,"name":"Uncletopia | Los Angeles | 1 | All Maps","name_short":"lax-1","host":"lax-1.us.uncletopia.com","port":27015,"enabled":true,"region":"us-west","cc":"us","latitude":33.94279,"longitude":-118.41004,"reserved":0,"last_update":"0001-01-01T00:00:00Z","name_a2s":"Uncletopia | Los Angeles | 1 | All Maps","protocol":17,"map":"pl_snowycoast","folder":"tf","game":"Team Fortress","app_id":440,"player_count":23,"max_players":24,"Bots":0,"server_type":"Dedicated","server_os":"Linux","password":true,"vac":true,"version":"7882260","steam_id":85568392924469991,"keywords":["nocrits","nodmgspread","payload","uncletopia"],"game_id":440,"stv_port":27016,"stv_name":"Uncletopia | Los Angeles | 1 | All Maps | STV","players":[{"user_id":74,"name":"loreson","steam_id":76561198179567291,"connected_time":1244000000000,"state":"active","ping":47},{"user_id":61,"name":"Aligote","steam_id":76561199188849493,"connected_time":2186000000000,"state":"active","ping":124},{"user_id":81,"name":"Joe2","steam_id":76561199088646500,"connected_time":419000000000,"state":"active","ping":134},{"user_id":82,"name":"Shrimp Shucker","steam_id":76561198119304515,"connected_time":399000000000,"state":"active","ping":108},{"user_id":83,"name":"matt_rolltide","steam_id":76561198796727164,"connected_time":395000000000,"state":"active","ping":32},{"user_id":84,"name":"Red","steam_id":76561198082958231,"connected_time":395000000000,"state":"active","ping":103},{"user_id":92,"name":"Polygunner","steam_id":76561199165741650,"connected_time":249000000000,"state":"active","ping":122},{"user_id":57,"name":"Ellis","steam_id":76561198993634489,"connected_time":2422000000000,"state":"active","ping":40},{"user_id":86,"name":"Et_1113","steam_id":76561199199558343,"connected_time":360000000000,"state":"active","ping":128},{"user_id":42,"name":"Throws Before BrosÛ†Ä°","steam_id":76561197992905530,"connected_time":3247000000000,"state":"active","ping":67},{"user_id":31,"name":"‚ú™ Y V E S","steam_id":76561198299479796,"connected_time":3541000000000,"state":"active","ping":45},{"user_id":69,"name":"Riddle","steam_id":76561198892207399,"connected_time":1760000000000,"state":"active","ping":116},{"user_id":93,"name":"BreadQuest","steam_id":76561198082425960,"connected_time":213000000000,"state":"active","ping":76},{"user_id":89,"name":"some 7-11 Nachos","steam_id":76561199037688210,"connected_time":305000000000,"state":"active","ping":80},{"user_id":58,"name":"FETTUCCINE GANG","steam_id":76561198398722419,"connected_time":2413000000000,"state":"active","ping":88},{"user_id":94,"name":"CBUR","steam_id":76561198437498149,"connected_time":110000000000,"state":"active","ping":62},{"user_id":29,"name":"james may","steam_id":76561198043857339,"connected_time":3650000000000,"state":"active","ping":52},{"user_id":77,"name":"Temujin","steam_id":76561198030936583,"connected_time":1191000000000,"state":"active","ping":90},{"user_id":90,"name":"cook","steam_id":76561199188155028,"connected_time":292000000000,"state":"active","ping":118},{"user_id":50,"name":"Drive-By-Fish-Guy","steam_id":76561198105513652,"connected_time":2909000000000,"state":"active","ping":61},{"user_id":37,"name":"Nekro Kitty","steam_id":76561198025054596,"connected_time":3459000000000,"state":"active","ping":92},{"user_id":54,"name":"Drakon","steam_id":76561198078210822,"connected_time":2619000000000,"state":"active","ping":53},{"user_id":73,"name":"Simplicity","steam_id":76561198005224796,"connected_time":1429000000000,"state":"active","ping":78}]},{"server_id":112,"name":"Uncletopia | Los Angeles | 2 | All Maps","name_short":"lax-2","host":"lax-1.us.uncletopia.com","port":27025,"enabled":true,"region":"us-west","cc":"us","latitude":33.94279,"longitude":-118.41004,"reserved":0,"last_update":"0001-01-01T00:00:00Z","name_a2s":"Uncletopia | Los Angeles | 2 | All Maps","protocol":17,"map":"koth_lakeside_final","folder":"tf","game":"Team Fortress","app_id":440,"player_count":2,"max_players":24,"Bots":0,"server_type":"Dedicated","server_os":"Linux","password":true,"vac":true,"version":"7882260","steam_id":85568392924469992,"keywords":["cp","nocrits","nodmgspread","uncletopia"],"game_id":440,"stv_port":27026,"stv_name":"Uncletopia | Los Angeles | 2 | All Maps | STV","players":[{"user_id":14,"name":"loned","steam_id":76561199180338753,"connected_time":506000000000,"state":"active","ping":68},{"user_id":15,"name":"sleck","steam_id":76561197993068585,"connected_time":184000000000,"state":"active","ping":44}]},{"server_id":324,"name":"Uncletopia | Los Angeles | 3 | All Maps","name_short":"lax-3","host":"lax-1.us.uncletopia.com","port":27035,"enabled":true,"region":"us-west","cc":"us","latitude":33.94279,"longitude":-118.41004,"reserved":0,"last_update":"0001-01-01T00:00:00Z","name_a2s":"Uncletopia | Los Angeles | 3 | All Maps","protocol":17,"map":"koth_lakeside_final","folder":"tf","game":"Team Fortress","app_id":440,"player_count":0,"max_players":24,"Bots":0,"server_type":"Dedicated","server_os":"Linux","password":true,"vac":true,"version":"7882260","steam_id":85568392924510198,"keywords":["cp","nocrits","nodmgspread","uncletopia"],"game_id":440,"stv_port":27036,"stv_name":"Uncletopia | Los Angeles | 3 | All Maps | STV","players":null},{"server_id":25,"name":"Uncletopia | Los Angeles | 4 | Stopwatch Beta","name_short":"lax-4","host":"lax-1.us.uncletopia.com","port":27045,"enabled":true,"region":"us-west","cc":"us","latitude":33.94279,"longitude":-118.41004,"reserved":0,"last_update":"0001-01-01T00:00:00Z","name_a2s":"Uncletopia | Los Angeles | 4 | Stopwatch Beta","protocol":17,"map":"workshop/pl_barnblitz_pro7.ugc582280235","folder":"tf","game":"Team Fortress","app_id":440,"player_count":0,"max_players":24,"Bots":0,"server_type":"Dedicated","server_os":"Linux","password":true,"vac":true,"version":"7882260","steam_id":85568392924510199,"keywords":["nocrits","nodmgspread","payload","uncletopia"],"game_id":440,"stv_port":27046,"stv_name":"Uncletopia | Los Angeles | 4 | Stopwatch Beta | STV","players":null},{"server_id":11,"name":"Uncletopia | London | 1 | All Maps","name_short":"lon-1","host":"lon-1.uk.uncletopia.com","port":27015,"enabled":true,"region":"eu","cc":"gb","latitude":51.509865,"longitude":-0.118092,"reserved":0,"last_update":"0001-01-01T00:00:00Z","name_a2s":"Uncletopia | London | 1 | All Maps","protocol":17,"map":"pl_upward","folder":"tf","game":"Team Fortress","app_id":440,"player_count":24,"max_players":24,"Bots":0,"server_type":"Dedicated","server_os":"Linux","password":true,"vac":true,"version":"7882260","steam_id":85568392924367362,"keywords":["nocrits","nodmgspread","payload","uncletopia"],"game_id":440,"stv_port":27016,"stv_name":"Uncletopia | London | 1 | All Maps | STV","players":[{"user_id":282,"name":"Agartha's child soldier","steam_id":76561198076881381,"connected_time":466000000000,"state":"active","ping":76},{"user_id":265,"name":"Balkespower","steam_id":76561198024869299,"connected_time":1129000000000,"state":"active","ping":59},{"user_id":198,"name":"dec","steam_id":76561198009660168,"connected_time":6755000000000,"state":"active","ping":55},{"user_id":278,"name":"OxygeNxo","steam_id":76561198031632028,"connected_time":627000000000,"state":"active","ping":58},{"user_id":266,"name":"Araragi Koyomi","steam_id":76561198133660491,"connected_time":1047000000000,"state":"active","ping":44},{"user_id":275,"name":"murderwow","steam_id":76561198024566944,"connected_time":698000000000,"state":"active","ping":112},{"user_id":269,"name":"ectono","steam_id":76561199013445121,"connected_time":884000000000,"state":"active","ping":42},{"user_id":243,"name":"Providence","steam_id":76561198003920270,"connected_time":3955000000000,"state":"active","ping":60},{"user_id":289,"name":"Cave","steam_id":76561198423147900,"connected_time":40000000000,"state":"active","ping":43},{"user_id":263,"name":"jimmy bob","steam_id":76561198319583692,"connected_time":1336000000000,"state":"active","ping":56},{"user_id":284,"name":"finbar","steam_id":76561198056812396,"connected_time":346000000000,"state":"active","ping":130},{"user_id":262,"name":"Maridor","steam_id":76561199094592508,"connected_time":1413000000000,"state":"active","ping":74},{"user_id":291,"name":"turntechCathead","steam_id":76561198351249088,"connected_time":11000000000,"state":"active","ping":105},{"user_id":244,"name":"mercurial","steam_id":76561198046227550,"connected_time":3913000000000,"state":"active","ping":45},{"user_id":283,"name":"Topia","steam_id":76561198163571788,"connected_time":392000000000,"state":"active","ping":92},{"user_id":272,"name":"Sodsboy","steam_id":76561198030482006,"connected_time":786000000000,"state":"active","ping":41},{"user_id":285,"name":"LeonIsMooi","steam_id":76561198041524085,"connected_time":332000000000,"state":"active","ping":60},{"user_id":286,"name":"AWildTamim","steam_id":76561198048060652,"connected_time":242000000000,"state":"active","ping":38},{"user_id":287,"name":"The Knight Templar","steam_id":76561198373902104,"connected_time":223000000000,"state":"active","ping":60},{"user_id":250,"name":"Minimi","steam_id":76561198873850443,"connected_time":3130000000000,"state":"active","ping":37},{"user_id":288,"name":"SpaceCees","steam_id":76561198128756659,"connected_time":158000000000,"state":"active","ping":37},{"user_id":279,"name":"Fwebbie","steam_id":76561199006875621,"connected_time":623000000000,"state":"active","ping":53},{"user_id":280,"name":"PEPSI POWERED MAN","steam_id":76561198362668431,"connected_time":556000000000,"state":"active","ping":200},{"user_id":220,"name":"Prome","steam_id":76561199050383942,"connected_time":5218000000000,"state":"active","ping":56}]},{"server_id":114,"name":"Uncletopia | London | 2 | All Maps","name_short":"lon-2","host":"lon-1.uk.uncletopia.com","port":27025,"enabled":true,"region":"eu","cc":"gb","latitude":51.509865,"longitude":-0.118092,"reserved":0,"last_update":"0001-01-01T00:00:00Z","name_a2s":"Uncletopia | London | 2 | All Maps","protocol":17,"map":"pl_pier","folder":"tf","game":"Team Fortress","app_id":440,"player_count":23,"max_players":24,"Bots":0,"server_type":"Dedicated","server_os":"Linux","password":true,"vac":true,"version":"7882260","steam_id":85568392924470941,"keywords":["nocrits","nodmgspread","payload","uncletopia"],"game_id":440,"stv_port":27026,"stv_name":"Uncletopia | London | 2 | All Maps | STV","players":[{"user_id":681,"name":"WolfmanCZ","steam_id":76561199157141414,"connected_time":312000000000,"state":"active","ping":76},{"user_id":674,"name":"Swedish Vegan","steam_id":76561198042775020,"connected_time":466000000000,"state":"active","ping":74},{"user_id":647,"name":"wee woo","steam_id":76561198147277460,"connected_time":1863000000000,"state":"active","ping":60},{"user_id":656,"name":"„ÉÜ„Ç§„É´„Çπ","steam_id":76561198022403271,"connected_time":1278000000000,"state":"active","ping":45},{"user_id":677,"name":"Dr.Sees [F2P]","steam_id":76561199219233587,"connected_time":388000000000,"state":"active","ping":74},{"user_id":678,"name":"Inhambane","steam_id":76561198364050027,"connected_time":386000000000,"state":"active","ping":55},{"user_id":679,"name":"BONK-TEC!","steam_id":76561198272667029,"connected_time":364000000000,"state":"active","ping":50},{"user_id":663,"name":"kuno","steam_id":76561198068081430,"connected_time":786000000000,"state":"active","ping":37},{"user_id":675,"name":"Glenn Quagmire","steam_id":76561199348527880,"connected_time":440000000000,"state":"active","ping":101},{"user_id":670,"name":"Burpman","steam_id":76561198022897937,"connected_time":677000000000,"state":"active","ping":46},{"user_id":683,"name":"Open Salami","steam_id":76561198351223374,"connected_time":249000000000,"state":"active","ping":72},{"user_id":682,"name":"‚ú™ GentleMann","steam_id":76561198075332603,"connected_time":269000000000,"state":"active","ping":162},{"user_id":654,"name":"porngamer","steam_id":76561198204620491,"connected_time":1366000000000,"state":"active","ping":31},{"user_id":642,"name":"Shovelhalfrusty","steam_id":76561198346447513,"connected_time":1927000000000,"state":"active","ping":109},{"user_id":684,"name":"s a i","steam_id":76561197970379754,"connected_time":204000000000,"state":"active","ping":60},{"user_id":619,"name":"Tayuya","steam_id":76561199122771351,"connected_time":3508000000000,"state":"active","ping":45},{"user_id":688,"name":"Luke","steam_id":76561197993517025,"connected_time":99000000000,"state":"active","ping":45},{"user_id":686,"name":"One-Face","steam_id":76561197999384826,"connected_time":186000000000,"state":"active","ping":61},{"user_id":665,"name":"A Pigeon","steam_id":76561198114090555,"connected_time":780000000000,"state":"active","ping":78},{"user_id":667,"name":"Motley_","steam_id":76561198116057976,"connected_time":771000000000,"state":"active","ping":36},{"user_id":687,"name":"lerodai","steam_id":76561199084810384,"connected_time":115000000000,"state":"active","ping":128},{"user_id":671,"name":"Magechaos","steam_id":76561198026852227,"connected_time":627000000000,"state":"active","ping":129},{"user_id":551,"name":"YeetusFeetus","steam_id":76561199043598948,"connected_time":6717000000000,"state":"active","ping":104}]},{"server_id":320,"name":"Uncletopia | London | 3 | All Maps","name_short":"lon-3","host":"lon-1.uk.uncletopia.com","port":27035,"enabled":true,"region":"eu","cc":"gb","latitude":51.509865,"longitude":-0.118092,"reserved":0,"last_update":"0001-01-01T00:00:00Z","name_a2s":"Uncletopia | London | 3 | All Maps","protocol":17,"map":"cp_sunshine","folder":"tf","game":"Team Fortress","app_id":440,"player_count":24,"max_players":24,"Bots":0,"server_type":"Dedicated","server_os":"Linux","password":true,"vac":true,"version":"7882260","steam_id":85568392924510192,"keywords":["cp","nocrits","nodmgspread","uncletopia"],"game_id":440,"stv_port":27036,"stv_name":"Uncletopia | London | 3 | All Maps | STV","players":[{"user_id":317,"name":"Ark-e","steam_id":76561198261870909,"connected_time":5315000000000,"state":"active","ping":32},{"user_id":387,"name":"Ross from F.R.I.E.N.D.S.","steam_id":76561198008511665,"connected_time":50000000000,"state":"active","ping":59},{"user_id":379,"name":"Superiumentarius","steam_id":76561198081642249,"connected_time":553000000000,"state":"active","ping":60},{"user_id":388,"name":"M«ø≈ü≈¶Œµ≈ó_√ü≈ÇŒª√ßƒõ","steam_id":76561197980124891,"connected_time":40000000000,"state":"active","ping":60},{"user_id":295,"name":"dash.","steam_id":76561198084796149,"connected_time":6688000000000,"state":"active","ping":45},{"user_id":372,"name":"Dododid","steam_id":76561198159185258,"connected_time":1059000000000,"state":"active","ping":55},{"user_id":373,"name":"im tired","steam_id":76561199023826952,"connected_time":1050000000000,"state":"active","ping":59},{"user_id":374,"name":"Ecton","steam_id":76561198025103720,"connected_time":1042000000000,"state":"active","ping":56},{"user_id":375,"name":"Snaky","steam_id":76561199000954430,"connected_time":1021000000000,"state":"active","ping":99},{"user_id":383,"name":"POU cherry","steam_id":76561199006915718,"connected_time":98000000000,"state":"active","ping":74},{"user_id":384,"name":"f√©nix","steam_id":76561198083199151,"connected_time":95000000000,"state":"active","ping":63},{"user_id":385,"name":"Zank Frappa","steam_id":76561199227624104,"connected_time":84000000000,"state":"active","ping":64},{"user_id":346,"name":"The Shotgun","steam_id":76561198044008976,"connected_time":2870000000000,"state":"active","ping":66},{"user_id":366,"name":"[√âire] Hype!","steam_id":76561198061449287,"connected_time":1606000000000,"state":"active","ping":59},{"user_id":389,"name":"Abigor","steam_id":76561197969316578,"connected_time":32000000000,"state":"spawning","ping":60},{"user_id":386,"name":"Slowbro","steam_id":76561198010779146,"connected_time":84000000000,"state":"active","ping":92},{"user_id":324,"name":"based tryhard","steam_id":76561198084470380,"connected_time":5055000000000,"state":"active","ping":62},{"user_id":380,"name":"los jeezos","steam_id":76561198123592400,"connected_time":549000000000,"state":"active","ping":97},{"user_id":325,"name":"putrid weasel","steam_id":76561198012955043,"connected_time":5054000000000,"state":"active","ping":54},{"user_id":368,"name":"Dog ?","steam_id":76561198347020945,"connected_time":1165000000000,"state":"active","ping":93},{"user_id":283,"name":"nop","steam_id":76561198064180797,"connected_time":8372000000000,"state":"active","ping":70},{"user_id":343,"name":"unsafequeen","steam_id":76561199088126900,"connected_time":3557000000000,"state":"active","ping":163},{"user_id":301,"name":"Cabbch","steam_id":76561198045955679,"connected_time":6344000000000,"state":"active","ping":53},{"user_id":369,"name":"DocTwoEight","steam_id":76561198153488940,"connected_time":1163000000000,"state":"active","ping":78}]},{"server_id":321,"name":"Uncletopia | London | 4 | All Maps","name_short":"lon-4","host":"lon-1.uk.uncletopia.com","port":27045,"enabled":true,"region":"eu","cc":"gb","latitude":51.509865,"longitude":-0.118092,"reserved":0,"last_update":"0001-01-01T00:00:00Z","name_a2s":"Uncletopia | London | 4 | All Maps","protocol":17,"map":"cp_snakewater_final1","folder":"tf","game":"Team Fortress","app_id":440,"player_count":24,"max_players":24,"Bots":0,"server_type":"Dedicated","server_os":"Linux","password":true,"vac":true,"version":"7882260","steam_id":85568392924510193,"keywords":["cp","nocrits","nodmgspread","uncletopia"],"game_id":440,"stv_port":27046,"stv_name":"Uncletopia | London | 4 | All Maps | STV","players":[{"user_id":200,"name":"Guy called Tycho","steam_id":76561198044560715,"connected_time":1043000000000,"state":"active","ping":60},{"user_id":168,"name":"Femgineer","steam_id":76561198975667801,"connected_time":2496000000000,"state":"active","ping":49},{"user_id":215,"name":"Foxtrot Uniform","steam_id":76561199236576844,"connected_time":50000000000,"state":"active","ping":147},{"user_id":204,"name":"dimitrij_6ix_god","steam_id":76561199023275543,"connected_time":809000000000,"state":"active","ping":86},{"user_id":209,"name":"pensami forte","steam_id":76561198066071855,"connected_time":416000000000,"state":"active","ping":68},{"user_id":210,"name":"Zerfesh","steam_id":76561198117534358,"connected_time":263000000000,"state":"active","ping":109},{"user_id":211,"name":"Greyhunter","steam_id":76561197960884202,"connected_time":195000000000,"state":"active","ping":35},{"user_id":212,"name":"WeeFatPie","steam_id":76561198188250018,"connected_time":156000000000,"state":"active","ping":59},{"user_id":167,"name":"Dispenser(Dispenser)","steam_id":76561199211831658,"connected_time":2552000000000,"state":"active","ping":59},{"user_id":171,"name":"Adonut","steam_id":76561198805858184,"connected_time":2472000000000,"state":"active","ping":175},{"user_id":188,"name":"R4yzan","steam_id":76561198085146731,"connected_time":1424000000000,"state":"active","ping":54},{"user_id":213,"name":"Crunchips","steam_id":76561198004336818,"connected_time":154000000000,"state":"active","ping":102},{"user_id":190,"name":"schmick h_stt 0","steam_id":76561198039537958,"connected_time":1415000000000,"state":"active","ping":47},{"user_id":172,"name":"Qzkowanyyyyyy","steam_id":76561198942008721,"connected_time":2456000000000,"state":"active","ping":87},{"user_id":173,"name":"Walle","steam_id":76561197995148937,"connected_time":2447000000000,"state":"active","ping":80},{"user_id":137,"name":"Saucy_Jack","steam_id":76561198088559588,"connected_time":4197000000000,"state":"active","ping":35},{"user_id":191,"name":"quickfast","steam_id":76561199438900919,"connected_time":1390000000000,"state":"active","ping":45},{"user_id":214,"name":"Don Martins brother","steam_id":76561198112980346,"connected_time":137000000000,"state":"active","ping":56},{"user_id":203,"name":"mixxxa_french","steam_id":76561198085098243,"connected_time":876000000000,"state":"active","ping":131},{"user_id":166,"name":"Lucoa Enjoyer","steam_id":76561198842622419,"connected_time":2613000000000,"state":"active","ping":95},{"user_id":205,"name":"nutlube","steam_id":76561198128831131,"connected_time":669000000000,"state":"active","ping":61},{"user_id":81,"name":"Qwertuss","steam_id":76561198026305366,"connected_time":6540000000000,"state":"active","ping":60},{"user_id":194,"name":".pandemiC","steam_id":76561198015941460,"connected_time":1286000000000,"state":"active","ping":96},{"user_id":208,"name":"gnarly business","steam_id":76561198832688767,"connected_time":477000000000,"state":"active","ping":53}]},{"server_id":21,"name":"Uncletopia | London | 5 | All Maps","name_short":"lon-5","host":"lon-1.uk.uncletopia.com","port":27055,"enabled":true,"region":"eu","cc":"gb","latitude":51.509865,"longitude":-0.118092,"reserved":0,"last_update":"0001-01-01T00:00:00Z","name_a2s":"Uncletopia | London | 5 | All Maps","protocol":17,"map":"pl_borneo","folder":"tf","game":"Team Fortress","app_id":440,"player_count":24,"max_players":24,"Bots":0,"server_type":"Dedicated","server_os":"Linux","password":true,"vac":true,"version":"7882260","steam_id":85568392924742829,"keywords":["nocrits","nodmgspread","payload","uncletopia"],"game_id":440,"stv_port":27056,"stv_name":"Uncletopia | London | 5 | All Maps | STV","players":[{"user_id":486,"name":"Fat Pigeon","steam_id":76561198817940142,"connected_time":1561000000000,"state":"active","ping":50},{"user_id":504,"name":"G6 sherlock","steam_id":76561198802967796,"connected_time":74000000000,"state":"active","ping":119},{"user_id":499,"name":"After8","steam_id":76561198090750865,"connected_time":261000000000,"state":"active","ping":83},{"user_id":474,"name":"lulu","steam_id":76561199147764133,"connected_time":2154000000000,"state":"active","ping":80},{"user_id":476,"name":"EastoTHAT-Bread-GUY","steam_id":76561199426547874,"connected_time":2026000000000,"state":"active","ping":155},{"user_id":496,"name":"I sell exotic parrots","steam_id":76561199192434258,"connected_time":468000000000,"state":"active","ping":90},{"user_id":501,"name":"Jonathan","steam_id":76561198087988880,"connected_time":212000000000,"state":"active","ping":60},{"user_id":452,"name":"Polarity","steam_id":76561198220120544,"connected_time":3413000000000,"state":"active","ping":81},{"user_id":478,"name":"Zizman","steam_id":76561198446562910,"connected_time":1905000000000,"state":"active","ping":141},{"user_id":455,"name":"Pyrolander","steam_id":76561198050785450,"connected_time":3304000000000,"state":"active","ping":51},{"user_id":450,"name":"Sch","steam_id":76561198071341689,"connected_time":3431000000000,"state":"active","ping":63},{"user_id":460,"name":"xiiski","steam_id":76561198152387747,"connected_time":3120000000000,"state":"active","ping":100},{"user_id":497,"name":"(wm) Das Fleisch","steam_id":76561198001250715,"connected_time":465000000000,"state":"active","ping":54},{"user_id":485,"name":"giga","steam_id":76561199068894246,"connected_time":1643000000000,"state":"active","ping":85},{"user_id":482,"name":"Dex","steam_id":76561197981134247,"connected_time":1692000000000,"state":"active","ping":42},{"user_id":483,"name":"InjuryTime","steam_id":76561199051209821,"connected_time":1686000000000,"state":"active","ping":59},{"user_id":502,"name":"smk","steam_id":76561198068027379,"connected_time":177000000000,"state":"active","ping":89},{"user_id":468,"name":"Purps","steam_id":76561198053886680,"connected_time":2370000000000,"state":"active","ping":45},{"user_id":461,"name":"ducks","steam_id":76561198166148685,"connected_time":3092000000000,"state":"active","ping":31},{"user_id":479,"name":"ALARM","steam_id":76561198120686521,"connected_time":1886000000000,"state":"active","ping":65},{"user_id":500,"name":"Thors","steam_id":76561197968739075,"connected_time":257000000000,"state":"active","ping":45},{"user_id":503,"name":"X-tis","steam_id":76561198043837480,"connected_time":118000000000,"state":"active","ping":69},{"user_id":492,"name":"wtabs","steam_id":76561198831766743,"connected_time":1415000000000,"state":"active","ping":73},{"user_id":493,"name":"Wardruna96","steam_id":76561199057083828,"connected_time":1287000000000,"state":"active","ping":85}]},{"server_id":22,"name":"Uncletopia | London | 6 | All Maps","name_short":"lon-6","host":"lon-1.uk.uncletopia.com","port":27065,"enabled":true,"region":"eu","cc":"gb","latitude":51.509865,"longitude":-0.118092,"reserved":0,"last_update":"0001-01-01T00:00:00Z","name_a2s":"Uncletopia | London | 6 | All Maps","protocol":17,"map":"cp_powerhouse","folder":"tf","game":"Team Fortress","app_id":440,"player_count":17,"max_players":24,"Bots":0,"server_type":"Dedicated","server_os":"Linux","password":true,"vac":true,"version":"7882260","steam_id":85568392924742830,"keywords":["cp","nocrits","nodmgspread","uncletopia"],"game_id":440,"stv_port":27066,"stv_name":"Uncletopia | London | 6 | All Maps | STV","players":[{"user_id":487,"name":"D√∂m_√ãn","steam_id":76561198027243883,"connected_time":5000000000,"state":"spawning","ping":60},{"user_id":396,"name":"Gorogaz","steam_id":76561198207157679,"connected_time":8053000000000,"state":"spawning","ping":45},{"user_id":414,"name":"Noob_with_source","steam_id":76561198870362103,"connected_time":5905000000000,"state":"spawning","ping":67},{"user_id":471,"name":"kikyeredin","steam_id":76561199058651968,"connected_time":2086000000000,"state":"spawning","ping":48},{"user_id":449,"name":"El_Kommadante","steam_id":76561198079551685,"connected_time":4561000000000,"state":"spawning","ping":74},{"user_id":454,"name":"Lessoz","steam_id":76561199211572036,"connected_time":4058000000000,"state":"spawning","ping":101},{"user_id":483,"name":"---","steam_id":76561198092283741,"connected_time":737000000000,"state":"spawning","ping":62},{"user_id":463,"name":"Rook","steam_id":76561197995204779,"connected_time":3342000000000,"state":"spawning","ping":50},{"user_id":447,"name":"Sham!","steam_id":76561198050434275,"connected_time":4806000000000,"state":"spawning","ping":66},{"user_id":465,"name":"Abaddon","steam_id":76561199205559813,"connected_time":3147000000000,"state":"spawning","ping":67},{"user_id":473,"name":"lettuce out of stock","steam_id":76561199401283123,"connected_time":2064000000000,"state":"spawning","ping":43},{"user_id":393,"name":"jones","steam_id":76561198044434971,"connected_time":8140000000000,"state":"spawning","ping":82},{"user_id":479,"name":"Ash","steam_id":76561198148738525,"connected_time":1917000000000,"state":"spawning","ping":121},{"user_id":482,"name":"Sentry Gun (Sham!)","steam_id":76561198154229845,"connected_time":790000000000,"state":"spawning","ping":61},{"user_id":446,"name":"Punchy","steam_id":76561197961020896,"connected_time":4849000000000,"state":"spawning","ping":48},{"user_id":426,"name":"medicinal man","steam_id":76561198202668788,"connected_time":5466000000000,"state":"spawning","ping":68},{"user_id":478,"name":"shreddies 750g","steam_id":76561198188642265,"connected_time":1979000000000,"state":"spawning","ping":75}]},{"server_id":40,"name":"Uncletopia | London | 7 | No Payload","name_short":"lon-7","host":"lon-1.uk.uncletopia.com","port":27075,"enabled":true,"region":"eu","cc":"gb","latitude":51.509865,"longitude":-0.118092,"reserved":0,"last_update":"0001-01-01T00:00:00Z","name_a2s":"Uncletopia | London | 7 | No Payload","protocol":17,"map":"koth_sawmill","folder":"tf","game":"Team Fortress","app_id":440,"player_count":22,"max_players":24,"Bots":0,"server_type":"Dedicated","server_os":"Linux","password":true,"vac":true,"version":"7882260","steam_id":85568392924964314,"keywords":["cp","nocrits","nodmgspread","uncletopia"],"game_id":440,"stv_port":27076,"stv_name":"Uncletopia | London | 7 | No Payload | STV","players":[{"user_id":321,"name":"ZOZULA_","steam_id":76561198930100648,"connected_time":1306000000000,"state":"active","ping":72},{"user_id":281,"name":"FATTY","steam_id":76561198087962709,"connected_time":3120000000000,"state":"active","ping":75},{"user_id":282,"name":"PANAANI","steam_id":76561198322322739,"connected_time":3040000000000,"state":"active","ping":91},{"user_id":271,"name":"nvmHastee","steam_id":76561199371458295,"connected_time":3915000000000,"state":"active","ping":85},{"user_id":289,"name":"ARABACIYOKKI","steam_id":76561198928074216,"connected_time":2397000000000,"state":"active","ping":123},{"user_id":342,"name":"Frosty","steam_id":76561197996832101,"connected_time":48000000000,"state":"active","ping":406},{"user_id":276,"name":"Nobaddy","steam_id":76561198037871007,"connected_time":3456000000000,"state":"active","ping":77},{"user_id":341,"name":"A 2001 toyota corola","steam_id":76561199235179665,"connected_time":100000000000,"state":"active","ping":101},{"user_id":292,"name":"Wubba","steam_id":76561198409725218,"connected_time":2291000000000,"state":"active","ping":34},{"user_id":294,"name":"Sentry Gun (Dell Conagher)","steam_id":76561198048530109,"connected_time":2266000000000,"state":"active","ping":65},{"user_id":331,"name":"Throw it away by Everett bradle","steam_id":76561199145506847,"connected_time":769000000000,"state":"active","ping":130},{"user_id":288,"name":"mewcat","steam_id":76561199087050938,"connected_time":2660000000000,"state":"active","ping":84},{"user_id":335,"name":"DOMAIN","steam_id":76561199095640319,"connected_time":484000000000,"state":"active","ping":91},{"user_id":343,"name":"Circular","steam_id":76561198001536710,"connected_time":32000000000,"state":"active","ping":48},{"user_id":301,"name":"Crimson_Jellyfish","steam_id":76561198147407556,"connected_time":2099000000000,"state":"active","ping":89},{"user_id":302,"name":"ok","steam_id":76561199041677307,"connected_time":2076000000000,"state":"active","ping":66},{"user_id":329,"name":"Mr.Duck","steam_id":76561197983710667,"connected_time":1055000000000,"state":"active","ping":89},{"user_id":330,"name":"PicklesTRT","steam_id":76561198053440288,"connected_time":935000000000,"state":"active","ping":171},{"user_id":311,"name":"big poo","steam_id":76561199088284199,"connected_time":1700000000000,"state":"active","ping":76},{"user_id":318,"name":"ukraine is committing war crime","steam_id":76561198061450151,"connected_time":1446000000000,"state":"active","ping":128},{"user_id":314,"name":"Penis Contortionist","steam_id":76561198073663784,"connected_time":1612000000000,"state":"active","ping":43},{"user_id":337,"name":"Cass","steam_id":76561198934205195,"connected_time":368000000000,"state":"active","ping":51}]},{"server_id":41,"name":"Uncletopia | London | 8 | Community","name_short":"lon-8","host":"lon-1.uk.uncletopia.com","port":27085,"enabled":true,"region":"eu","cc":"gb","latitude":51.509865,"longitude":-0.118092,"reserved":0,"last_update":"0001-01-01T00:00:00Z","name_a2s":"Uncletopia | London | 8 | Community","protocol":17,"map":"workshop/koth_trenchfoot_b1a.ugc731436616","folder":"tf","game":"Team Fortress","app_id":440,"player_count":0,"max_players":24,"Bots":0,"server_type":"Dedicated","server_os":"Linux","password":true,"vac":true,"version":"7882260","steam_id":85568392924964315,"keywords":["cp","nocrits","nodmgspread","uncletopia"],"game_id":440,"stv_port":27086,"stv_name":"Uncletopia | London | 8 | Community | STV","players":null},{"server_id":300,"name":"Uncletopia | Montr√©al | 1 | All Maps","name_short":"mtl-1","host":"mtl-1.ca.uncletopia.com","port":27015,"enabled":true,"region":"us-east","cc":"ca","latitude":45.50889,"longitude":-73.56167,"reserved":0,"last_update":"0001-01-01T00:00:00Z","name_a2s":"Uncletopia | Montr√©al | 1 | All Maps","protocol":17,"map":"pl_upward","folder":"tf","game":"Team Fortress","app_id":440,"player_count":0,"max_players":24,"Bots":0,"server_type":"Dedicated","server_os":"Linux","password":true,"vac":true,"version":"7882260","steam_id":85568392924500087,"keywords":["nocrits","nodmgspread","payload","uncletopia"],"game_id":440,"stv_port":27016,"stv_name":"Uncletopia | Montr√©al | 1 | All Maps | STV","players":null},{"server_id":301,"name":"Uncletopia | Montr√©al | 2 | All Maps","name_short":"mtl-2","host":"mtl-1.ca.uncletopia.com","port":27025,"enabled":true,"region":"us-east","cc":"ca","latitude":45.50889,"longitude":-73.56167,"reserved":0,"last_update":"0001-01-01T00:00:00Z","name_a2s":"Uncletopia | Montr√©al | 2 | All Maps","protocol":17,"map":"cp_sunshine","folder":"tf","game":"Team Fortress","app_id":440,"player_count":0,"max_players":24,"Bots":0,"server_type":"Dedicated","server_os":"Linux","password":true,"vac":true,"version":"7882260","steam_id":85568392924500088,"keywords":["cp","nocrits","nodmgspread","uncletopia"],"game_id":440,"stv_port":27026,"stv_name":"Uncletopia | Montr√©al | 2 | All Maps | STV","players":null},{"server_id":302,"name":"Uncletopia | Montr√©al | 3 | All Maps","name_short":"mtl-3","host":"mtl-1.ca.uncletopia.com","port":27035,"enabled":true,"region":"us-east","cc":"ca","latitude":45.50889,"longitude":-73.56167,"reserved":0,"last_update":"0001-01-01T00:00:00Z","name_a2s":"Uncletopia | Montr√©al | 3 | All Maps","protocol":17,"map":"cp_sunshine","folder":"tf","game":"Team Fortress","app_id":440,"player_count":0,"max_players":24,"Bots":0,"server_type":"Dedicated","server_os":"Linux","password":true,"vac":true,"version":"7882260","steam_id":85568392924500089,"keywords":["cp","nocrits","nodmgspread","uncletopia"],"game_id":440,"stv_port":27036,"stv_name":"Uncletopia | Montr√©al | 3 | All Maps | STV","players":null},{"server_id":303,"name":"Uncletopia | Montr√©al | 4 | No Payload","name_short":"mtl-4","host":"mtl-1.ca.uncletopia.com","port":27045,"enabled":true,"region":"us-east","cc":"ca","latitude":45.50889,"longitude":-73.56167,"reserved":0,"last_update":"0001-01-01T00:00:00Z","name_a2s":"Uncletopia | Montr√©al | 4 | No Payload","protocol":17,"map":"cp_altitude","folder":"tf","game":"Team Fortress","app_id":440,"player_count":0,"max_players":24,"Bots":0,"server_type":"Dedicated","server_os":"Linux","password":true,"vac":true,"version":"7882260","steam_id":85568392924500090,"keywords":["cp","nocrits","nodmgspread","uncletopia"],"game_id":440,"stv_port":27046,"stv_name":"Uncletopia | Montr√©al | 4 | No Payload | STV","players":null},{"server_id":13,"name":"Uncletopia | New York City | 1 | All Maps","name_short":"nyc-1","host":"nyc-1.us.uncletopia.com","port":27015,"enabled":true,"region":"us-east","cc":"us","latitude":40.73061,"longitude":-73.93524,"reserved":0,"last_update":"0001-01-01T00:00:00Z","name_a2s":"Uncletopia | New York City | 1 | All Maps","protocol":17,"map":"pl_barnblitz","folder":"tf","game":"Team Fortress","app_id":440,"player_count":23,"max_players":24,"Bots":0,"server_type":"Dedicated","server_os":"Linux","password":true,"vac":true,"version":"7882260","steam_id":85568392924469993,"keywords":["nocrits","nodmgspread","payload","uncletopia"],"game_id":440,"stv_port":27016,"stv_name":"Uncletopia | New York City | 1 | All Maps | STV","players":[{"user_id":201,"name":"Cesium","steam_id":76561198340902384,"connected_time":866000000000,"state":"active","ping":76},{"user_id":151,"name":"hidden flavonoid","steam_id":76561198201259645,"connected_time":5280000000000,"state":"active","ping":59},{"user_id":178,"name":"Scatter (She/Her)","steam_id":76561198405168492,"connected_time":3399000000000,"state":"active","ping":79},{"user_id":188,"name":"retinz","steam_id":76561198135563495,"connected_time":2255000000000,"state":"active","ping":56},{"user_id":169,"name":"Lyxfex","steam_id":76561198050166082,"connected_time":3961000000000,"state":"active","ping":59},{"user_id":205,"name":"Vec","steam_id":76561198044505262,"connected_time":30000000000,"state":"active","ping":88},{"user_id":199,"name":"creeeeeee","steam_id":76561198392539722,"connected_time":1377000000000,"state":"active","ping":81},{"user_id":119,"name":"nalezinik","steam_id":76561198030026119,"connected_time":7294000000000,"state":"active","ping":70},{"user_id":206,"name":"Kalhoun","steam_id":76561197999648122,"connected_time":18000000000,"state":"spawning","ping":59},{"user_id":187,"name":"the-willy12","steam_id":76561199145029672,"connected_time":2258000000000,"state":"active","ping":68},{"user_id":198,"name":"Major Woody","steam_id":76561198835541533,"connected_time":1555000000000,"state":"active","ping":55},{"user_id":156,"name":"Jeffenthropus","steam_id":76561198134204248,"connected_time":4883000000000,"state":"active","ping":45},{"user_id":207,"name":"Gir Gaming","steam_id":76561198156782359,"connected_time":14000000000,"state":"active","ping":46},{"user_id":135,"name":"drank","steam_id":76561198249206656,"connected_time":6899000000000,"state":"active","ping":67},{"user_id":166,"name":"L«òc–öŒ≥ ⁄©≈¶ri–∫Œæ","steam_id":76561198057723275,"connected_time":3993000000000,"state":"active","ping":117},{"user_id":185,"name":"emilee (evil)","steam_id":76561198061455664,"connected_time":2639000000000,"state":"active","ping":40},{"user_id":197,"name":"Butters495","steam_id":76561197998689042,"connected_time":1870000000000,"state":"active","ping":69},{"user_id":190,"name":"Broadway Rose","steam_id":76561198046083342,"connected_time":2161000000000,"state":"active","ping":44},{"user_id":145,"name":"xiii","steam_id":76561198079416036,"connected_time":5957000000000,"state":"active","ping":81},{"user_id":189,"name":"Gentoo Linux Gaming","steam_id":76561197999657118,"connected_time":2246000000000,"state":"active","ping":63},{"user_id":204,"name":"JustLooking","steam_id":76561198207877387,"connected_time":323000000000,"state":"active","ping":44},{"user_id":202,"name":"GanZ","steam_id":76561199378883538,"connected_time":819000000000,"state":"active","ping":70},{"user_id":208,"name":"CRAZY engineer","steam_id":76561198887937902,"connected_time":3000000000,"state":"spawning","ping":145}]},{"server_id":14,"name":"Uncletopia | New York City | 2 | All Maps","name_short":"nyc-2","host":"nyc-1.us.uncletopia.com","port":27025,"enabled":true,"region":"us-east","cc":"us","latitude":40.73061,"longitude":-73.93524,"reserved":0,"last_update":"0001-01-01T00:00:00Z","name_a2s":"Uncletopia | New York City | 2 | All Maps","protocol":17,"map":"cp_sunshine","folder":"tf","game":"Team Fortress","app_id":440,"player_count":23,"max_players":24,"Bots":0,"server_type":"Dedicated","server_os":"Linux","password":true,"vac":true,"version":"7882260","steam_id":85568392924469994,"keywords":["cp","nocrits","nodmgspread","uncletopia"],"game_id":440,"stv_port":27026,"stv_name":"Uncletopia | New York City | 2 | All Maps | STV","players":[{"user_id":152,"name":"YelloGoat","steam_id":76561198367174421,"connected_time":1083000000000,"state":"active","ping":34},{"user_id":167,"name":"Ampereii","steam_id":76561199047421020,"connected_time":125000000000,"state":"active","ping":62},{"user_id":169,"name":"perc the third","steam_id":76561198073269122,"connected_time":60000000000,"state":"active","ping":47},{"user_id":160,"name":"evoL","steam_id":76561198149410261,"connected_time":335000000000,"state":"active","ping":74},{"user_id":89,"name":"ThatGamingKiwi","steam_id":76561199170522237,"connected_time":5909000000000,"state":"active","ping":74},{"user_id":159,"name":"dr peppah chug!","steam_id":76561198068835693,"connected_time":352000000000,"state":"active","ping":85},{"user_id":138,"name":"SHADY SWEATER SALESMAN","steam_id":76561198014616865,"connected_time":1928000000000,"state":"active","ping":58},{"user_id":140,"name":"mudman","steam_id":76561198079420187,"connected_time":1894000000000,"state":"active","ping":80},{"user_id":155,"name":"Jade","steam_id":76561199156753660,"connected_time":901000000000,"state":"active","ping":70},{"user_id":97,"name":"bobbymcbobington","steam_id":76561199089411172,"connected_time":4741000000000,"state":"active","ping":114},{"user_id":144,"name":"Sire Salty","steam_id":76561198079639072,"connected_time":1680000000000,"state":"active","ping":50},{"user_id":125,"name":"Lil' Croissant","steam_id":76561198059494343,"connected_time":2866000000000,"state":"active","ping":129},{"user_id":165,"name":"gas station tweaker","steam_id":76561198337692867,"connected_time":154000000000,"state":"active","ping":69},{"user_id":163,"name":"Slashes","steam_id":76561197968573499,"connected_time":200000000000,"state":"active","ping":45},{"user_id":151,"name":"I crash into ice cream trucks","steam_id":76561198078565975,"connected_time":1145000000000,"state":"active","ping":46},{"user_id":154,"name":"AlmondMilk","steam_id":76561198151229725,"connected_time":1008000000000,"state":"active","ping":51},{"user_id":130,"name":"‚ô°a femboy‚ô°","steam_id":76561199212971864,"connected_time":2397000000000,"state":"active","ping":68},{"user_id":166,"name":"SortOfABigDeal","steam_id":76561198323397375,"connected_time":152000000000,"state":"active","ping":142},{"user_id":164,"name":"MrrPamplemousse","steam_id":76561198072241333,"connected_time":188000000000,"state":"active","ping":50},{"user_id":148,"name":"Bl0ckhead123","steam_id":76561198283536929,"connected_time":1339000000000,"state":"active","ping":131},{"user_id":150,"name":"Cerin","steam_id":76561198071490164,"connected_time":1157000000000,"state":"active","ping":85},{"user_id":146,"name":"Luka Dalokohs","steam_id":76561198089691679,"connected_time":1641000000000,"state":"active","ping":50},{"user_id":168,"name":"capeeKo","steam_id":76561197970346623,"connected_time":112000000000,"state":"active","ping":63}]},{"server_id":15,"name":"Uncletopia | New York City | 3 | Stopwatch Beta","name_short":"nyc-3","host":"nyc-1.us.uncletopia.com","port":27035,"enabled":true,"region":"us-east","cc":"us","latitude":40.73061,"longitude":-73.93524,"reserved":0,"last_update":"0001-01-01T00:00:00Z","name_a2s":"Uncletopia | New York City | 3 | Stopwatch Beta","protocol":17,"map":"cp_sunshine","folder":"tf","game":"Team Fortress","app_id":440,"player_count":0,"max_players":24,"Bots":0,"server_type":"Dedicated","server_os":"Linux","password":true,"vac":true,"version":"7882260","steam_id":85568392924742820,"keywords":["cp","nocrits","nodmgspread","uncletopia"],"game_id":440,"stv_port":27036,"stv_name":"Uncletopia | New York City | 3 | Stopwatch Beta | STV","players":null},{"server_id":16,"name":"Uncletopia | New York City | 4 | Community","name_short":"nyc-4","host":"nyc-1.us.uncletopia.com","port":27045,"enabled":true,"region":"us-east","cc":"us","latitude":40.73061,"longitude":-73.93524,"reserved":0,"last_update":"0001-01-01T00:00:00Z","name_a2s":"Uncletopia | New York City | 4 | Community","protocol":17,"map":"workshop/koth_ramjam_rc1.ugc459778887","folder":"tf","game":"Team Fortress","app_id":440,"player_count":0,"max_players":24,"Bots":0,"server_type":"Dedicated","server_os":"Linux","password":true,"vac":true,"version":"7882260","steam_id":85568392924742821,"keywords":["cp","nocrits","nodmgspread","uncletopia"],"game_id":440,"stv_port":27046,"stv_name":"Uncletopia | New York City | 4 | Community | STV","players":null},{"server_id":142,"name":"Uncletopia | S√£o Paulo | 1 | All Maps","name_short":"sao-1","host":"sao-1.br.uncletopia.com","port":27015,"enabled":true,"region":"sa","cc":"br","latitude":-23.533773,"longitude":-46.62529,"reserved":0,"last_update":"0001-01-01T00:00:00Z","name_a2s":"Uncletopia | S√£o Paulo | 1 | All Maps","protocol":17,"map":"koth_lakeside_final","folder":"tf","game":"Team Fortress","app_id":440,"player_count":0,"max_players":24,"Bots":0,"server_type":"Dedicated","server_os":"Linux","password":true,"vac":true,"version":"7882260","steam_id":85568392924469996,"keywords":["cp","nocrits","nodmgspread","uncletopia"],"game_id":440,"stv_port":27016,"stv_name":"Uncletopia | S√£o Paulo | 1 | All Maps | STV","players":null},{"server_id":143,"name":"Uncletopia | S√£o Paulo | 2 | All Maps","name_short":"sao-2","host":"sao-2.br.uncletopia.com","port":27015,"enabled":true,"region":"sa","cc":"br","latitude":-23.533773,"longitude":-46.62529,"reserved":0,"last_update":"0001-01-01T00:00:00Z","name_a2s":"Uncletopia | S√£o Paulo | 2 | All Maps","protocol":17,"map":"pl_swiftwater_final1","folder":"tf","game":"Team Fortress","app_id":440,"player_count":0,"max_players":24,"Bots":0,"server_type":"Dedicated","server_os":"Linux","password":true,"vac":true,"version":"7882260","steam_id":85568392924485349,"keywords":["nocrits","nodmgspread","payload","uncletopia"],"game_id":440,"stv_port":27016,"stv_name":"Uncletopia | S√£o Paulo | 2 | All Maps | STV","players":null},{"server_id":7,"name":"Uncletopia | Seattle | 1 | All Maps","name_short":"sea-1","host":"sea-1.us.uncletopia.com","port":27015,"enabled":true,"region":"us-west","cc":"us","latitude":47.608013,"longitude":-122.33517,"reserved":0,"last_update":"0001-01-01T00:00:00Z","name_a2s":"Uncletopia | Seattle | 1 | All Maps","protocol":17,"map":"cp_snakewater_final1","folder":"tf","game":"Team Fortress","app_id":440,"player_count":24,"max_players":24,"Bots":0,"server_type":"Dedicated","server_os":"Linux","password":true,"vac":true,"version":"7882260","steam_id":85568392924469997,"keywords":["cp","nocrits","nodmgspread","uncletopia"],"game_id":440,"stv_port":27016,"stv_name":"Uncletopia | Seattle | 1 | All Maps | STV","players":[{"user_id":154,"name":"Saint Pablo","steam_id":76561198083300159,"connected_time":2132000000000,"state":"active","ping":73},{"user_id":117,"name":"fancyfreak","steam_id":76561198326466375,"connected_time":6579000000000,"state":"active","ping":105},{"user_id":151,"name":"Void","steam_id":76561198308290211,"connected_time":2276000000000,"state":"active","ping":88},{"user_id":116,"name":"evilOlive","steam_id":76561198106222025,"connected_time":6679000000000,"state":"active","ping":81},{"user_id":171,"name":"Warhead","steam_id":76561198067746049,"connected_time":123000000000,"state":"active","ping":58},{"user_id":155,"name":"some nerd","steam_id":76561198297272878,"connected_time":2126000000000,"state":"active","ping":74},{"user_id":152,"name":"cludkydoyfoydyo","steam_id":76561198313470079,"connected_time":2142000000000,"state":"active","ping":48},{"user_id":164,"name":"Ping","steam_id":76561199206514106,"connected_time":1017000000000,"state":"active","ping":113},{"user_id":142,"name":"\\m/ Cyfun (she/it)","steam_id":76561197960882221,"connected_time":3965000000000,"state":"active","ping":109},{"user_id":167,"name":"„Åµ„Çè„Åµ„ÇèÊØõÂ∏É","steam_id":76561198088403016,"connected_time":796000000000,"state":"active","ping":182},{"user_id":170,"name":"ursa","steam_id":76561198025394298,"connected_time":694000000000,"state":"active","ping":103},{"user_id":162,"name":"jayeskae","steam_id":76561198144220801,"connected_time":1676000000000,"state":"active","ping":57},{"user_id":169,"name":"makeshift_burrito","steam_id":76561198042510825,"connected_time":772000000000,"state":"active","ping":75},{"user_id":125,"name":"dust | she/it","steam_id":76561198045218909,"connected_time":5510000000000,"state":"active","ping":44},{"user_id":135,"name":"Tibetan Pop Star","steam_id":76561198844903984,"connected_time":4199000000000,"state":"active","ping":86},{"user_id":161,"name":"emissions_master","steam_id":76561198870649125,"connected_time":1737000000000,"state":"active","ping":86},{"user_id":156,"name":"HaphazardHazel","steam_id":76561198316812693,"connected_time":2124000000000,"state":"active","ping":139},{"user_id":145,"name":" ≥·µí ∏·µí","steam_id":76561198155447646,"connected_time":3348000000000,"state":"active","ping":76},{"user_id":153,"name":"Sadistic Dentist","steam_id":76561198103189993,"connected_time":2138000000000,"state":"active","ping":84},{"user_id":159,"name":"Ranger","steam_id":76561198829369360,"connected_time":2070000000000,"state":"active","ping":114},{"user_id":148,"name":"Lonestar827","steam_id":76561198035533639,"connected_time":2309000000000,"state":"active","ping":60},{"user_id":165,"name":"Fh","steam_id":76561198000903511,"connected_time":860000000000,"state":"active","ping":73},{"user_id":124,"name":"SibilantSerpent","steam_id":76561198154488754,"connected_time":5610000000000,"state":"active","ping":58},{"user_id":127,"name":"gmagnum","steam_id":76561199034260371,"connected_time":4616000000000,"state":"active","ping":75}]},{"server_id":119,"name":"Uncletopia | Seattle | 2 | All Maps","name_short":"sea-2","host":"sea-1.us.uncletopia.com","port":27025,"enabled":true,"region":"us-west","cc":"us","latitude":47.608013,"longitude":-122.33517,"reserved":0,"last_update":"0001-01-01T00:00:00Z","name_a2s":"Uncletopia | Seattle | 2 | All Maps","protocol":17,"map":"ctf_doublecross","folder":"tf","game":"Team Fortress","app_id":440,"player_count":24,"max_players":24,"Bots":0,"server_type":"Dedicated","server_os":"Linux","password":true,"vac":true,"version":"7882260","steam_id":85568392924469998,"keywords":["ctf","nocrits","nodmgspread","uncletopia"],"game_id":440,"stv_port":27026,"stv_name":"Uncletopia | Seattle | 2 | All Maps | STV","players":[{"user_id":49,"name":"M","steam_id":76561198255827013,"connected_time":516000000000,"state":"active","ping":86},{"user_id":45,"name":"‚ô•Lyra‚ô•","steam_id":76561198092853824,"connected_time":952000000000,"state":"active","ping":62},{"user_id":8,"name":"TheCowledWiz","steam_id":76561198016735868,"connected_time":1944000000000,"state":"active","ping":46},{"user_id":46,"name":"merkury731","steam_id":76561198110565430,"connected_time":919000000000,"state":"active","ping":118},{"user_id":47,"name":"Reggie","steam_id":76561198835737236,"connected_time":888000000000,"state":"active","ping":114},{"user_id":56,"name":"Serene Salamander","steam_id":76561198001094770,"connected_time":126000000000,"state":"active","ping":85},{"user_id":43,"name":"The Bateman","steam_id":76561199130975542,"connected_time":1020000000000,"state":"active","ping":102},{"user_id":57,"name":"Ryld","steam_id":76561198010174380,"connected_time":120000000000,"state":"active","ping":65},{"user_id":48,"name":"Birdman743","steam_id":76561198799636748,"connected_time":845000000000,"state":"active","ping":61},{"user_id":16,"name":"2Fort Cactus","steam_id":76561199273395913,"connected_time":1561000000000,"state":"active","ping":56},{"user_id":37,"name":"ORANGE","steam_id":76561198000401769,"connected_time":1117000000000,"state":"active","ping":45},{"user_id":54,"name":"I'mFromSpace","steam_id":76561198808969653,"connected_time":230000000000,"state":"active","ping":56},{"user_id":20,"name":"TheTacoDude","steam_id":76561199094678041,"connected_time":1430000000000,"state":"active","ping":130},{"user_id":59,"name":"BasedGod","steam_id":76561198061177973,"connected_time":101000000000,"state":"active","ping":64},{"user_id":28,"name":"nuclear bomb plans (used)","steam_id":76561198849316769,"connected_time":1271000000000,"state":"active","ping":98},{"user_id":50,"name":"Deja Vu","steam_id":76561198062090620,"connected_time":514000000000,"state":"active","ping":90},{"user_id":26,"name":"„ÄåDaws_Dudeguy„Äç","steam_id":76561198205838645,"connected_time":1337000000000,"state":"active","ping":120},{"user_id":29,"name":"oo","steam_id":76561198119626492,"connected_time":1268000000000,"state":"active","ping":65},{"user_id":35,"name":"BLU3","steam_id":76561198059652670,"connected_time":1129000000000,"state":"active","ping":46},{"user_id":44,"name":"Acro Valentine","steam_id":76561198320241952,"connected_time":1009000000000,"state":"active","ping":132},{"user_id":58,"name":"Sectus","steam_id":76561198034616577,"connected_time":118000000000,"state":"active","ping":95},{"user_id":55,"name":"The Sandvich Guardian","steam_id":76561198013643052,"connected_time":230000000000,"state":"active","ping":124},{"user_id":53,"name":"Clovo","steam_id":76561198040430622,"connected_time":339000000000,"state":"active","ping":132},{"user_id":51,"name":"sokodarou","steam_id":76561198401100177,"connected_time":514000000000,"state":"active","ping":129}]},{"server_id":406,"name":"Uncletopia | Seattle | 3 | Stopwatch Beta","name_short":"sea-3","host":"sea-1.us.uncletopia.com","port":27035,"enabled":true,"region":"us-west","cc":"us","latitude":47.608013,"longitude":-122.33517,"reserved":0,"last_update":"0001-01-01T00:00:00Z","name_a2s":"Uncletopia | Seattle | 3 | Stopwatch Beta","protocol":17,"map":"workshop/koth_ashville_final.ugc2130459942","folder":"tf","game":"Team Fortress","app_id":440,"player_count":0,"max_players":24,"Bots":0,"server_type":"Dedicated","server_os":"Linux","password":true,"vac":true,"version":"7882260","steam_id":85568392924515217,"keywords":["cp","nocrits","nodmgspread","uncletopia"],"game_id":440,"stv_port":27036,"stv_name":"Uncletopia | Seattle | 3 | Stopwatch Beta | STV","players":null},{"server_id":17,"name":"Uncletopia | San Francisco | 1 | All Maps","name_short":"sfo-1","host":"sfo-1.us.uncletopia.com","port":27015,"enabled":true,"region":"us-west","cc":"us","latitude":37.77397,"longitude":-122.4313,"reserved":0,"last_update":"0001-01-01T00:00:00Z","name_a2s":"Uncletopia | San Francisco | 1 | All Maps","protocol":17,"map":"cp_process_final","folder":"tf","game":"Team Fortress","app_id":440,"player_count":0,"max_players":24,"Bots":0,"server_type":"Dedicated","server_os":"Linux","password":true,"vac":true,"version":"7757534","steam_id":85568392924469999,"keywords":["cp","nocrits","nodmgspread","uncletopia"],"game_id":440,"stv_port":27016,"stv_name":"Uncletopia | San Francisco | 1 | All Maps | STV","players":null},{"server_id":18,"name":"Uncletopia | San Francisco | 2 | All Maps","name_short":"sfo-2","host":"sfo-1.us.uncletopia.com","port":27025,"enabled":true,"region":"us-west","cc":"us","latitude":37.77397,"longitude":-122.4313,"reserved":0,"last_update":"0001-01-01T00:00:00Z","name_a2s":"Uncletopia | San Francisco | 2 | All Maps","protocol":17,"map":"koth_highpass","folder":"tf","game":"Team Fortress","app_id":440,"player_count":0,"max_players":24,"Bots":0,"server_type":"Dedicated","server_os":"Linux","password":true,"vac":true,"version":"7757534","steam_id":85568392924470000,"keywords":["cp","nocrits","nodmgspread","uncletopia"],"game_id":440,"stv_port":27026,"stv_name":"Uncletopia | San Francisco | 2 | All Maps | STV","players":null},{"server_id":19,"name":"Uncletopia | San Francisco | 3 | Stopwatch Beta","name_short":"sfo-3","host":"sfo-1.us.uncletopia.com","port":27035,"enabled":true,"region":"us-west","cc":"us","latitude":37.77397,"longitude":-122.4313,"reserved":0,"last_update":"0001-01-01T00:00:00Z","name_a2s":"Uncletopia | San Francisco | 3 | Stopwatch Beta","protocol":17,"map":"koth_lakeside_final","folder":"tf","game":"Team Fortress","app_id":440,"player_count":0,"max_players":24,"Bots":0,"server_type":"Dedicated","server_os":"Linux","password":true,"vac":true,"version":"7757534","steam_id":85568392924742824,"keywords":["cp","nocrits","nodmgspread","uncletopia"],"game_id":440,"stv_port":27036,"stv_name":"Uncletopia | San Francisco | 3 | Stopwatch Beta | STV","players":null},{"server_id":20,"name":"Uncletopia | San Francisco | 4 | Community","name_short":"sfo-4","host":"sfo-1.us.uncletopia.com","port":27045,"enabled":true,"region":"us-west","cc":"us","latitude":37.77397,"longitude":-122.4313,"reserved":0,"last_update":"0001-01-01T00:00:00Z","name_a2s":"Uncletopia | San Francisco | 4 | Community","protocol":17,"map":"cp_altitude","folder":"tf","game":"Team Fortress","app_id":440,"player_count":0,"max_players":24,"Bots":0,"server_type":"Dedicated","server_os":"Linux","password":true,"vac":true,"version":"7757534","steam_id":85568392924742826,"keywords":["cp","nocrits","nodmgspread","uncletopia"],"game_id":440,"stv_port":27046,"stv_name":"Uncletopia | San Francisco | 4 | Community | STV","players":null},{"server_id":141,"name":"Uncletopia | Sydney | 1 | All Maps","name_short":"syd-1","host":"syd-1.au.uncletopia.com","port":27015,"enabled":true,"region":"au","cc":"au","latitude":-33.865143,"longitude":151.2099,"reserved":0,"last_update":"0001-01-01T00:00:00Z","name_a2s":"Uncletopia | Sydney | 1 | All Maps","protocol":17,"map":"koth_viaduct","folder":"tf","game":"Team Fortress","app_id":440,"player_count":0,"max_players":24,"Bots":0,"server_type":"Dedicated","server_os":"Linux","password":true,"vac":true,"version":"7882260","steam_id":85568392924470001,"keywords":["cp","nocrits","nodmgspread","uncletopia"],"game_id":440,"stv_port":27016,"stv_name":"Uncletopia | Sydney | 1 | All Maps | STV","players":null},{"server_id":123,"name":"Uncletopia | Sydney | 2 | All Maps","name_short":"syd-2","host":"syd-1.au.uncletopia.com","port":27025,"enabled":true,"region":"au","cc":"au","latitude":-33.865143,"longitude":151.2099,"reserved":0,"last_update":"0001-01-01T00:00:00Z","name_a2s":"Uncletopia | Sydney | 2 | All Maps","protocol":17,"map":"koth_viaduct","folder":"tf","game":"Team Fortress","app_id":440,"player_count":0,"max_players":24,"Bots":0,"server_type":"Dedicated","server_os":"Linux","password":true,"vac":true,"version":"7882260","steam_id":85568392924470002,"keywords":["cp","nocrits","nodmgspread","uncletopia"],"game_id":440,"stv_port":27026,"stv_name":"Uncletopia | Sydney | 2 | All Maps | STV","players":null},{"server_id":395,"name":"Uncletopia | Sydney | 3 | All Maps","name_short":"syd-3","host":"syd-1.au.uncletopia.com","port":27035,"enabled":true,"region":"au","cc":"au","latitude":-33.865143,"longitude":151.2099,"reserved":0,"last_update":"0001-01-01T00:00:00Z","name_a2s":"Uncletopia | Sydney | 3 | All Maps","protocol":17,"map":"pl_pier","folder":"tf","game":"Team Fortress","app_id":440,"player_count":0,"max_players":24,"Bots":0,"server_type":"Dedicated","server_os":"Linux","password":true,"vac":true,"version":"7882260","steam_id":85568392925194467,"keywords":["nocrits","nodmgspread","payload","uncletopia"],"game_id":440,"stv_port":27036,"stv_name":"Uncletopia | Sydney | 3 | All Maps | STV","players":null},{"server_id":396,"name":"Uncletopia | Sydney | 4 | All Maps","name_short":"syd-4","host":"syd-1.au.uncletopia.com","port":27045,"enabled":true,"region":"au","cc":"au","latitude":-33.865143,"longitude":151.2099,"reserved":0,"last_update":"0001-01-01T00:00:00Z","name_a2s":"Uncletopia | Sydney | 4 | All Maps","protocol":17,"map":"koth_viaduct","folder":"tf","game":"Team Fortress","app_id":440,"player_count":0,"max_players":24,"Bots":0,"server_type":"Dedicated","server_os":"Linux","password":true,"vac":true,"version":"7882260","steam_id":85568392925397958,"keywords":["cp","nocrits","nodmgspread","uncletopia"],"game_id":440,"stv_port":27046,"stv_name":"Uncletopia | Sydney | 4 | All Maps | STV","players":null},{"server_id":58,"name":"Uncletopia | Sydney | 5 | Stopwatch Beta","name_short":"syd-5","host":"syd-1.au.uncletopia.com","port":27055,"enabled":true,"region":"au","cc":"au","latitude":-33.865143,"longitude":151.2099,"reserved":0,"last_update":"0001-01-01T00:00:00Z","name_a2s":"Uncletopia | Sydney | 5 | Stopwatch Beta","protocol":17,"map":"cp_granary","folder":"tf","game":"Team Fortress","app_id":440,"player_count":0,"max_players":24,"Bots":0,"server_type":"Dedicated","server_os":"Linux","password":true,"vac":true,"version":"7882260","steam_id":85568392925397959,"keywords":["cp","nocrits","nodmgspread","uncletopia"],"game_id":440,"stv_port":27056,"stv_name":"Uncletopia | Sydney | 5 | Stopwatch Beta | STV","players":null},{"server_id":59,"name":"Uncletopia | Sydney | 6 | Community","name_short":"syd-6","host":"syd-1.au.uncletopia.com","port":27065,"enabled":true,"region":"au","cc":"au","latitude":-33.865143,"longitude":151.2099,"reserved":0,"last_update":"0001-01-01T00:00:00Z","name_a2s":"Uncletopia | Sydney | 6 | Community","protocol":17,"map":"workshop/koth_product_final.ugc454272353","folder":"tf","game":"Team Fortress","app_id":440,"player_count":0,"max_players":24,"Bots":0,"server_type":"Dedicated","server_os":"Linux","password":true,"vac":true,"version":"7882260","steam_id":85568392925397960,"keywords":["cp","nocrits","nodmgspread","uncletopia"],"game_id":440,"stv_port":27066,"stv_name":"Uncletopia | Sydney | 6 | Community | STV","players":null},{"server_id":49,"name":"Uncletopia | Warsaw | 1 | All Maps","name_short":"waw-1","host":"waw-1.pl.uncletopia.com","port":27015,"enabled":true,"region":"eu","cc":"pl","latitude":52.2297,"longitude":21.017532,"reserved":0,"last_update":"0001-01-01T00:00:00Z","name_a2s":"","protocol":0,"map":"","folder":"","game":"","app_id":0,"player_count":0,"max_players":0,"Bots":0,"server_type":"","server_os":"","password":false,"vac":false,"version":"","steam_id":0,"keywords":null,"game_id":0,"stv_port":0,"stv_name":"","players":null},{"server_id":50,"name":"Uncletopia | Warsaw | 2 | All Maps","name_short":"waw-2","host":"waw-1.pl.uncletopia.com","port":27025,"enabled":true,"region":"eu","cc":"pl","latitude":52.2297,"longitude":21.017532,"reserved":0,"last_update":"0001-01-01T00:00:00Z","name_a2s":"Uncletopia | Warsaw | 2 | All Maps","protocol":17,"map":"koth_highpass","folder":"tf","game":"Team Fortress","app_id":440,"player_count":3,"max_players":24,"Bots":0,"server_type":"Dedicated","server_os":"Linux","password":true,"vac":true,"version":"7882260","steam_id":85568392925397851,"keywords":["cp","nocrits","nodmgspread","uncletopia"],"game_id":440,"stv_port":27026,"stv_name":"Uncletopia | Warsaw | 2 | All Maps | STV","players":[{"user_id":10,"name":"Ghoxes","steam_id":76561198068444715,"connected_time":689000000000,"state":"active","ping":93},{"user_id":11,"name":"krissz._.","steam_id":76561199445458247,"connected_time":592000000000,"state":"active","ping":91},{"user_id":13,"name":"VikTic","steam_id":76561199189732765,"connected_time":14000000000,"state":"active","ping":308}]},{"server_id":51,"name":"Uncletopia | Warsaw | 3 | All Maps","name_short":"waw-3","host":"waw-1.pl.uncletopia.com","port":27035,"enabled":true,"region":"eu","cc":"pl","latitude":52.2297,"longitude":21.017532,"reserved":0,"last_update":"0001-01-01T00:00:00Z","name_a2s":"Uncletopia | Warsaw | 3 | All Maps","protocol":17,"map":"koth_viaduct","folder":"tf","game":"Team Fortress","app_id":440,"player_count":0,"max_players":24,"Bots":0,"server_type":"Dedicated","server_os":"Linux","password":true,"vac":true,"version":"7882260","steam_id":85568392925397852,"keywords":["cp","nocrits","nodmgspread","uncletopia"],"game_id":440,"stv_port":27036,"stv_name":"Uncletopia | Warsaw | 3 | All Maps | STV","players":null},{"server_id":52,"name":"Uncletopia | Warsaw | 4 | All Maps","name_short":"waw-4","host":"waw-1.pl.uncletopia.com","port":27045,"enabled":true,"region":"eu","cc":"pl","latitude":52.2297,"longitude":21.017532,"reserved":0,"last_update":"0001-01-01T00:00:00Z","name_a2s":"Uncletopia | Warsaw | 4 | All Maps","protocol":17,"map":"pl_pier","folder":"tf","game":"Team Fortress","app_id":440,"player_count":0,"max_players":24,"Bots":0,"server_type":"Dedicated","server_os":"Linux","password":true,"vac":true,"version":"7882260","steam_id":85568392925397853,"keywords":["nocrits","nodmgspread","payload","uncletopia"],"game_id":440,"stv_port":27046,"stv_name":"Uncletopia | Warsaw | 4 | All Maps | STV","players":null},{"server_id":53,"name":"Uncletopia | Warsaw | 5 | Stopwatch Beta","name_short":"waw-5","host":"waw-1.pl.uncletopia.com","port":27055,"enabled":true,"region":"eu","cc":"pl","latitude":52.2297,"longitude":21.017532,"reserved":0,"last_update":"0001-01-01T00:00:00Z","name_a2s":"Uncletopia | Warsaw | 5 | Stopwatch Beta","protocol":17,"map":"cp_gullywash_final1","folder":"tf","game":"Team Fortress","app_id":440,"player_count":0,"max_players":24,"Bots":0,"server_type":"Dedicated","server_os":"Linux","password":true,"vac":true,"version":"7882260","steam_id":85568392925397854,"keywords":["cp","nocrits","nodmgspread","uncletopia"],"game_id":440,"stv_port":27056,"stv_name":"Uncletopia | Warsaw | 5 | Stopwatch Beta | STV","players":null},{"server_id":54,"name":"Uncletopia | Warsaw | 6 | Community","name_short":"waw-6","host":"waw-1.pl.uncletopia.com","port":27065,"enabled":true,"region":"eu","cc":"pl","latitude":52.2297,"longitude":21.017532,"reserved":0,"last_update":"0001-01-01T00:00:00Z","name_a2s":"Uncletopia | Warsaw | 6 | Community","protocol":17,"map":"koth_viaduct","folder":"tf","game":"Team Fortress","app_id":440,"player_count":3,"max_players":24,"Bots":0,"server_type":"Dedicated","server_os":"Linux","password":true,"vac":true,"version":"7882260","steam_id":85568392925397856,"keywords":["cp","nocrits","nodmgspread","uncletopia"],"game_id":440,"stv_port":27066,"stv_name":"Uncletopia | Warsaw | 6 | Community | STV","players":[{"user_id":5,"name":"Chinese Kharp","steam_id":76561199383220023,"connected_time":1467000000000,"state":"active","ping":98},{"user_id":6,"name":"RAKO (proJerma985fan)","steam_id":76561198834088324,"connected_time":1294000000000,"state":"active","ping":83},{"user_id":8,"name":"2003 Volkswagen passat 1.6 tdi","steam_id":76561199148666369,"connected_time":8000000000,"state":"spawning","ping":44}]}]}