{"status":true,"message":"","result":[{"server_id":9,"name":"Uncletopia | Atlanta | 1 | All Maps","name_short":"atl-1","host":"atl-1.us.uncletopia.com","port":27015,"enabled":true,"region":"us-east","cc":"us","latitude":33.753746,"longitude":-84.38633,"reserved":0,"last_update":"0001-01-01T00:00:00Z","name_a2s":"Uncletopia | Atlanta | 1 | All Maps","protocol":17,"map":"pl_badwater","folder":"tf","game":"Team Fortress","app_id":440,"player_count":12,"max_players":24,"Bots":0,"server_type":"Dedicated","server_os":"Linux","password":true,"vac":true,"version":"7882260","steam_id":85568392924469982,"keywords":["nocrits","nodmgspread","payload","uncletopia"],"game_id":440,"stv_port":27016,"stv_name":"Uncletopia | Atlanta | 1 | All Maps | STV","players":[{"user_id":210,"name":"Bumble Bea","steam_id":76561198061287895,"connected_time":316000000000,"state":"active","ping":121},{"user_id":192,"name":"Shabzoo","steam_id":76561198037638775,"connected_time":2682000000000,"state":"active","ping":65},{"user_id":193,"name":"white woman","steam_id":76561199116679777,"connected_time":2570000000000,"state":"active","ping":72},{"user_id":209,"name":"KBoneski ♡","steam_id":76561198307409065,"connected_time":668000000000,"state":"active","ping":92},{"user_id":194,"name":"i am a grub and i live in soil","steam_id":76561198139646313,"connected_time":2242000000000,"state":"active","ping":57},{"user_id":211,"name":"ToriTheTor","steam_id":76561198396183861,"connected_time":299000000000,"state":"active","ping":95},{"user_id":197,"name":"TheCrimeSkeleton","steam_id":76561198339067349,"connected_time":1969000000000,"state":"active","ping":124},{"user_id":212,"name":"Uber Charged Engineer (REAL)","steam_id":76561199472779718,"connected_time":99000000000,"state":"spawning","ping":180},{"user_id":213,"name":"souljaboytellem.com","steam_id":76561198111975583,"connected_time":12000000000,"state":"active","ping":71},{"user_id":32,"name":"eish","steam_id":76561198089463603,"connected_time":14325000000000,"state":"active","ping":114},{"user_id":214,"name":"richarven","steam_id":76561198189429665,"connected_time":7000000000,"state":"spawning","ping":279},{"user_id":165,"name":"DragonHeart","steam_id":76561198013245625,"connected_time":4009000000000,"state":"active","ping":84}]},{"server_id":104,"name":"Uncletopia | Atlanta | 2 | All Maps","name_short":"atl-2","host":"atl-1.us.uncletopia.com","port":27025,"enabled":true,"region":"us-east","cc":"us","latitude":33.753746,"longitude":-84.38633,"reserved":0,"last_update":"0001-01-01T00:00:00Z","name_a2s":"Uncletopia | Atlanta | 2 | All Maps","protocol":17,"map":"koth_nucleus","folder":"tf","game":"Team Fortress","app_id":440,"player_count":0,"max_players":24,"Bots":0,"server_type":"Dedicated","server_os":"Linux","password":true,"vac":true,"version":"7882260","steam_id":85568392924469983,"keywords":["cp","nocrits","nodmgspread","uncletopia"],"game_id":440,"stv_port":27026,"stv_name":"Uncletopia | Atlanta | 2 | All Maps | STV","players":null},{"server_id":400,"name":"Uncletopia | Atlanta | 3 | Community","name_short":"atl-3","host":"atl-1.us.uncletopia.com","port":27035,"enabled":true,"region":"us-east","cc":"us","latitude":33.753746,"longitude":-84.38633,"reserved":0,"last_update":"0001-01-01T00:00:00Z","name_a2s":"Uncletopia | Atlanta | 3 | Community","protocol":17,"map":"workshop/cp_bruhstbowl_b5.ugc2878604990","folder":"tf","game":"Team Fortress","app_id":440,"player_count":1,"max_players":24,"Bots":0,"server_type":"Dedicated","server_os":"Linux","password":true,"vac":true,"version":"7882260","steam_id":85568392924515187,"keywords":["cp","nocrits","nodmgspread","uncletopia"],"game_id":440,"stv_port":27036,"stv_name":"Uncletopia | Atlanta | 3 | Community | STV","players":[{"user_id":121,"name":"Rafl","steam_id":76561198055222756,"connected_time":2000000000,"state":"spawning","ping":55}]},{"server_id":401,"name":"Uncletopia | Atlanta | 4 | No Payload","name_short":"atl-4","host":"atl-1.us.uncletopia.com","port":27045,"enabled":true,"region":"us-east","cc":"us","latitude":33.753746,"longitude":-84.38633,"reserved":0,"last_update":"0001-01-01T00:00:00Z","name_a2s":"","protocol":0,"map":"","folder":"","game":"","app_id":0,"player_count":0,"max_players":0,"Bots":0,"server_type":"","server_os":"","password":false,"vac":false,"version":"","steam_id":0,"keywords":null,"game_id":0,"stv_port":0,"stv_name":"","players":null},{"server_id":2,"name":"Uncletopia | Chicago | 1 | All Maps","name_short":"chi-1","host":"chi-1.us.uncletopia.com","port":27015,"enabled":true,"region":"us-central","cc":"us","latitude":41.881832,"longitude":-87.62318,"reserved":0,"last_update":"0001-01-01T00:00:00Z","name_a2s":"Uncletopia | Chicago | 1 | All Maps","protocol":17,"map":"koth_highpass","folder":"tf","game":"Team Fortress","app_id":440,"player_count":0,"max_players":24,"Bots":0,"server_type":"Dedicated","server_os":"Linux","password":true,"vac":true,"version":"7882260","steam_id":85568392924469984,"keywords":["cp","nocrits","nodmgspread","uncletopia"],"game_id":440,"stv_port":27016,"stv_name":"Uncletopia | Chicago | 1 | All Maps | STV","players":null},{"server_id":106,"name":"Uncletopia | Chicago | 2 | All Maps","name_short":"chi-2","host":"chi-1.us.uncletopia.com","port":27025,"enabled":true,"region":"us-central","cc":"us","latitude":41.881832,"longitude":-87.62318,"reserved":0,"last_update":"0001-01-01T00:00:00Z","name_a2s":"Uncletopia | Chicago | 2 | All Maps","protocol":17,"map":"pl_frontier_final","folder":"tf","game":"Team Fortress","app_id":440,"player_count":23,"max_players":24,"Bots":0,"server_type":"Dedicated","server_os":"Linux","password":true,"vac":true,"version":"7882260","steam_id":85568392924469985,"keywords":["nocrits","nodmgspread","payload","uncletopia"],"game_id":440,"stv_port":27026,"stv_name":"Uncletopia | Chicago | 2 | All Maps | STV","players":[{"user_id":222,"name":"definitely a scout","steam_id":76561198264728955,"connected_time":861000000000,"state":"active","ping":59},{"user_id":225,"name":"Core Dump:DHC:","steam_id":76561197969394177,"connected_time":411000000000,"state":"active","ping":76},{"user_id":175,"name":"Dr. Egon Spengler:DHC:","steam_id":76561198073199109,"connected_time":3786000000000,"state":"active","ping":99},{"user_id":187,"name":"Jimjonjoe","steam_id":76561199195695913,"connected_time":3039000000000,"state":"active","ping":79},{"user_id":219,"name":"spirit","steam_id":76561198102040731,"connected_time":986000000000,"state":"active","ping":59},{"user_id":231,"name":"Tahm Selleck","steam_id":76561198138083134,"connected_time":134000000000,"state":"active","ping":75},{"user_id":212,"name":"NoodlePup :D","steam_id":76561198184510919,"connected_time":1106000000000,"state":"active","ping":81},{"user_id":232,"name":"jt","steam_id":76561198059575962,"connected_time":24000000000,"state":"active","ping":57},{"user_id":197,"name":"goliath birdeater","steam_id":76561198089852954,"connected_time":2247000000000,"state":"active","ping":75},{"user_id":224,"name":"Sir Iasis","steam_id":76561198035666760,"connected_time":713000000000,"state":"active","ping":65},{"user_id":177,"name":"Surfing Garchomp","steam_id":76561199107236884,"connected_time":3746000000000,"state":"active","ping":101},{"user_id":200,"name":"Kaywan","steam_id":76561198068271015,"connected_time":2206000000000,"state":"active","ping":83},{"user_id":226,"name":"Blade","steam_id":76561198153163098,"connected_time":402000000000,"state":"active","ping":76},{"user_id":214,"name":"Pineapple Pizza","steam_id":76561197997233176,"connected_time":1053000000000,"state":"active","ping":78},{"user_id":201,"name":"GUAVA","steam_id":76561198051421643,"connected_time":2205000000000,"state":"active","ping":57},{"user_id":215,"name":"XCellent","steam_id":76561198805514323,"connected_time":1047000000000,"state":"active","ping":85},{"user_id":216,"name":"King Of Kings","steam_id":76561199224534493,"connected_time":1046000000000,"state":"active","ping":82},{"user_id":217,"name":"Hatsune Shoomsie","steam_id":76561198047405791,"connected_time":1038000000000,"state":"active","ping":91},{"user_id":208,"name":"ae","steam_id":76561198185490827,"connected_time":1769000000000,"state":"active","ping":87},{"user_id":218,"name":"The Horselords and Animal Gods","steam_id":76561197975094050,"connected_time":1034000000000,"state":"active","ping":114},{"user_id":221,"name":"cal","steam_id":76561198067015101,"connected_time":942000000000,"state":"active","ping":81},{"user_id":205,"name":"Joe","steam_id":76561198013829050,"connected_time":2187000000000,"state":"active","ping":45},{"user_id":230,"name":"puke","steam_id":76561197999279693,"connected_time":160000000000,"state":"active","ping":75}]},{"server_id":402,"name":"Uncletopia | Chicago | 3 | All Maps","name_short":"chi-3","host":"chi-1.us.uncletopia.com","port":27035,"enabled":true,"region":"us-central","cc":"us","latitude":41.881832,"longitude":-87.62318,"reserved":0,"last_update":"0001-01-01T00:00:00Z","name_a2s":"Uncletopia | Chicago | 3 | All Maps","protocol":17,"map":"pl_snowycoast","folder":"tf","game":"Team Fortress","app_id":440,"player_count":24,"max_players":24,"Bots":0,"server_type":"Dedicated","server_os":"Linux","password":true,"vac":true,"version":"7882260","steam_id":85568392924515191,"keywords":["nocrits","nodmgspread","payload","uncletopia"],"game_id":440,"stv_port":27036,"stv_name":"Uncletopia | Chicago | 3 | All Maps | STV","players":[{"user_id":237,"name":"SHADY SWEATER SALESMAN","steam_id":76561198014616865,"connected_time":403000000000,"state":"active","ping":71},{"user_id":225,"name":"SaucySandwichKid","steam_id":76561199372590934,"connected_time":1026000000000,"state":"active","ping":98},{"user_id":182,"name":"dyyd7706","steam_id":76561199230461523,"connected_time":4028000000000,"state":"active","ping":84},{"user_id":239,"name":"e","steam_id":76561198137759797,"connected_time":392000000000,"state":"active","ping":120},{"user_id":233,"name":"Tommy Provolone's #1 Fan","steam_id":76561198358974675,"connected_time":523000000000,"state":"active","ping":77},{"user_id":240,"name":"|AG| Level","steam_id":76561198063633592,"connected_time":295000000000,"state":"active","ping":104},{"user_id":236,"name":"wise","steam_id":76561198030066204,"connected_time":428000000000,"state":"active","ping":47},{"user_id":191,"name":"BB Lorexav","steam_id":76561198207565988,"connected_time":3082000000000,"state":"active","ping":72},{"user_id":190,"name":"Sychke","steam_id":76561198067144055,"connected_time":3089000000000,"state":"active","ping":45},{"user_id":194,"name":"Beta_Male_Moments","steam_id":76561198060793081,"connected_time":2328000000000,"state":"active","ping":70},{"user_id":215,"name":"TÖZI","steam_id":76561198045268695,"connected_time":1472000000000,"state":"active","ping":84},{"user_id":242,"name":"STILLZ","steam_id":76561198131892406,"connected_time":84000000000,"state":"active","ping":91},{"user_id":232,"name":"Mr Happy","steam_id":76561198067689328,"connected_time":616000000000,"state":"active","ping":55},{"user_id":241,"name":"Trippy","steam_id":76561199090730294,"connected_time":272000000000,"state":"active","ping":57},{"user_id":235,"name":"JelloIsOkay","steam_id":76561198275804463,"connected_time":468000000000,"state":"active","ping":74},{"user_id":202,"name":"architect","steam_id":76561198142394470,"connected_time":1917000000000,"state":"active","ping":85},{"user_id":226,"name":"HOTDOG","steam_id":76561198120564627,"connected_time":1011000000000,"state":"active","ping":98},{"user_id":224,"name":"Iron","steam_id":76561198247918478,"connected_time":1055000000000,"state":"active","ping":60},{"user_id":218,"name":"Razz","steam_id":76561198158027533,"connected_time":1197000000000,"state":"active","ping":45},{"user_id":234,"name":"Lex","steam_id":76561198069948353,"connected_time":497000000000,"state":"active","ping":91},{"user_id":214,"name":"heks","steam_id":76561198041335138,"connected_time":1503000000000,"state":"active","ping":63},{"user_id":212,"name":"PTR","steam_id":76561198237253772,"connected_time":1517000000000,"state":"active","ping":70},{"user_id":223,"name":"ContinuedBear","steam_id":76561198265176919,"connected_time":1061000000000,"state":"active","ping":57},{"user_id":243,"name":"bobo","steam_id":76561198123287268,"connected_time":42000000000,"state":"active","ping":47}]},{"server_id":403,"name":"Uncletopia | Chicago | 4 | All Maps","name_short":"chi-4","host":"chi-1.us.uncletopia.com","port":27045,"enabled":true,"region":"us-central","cc":"us","latitude":41.881832,"longitude":-87.62318,"reserved":0,"last_update":"0001-01-01T00:00:00Z","name_a2s":"Uncletopia | Chicago | 4 | All Maps","protocol":17,"map":"koth_viaduct","folder":"tf","game":"Team Fortress","app_id":440,"player_count":0,"max_players":24,"Bots":0,"server_type":"Dedicated","server_os":"Linux","password":true,"vac":true,"version":"7882260","steam_id":85568392924515193,"keywords":["cp","nocrits","nodmgspread","uncletopia"],"game_id":440,"stv_port":27046,"stv_name":"Uncletopia | Chicago | 4 | All Maps | STV","players":null},{"server_id":36,"name":"Uncletopia | Chicago | 5 | All Maps","name_short":"chi-5","host":"chi-2.us.uncletopia.com","port":27015,"enabled":true,"region":"us-central","cc":"us","latitude":41.881832,"longitude":-87.62318,"reserved":0,"last_update":"0001-01-01T00:00:00Z","name_a2s":"Uncletopia | Chicago | 5 | All Maps","protocol":17,"map":"koth_highpass","folder":"tf","game":"Team Fortress","app_id":440,"player_count":0,"max_players":24,"Bots":0,"server_type":"Dedicated","server_os":"Linux","password":true,"vac":true,"version":"7882260","steam_id":85568392924866362,"keywords":["cp","nocrits","nodmgspread","uncletopia"],"game_id":440,"stv_port":27016,"stv_name":"Uncletopia | Chicago | 5 | All Maps | STV","players":null},{"server_id":37,"name":"Uncletopia | Chicago | 6 | All Maps","name_short":"chi-6","host":"chi-2.us.uncletopia.com","port":27025,"enabled":true,"region":"us-central","cc":"us","latitude":41.881832,"longitude":-87.62318,"reserved":0,"last_update":"0001-01-01T00:00:00Z","name_a2s":"Uncletopia | Chicago | 6 | All Maps","protocol":17,"map":"pl_frontier_final","folder":"tf","game":"Team Fortress","app_id":440,"player_count":24,"max_players":24,"Bots":0,"server_type":"Dedicated","server_os":"Linux","password":true,"vac":true,"version":"7882260","steam_id":85568392924866363,"keywords":["nocrits","nodmgspread","payload","uncletopia"],"game_id":440,"stv_port":27026,"stv_name":"Uncletopia | Chicago | 6 | All Maps | STV","players":[{"user_id":169,"name":"seldom","steam_id":76561198166193756,"connected_time":4508000000000,"state":"active","ping":55},{"user_id":220,"name":"HunkPapa","steam_id":76561198142515500,"connected_time":710000000000,"state":"active","ping":104},{"user_id":221,"name":"[DEEP] Danmar33","steam_id":76561198056453091,"connected_time":619000000000,"state":"active","ping":46},{"user_id":144,"name":"JiffyJelly","steam_id":76561198407800887,"connected_time":5389000000000,"state":"active","ping":74},{"user_id":222,"name":"Witchings","steam_id":76561198247431254,"connected_time":463000000000,"state":"active","ping":55},{"user_id":212,"name":"TheXenoKing","steam_id":76561198127424141,"connected_time":1598000000000,"state":"active","ping":97},{"user_id":215,"name":"The Rabbi","steam_id":76561198047999337,"connected_time":871000000000,"state":"active","ping":61},{"user_id":148,"name":"floofy","steam_id":76561198389769098,"connected_time":5157000000000,"state":"active","ping":77},{"user_id":183,"name":"GruntRule","steam_id":76561198039987143,"connected_time":3497000000000,"state":"active","ping":83},{"user_id":149,"name":"Greasy Garmadon","steam_id":76561198142416272,"connected_time":5149000000000,"state":"active","ping":67},{"user_id":150,"name":"fruit brute fiend","steam_id":76561198811500361,"connected_time":5121000000000,"state":"active","ping":105},{"user_id":216,"name":"Wizard Raccoon","steam_id":76561198072562591,"connected_time":824000000000,"state":"active","ping":77},{"user_id":217,"name":"frank","steam_id":76561198137777483,"connected_time":788000000000,"state":"active","ping":68},{"user_id":223,"name":"squiddy101","steam_id":76561198210199168,"connected_time":423000000000,"state":"active","ping":96},{"user_id":213,"name":"Grand Wizard Autismo","steam_id":76561198069834979,"connected_time":1497000000000,"state":"active","ping":67},{"user_id":197,"name":"AeroFortune","steam_id":76561198204736219,"connected_time":2268000000000,"state":"active","ping":120},{"user_id":186,"name":"Elon Tusk","steam_id":76561198977359400,"connected_time":3364000000000,"state":"active","ping":76},{"user_id":224,"name":"truck sex 1989","steam_id":76561198062712676,"connected_time":378000000000,"state":"active","ping":100},{"user_id":225,"name":"Mitsubishi Materials","steam_id":76561198151871198,"connected_time":368000000000,"state":"active","ping":55},{"user_id":218,"name":"Joey Diaz","steam_id":76561198194796010,"connected_time":746000000000,"state":"active","ping":89},{"user_id":210,"name":"thorn648","steam_id":76561198012565777,"connected_time":1721000000000,"state":"active","ping":70},{"user_id":219,"name":"Specter the Unchained","steam_id":76561198348354629,"connected_time":738000000000,"state":"active","ping":110},{"user_id":226,"name":"SharpshooterMM3","steam_id":76561198252175282,"connected_time":109000000000,"state":"active","ping":68},{"user_id":165,"name":"LerN","steam_id":76561198083463877,"connected_time":4660000000000,"state":"active","ping":58}]},{"server_id":38,"name":"Uncletopia | Chicago | 7 | Stopwatch Beta","name_short":"chi-7","host":"chi-2.us.uncletopia.com","port":27035,"enabled":true,"region":"us-central","cc":"us","latitude":41.881832,"longitude":-87.62318,"reserved":0,"last_update":"0001-01-01T00:00:00Z","name_a2s":"Uncletopia | Chicago | 7 | Stopwatch Beta","protocol":17,"map":"pl_upward","folder":"tf","game":"Team Fortress","app_id":440,"player_count":0,"max_players":24,"Bots":0,"server_type":"Dedicated","server_os":"Linux","password":true,"vac":true,"version":"7882260","steam_id":85568392924866364,"keywords":["nocrits","nodmgspread","payload","uncletopia"],"game_id":440,"stv_port":27036,"stv_name":"Uncletopia | Chicago | 7 | Stopwatch Beta | STV","players":null},{"server_id":39,"name":"Uncletopia | Chicago | 8 | Community","name_short":"chi-8","host":"chi-2.us.uncletopia.com","port":27045,"enabled":true,"region":"us-central","cc":"us","latitude":41.881832,"longitude":-87.62318,"reserved":0,"last_update":"0001-01-01T00:00:00Z","name_a2s":"Uncletopia | Chicago | 8 | Community","protocol":17,"map":"workshop/gg_dust2_dmvm.ugc2942103642","folder":"tf","game":"Team Fortress","app_id":440,"player_count":0,"max_players":24,"Bots":0,"server_type":"Dedicated","server_os":"Linux","password":true,"vac":true,"version":"7882260","steam_id":85568392924866365,"keywords":["friendlyfire","nocrits","nodmgspread","norespawntime","uncletopia"],"game_id":440,"stv_port":27046,"stv_name":"Uncletopia | Chicago | 8 | Community | STV","players":null},{"server_id":8,"name":"Uncletopia | Dallas | 1 | All Maps","name_short":"dal-1","host":"dal-1.us.uncletopia.com","port":27015,"enabled":true,"region":"us-central","cc":"us","latitude":32.779167,"longitude":-96.80889,"reserved":0,"last_update":"0001-01-01T00:00:00Z","name_a2s":"Uncletopia | Dallas | 1 | All Maps","protocol":17,"map":"pl_pier","folder":"tf","game":"Team Fortress","app_id":440,"player_count":19,"max_players":24,"Bots":0,"server_type":"Dedicated","server_os":"Linux","password":true,"vac":true,"version":"7882260","steam_id":85568392924469986,"keywords":["nocrits","nodmgspread","payload","uncletopia"],"game_id":440,"stv_port":27016,"stv_name":"Uncletopia | Dallas | 1 | All Maps | STV","players":[{"user_id":201,"name":"raya","steam_id":76561198051504581,"connected_time":3189000000000,"state":"active","ping":55},{"user_id":227,"name":"❤️Shady","steam_id":76561198125947844,"connected_time":0,"state":"spawning","ping":49},{"user_id":212,"name":"Ekuseebia","steam_id":76561198037504112,"connected_time":2199000000000,"state":"active","ping":63},{"user_id":203,"name":"Antifa Supersoldier","steam_id":76561198141816516,"connected_time":2879000000000,"state":"active","ping":37},{"user_id":10,"name":"Pizza","steam_id":76561198118748364,"connected_time":15725000000000,"state":"active","ping":76},{"user_id":179,"name":"Aribari (She/Her)","steam_id":76561198117327938,"connected_time":4385000000000,"state":"active","ping":76},{"user_id":225,"name":"Guardians","steam_id":76561198803811910,"connected_time":460000000000,"state":"active","ping":39},{"user_id":222,"name":"ElectronX","steam_id":76561198116034988,"connected_time":828000000000,"state":"active","ping":75},{"user_id":220,"name":"Pop","steam_id":76561199012562851,"connected_time":1194000000000,"state":"active","ping":93},{"user_id":216,"name":"C∅RVUS","steam_id":76561198100640019,"connected_time":2004000000000,"state":"active","ping":104},{"user_id":221,"name":"MasterGeek.MX","steam_id":76561198063355220,"connected_time":946000000000,"state":"active","ping":89},{"user_id":200,"name":"Fantastic Mr. Fox Appreciator","steam_id":76561198096306325,"connected_time":3192000000000,"state":"active","ping":85},{"user_id":204,"name":"DORATHEEXPLORER","steam_id":76561198124773931,"connected_time":2816000000000,"state":"active","ping":84},{"user_id":207,"name":"LederBoy","steam_id":76561198051822369,"connected_time":2610000000000,"state":"active","ping":80},{"user_id":45,"name":"Grimm","steam_id":76561199242664677,"connected_time":14199000000000,"state":"active","ping":97},{"user_id":224,"name":"Xeno808","steam_id":76561198103758081,"connected_time":702000000000,"state":"active","ping":37},{"user_id":219,"name":"phfez","steam_id":76561198046150386,"connected_time":1256000000000,"state":"active","ping":75},{"user_id":199,"name":"Danger McHazard","steam_id":76561198059451274,"connected_time":3312000000000,"state":"active","ping":73},{"user_id":33,"name":"Makina","steam_id":76561198057475567,"connected_time":15270000000000,"state":"active","ping":97}]},{"server_id":108,"name":"Uncletopia | Dallas | 2 | All Maps","name_short":"dal-2","host":"dal-1.us.uncletopia.com","port":27025,"enabled":true,"region":"us-central","cc":"us","latitude":32.779167,"longitude":-96.80889,"reserved":0,"last_update":"0001-01-01T00:00:00Z","name_a2s":"Uncletopia | Dallas | 2 | All Maps","protocol":17,"map":"pl_upward","folder":"tf","game":"Team Fortress","app_id":440,"player_count":23,"max_players":24,"Bots":0,"server_type":"Dedicated","server_os":"Linux","password":true,"vac":true,"version":"7882260","steam_id":85568392924469988,"keywords":["nocrits","nodmgspread","payload","uncletopia"],"game_id":440,"stv_port":27026,"stv_name":"Uncletopia | Dallas | 2 | All Maps | STV","players":[{"user_id":248,"name":"Benwyatt88","steam_id":76561198823755174,"connected_time":860000000000,"state":"active","ping":69},{"user_id":239,"name":"M4tT","steam_id":76561198118764868,"connected_time":1441000000000,"state":"active","ping":63},{"user_id":254,"name":"YASAI JUICE","steam_id":76561198131971992,"connected_time":99000000000,"state":"active","ping":52},{"user_id":222,"name":"crayonnipple","steam_id":76561198070253331,"connected_time":2179000000000,"state":"active","ping":93},{"user_id":240,"name":"avant","steam_id":76561198104921055,"connected_time":1417000000000,"state":"active","ping":95},{"user_id":163,"name":"Snoopy","steam_id":76561198273735974,"connected_time":6200000000000,"state":"active","ping":75},{"user_id":181,"name":"Gek Ambassador","steam_id":76561199080135821,"connected_time":5217000000000,"state":"active","ping":65},{"user_id":193,"name":"Manic","steam_id":76561198128149670,"connected_time":4603000000000,"state":"active","ping":46},{"user_id":243,"name":"Debiru","steam_id":76561198044924051,"connected_time":1244000000000,"state":"active","ping":73},{"user_id":188,"name":"quek","steam_id":76561198181048813,"connected_time":4918000000000,"state":"active","ping":68},{"user_id":220,"name":"CHIKN","steam_id":76561198277792665,"connected_time":2238000000000,"state":"active","ping":76},{"user_id":169,"name":"Bot_with_bad_aim","steam_id":76561198423136886,"connected_time":6127000000000,"state":"active","ping":101},{"user_id":250,"name":"An Unhappy Clown","steam_id":76561198175516514,"connected_time":249000000000,"state":"active","ping":45},{"user_id":244,"name":"Lore","steam_id":76561198098407538,"connected_time":1232000000000,"state":"active","ping":74},{"user_id":249,"name":"josh","steam_id":76561198077902438,"connected_time":327000000000,"state":"active","ping":74},{"user_id":206,"name":"Riff III","steam_id":76561198066921423,"connected_time":3138000000000,"state":"active","ping":59},{"user_id":229,"name":"dang it/darn it/crap","steam_id":76561198204593875,"connected_time":1924000000000,"state":"active","ping":59},{"user_id":228,"name":"Aloha :3","steam_id":76561198148517055,"connected_time":1962000000000,"state":"active","ping":117},{"user_id":234,"name":"Cheese","steam_id":76561199207081299,"connected_time":1660000000000,"state":"active","ping":110},{"user_id":235,"name":"2 for $3.50 McChickens","steam_id":76561198089908660,"connected_time":1643000000000,"state":"active","ping":63},{"user_id":236,"name":"Blows","steam_id":76561198065349185,"connected_time":1638000000000,"state":"active","ping":75},{"user_id":246,"name":"Julian++","steam_id":76561198334000653,"connected_time":1159000000000,"state":"active","ping":46},{"user_id":253,"name":"Cliffigriff","steam_id":76561198121924499,"connected_time":166000000000,"state":"active","ping":50}]},{"server_id":5,"name":"Uncletopia | Frankfurt | 1 | All Maps","name_short":"frk-1","host":"frk-1.de.uncletopia.com","port":27015,"enabled":true,"region":"eu","cc":"de","latitude":50.110924,"longitude":8.682127,"reserved":0,"last_update":"0001-01-01T00:00:00Z","name_a2s":"Uncletopia | Frankfurt | 1 | All Maps","protocol":17,"map":"pl_snowycoast","folder":"tf","game":"Team Fortress","app_id":440,"player_count":0,"max_players":24,"Bots":0,"server_type":"Dedicated","server_os":"Linux","password":true,"vac":true,"version":"7882260","steam_id":85568392924469989,"keywords":["nocrits","nodmgspread","payload","uncletopia"],"game_id":440,"stv_port":27016,"stv_name":"Uncletopia | Frankfurt | 1 | All Maps | STV","players":null},{"server_id":110,"name":"Uncletopia | Frankfurt | 2 | All Maps","name_short":"frk-2","host":"frk-1.de.uncletopia.com","port":27025,"enabled":true,"region":"eu","cc":"de","latitude":50.110924,"longitude":8.682127,"reserved":0,"last_update":"0001-01-01T00:00:00Z","name_a2s":"Uncletopia | Frankfurt | 2 | All Maps","protocol":17,"map":"pl_upward","folder":"tf","game":"Team Fortress","app_id":440,"player_count":0,"max_players":24,"Bots":0,"server_type":"Dedicated","server_os":"Linux","password":true,"vac":true,"version":"7882260","steam_id":85568392924469990,"keywords":["nocrits","nodmgspread","payload","uncletopia"],"game_id":440,"stv_port":27026,"stv_name":"Uncletopia | Frankfurt | 2 | All Maps | STV","players":null},{"server_id":308,"name":"Uncletopia | Frankfurt | 3 | All Maps","name_short":"frk-3","host":"frk-1.de.uncletopia.com","port":27035,"enabled":true,"region":"eu","cc":"de","latitude":50.110924,"longitude":8.682127,"reserved":0,"last_update":"0001-01-01T00:00:00Z","name_a2s":"Uncletopia | Frankfurt | 3 | All Maps","protocol":17,"map":"cp_process_final","folder":"tf","game":"Team Fortress","app_id":440,"player_count":0,"max_players":24,"Bots":0,"server_type":"Dedicated","server_os":"Linux","password":true,"vac":true,"version":"7882260","steam_id":85568392924504274,"keywords":["cp","nocrits","nodmgspread","uncletopia"],"game_id":440,"stv_port":27036,"stv_name":"Uncletopia | Frankfurt | 3 | All Maps | STV","players":null},{"server_id":309,"name":"Uncletopia | Frankfurt | 4 | All Maps","name_short":"frk-4","host":"frk-1.de.uncletopia.com","port":27045,"enabled":true,"region":"eu","cc":"de","latitude":50.110924,"longitude":8.682127,"reserved":0,"last_update":"0001-01-01T00:00:00Z","name_a2s":"Uncletopia | Frankfurt | 4 | All Maps","protocol":17,"map":"pl_swiftwater_final1","folder":"tf","game":"Team Fortress","app_id":440,"player_count":0,"max_players":24,"Bots":0,"server_type":"Dedicated","server_os":"Linux","password":true,"vac":true,"version":"7882260","steam_id":85568392924504275,"keywords":["nocrits","nodmgspread","payload","uncletopia"],"game_id":440,"stv_port":27046,"stv_name":"Uncletopia | Frankfurt | 4 | All Maps | STV","players":null},{"server_id":310,"name":"Uncletopia | Frankfurt | 5 | All Maps","name_short":"frk-5","host":"frk-1.de.uncletopia.com","port":27055,"enabled":true,"region":"eu","cc":"de","latitude":50.110924,"longitude":8.682127,"reserved":0,"last_update":"0001-01-01T00:00:00Z","name_a2s":"Uncletopia | Frankfurt | 5 | All Maps","protocol":17,"map":"pl_borneo","folder":"tf","game":"Team Fortress","app_id":440,"player_count":0,"max_players":24,"Bots":0,"server_type":"Dedicated","server_os":"Linux","password":true,"vac":true,"version":"7882260","steam_id":85568392924504277,"keywords":["nocrits","nodmgspread","payload","uncletopia"],"game_id":440,"stv_port":27056,"stv_name":"Uncletopia | Frankfurt | 5 | All Maps | STV","players":null},{"server_id":311,"name":"Uncletopia | Frankfurt | 6 | All Maps","name_short":"frk-6","host":"frk-1.de.uncletopia.com","port":27065,"enabled":true,"region":"eu","cc":"de","latitude":50.110924,"longitude":8.682127,"reserved":0,"last_update":"0001-01-01T00:00:00Z","name_a2s":"Uncletopia | Frankfurt | 6 | All Maps","protocol":17,"map":"cp_snakewater_final1","folder":"tf","game":"Team Fortress","app_id":440,"player_count":0,"max_players":24,"Bots":0,"server_type":"Dedicated","server_os":"Linux","password":true,"vac":true,"version":"7882260","steam_id":85568392924504278,"keywords":["cp","nocrits","nodmgspread","uncletopia"],"game_id":440,"stv_port":27066,"stv_name":"Uncletopia | Frankfurt | 6 | All Maps | STV","players":null},{"server_id":23,"name":"Uncletopia | Frankfurt | 7 | Stopwatch Beta","name_short":"frk-7","host":"frk-1.de.uncletopia.com","port":27075,"enabled":true,"region":"eu","cc":"de","latitude":50.110924,"longitude":8.682127,"reserved":0,"last_update":"0001-01-01T00:00:00Z","name_a2s":"Uncletopia | Frankfurt | 7 | Stopwatch Beta","protocol":17,"map":"cp_snakewater_final1","folder":"tf","game":"Team Fortress","app_id":440,"player_count":0,"max_players":24,"Bots":0,"server_type":"Dedicated","server_os":"Linux","password":true,"vac":true,"version":"7882260","steam_id":85568392924742827,"keywords":["cp","nocrits","nodmgspread","uncletopia"],"game_id":440,"stv_port":27076,"stv_name":"Uncletopia | Frankfurt | 7 | Stopwatch Beta | STV","players":null},{"server_id":24,"name":"Uncletopia | Frankfurt | 8 | Community","name_short":"frk-8","host":"frk-1.de.uncletopia.com","port":27085,"enabled":true,"region":"eu","cc":"de","latitude":50.110924,"longitude":8.682127,"reserved":0,"last_update":"0001-01-01T00:00:00Z","name_a2s":"Uncletopia | Frankfurt | 8 | Community","protocol":17,"map":"cp_mountainlab","folder":"tf","game":"Team Fortress","app_id":440,"player_count":0,"max_players":24,"Bots":0,"server_type":"Dedicated","server_os":"Linux","password":true,"vac":true,"version":"7882260","steam_id":85568392924742828,"keywords":["cp","nocrits","nodmgspread","uncletopia"],"game_id":440,"stv_port":27086,"stv_name":"Uncletopia | Frankfurt | 8 | Community | STV","players":null},{"server_id":202,"name":"Uncletopia | Hong Kong | 1 | All Maps","name_short":"hgk-1","host":"hgk-1.hk.uncletopia.com","port":27015,"enabled":true,"region":"asia","cc":"hk","latitude":22.302711,"longitude":114.177216,"reserved":0,"last_update":"0001-01-01T00:00:00Z","name_a2s":"Uncletopia | Hong Kong | 1 | All Maps","protocol":17,"map":"pl_badwater","folder":"tf","game":"Team Fortress","app_id":440,"player_count":17,"max_players":24,"Bots":0,"server_type":"Dedicated","server_os":"Linux","password":true,"vac":true,"version":"7882260","steam_id":85568392924494504,"keywords":["nocrits","nodmgspread","payload","uncletopia"],"game_id":440,"stv_port":27016,"stv_name":"Uncletopia | Hong Kong | 1 | All Maps | STV","players":[{"user_id":30,"name":"BAD PYRO PLAYER","steam_id":76561198074339034,"connected_time":1762000000000,"state":"active","ping":74},{"user_id":31,"name":"Dr. Piss Rat","steam_id":76561199074809838,"connected_time":1742000000000,"state":"active","ping":64},{"user_id":25,"name":"Jar Jar Binks","steam_id":76561199230994355,"connected_time":2519000000000,"state":"active","ping":76},{"user_id":41,"name":"eekynetwo(F2P Piss Sniper)","steam_id":76561198990017441,"connected_time":716000000000,"state":"active","ping":92},{"user_id":37,"name":"coakDeLera","steam_id":76561199262817512,"connected_time":894000000000,"state":"active","ping":94},{"user_id":17,"name":"GreggieBoi","steam_id":76561199085200364,"connected_time":3094000000000,"state":"active","ping":65},{"user_id":43,"name":"phantomizer","steam_id":76561199062227543,"connected_time":619000000000,"state":"active","ping":49},{"user_id":21,"name":"broccoli","steam_id":76561198838171912,"connected_time":2818000000000,"state":"active","ping":96},{"user_id":39,"name":"cstr","steam_id":76561198125946388,"connected_time":780000000000,"state":"active","ping":94},{"user_id":45,"name":"GBU","steam_id":76561199002422658,"connected_time":481000000000,"state":"active","ping":78},{"user_id":27,"name":"Chomer","steam_id":76561199034546642,"connected_time":2226000000000,"state":"active","ping":99},{"user_id":26,"name":"im_0ff","steam_id":76561198339346695,"connected_time":2507000000000,"state":"active","ping":118},{"user_id":44,"name":"Dagoth Ur","steam_id":76561198289388650,"connected_time":505000000000,"state":"active","ping":107},{"user_id":33,"name":"プロゲーマー","steam_id":76561199017344476,"connected_time":1515000000000,"state":"active","ping":80},{"user_id":48,"name":"Madgoat01","steam_id":76561198438429996,"connected_time":136000000000,"state":"active","ping":107},{"user_id":47,"name":"Luzyyss","steam_id":76561198320532821,"connected_time":295000000000,"state":"active","ping":64},{"user_id":49,"name":"i am a F2P and my aim is shit","steam_id":76561199475974790,"connected_time":73000000000,"state":"active","ping":71}]},{"server_id":1,"name":"Uncletopia | Los Angeles | 1 | All Maps","name_short":"lax-1","host":"lax-1.us.uncletopia.com","port":27015,"enabled":true,"region":"us-west","cc":"us","latitude":33.94279,"longitude":-118.41004,"reserved":0,"last_update":"0001-01-01T00:00:00Z","name_a2s":"Uncletopia | Los Angeles | 1 | All Maps","protocol":17,"map":"koth_viaduct","folder":"tf","game":"Team Fortress","app_id":440,"player_count":22,"max_players":24,"Bots":0,"server_type":"Dedicated","server_os":"Linux","password":true,"vac":true,"version":"7882260","steam_id":85568392924469991,"keywords":["cp","nocrits","nodmgspread","uncletopia"],"game_id":440,"stv_port":27016,"stv_name":"Uncletopia | Los Angeles | 1 | All Maps | STV","players":[{"user_id":394,"name":"themadlad67","steam_id":76561199309554436,"connected_time":760000000000,"state":"active","ping":103},{"user_id":382,"name":"Drakon","steam_id":76561198078210822,"connected_time":2020000000000,"state":"active","ping":58},{"user_id":388,"name":"Srattinee","steam_id":76561198199840395,"connected_time":1147000000000,"state":"active","ping":115},{"user_id":395,"name":"Quackjack","steam_id":76561198304506868,"connected_time":706000000000,"state":"active","ping":103},{"user_id":392,"name":"nori_420 (mute)","steam_id":76561199117134203,"connected_time":1031000000000,"state":"active","ping":55},{"user_id":403,"name":"big car","steam_id":76561198067082350,"connected_time":99000000000,"state":"active","ping":54},{"user_id":396,"name":"Zirkel","steam_id":76561198091428512,"connected_time":671000000000,"state":"active","ping":46},{"user_id":405,"name":"blu","steam_id":76561198166974318,"connected_time":31000000000,"state":"active","ping":59},{"user_id":397,"name":"Yoshi172","steam_id":76561198272970133,"connected_time":560000000000,"state":"active","ping":94},{"user_id":372,"name":"Vintage TV","steam_id":76561198800334545,"connected_time":2718000000000,"state":"active","ping":44},{"user_id":398,"name":"sora","steam_id":76561198094256973,"connected_time":509000000000,"state":"active","ping":60},{"user_id":399,"name":"trans gaming","steam_id":76561198850577111,"connected_time":273000000000,"state":"active","ping":103},{"user_id":379,"name":"noellehound","steam_id":76561198108844158,"connected_time":2399000000000,"state":"active","ping":55},{"user_id":400,"name":"Doodled PING","steam_id":76561199086104720,"connected_time":242000000000,"state":"active","ping":81},{"user_id":401,"name":"Farseer Ulwithy","steam_id":76561197965179245,"connected_time":214000000000,"state":"active","ping":83},{"user_id":389,"name":"Shaw Han","steam_id":76561198204259015,"connected_time":1132000000000,"state":"active","ping":114},{"user_id":406,"name":"Pandie","steam_id":76561198090842335,"connected_time":8000000000,"state":"active","ping":68},{"user_id":402,"name":"Assassin","steam_id":76561198321410235,"connected_time":208000000000,"state":"active","ping":44},{"user_id":340,"name":"Grim","steam_id":76561198158911860,"connected_time":4853000000000,"state":"active","ping":84},{"user_id":386,"name":"Jomdac","steam_id":76561198150447896,"connected_time":1791000000000,"state":"active","ping":59},{"user_id":404,"name":"HP","steam_id":76561198430090173,"connected_time":98000000000,"state":"active","ping":60},{"user_id":407,"name":"smelly","steam_id":76561198193457726,"connected_time":2000000000,"state":"spawning","ping":177}]},{"server_id":112,"name":"Uncletopia | Los Angeles | 2 | All Maps","name_short":"lax-2","host":"lax-1.us.uncletopia.com","port":27025,"enabled":true,"region":"us-west","cc":"us","latitude":33.94279,"longitude":-118.41004,"reserved":0,"last_update":"0001-01-01T00:00:00Z","name_a2s":"Uncletopia | Los Angeles | 2 | All Maps","protocol":17,"map":"cp_steel","folder":"tf","game":"Team Fortress","app_id":440,"player_count":23,"max_players":24,"Bots":0,"server_type":"Dedicated","server_os":"Linux","password":true,"vac":true,"version":"7882260","steam_id":85568392924469992,"keywords":["cp","nocrits","nodmgspread","uncletopia"],"game_id":440,"stv_port":27026,"stv_name":"Uncletopia | Los Angeles | 2 | All Maps | STV","players":[{"user_id":202,"name":"vioxynteris","steam_id":76561198161428666,"connected_time":2260000000000,"state":"active","ping":32},{"user_id":229,"name":"gerg","steam_id":76561197997127387,"connected_time":25000000000,"state":"active","ping":54},{"user_id":193,"name":"paste!","steam_id":76561198085388962,"connected_time":3413000000000,"state":"active","ping":90},{"user_id":220,"name":"st4rb0y^*","steam_id":76561198337487263,"connected_time":806000000000,"state":"active","ping":48},{"user_id":223,"name":"Whip it","steam_id":76561198123261072,"connected_time":153000000000,"state":"active","ping":110},{"user_id":222,"name":"Pre Pissed Pants","steam_id":76561198042143837,"connected_time":385000000000,"state":"active","ping":90},{"user_id":212,"name":"wugmup","steam_id":76561199096287734,"connected_time":1485000000000,"state":"active","ping":67},{"user_id":227,"name":"Chiaki Nanami","steam_id":76561198164782653,"connected_time":54000000000,"state":"active","ping":120},{"user_id":228,"name":"social distance warrior","steam_id":76561198128992994,"connected_time":48000000000,"state":"active","ping":75},{"user_id":215,"name":"mr.edderkopper","steam_id":76561198152614478,"connected_time":1263000000000,"state":"active","ping":81},{"user_id":217,"name":"The Ghost™","steam_id":76561198061292612,"connected_time":1107000000000,"state":"active","ping":57},{"user_id":201,"name":"Asada Gaming","steam_id":76561198890404100,"connected_time":2374000000000,"state":"active","ping":58},{"user_id":180,"name":"Lament","steam_id":76561199486644664,"connected_time":4785000000000,"state":"active","ping":107},{"user_id":219,"name":"Alf Creepypasta","steam_id":76561198841844093,"connected_time":911000000000,"state":"active","ping":44},{"user_id":221,"name":"iKickBabies","steam_id":76561199337400258,"connected_time":759000000000,"state":"active","ping":72},{"user_id":192,"name":"monkey squirts","steam_id":76561197983101644,"connected_time":3698000000000,"state":"active","ping":48},{"user_id":100,"name":"juju","steam_id":76561199473801131,"connected_time":9463000000000,"state":"active","ping":109},{"user_id":176,"name":"Feel the bern","steam_id":76561198078824519,"connected_time":4877000000000,"state":"active","ping":47},{"user_id":203,"name":"plushvids11","steam_id":76561198889418752,"connected_time":2201000000000,"state":"active","ping":50},{"user_id":209,"name":"twink-182","steam_id":76561198109480519,"connected_time":1806000000000,"state":"active","ping":104},{"user_id":210,"name":"♥ur :3 medic gf♥ (51ref/hr)","steam_id":76561198816778484,"connected_time":1792000000000,"state":"active","ping":126},{"user_id":225,"name":"Paul Allen","steam_id":76561198205346760,"connected_time":76000000000,"state":"active","ping":98},{"user_id":226,"name":"steady","steam_id":76561198210433363,"connected_time":76000000000,"state":"active","ping":93}]},{"server_id":324,"name":"Uncletopia | Los Angeles | 3 | All Maps","name_short":"lax-3","host":"lax-1.us.uncletopia.com","port":27035,"enabled":true,"region":"us-west","cc":"us","latitude":33.94279,"longitude":-118.41004,"reserved":0,"last_update":"0001-01-01T00:00:00Z","name_a2s":"Uncletopia | Los Angeles | 3 | All Maps","protocol":17,"map":"pl_snowycoast","folder":"tf","game":"Team Fortress","app_id":440,"player_count":24,"max_players":24,"Bots":0,"server_type":"Dedicated","server_os":"Linux","password":true,"vac":true,"version":"7882260","steam_id":85568392924510198,"keywords":["nocrits","nodmgspread","payload","uncletopia"],"game_id":440,"stv_port":27036,"stv_name":"Uncletopia | Los Angeles | 3 | All Maps | STV","players":[{"user_id":147,"name":"Quibits","steam_id":76561198032944405,"connected_time":1115000000000,"state":"active","ping":54},{"user_id":163,"name":"PinguEnjoyer6","steam_id":76561199186723516,"connected_time":403000000000,"state":"active","ping":33},{"user_id":158,"name":"CherryPieRed2023","steam_id":76561198998007496,"connected_time":693000000000,"state":"active","ping":62},{"user_id":144,"name":"eau:","steam_id":76561198110020262,"connected_time":1633000000000,"state":"active","ping":36},{"user_id":108,"name":"carpet","steam_id":76561198207881077,"connected_time":4181000000000,"state":"active","ping":91},{"user_id":162,"name":"BlitzB@t","steam_id":76561198299318000,"connected_time":473000000000,"state":"active","ping":85},{"user_id":130,"name":"californjoe","steam_id":76561197965047795,"connected_time":2704000000000,"state":"active","ping":47},{"user_id":164,"name":"JohnnyGitGud","steam_id":76561198401455467,"connected_time":315000000000,"state":"active","ping":54},{"user_id":145,"name":"perc 10","steam_id":76561198116471653,"connected_time":1596000000000,"state":"active","ping":54},{"user_id":152,"name":"Fluffy","steam_id":76561198213561811,"connected_time":934000000000,"state":"active","ping":44},{"user_id":149,"name":"Serupy","steam_id":76561198402330698,"connected_time":1035000000000,"state":"active","ping":104},{"user_id":62,"name":"bigman1","steam_id":76561198050225055,"connected_time":7739000000000,"state":"active","ping":45},{"user_id":161,"name":"Mr. Yoshida","steam_id":76561198263829831,"connected_time":525000000000,"state":"active","ping":71},{"user_id":165,"name":"Call Me Ishmael","steam_id":76561198030696516,"connected_time":313000000000,"state":"active","ping":62},{"user_id":83,"name":"murph","steam_id":76561197973805634,"connected_time":6054000000000,"state":"active","ping":66},{"user_id":151,"name":"Sleempreem","steam_id":76561198131987251,"connected_time":969000000000,"state":"active","ping":31},{"user_id":166,"name":"chrome 2008 (she/they)","steam_id":76561198321277216,"connected_time":293000000000,"state":"active","ping":64},{"user_id":153,"name":"Bread","steam_id":76561198309684977,"connected_time":874000000000,"state":"active","ping":115},{"user_id":167,"name":"bengineer","steam_id":76561198171912174,"connected_time":288000000000,"state":"active","ping":80},{"user_id":135,"name":"Rango","steam_id":76561198067275912,"connected_time":2497000000000,"state":"active","ping":67},{"user_id":59,"name":"Tuba","steam_id":76561198209166329,"connected_time":7766000000000,"state":"active","ping":71},{"user_id":170,"name":"00","steam_id":76561198041700636,"connected_time":171000000000,"state":"active","ping":59},{"user_id":171,"name":"Mr Sir Logan","steam_id":76561198088803891,"connected_time":153000000000,"state":"active","ping":60},{"user_id":125,"name":"cringy","steam_id":76561198323000455,"connected_time":2893000000000,"state":"active","ping":65}]},{"server_id":25,"name":"Uncletopia | Los Angeles | 4 | Stopwatch Beta","name_short":"lax-4","host":"lax-1.us.uncletopia.com","port":27045,"enabled":true,"region":"us-west","cc":"us","latitude":33.94279,"longitude":-118.41004,"reserved":0,"last_update":"0001-01-01T00:00:00Z","name_a2s":"Uncletopia | Los Angeles | 4 | Stopwatch Beta","protocol":17,"map":"koth_viaduct","folder":"tf","game":"Team Fortress","app_id":440,"player_count":0,"max_players":24,"Bots":0,"server_type":"Dedicated","server_os":"Linux","password":true,"vac":true,"version":"7882260","steam_id":85568392924510199,"keywords":["cp","nocrits","nodmgspread","uncletopia"],"game_id":440,"stv_port":27046,"stv_name":"Uncletopia | Los Angeles | 4 | Stopwatch Beta | STV","players":null},{"server_id":11,"name":"Uncletopia | London | 1 | All Maps","name_short":"lon-1","host":"lon-1.uk.uncletopia.com","port":27015,"enabled":true,"region":"eu","cc":"gb","latitude":51.509865,"longitude":-0.118092,"reserved":0,"last_update":"0001-01-01T00:00:00Z","name_a2s":"Uncletopia | London | 1 | All Maps","protocol":17,"map":"koth_harvest_final","folder":"tf","game":"Team Fortress","app_id":440,"player_count":22,"max_players":24,"Bots":0,"server_type":"Dedicated","server_os":"Linux","password":true,"vac":true,"version":"7882260","steam_id":85568392924367362,"keywords":["cp","nocrits","nodmgspread","uncletopia"],"game_id":440,"stv_port":27016,"stv_name":"Uncletopia | London | 1 | All Maps | STV","players":[{"user_id":3,"name":"CumbustiblePunda","steam_id":76561197974274677,"connected_time":2626000000000,"state":"active","ping":56},{"user_id":4,"name":"Cosmetic brain","steam_id":76561198055936410,"connected_time":2622000000000,"state":"active","ping":76},{"user_id":19,"name":"the man","steam_id":76561199071710430,"connected_time":2165000000000,"state":"active","ping":101},{"user_id":6,"name":"cheese88","steam_id":76561198103670631,"connected_time":2605000000000,"state":"active","ping":126},{"user_id":31,"name":"yousef10kh","steam_id":76561199229130901,"connected_time":1334000000000,"state":"active","ping":164},{"user_id":24,"name":"voco","steam_id":76561198179250642,"connected_time":1662000000000,"state":"active","ping":116},{"user_id":38,"name":"Niko","steam_id":76561199006295285,"connected_time":779000000000,"state":"active","ping":72},{"user_id":21,"name":"✪ GentleMann","steam_id":76561198075332603,"connected_time":1926000000000,"state":"active","ping":118},{"user_id":40,"name":"Turbo","steam_id":76561197973697756,"connected_time":653000000000,"state":"active","ping":47},{"user_id":33,"name":"germinator","steam_id":76561199387893648,"connected_time":1134000000000,"state":"active","ping":103},{"user_id":23,"name":"Corpus Christi","steam_id":76561198417999443,"connected_time":1834000000000,"state":"active","ping":107},{"user_id":25,"name":"Утилизатор","steam_id":76561198001490104,"connected_time":1635000000000,"state":"active","ping":93},{"user_id":45,"name":"󠀡󠀡","steam_id":76561197992138411,"connected_time":238000000000,"state":"active","ping":57},{"user_id":43,"name":"hilde","steam_id":76561198231786924,"connected_time":400000000000,"state":"active","ping":86},{"user_id":44,"name":"Genesis","steam_id":76561198813265235,"connected_time":324000000000,"state":"active","ping":86},{"user_id":32,"name":"I love playing medic","steam_id":76561199101935057,"connected_time":1164000000000,"state":"active","ping":100},{"user_id":28,"name":"Боевой комар","steam_id":76561198796564094,"connected_time":1604000000000,"state":"active","ping":92},{"user_id":46,"name":"dumpster","steam_id":76561198429917681,"connected_time":217000000000,"state":"active","ping":43},{"user_id":47,"name":"Boxtrot","steam_id":76561198026321441,"connected_time":127000000000,"state":"active","ping":72},{"user_id":48,"name":"sSolle","steam_id":76561198085269924,"connected_time":116000000000,"state":"active","ping":64},{"user_id":36,"name":"✘ ˵   ◡  ˶ ✘ wide ap","steam_id":76561198083286511,"connected_time":1033000000000,"state":"active","ping":34},{"user_id":49,"name":"Witch","steam_id":76561198212059683,"connected_time":90000000000,"state":"active","ping":67}]},{"server_id":114,"name":"Uncletopia | London | 2 | All Maps","name_short":"lon-2","host":"lon-1.uk.uncletopia.com","port":27025,"enabled":true,"region":"eu","cc":"gb","latitude":51.509865,"longitude":-0.118092,"reserved":0,"last_update":"0001-01-01T00:00:00Z","name_a2s":"Uncletopia | London | 2 | All Maps","protocol":17,"map":"koth_highpass","folder":"tf","game":"Team Fortress","app_id":440,"player_count":0,"max_players":24,"Bots":0,"server_type":"Dedicated","server_os":"Linux","password":true,"vac":true,"version":"7882260","steam_id":85568392924470941,"keywords":["cp","nocrits","nodmgspread","uncletopia"],"game_id":440,"stv_port":27026,"stv_name":"Uncletopia | London | 2 | All Maps | STV","players":null},{"server_id":320,"name":"Uncletopia | London | 3 | All Maps","name_short":"lon-3","host":"lon-1.uk.uncletopia.com","port":27035,"enabled":true,"region":"eu","cc":"gb","latitude":51.509865,"longitude":-0.118092,"reserved":0,"last_update":"0001-01-01T00:00:00Z","name_a2s":"Uncletopia | London | 3 | All Maps","protocol":17,"map":"pl_upward","folder":"tf","game":"Team Fortress","app_id":440,"player_count":0,"max_players":24,"Bots":0,"server_type":"Dedicated","server_os":"Linux","password":true,"vac":true,"version":"7882260","steam_id":85568392924510192,"keywords":["nocrits","nodmgspread","payload","uncletopia"],"game_id":440,"stv_port":27036,"stv_name":"Uncletopia | London | 3 | All Maps | STV","players":null},{"server_id":321,"name":"Uncletopia | London | 4 | All Maps","name_short":"lon-4","host":"lon-1.uk.uncletopia.com","port":27045,"enabled":true,"region":"eu","cc":"gb","latitude":51.509865,"longitude":-0.118092,"reserved":0,"last_update":"0001-01-01T00:00:00Z","name_a2s":"Uncletopia | London | 4 | All Maps","protocol":17,"map":"cp_dustbowl","folder":"tf","game":"Team Fortress","app_id":440,"player_count":0,"max_players":24,"Bots":0,"server_type":"Dedicated","server_os":"Linux","password":true,"vac":true,"version":"7882260","steam_id":85568392924510193,"keywords":["cp","nocrits","nodmgspread","uncletopia"],"game_id":440,"stv_port":27046,"stv_name":"Uncletopia | London | 4 | All Maps | STV","players":null},{"server_id":21,"name":"Uncletopia | London | 5 | All Maps","name_short":"lon-5","host":"lon-1.uk.uncletopia.com","port":27055,"enabled":true,"region":"eu","cc":"gb","latitude":51.509865,"longitude":-0.118092,"reserved":0,"last_update":"0001-01-01T00:00:00Z","name_a2s":"Uncletopia | London | 5 | All Maps","protocol":17,"map":"koth_viaduct","folder":"tf","game":"Team Fortress","app_id":440,"player_count":0,"max_players":24,"Bots":0,"server_type":"Dedicated","server_os":"Linux","password":true,"vac":true,"version":"7882260","steam_id":85568392924742829,"keywords":["cp","nocrits","nodmgspread","uncletopia"],"game_id":440,"stv_port":27056,"stv_name":"Uncletopia | London | 5 | All Maps | STV","players":null},{"server_id":22,"name":"Uncletopia | London | 6 | All Maps","name_short":"lon-6","host":"lon-1.uk.uncletopia.com","port":27065,"enabled":true,"region":"eu","cc":"gb","latitude":51.509865,"longitude":-0.118092,"reserved":0,"last_update":"0001-01-01T00:00:00Z","name_a2s":"Uncletopia | London | 6 | All Maps","protocol":17,"map":"koth_lakeside_final","folder":"tf","game":"Team Fortress","app_id":440,"player_count":0,"max_players":24,"Bots":0,"server_type":"Dedicated","server_os":"Linux","password":true,"vac":true,"version":"7882260","steam_id":85568392924742830,"keywords":["cp","nocrits","nodmgspread","uncletopia"],"game_id":440,"stv_port":27066,"stv_name":"Uncletopia | London | 6 | All Maps | STV","players":null},{"server_id":40,"name":"Uncletopia | London | 7 | No Payload","name_short":"lon-7","host":"lon-1.uk.uncletopia.com","port":27075,"enabled":true,"region":"eu","cc":"gb","latitude":51.509865,"longitude":-0.118092,"reserved":0,"last_update":"0001-01-01T00:00:00Z","name_a2s":"Uncletopia | London | 7 | No Payload","protocol":17,"map":"pl_upward","folder":"tf","game":"Team Fortress","app_id":440,"player_count":0,"max_players":24,"Bots":0,"server_type":"Dedicated","server_os":"Linux","password":true,"vac":true,"version":"7882260","steam_id":85568392924964314,"keywords":["nocrits","nodmgspread","payload","uncletopia"],"game_id":440,"stv_port":27076,"stv_name":"Uncletopia | London | 7 | No Payload | STV","players":null},{"server_id":41,"name":"Uncletopia | London | 8 | Community","name_short":"lon-8","host":"lon-1.uk.uncletopia.com","port":27085,"enabled":true,"region":"eu","cc":"gb","latitude":51.509865,"longitude":-0.118092,"reserved":0,"last_update":"0001-01-01T00:00:00Z","name_a2s":"Uncletopia | London | 8 | Community","protocol":17,"map":"pl_upward","folder":"tf","game":"Team Fortress","app_id":440,"player_count":0,"max_players":24,"Bots":0,"server_type":"Dedicated","server_os":"Linux","password":true,"vac":true,"version":"7882260","steam_id":85568392924964315,"keywords":["nocrits","nodmgspread","payload","uncletopia"],"game_id":440,"stv_port":27086,"stv_name":"Uncletopia | London | 8 | Community | STV","players":null},{"server_id":300,"name":"Uncletopia | Montréal | 1 | All Maps","name_short":"mtl-1","host":"mtl-1.ca.uncletopia.com","port":27015,"enabled":true,"region":"us-east","cc":"ca","latitude":45.50889,"longitude":-73.56167,"reserved":0,"last_update":"0001-01-01T00:00:00Z","name_a2s":"Uncletopia | Montréal | 1 | All Maps","protocol":17,"map":"cp_dustbowl","folder":"tf","game":"Team Fortress","app_id":440,"player_count":0,"max_players":24,"Bots":0,"server_type":"Dedicated","server_os":"Linux","password":true,"vac":true,"version":"7882260","steam_id":85568392924500087,"keywords":["cp","nocrits","nodmgspread","uncletopia"],"game_id":440,"stv_port":27016,"stv_name":"Uncletopia | Montréal | 1 | All Maps | STV","players":null},{"server_id":301,"name":"Uncletopia | Montréal | 2 | All Maps","name_short":"mtl-2","host":"mtl-1.ca.uncletopia.com","port":27025,"enabled":true,"region":"us-east","cc":"ca","latitude":45.50889,"longitude":-73.56167,"reserved":0,"last_update":"0001-01-01T00:00:00Z","name_a2s":"Uncletopia | Montréal | 2 | All Maps","protocol":17,"map":"koth_highpass","folder":"tf","game":"Team Fortress","app_id":440,"player_count":0,"max_players":24,"Bots":0,"server_type":"Dedicated","server_os":"Linux","password":true,"vac":true,"version":"7882260","steam_id":85568392924500088,"keywords":["cp","nocrits","nodmgspread","uncletopia"],"game_id":440,"stv_port":27026,"stv_name":"Uncletopia | Montréal | 2 | All Maps | STV","players":null},{"server_id":302,"name":"Uncletopia | Montréal | 3 | All Maps","name_short":"mtl-3","host":"mtl-1.ca.uncletopia.com","port":27035,"enabled":true,"region":"us-east","cc":"ca","latitude":45.50889,"longitude":-73.56167,"reserved":0,"last_update":"0001-01-01T00:00:00Z","name_a2s":"Uncletopia | Montréal | 3 | All Maps","protocol":17,"map":"koth_highpass","folder":"tf","game":"Team Fortress","app_id":440,"player_count":0,"max_players":24,"Bots":0,"server_type":"Dedicated","server_os":"Linux","password":true,"vac":true,"version":"7882260","steam_id":85568392924500089,"keywords":["cp","nocrits","nodmgspread","uncletopia"],"game_id":440,"stv_port":27036,"stv_name":"Uncletopia | Montréal | 3 | All Maps | STV","players":null},{"server_id":303,"name":"Uncletopia | Montréal | 4 | No Payload","name_short":"mtl-4","host":"mtl-1.ca.uncletopia.com","port":27045,"enabled":true,"region":"us-east","cc":"ca","latitude":45.50889,"longitude":-73.56167,"reserved":0,"last_update":"0001-01-01T00:00:00Z","name_a2s":"Uncletopia | Montréal | 4 | No Payload","protocol":17,"map":"koth_highpass","folder":"tf","game":"Team Fortress","app_id":440,"player_count":0,"max_players":24,"Bots":0,"server_type":"Dedicated","server_os":"Linux","password":true,"vac":true,"version":"7882260","steam_id":85568392924500090,"keywords":["cp","nocrits","nodmgspread","uncletopia"],"game_id":440,"stv_port":27046,"stv_name":"Uncletopia | Montréal | 4 | No Payload | STV","players":null},{"server_id":13,"name":"Uncletopia | New York City | 1 | All Maps","name_short":"nyc-1","host":"nyc-1.us.uncletopia.com","port":27015,"enabled":true,"region":"us-east","cc":"us","latitude":40.73061,"longitude":-73.93524,"reserved":0,"last_update":"0001-01-01T00:00:00Z","name_a2s":"Uncletopia | New York City | 1 | All Maps","protocol":17,"map":"koth_nucleus","folder":"tf","game":"Team Fortress","app_id":440,"player_count":6,"max_players":24,"Bots":0,"server_type":"Dedicated","server_os":"Linux","password":true,"vac":true,"version":"7882260","steam_id":85568392924469993,"keywords":["cp","nocrits","nodmgspread","uncletopia"],"game_id":440,"stv_port":27016,"stv_name":"Uncletopia | New York City | 1 | All Maps | STV","players":[{"user_id":168,"name":"Banana Man","steam_id":76561198093907186,"connected_time":4134000000000,"state":"active","ping":71},{"user_id":208,"name":"scout lip kisser","steam_id":76561198118961458,"connected_time":147000000000,"state":"active","ping":89},{"user_id":155,"name":"Devoid","steam_id":76561198254039012,"connected_time":6047000000000,"state":"active","ping":43},{"user_id":196,"name":"frog from pond","steam_id":76561198184900753,"connected_time":1497000000000,"state":"active","ping":56},{"user_id":144,"name":"Shek240pEspanol","steam_id":76561198329104604,"connected_time":6933000000000,"state":"active","ping":49},{"user_id":121,"name":"Periculosum PhD in Funny","steam_id":76561198123370914,"connected_time":9218000000000,"state":"active","ping":84}]},{"server_id":14,"name":"Uncletopia | New York City | 2 | All Maps","name_short":"nyc-2","host":"nyc-1.us.uncletopia.com","port":27025,"enabled":true,"region":"us-east","cc":"us","latitude":40.73061,"longitude":-73.93524,"reserved":0,"last_update":"0001-01-01T00:00:00Z","name_a2s":"Uncletopia | New York City | 2 | All Maps","protocol":17,"map":"koth_lakeside_final","folder":"tf","game":"Team Fortress","app_id":440,"player_count":0,"max_players":24,"Bots":0,"server_type":"Dedicated","server_os":"Linux","password":true,"vac":true,"version":"7882260","steam_id":85568392924469994,"keywords":["cp","nocrits","nodmgspread","uncletopia"],"game_id":440,"stv_port":27026,"stv_name":"Uncletopia | New York City | 2 | All Maps | STV","players":null},{"server_id":15,"name":"Uncletopia | New York City | 3 | Stopwatch Beta","name_short":"nyc-3","host":"nyc-1.us.uncletopia.com","port":27035,"enabled":true,"region":"us-east","cc":"us","latitude":40.73061,"longitude":-73.93524,"reserved":0,"last_update":"0001-01-01T00:00:00Z","name_a2s":"Uncletopia | New York City | 3 | Stopwatch Beta","protocol":17,"map":"workshop/koth_clearcut_b15.ugc2107050255","folder":"tf","game":"Team Fortress","app_id":440,"player_count":0,"max_players":24,"Bots":0,"server_type":"Dedicated","server_os":"Linux","password":true,"vac":true,"version":"7882260","steam_id":85568392924742820,"keywords":["cp","nocrits","nodmgspread","uncletopia"],"game_id":440,"stv_port":27036,"stv_name":"Uncletopia | New York City | 3 | Stopwatch Beta | STV","players":null},{"server_id":16,"name":"Uncletopia | New York City | 4 | Community","name_short":"nyc-4","host":"nyc-1.us.uncletopia.com","port":27045,"enabled":true,"region":"us-east","cc":"us","latitude":40.73061,"longitude":-73.93524,"reserved":0,"last_update":"0001-01-01T00:00:00Z","name_a2s":"Uncletopia | New York City | 4 | Community","protocol":17,"map":"workshop/koth_product_final.ugc454272353","folder":"tf","game":"Team Fortress","app_id":440,"player_count":8,"max_players":24,"Bots":0,"server_type":"Dedicated","server_os":"Linux","password":true,"vac":true,"version":"7882260","steam_id":85568392924742821,"keywords":["cp","nocrits","nodmgspread","uncletopia"],"game_id":440,"stv_port":27046,"stv_name":"Uncletopia | New York City | 4 | Community | STV","players":[{"user_id":175,"name":"Elena Manetta","steam_id":76561197998344054,"connected_time":1352000000000,"state":"active","ping":43},{"user_id":132,"name":"The Mug Man","steam_id":76561198283468122,"connected_time":6058000000000,"state":"active","ping":55},{"user_id":152,"name":"can","steam_id":76561198090531755,"connected_time":4296000000000,"state":"active","ping":75},{"user_id":164,"name":"Linkedfurhire","steam_id":76561198149363268,"connected_time":2652000000000,"state":"active","ping":58},{"user_id":176,"name":"River ΘΔ","steam_id":76561198053228998,"connected_time":1254000000000,"state":"active","ping":107},{"user_id":167,"name":"Goofball","steam_id":76561198074189084,"connected_time":2578000000000,"state":"active","ping":30},{"user_id":177,"name":"Legendary Fro","steam_id":76561198099981980,"connected_time":1213000000000,"state":"active","ping":117},{"user_id":125,"name":"MagikarpEX","steam_id":76561198166172279,"connected_time":6572000000000,"state":"active","ping":54}]},{"server_id":142,"name":"Uncletopia | São Paulo | 1 | All Maps","name_short":"sao-1","host":"sao-1.br.uncletopia.com","port":27015,"enabled":true,"region":"sa","cc":"br","latitude":-23.533773,"longitude":-46.62529,"reserved":0,"last_update":"0001-01-01T00:00:00Z","name_a2s":"Uncletopia | São Paulo | 1 | All Maps","protocol":17,"map":"pl_upward","folder":"tf","game":"Team Fortress","app_id":440,"player_count":0,"max_players":24,"Bots":0,"server_type":"Dedicated","server_os":"Linux","password":true,"vac":true,"version":"7882260","steam_id":85568392924469996,"keywords":["nocrits","nodmgspread","payload","uncletopia"],"game_id":440,"stv_port":27016,"stv_name":"Uncletopia | São Paulo | 1 | All Maps | STV","players":null},{"server_id":143,"name":"Uncletopia | São Paulo | 2 | All Maps","name_short":"sao-2","host":"sao-2.br.uncletopia.com","port":27015,"enabled":true,"region":"sa","cc":"br","latitude":-23.533773,"longitude":-46.62529,"reserved":0,"last_update":"0001-01-01T00:00:00Z","name_a2s":"Uncletopia | São Paulo | 2 | All Maps","protocol":17,"map":"koth_lakeside_final","folder":"tf","game":"Team Fortress","app_id":440,"player_count":0,"max_players":24,"Bots":0,"server_type":"Dedicated","server_os":"Linux","password":true,"vac":true,"version":"7882260","steam_id":85568392924485349,"keywords":["cp","nocrits","nodmgspread","uncletopia"],"game_id":440,"stv_port":27016,"stv_name":"Uncletopia | São Paulo | 2 | All Maps | STV","players":null},{"server_id":7,"name":"Uncletopia | Seattle | 1 | All Maps","name_short":"sea-1","host":"sea-1.us.uncletopia.com","port":27015,"enabled":true,"region":"us-west","cc":"us","latitude":47.608013,"longitude":-122.33517,"reserved":0,"last_update":"0001-01-01T00:00:00Z","name_a2s":"Uncletopia | Seattle | 1 | All Maps","protocol":17,"map":"cp_junction_final","folder":"tf","game":"Team Fortress","app_id":440,"player_count":21,"max_players":24,"Bots":0,"server_type":"Dedicated","server_os":"Linux","password":true,"vac":true,"version":"7882260","steam_id":85568392924469997,"keywords":["cp","nocrits","nodmgspread","uncletopia"],"game_id":440,"stv_port":27016,"stv_name":"Uncletopia | Seattle | 1 | All Maps | STV","players":[{"user_id":126,"name":"Manchurian Bandit","steam_id":76561198072410042,"connected_time":3463000000000,"state":"active","ping":77},{"user_id":147,"name":"medd","steam_id":76561198078238722,"connected_time":2359000000000,"state":"active","ping":51},{"user_id":164,"name":"Rook","steam_id":76561198372780831,"connected_time":747000000000,"state":"active","ping":79},{"user_id":117,"name":"Sasha The Foxgirl","steam_id":76561198018403555,"connected_time":4252000000000,"state":"active","ping":53},{"user_id":166,"name":"Rocket Drifter","steam_id":76561198046952513,"connected_time":341000000000,"state":"active","ping":45},{"user_id":137,"name":"AceRepublicRT","steam_id":76561198362676166,"connected_time":2838000000000,"state":"active","ping":70},{"user_id":129,"name":"Toooru","steam_id":76561198857237473,"connected_time":3164000000000,"state":"active","ping":49},{"user_id":168,"name":"Jkbh1","steam_id":76561198093449670,"connected_time":110000000000,"state":"active","ping":54},{"user_id":130,"name":"souljaboytellem.com","steam_id":76561198095824426,"connected_time":3153000000000,"state":"active","ping":75},{"user_id":165,"name":"ChefBunny","steam_id":76561198243610560,"connected_time":439000000000,"state":"active","ping":80},{"user_id":151,"name":"Tea","steam_id":76561198004133638,"connected_time":1972000000000,"state":"active","ping":84},{"user_id":169,"name":"Born_In_Xixax","steam_id":76561197960464479,"connected_time":101000000000,"state":"active","ping":106},{"user_id":159,"name":"An Old Lady","steam_id":76561198047480318,"connected_time":1219000000000,"state":"active","ping":65},{"user_id":170,"name":"PheebsyDeebsy","steam_id":76561198101509436,"connected_time":97000000000,"state":"active","ping":68},{"user_id":80,"name":"lavender","steam_id":76561199069518286,"connected_time":8282000000000,"state":"active","ping":72},{"user_id":167,"name":"Bishuhp","steam_id":76561198015062850,"connected_time":274000000000,"state":"active","ping":52},{"user_id":149,"name":"Meef","steam_id":76561198039987329,"connected_time":2190000000000,"state":"active","ping":101},{"user_id":154,"name":"Finkly","steam_id":76561198049828110,"connected_time":1852000000000,"state":"active","ping":45},{"user_id":124,"name":"arsenic","steam_id":76561198176391550,"connected_time":3590000000000,"state":"active","ping":91},{"user_id":161,"name":"Literally Me","steam_id":76561198269487635,"connected_time":960000000000,"state":"active","ping":92},{"user_id":162,"name":"COVID-9000","steam_id":76561198042458180,"connected_time":875000000000,"state":"active","ping":41}]},{"server_id":119,"name":"Uncletopia | Seattle | 2 | All Maps","name_short":"sea-2","host":"sea-1.us.uncletopia.com","port":27025,"enabled":true,"region":"us-west","cc":"us","latitude":47.608013,"longitude":-122.33517,"reserved":0,"last_update":"0001-01-01T00:00:00Z","name_a2s":"Uncletopia | Seattle | 2 | All Maps","protocol":17,"map":"pl_badwater","folder":"tf","game":"Team Fortress","app_id":440,"player_count":24,"max_players":24,"Bots":0,"server_type":"Dedicated","server_os":"Linux","password":true,"vac":true,"version":"7882260","steam_id":85568392924469998,"keywords":["nocrits","nodmgspread","payload","uncletopia"],"game_id":440,"stv_port":27026,"stv_name":"Uncletopia | Seattle | 2 | All Maps | STV","players":[{"user_id":199,"name":"MyMonkeyBaby","steam_id":76561198046896670,"connected_time":3567000000000,"state":"active","ping":62},{"user_id":188,"name":"schrödinger","steam_id":76561198123475433,"connected_time":4123000000000,"state":"active","ping":63},{"user_id":229,"name":"seats","steam_id":76561197998756039,"connected_time":2057000000000,"state":"active","ping":71},{"user_id":237,"name":"SadFapping","steam_id":76561198076651049,"connected_time":1510000000000,"state":"active","ping":57},{"user_id":280,"name":"SvicidalBug","steam_id":76561198221390504,"connected_time":286000000000,"state":"active","ping":64},{"user_id":235,"name":"Ad3ptus","steam_id":76561198272045750,"connected_time":1627000000000,"state":"active","ping":42},{"user_id":243,"name":"quoy","steam_id":76561198085862748,"connected_time":1249000000000,"state":"active","ping":45},{"user_id":206,"name":"Lord Pretty Flocko Jordye","steam_id":76561198962880749,"connected_time":2907000000000,"state":"active","ping":54},{"user_id":248,"name":"b3afy","steam_id":76561198084208649,"connected_time":1192000000000,"state":"active","ping":45},{"user_id":236,"name":"Auggy","steam_id":76561198041816037,"connected_time":1611000000000,"state":"active","ping":70},{"user_id":208,"name":"Tusked","steam_id":76561198078473398,"connected_time":2877000000000,"state":"active","ping":69},{"user_id":240,"name":"Odyssey","steam_id":76561198399729282,"connected_time":1350000000000,"state":"active","ping":71},{"user_id":209,"name":"Peter, what are you doing?","steam_id":76561198066452726,"connected_time":2874000000000,"state":"active","ping":75},{"user_id":157,"name":"The dreaded jar","steam_id":76561199087010656,"connected_time":6279000000000,"state":"active","ping":62},{"user_id":242,"name":"goop on ya grinch","steam_id":76561198025020072,"connected_time":1288000000000,"state":"active","ping":63},{"user_id":244,"name":"abaddon_amogTTV #savetf2","steam_id":76561198268581959,"connected_time":1237000000000,"state":"active","ping":62},{"user_id":181,"name":"dweaver","steam_id":76561198119610135,"connected_time":4720000000000,"state":"active","ping":89},{"user_id":245,"name":"pirate pete","steam_id":76561198151048590,"connected_time":1234000000000,"state":"active","ping":113},{"user_id":246,"name":"RuinHasComeToOurFamily","steam_id":76561199075273861,"connected_time":1223000000000,"state":"active","ping":127},{"user_id":197,"name":"Hector Salamanca","steam_id":76561199103213955,"connected_time":3933000000000,"state":"active","ping":93},{"user_id":247,"name":"alpine","steam_id":76561198408538213,"connected_time":1212000000000,"state":"active","ping":54},{"user_id":278,"name":"p i n e ↟ ↟","steam_id":76561198058199952,"connected_time":452000000000,"state":"active","ping":55},{"user_id":250,"name":"hug a bee","steam_id":76561198119635547,"connected_time":1165000000000,"state":"active","ping":54},{"user_id":187,"name":"Shm0g0","steam_id":76561198097331670,"connected_time":4239000000000,"state":"active","ping":51}]},{"server_id":406,"name":"Uncletopia | Seattle | 3 | Stopwatch Beta","name_short":"sea-3","host":"sea-1.us.uncletopia.com","port":27035,"enabled":true,"region":"us-west","cc":"us","latitude":47.608013,"longitude":-122.33517,"reserved":0,"last_update":"0001-01-01T00:00:00Z","name_a2s":"Uncletopia | Seattle | 3 | Stopwatch Beta","protocol":17,"map":"pl_swiftwater_final1","folder":"tf","game":"Team Fortress","app_id":440,"player_count":0,"max_players":24,"Bots":0,"server_type":"Dedicated","server_os":"Linux","password":true,"vac":true,"version":"7882260","steam_id":85568392924515217,"keywords":["nocrits","nodmgspread","payload","uncletopia"],"game_id":440,"stv_port":27036,"stv_name":"Uncletopia | Seattle | 3 | Stopwatch Beta | STV","players":null},{"server_id":17,"name":"Uncletopia | San Francisco | 1 | All Maps","name_short":"sfo-1","host":"sfo-1.us.uncletopia.com","port":27015,"enabled":true,"region":"us-west","cc":"us","latitude":37.77397,"longitude":-122.4313,"reserved":0,"last_update":"0001-01-01T00:00:00Z","name_a2s":"Uncletopia | San Francisco | 1 | All Maps","protocol":17,"map":"koth_viaduct","folder":"tf","game":"Team Fortress","app_id":440,"player_count":0,"max_players":24,"Bots":0,"server_type":"Dedicated","server_os":"Linux","password":true,"vac":true,"version":"7882260","steam_id":85568392924469999,"keywords":["cp","nocrits","nodmgspread","uncletopia"],"game_id":440,"stv_port":27016,"stv_name":"Uncletopia | San Francisco | 1 | All Maps | STV","players":null},{"server_id":18,"name":"Uncletopia | San Francisco | 2 | All Maps","name_short":"sfo-2","host":"sfo-1.us.uncletopia.com","port":27025,"enabled":true,"region":"us-west","cc":"us","latitude":37.77397,"longitude":-122.4313,"reserved":0,"last_update":"0001-01-01T00:00:00Z","name_a2s":"Uncletopia | San Francisco | 2 | All Maps","protocol":17,"map":"cp_mountainlab","folder":"tf","game":"Team Fortress","app_id":440,"player_count":0,"max_players":24,"Bots":0,"server_type":"Dedicated","server_os":"Linux","password":true,"vac":true,"version":"7882260","steam_id":85568392924470000,"keywords":["cp","nocrits","nodmgspread","uncletopia"],"game_id":440,"stv_port":27026,"stv_name":"Uncletopia | San Francisco | 2 | All Maps | STV","players":null},{"server_id":19,"name":"Uncletopia | San Francisco | 3 | Stopwatch Beta","name_short":"sfo-3","host":"sfo-1.us.uncletopia.com","port":27035,"enabled":true,"region":"us-west","cc":"us","latitude":37.77397,"longitude":-122.4313,"reserved":0,"last_update":"0001-01-01T00:00:00Z","name_a2s":"Uncletopia | San Francisco | 3 | Stopwatch Beta","protocol":17,"map":"pl_snowycoast","folder":"tf","game":"Team Fortress","app_id":440,"player_count":0,"max_players":24,"Bots":0,"server_type":"Dedicated","server_os":"Linux","password":true,"vac":true,"version":"7882260","steam_id":85568392924742824,"keywords":["nocrits","nodmgspread","payload","uncletopia"],"game_id":440,"stv_port":27036,"stv_name":"Uncletopia | San Francisco | 3 | Stopwatch Beta | STV","players":null},{"server_id":20,"name":"Uncletopia | San Francisco | 4 | Community","name_short":"sfo-4","host":"sfo-1.us.uncletopia.com","port":27045,"enabled":true,"region":"us-west","cc":"us","latitude":37.77397,"longitude":-122.4313,"reserved":0,"last_update":"0001-01-01T00:00:00Z","name_a2s":"Uncletopia | San Francisco | 4 | Community","protocol":17,"map":"workshop/pl_barnblitz_pro7.ugc582280235","folder":"tf","game":"Team Fortress","app_id":440,"player_count":19,"max_players":24,"Bots":0,"server_type":"Dedicated","server_os":"Linux","password":true,"vac":true,"version":"7882260","steam_id":85568392924742826,"keywords":["nocrits","nodmgspread","payload","uncletopia"],"game_id":440,"stv_port":27046,"stv_name":"Uncletopia | San Francisco | 4 | Community | STV","players":[{"user_id":228,"name":"Florist","steam_id":76561198009121060,"connected_time":318000000000,"state":"active","ping":63},{"user_id":209,"name":"A_Un1t_0","steam_id":76561197966223353,"connected_time":3481000000000,"state":"active","ping":46},{"user_id":230,"name":"Super Saiyan Bear","steam_id":76561198063118280,"connected_time":73000000000,"state":"active","ping":60},{"user_id":182,"name":"Kozaky","steam_id":76561198047144993,"connected_time":5198000000000,"state":"active","ping":62},{"user_id":225,"name":"mega","steam_id":76561198089520959,"connected_time":923000000000,"state":"active","ping":103},{"user_id":154,"name":"freyja","steam_id":76561198012480197,"connected_time":7716000000000,"state":"active","ping":42},{"user_id":155,"name":"Willowl","steam_id":76561198074612980,"connected_time":7702000000000,"state":"active","ping":140},{"user_id":229,"name":"A.xngel","steam_id":76561198157457036,"connected_time":170000000000,"state":"active","ping":106},{"user_id":196,"name":"smeasly","steam_id":76561198028718812,"connected_time":4803000000000,"state":"active","ping":51},{"user_id":216,"name":"squash","steam_id":76561198150281353,"connected_time":2809000000000,"state":"active","ping":74},{"user_id":197,"name":"jorts","steam_id":76561199041179985,"connected_time":4759000000000,"state":"active","ping":71},{"user_id":222,"name":"NEBULA","steam_id":76561198086878595,"connected_time":1464000000000,"state":"active","ping":52},{"user_id":215,"name":"roryisonamobilehotspot","steam_id":76561198065825165,"connected_time":3155000000000,"state":"active","ping":88},{"user_id":202,"name":"ilikeballs","steam_id":76561198249980016,"connected_time":3776000000000,"state":"active","ping":82},{"user_id":156,"name":"Ahten Xevious","steam_id":76561198075469828,"connected_time":7688000000000,"state":"active","ping":106},{"user_id":191,"name":"pyrotechnic","steam_id":76561198043558709,"connected_time":4938000000000,"state":"active","ping":74},{"user_id":226,"name":"ikola","steam_id":76561198841721149,"connected_time":901000000000,"state":"active","ping":67},{"user_id":175,"name":"TheJosiahTurner","steam_id":76561198235740776,"connected_time":6412000000000,"state":"active","ping":86},{"user_id":195,"name":"Shields","steam_id":76561198043216746,"connected_time":4836000000000,"state":"active","ping":77}]},{"server_id":141,"name":"Uncletopia | Sydney | 1 | All Maps","name_short":"syd-1","host":"syd-1.au.uncletopia.com","port":27015,"enabled":true,"region":"au","cc":"au","latitude":-33.865143,"longitude":151.2099,"reserved":0,"last_update":"0001-01-01T00:00:00Z","name_a2s":"Uncletopia | Sydney | 1 | All Maps","protocol":17,"map":"pl_upward","folder":"tf","game":"Team Fortress","app_id":440,"player_count":24,"max_players":24,"Bots":0,"server_type":"Dedicated","server_os":"Linux","password":true,"vac":true,"version":"7882260","steam_id":85568392924470001,"keywords":["nocrits","nodmgspread","payload","uncletopia"],"game_id":440,"stv_port":27016,"stv_name":"Uncletopia | Sydney | 1 | All Maps | STV","players":[{"user_id":198,"name":"mc.sleek","steam_id":76561198057602720,"connected_time":1043000000000,"state":"active","ping":74},{"user_id":180,"name":"SkoKiE","steam_id":76561198283542986,"connected_time":2675000000000,"state":"active","ping":72},{"user_id":177,"name":"no teles 4 u","steam_id":76561198018478297,"connected_time":2726000000000,"state":"active","ping":69},{"user_id":161,"name":"locust no.2","steam_id":76561198060024585,"connected_time":4240000000000,"state":"active","ping":41},{"user_id":186,"name":"Local Trash Expert","steam_id":76561198145598622,"connected_time":2118000000000,"state":"active","ping":81},{"user_id":195,"name":"I too have an uncle","steam_id":76561198073619528,"connected_time":1155000000000,"state":"active","ping":57},{"user_id":187,"name":"james16","steam_id":76561198362678073,"connected_time":1915000000000,"state":"active","ping":32},{"user_id":147,"name":"thrax","steam_id":76561197992385270,"connected_time":5054000000000,"state":"active","ping":46},{"user_id":199,"name":"Das Ist Scheisse","steam_id":76561198886094239,"connected_time":903000000000,"state":"active","ping":57},{"user_id":200,"name":"Dean","steam_id":76561198224787784,"connected_time":897000000000,"state":"active","ping":67},{"user_id":202,"name":"fatmod","steam_id":76561198128889890,"connected_time":629000000000,"state":"active","ping":90},{"user_id":133,"name":"Zieria","steam_id":76561199261811388,"connected_time":6014000000000,"state":"active","ping":37},{"user_id":191,"name":"voxii","steam_id":76561198099698281,"connected_time":1284000000000,"state":"active","ping":68},{"user_id":194,"name":"DropBearWarrior","steam_id":76561198352774039,"connected_time":1175000000000,"state":"active","ping":81},{"user_id":196,"name":"chonk","steam_id":76561198002924796,"connected_time":1153000000000,"state":"active","ping":50},{"user_id":190,"name":"cat :)","steam_id":76561198127508905,"connected_time":1431000000000,"state":"active","ping":37},{"user_id":46,"name":"Kremmen","steam_id":76561198051368641,"connected_time":11441000000000,"state":"active","ping":67},{"user_id":137,"name":"Mooty","steam_id":76561198301293435,"connected_time":5971000000000,"state":"active","ping":46},{"user_id":158,"name":"LaFleur","steam_id":76561198869499113,"connected_time":4362000000000,"state":"active","ping":60},{"user_id":179,"name":"CHOIB","steam_id":76561198387938667,"connected_time":2724000000000,"state":"active","ping":45},{"user_id":188,"name":"zorbingus blurgorgus","steam_id":76561198063481761,"connected_time":1754000000000,"state":"active","ping":44},{"user_id":183,"name":"Qwertles","steam_id":76561198033779273,"connected_time":2648000000000,"state":"active","ping":57},{"user_id":201,"name":"homo erectus","steam_id":76561198838208913,"connected_time":813000000000,"state":"active","ping":66},{"user_id":170,"name":"a shoulder to Brian","steam_id":76561198301282416,"connected_time":3593000000000,"state":"active","ping":53}]},{"server_id":123,"name":"Uncletopia | Sydney | 2 | All Maps","name_short":"syd-2","host":"syd-1.au.uncletopia.com","port":27025,"enabled":true,"region":"au","cc":"au","latitude":-33.865143,"longitude":151.2099,"reserved":0,"last_update":"0001-01-01T00:00:00Z","name_a2s":"Uncletopia | Sydney | 2 | All Maps","protocol":17,"map":"pl_barnblitz","folder":"tf","game":"Team Fortress","app_id":440,"player_count":17,"max_players":24,"Bots":0,"server_type":"Dedicated","server_os":"Linux","password":true,"vac":true,"version":"7882260","steam_id":85568392924470002,"keywords":["nocrits","nodmgspread","payload","uncletopia"],"game_id":440,"stv_port":27026,"stv_name":"Uncletopia | Sydney | 2 | All Maps | STV","players":[{"user_id":52,"name":"Zepi","steam_id":76561198018887052,"connected_time":1165000000000,"state":"active","ping":50},{"user_id":57,"name":"Rodan","steam_id":76561198038401873,"connected_time":707000000000,"state":"active","ping":82},{"user_id":37,"name":"xiuh","steam_id":76561198117053421,"connected_time":2719000000000,"state":"active","ping":48},{"user_id":36,"name":"WussPoppinJimbo","steam_id":76561199111828033,"connected_time":2803000000000,"state":"active","ping":134},{"user_id":35,"name":"MikkyD","steam_id":76561198043452962,"connected_time":2865000000000,"state":"active","ping":60},{"user_id":58,"name":"Jacob","steam_id":76561198059341907,"connected_time":698000000000,"state":"active","ping":40},{"user_id":68,"name":"Asl:3x","steam_id":76561198972095766,"connected_time":321000000000,"state":"active","ping":40},{"user_id":60,"name":"Quetap","steam_id":76561198327462566,"connected_time":665000000000,"state":"active","ping":53},{"user_id":61,"name":"Snowy","steam_id":76561198255720598,"connected_time":664000000000,"state":"active","ping":54},{"user_id":49,"name":"hive","steam_id":76561199099744527,"connected_time":1319000000000,"state":"active","ping":44},{"user_id":50,"name":"鬼","steam_id":76561198241303512,"connected_time":1271000000000,"state":"active","ping":56},{"user_id":70,"name":"michael","steam_id":76561198052848358,"connected_time":175000000000,"state":"active","ping":60},{"user_id":73,"name":"krandlez` (Any/All)","steam_id":76561198044839726,"connected_time":112000000000,"state":"active","ping":35},{"user_id":71,"name":"Ahsasin8","steam_id":76561198069097729,"connected_time":148000000000,"state":"active","ping":79},{"user_id":65,"name":"Lobarté","steam_id":76561198090116136,"connected_time":541000000000,"state":"active","ping":58},{"user_id":69,"name":"exceptional hygiene","steam_id":76561198039920735,"connected_time":305000000000,"state":"active","ping":44},{"user_id":72,"name":"applepine","steam_id":76561198128399166,"connected_time":147000000000,"state":"active","ping":68}]},{"server_id":395,"name":"Uncletopia | Sydney | 3 | All Maps","name_short":"syd-3","host":"syd-1.au.uncletopia.com","port":27035,"enabled":true,"region":"au","cc":"au","latitude":-33.865143,"longitude":151.2099,"reserved":0,"last_update":"0001-01-01T00:00:00Z","name_a2s":"Uncletopia | Sydney | 3 | All Maps","protocol":17,"map":"pl_badwater","folder":"tf","game":"Team Fortress","app_id":440,"player_count":0,"max_players":24,"Bots":0,"server_type":"Dedicated","server_os":"Linux","password":true,"vac":true,"version":"7882260","steam_id":85568392925194467,"keywords":["nocrits","nodmgspread","payload","uncletopia"],"game_id":440,"stv_port":27036,"stv_name":"Uncletopia | Sydney | 3 | All Maps | STV","players":null},{"server_id":396,"name":"Uncletopia | Sydney | 4 | All Maps","name_short":"syd-4","host":"syd-1.au.uncletopia.com","port":27045,"enabled":true,"region":"au","cc":"au","latitude":-33.865143,"longitude":151.2099,"reserved":0,"last_update":"0001-01-01T00:00:00Z","name_a2s":"Uncletopia | Sydney | 4 | All Maps","protocol":17,"map":"cp_altitude","folder":"tf","game":"Team Fortress","app_id":440,"player_count":0,"max_players":24,"Bots":0,"server_type":"Dedicated","server_os":"Linux","password":true,"vac":true,"version":"7882260","steam_id":85568392925397958,"keywords":["cp","nocrits","nodmgspread","uncletopia"],"game_id":440,"stv_port":27046,"stv_name":"Uncletopia | Sydney | 4 | All Maps | STV","players":null},{"server_id":58,"name":"Uncletopia | Sydney | 5 | Stopwatch Beta","name_short":"syd-5","host":"syd-1.au.uncletopia.com","port":27055,"enabled":true,"region":"au","cc":"au","latitude":-33.865143,"longitude":151.2099,"reserved":0,"last_update":"0001-01-01T00:00:00Z","name_a2s":"Uncletopia | Sydney | 5 | Stopwatch Beta","protocol":17,"map":"koth_viaduct","folder":"tf","game":"Team Fortress","app_id":440,"player_count":0,"max_players":24,"Bots":0,"server_type":"Dedicated","server_os":"Linux","password":true,"vac":true,"version":"7882260","steam_id":85568392925397959,"keywords":["cp","nocrits","nodmgspread","uncletopia"],"game_id":440,"stv_port":27056,"stv_name":"Uncletopia | Sydney | 5 | Stopwatch Beta | STV","players":null},{"server_id":59,"name":"Uncletopia | Sydney | 6 | Community","name_short":"syd-6","host":"syd-1.au.uncletopia.com","port":27065,"enabled":true,"region":"au","cc":"au","latitude":-33.865143,"longitude":151.2099,"reserved":0,"last_update":"0001-01-01T00:00:00Z","name_a2s":"Uncletopia | Sydney | 6 | Community","protocol":17,"map":"workshop/pl_boundary_final1.ugc456799153","folder":"tf","game":"Team Fortress","app_id":440,"player_count":0,"max_players":24,"Bots":0,"server_type":"Dedicated","server_os":"Linux","password":true,"vac":true,"version":"7882260","steam_id":85568392925397960,"keywords":["nocrits","nodmgspread","payload","uncletopia"],"game_id":440,"stv_port":27066,"stv_name":"Uncletopia | Sydney | 6 | Community | STV","players":null},{"server_id":49,"name":"Uncletopia | Warsaw | 1 | All Maps","name_short":"waw-1","host":"waw-1.pl.uncletopia.com","port":27015,"enabled":true,"region":"eu","cc":"pl","latitude":52.2297,"longitude":21.017532,"reserved":0,"last_update":"0001-01-01T00:00:00Z","name_a2s":"","protocol":0,"map":"","folder":"","game":"","app_id":0,"player_count":0,"max_players":0,"Bots":0,"server_type":"","server_os":"","password":false,"vac":false,"version":"","steam_id":0,"keywords":null,"game_id":0,"stv_port":0,"stv_name":"","players":null},{"server_id":50,"name":"Uncletopia | Warsaw | 2 | All Maps","name_short":"waw-2","host":"waw-1.pl.uncletopia.com","port":27025,"enabled":true,"region":"eu","cc":"pl","latitude":52.2297,"longitude":21.017532,"reserved":0,"last_update":"0001-01-01T00:00:00Z","name_a2s":"Uncletopia | Warsaw | 2 | All Maps","protocol":17,"map":"koth_viaduct","folder":"tf","game":"Team Fortress","app_id":440,"player_count":0,"max_players":24,"Bots":0,"server_type":"Dedicated","server_os":"Linux","password":true,"vac":true,"version":"7882260","steam_id":85568392925397851,"keywords":["cp","nocrits","nodmgspread","uncletopia"],"game_id":440,"stv_port":27026,"stv_name":"Uncletopia | Warsaw | 2 | All Maps | STV","players":null},{"server_id":51,"name":"Uncletopia | Warsaw | 3 | All Maps","name_short":"waw-3","host":"waw-1.pl.uncletopia.com","port":27035,"enabled":true,"region":"eu","cc":"pl","latitude":52.2297,"longitude":21.017532,"reserved":0,"last_update":"0001-01-01T00:00:00Z","name_a2s":"Uncletopia | Warsaw | 3 | All Maps","protocol":17,"map":"pl_badwater","folder":"tf","game":"Team Fortress","app_id":440,"player_count":0,"max_players":24,"Bots":0,"server_type":"Dedicated","server_os":"Linux","password":true,"vac":true,"version":"7882260","steam_id":85568392925397852,"keywords":["nocrits","nodmgspread","payload","uncletopia"],"game_id":440,"stv_port":27036,"stv_name":"Uncletopia | Warsaw | 3 | All Maps | STV","players":null},{"server_id":52,"name":"Uncletopia | Warsaw | 4 | All Maps","name_short":"waw-4","host":"waw-1.pl.uncletopia.com","port":27045,"enabled":true,"region":"eu","cc":"pl","latitude":52.2297,"longitude":21.017532,"reserved":0,"last_update":"0001-01-01T00:00:00Z","name_a2s":"Uncletopia | Warsaw | 4 | All Maps","protocol":17,"map":"koth_cascade","folder":"tf","game":"Team Fortress","app_id":440,"player_count":0,"max_players":24,"Bots":0,"server_type":"Dedicated","server_os":"Linux","password":true,"vac":true,"version":"7882260","steam_id":85568392925397853,"keywords":["cp","nocrits","nodmgspread","uncletopia"],"game_id":440,"stv_port":27046,"stv_name":"Uncletopia | Warsaw | 4 | All Maps | STV","players":null},{"server_id":53,"name":"Uncletopia | Warsaw | 5 | Stopwatch Beta","name_short":"waw-5","host":"waw-1.pl.uncletopia.com","port":27055,"enabled":true,"region":"eu","cc":"pl","latitude":52.2297,"longitude":21.017532,"reserved":0,"last_update":"0001-01-01T00:00:00Z","name_a2s":"Uncletopia | Warsaw | 5 | Stopwatch Beta","protocol":17,"map":"cp_dustbowl","folder":"tf","game":"Team Fortress","app_id":440,"player_count":0,"max_players":24,"Bots":0,"server_type":"Dedicated","server_os":"Linux","password":true,"vac":true,"version":"7882260","steam_id":85568392925397854,"keywords":["cp","nocrits","nodmgspread","uncletopia"],"game_id":440,"stv_port":27056,"stv_name":"Uncletopia | Warsaw | 5 | Stopwatch Beta | STV","players":null},{"server_id":54,"name":"Uncletopia | Warsaw | 6 | Community","name_short":"waw-6","host":"waw-1.pl.uncletopia.com","port":27065,"enabled":true,"region":"eu","cc":"pl","latitude":52.2297,"longitude":21.017532,"reserved":0,"last_update":"0001-01-01T00:00:00Z","name_a2s":"Uncletopia | Warsaw | 6 | Community","protocol":17,"map":"cp_dustbowl","folder":"tf","game":"Team Fortress","app_id":440,"player_count":0,"max_players":24,"Bots":0,"server_type":"Dedicated","server_os":"Linux","password":true,"vac":true,"version":"7882260","steam_id":85568392925397856,"keywords":["cp","nocrits","nodmgspread","uncletopia"],"game_id":440,"stv_port":27066,"stv_name":"Uncletopia | Warsaw | 6 | Community | STV","players":null}]}