{"status":true,"message":"","result":[{"server_id":9,"name":"Uncletopia | Atlanta | 1 | All Maps","name_short":"atl-1","host":"atl-1.us.uncletopia.com","port":27015,"enabled":true,"region":"us-east","cc":"us","latitude":33.753746,"longitude":-84.38633,"reserved":0,"last_update":"0001-01-01T00:00:00Z","name_a2s":"Uncletopia | Atlanta | 1 | All Maps","protocol":17,"map":"cp_altitude","folder":"tf","game":"Team Fortress","app_id":440,"player_count":24,"max_players":24,"Bots":0,"server_type":"Dedicated","server_os":"Linux","password":true,"vac":true,"version":"7882260","steam_id":85568392924469982,"keywords":["cp","nocrits","nodmgspread","uncletopia"],"game_id":440,"stv_port":27016,"stv_name":"Uncletopia | Atlanta | 1 | All Maps | STV","players":[{"user_id":327,"name":"JollyVG","steam_id":76561198044919633,"connected_time":208000000000,"state":"active","ping":55},{"user_id":229,"name":"Riddle","steam_id":76561198892207399,"connected_time":7098000000000,"state":"active","ping":80},{"user_id":257,"name":"⌓‿⌓","steam_id":76561198289280906,"connected_time":4549000000000,"state":"active","ping":90},{"user_id":316,"name":"theoatsman","steam_id":76561198880891025,"connected_time":737000000000,"state":"active","ping":31},{"user_id":296,"name":"*","steam_id":76561198173047169,"connected_time":1496000000000,"state":"active","ping":61},{"user_id":278,"name":"garette","steam_id":76561198330911140,"connected_time":2620000000000,"state":"active","ping":73},{"user_id":285,"name":"Ashes!","steam_id":76561197998475441,"connected_time":2439000000000,"state":"active","ping":68},{"user_id":309,"name":"JellyParrot","steam_id":76561199190990163,"connected_time":990000000000,"state":"active","ping":54},{"user_id":232,"name":"marguerite","steam_id":76561198170873495,"connected_time":6385000000000,"state":"active","ping":51},{"user_id":270,"name":"vordhosbn","steam_id":76561198148132163,"connected_time":3401000000000,"state":"active","ping":81},{"user_id":322,"name":"The Law","steam_id":76561198080974454,"connected_time":425000000000,"state":"active","ping":84},{"user_id":323,"name":"lynt","steam_id":76561198988333976,"connected_time":420000000000,"state":"active","ping":43},{"user_id":325,"name":"Feli","steam_id":76561199091181559,"connected_time":326000000000,"state":"active","ping":77},{"user_id":314,"name":"5ShellHung","steam_id":76561198046011621,"connected_time":761000000000,"state":"active","ping":46},{"user_id":319,"name":"jello_hey","steam_id":76561199176327650,"connected_time":531000000000,"state":"active","ping":64},{"user_id":303,"name":"Wallet","steam_id":76561198081067377,"connected_time":1312000000000,"state":"active","ping":58},{"user_id":305,"name":"raaje","steam_id":76561199172825651,"connected_time":1221000000000,"state":"active","ping":83},{"user_id":255,"name":"and i'm javert!","steam_id":76561198117033273,"connected_time":4652000000000,"state":"active","ping":141},{"user_id":313,"name":"Legit_Jaxer","steam_id":76561198172234053,"connected_time":794000000000,"state":"active","ping":119},{"user_id":292,"name":"Aviyarn","steam_id":76561199074194652,"connected_time":2175000000000,"state":"active","ping":58},{"user_id":320,"name":"Goblin (Real)","steam_id":76561199160926985,"connected_time":512000000000,"state":"active","ping":59},{"user_id":324,"name":"ATL1 | cola","steam_id":76561198374390458,"connected_time":342000000000,"state":"active","ping":60},{"user_id":326,"name":"Ninty","steam_id":76561199364725776,"connected_time":292000000000,"state":"active","ping":73},{"user_id":321,"name":"spaghetdude21","steam_id":76561198982820828,"connected_time":432000000000,"state":"active","ping":84}]},{"server_id":104,"name":"Uncletopia | Atlanta | 2 | All Maps","name_short":"atl-2","host":"atl-1.us.uncletopia.com","port":27025,"enabled":true,"region":"us-east","cc":"us","latitude":33.753746,"longitude":-84.38633,"reserved":0,"last_update":"0001-01-01T00:00:00Z","name_a2s":"Uncletopia | Atlanta | 2 | All Maps","protocol":17,"map":"pl_badwater","folder":"tf","game":"Team Fortress","app_id":440,"player_count":23,"max_players":24,"Bots":0,"server_type":"Dedicated","server_os":"Linux","password":true,"vac":true,"version":"7882260","steam_id":85568392924469983,"keywords":["nocrits","nodmgspread","payload","uncletopia"],"game_id":440,"stv_port":27026,"stv_name":"Uncletopia | Atlanta | 2 | All Maps | STV","players":[{"user_id":208,"name":"TheMrMan","steam_id":76561198072304288,"connected_time":4088000000000,"state":"active","ping":78},{"user_id":258,"name":"Grunt420","steam_id":76561199407313140,"connected_time":3000000000,"state":"spawning","ping":136},{"user_id":240,"name":"Mr.Trace","steam_id":76561198206862893,"connected_time":1205000000000,"state":"active","ping":115},{"user_id":250,"name":"Theodore Roosevelt","steam_id":76561197993295656,"connected_time":586000000000,"state":"active","ping":61},{"user_id":239,"name":"Resident Goober","steam_id":76561199205471969,"connected_time":1380000000000,"state":"active","ping":75},{"user_id":216,"name":"Falafel","steam_id":76561198111493042,"connected_time":3390000000000,"state":"active","ping":141},{"user_id":221,"name":"Captain_Shorts","steam_id":76561199097598023,"connected_time":3068000000000,"state":"active","ping":85},{"user_id":209,"name":"Oopsie Daisy ❋","steam_id":76561198042144492,"connected_time":4047000000000,"state":"active","ping":57},{"user_id":222,"name":"Jesus used Dead Ringer","steam_id":76561198268991349,"connected_time":2988000000000,"state":"active","ping":47},{"user_id":238,"name":"♥Bunny♥Slut♥","steam_id":76561198206376851,"connected_time":1591000000000,"state":"active","ping":98},{"user_id":236,"name":"ScrockCat","steam_id":76561198012882208,"connected_time":1695000000000,"state":"active","ping":122},{"user_id":186,"name":"waowaowao","steam_id":76561198068804538,"connected_time":6378000000000,"state":"active","ping":67},{"user_id":171,"name":"Ether","steam_id":76561198054806528,"connected_time":7916000000000,"state":"active","ping":75},{"user_id":252,"name":"ihavebeenstarving","steam_id":76561199449852744,"connected_time":422000000000,"state":"active","ping":63},{"user_id":251,"name":"Mr.Oxiclean","steam_id":76561198144729009,"connected_time":552000000000,"state":"active","ping":54},{"user_id":256,"name":"Team Fartpiss Poo","steam_id":76561199163591880,"connected_time":92000000000,"state":"active","ping":72},{"user_id":255,"name":"|WS| Don't_Taze_Me_Bro","steam_id":76561198043289495,"connected_time":165000000000,"state":"active","ping":58},{"user_id":229,"name":"lost in spaaaaace","steam_id":76561199085974120,"connected_time":2483000000000,"state":"active","ping":66},{"user_id":257,"name":"Cutcleaner","steam_id":76561199000925667,"connected_time":60000000000,"state":"active","ping":71},{"user_id":219,"name":"Loashes","steam_id":76561198119608299,"connected_time":3201000000000,"state":"active","ping":75},{"user_id":246,"name":"Drapph","steam_id":76561199384213314,"connected_time":1026000000000,"state":"active","ping":94},{"user_id":237,"name":"A Shiny Meat Bicycle","steam_id":76561198358757709,"connected_time":1656000000000,"state":"active","ping":77},{"user_id":254,"name":"Zoro01","steam_id":76561198407989540,"connected_time":329000000000,"state":"active","ping":109}]},{"server_id":400,"name":"Uncletopia | Atlanta | 3 | Community","name_short":"atl-3","host":"atl-1.us.uncletopia.com","port":27035,"enabled":true,"region":"us-east","cc":"us","latitude":33.753746,"longitude":-84.38633,"reserved":0,"last_update":"0001-01-01T00:00:00Z","name_a2s":"Uncletopia | Atlanta | 3 | Community","protocol":17,"map":"workshop/cp_reckoner_rc6.ugc674719999","folder":"tf","game":"Team Fortress","app_id":440,"player_count":0,"max_players":24,"Bots":0,"server_type":"Dedicated","server_os":"Linux","password":true,"vac":true,"version":"7882260","steam_id":85568392924515187,"keywords":["cp","nocrits","nodmgspread","uncletopia"],"game_id":440,"stv_port":27036,"stv_name":"Uncletopia | Atlanta | 3 | Community | STV","players":null},{"server_id":401,"name":"Uncletopia | Atlanta | 4 | No Payload","name_short":"atl-4","host":"atl-1.us.uncletopia.com","port":27045,"enabled":true,"region":"us-east","cc":"us","latitude":33.753746,"longitude":-84.38633,"reserved":0,"last_update":"0001-01-01T00:00:00Z","name_a2s":"","protocol":0,"map":"","folder":"","game":"","app_id":0,"player_count":0,"max_players":0,"Bots":0,"server_type":"","server_os":"","password":false,"vac":false,"version":"","steam_id":0,"keywords":null,"game_id":0,"stv_port":0,"stv_name":"","players":null},{"server_id":2,"name":"Uncletopia | Chicago | 1 | All Maps","name_short":"chi-1","host":"chi-1.us.uncletopia.com","port":27015,"enabled":true,"region":"us-central","cc":"us","latitude":41.881832,"longitude":-87.62318,"reserved":0,"last_update":"0001-01-01T00:00:00Z","name_a2s":"Uncletopia | Chicago | 1 | All Maps","protocol":17,"map":"koth_highpass","folder":"tf","game":"Team Fortress","app_id":440,"player_count":24,"max_players":24,"Bots":0,"server_type":"Dedicated","server_os":"Linux","password":true,"vac":true,"version":"7882260","steam_id":85568392924469984,"keywords":["cp","nocrits","nodmgspread","uncletopia"],"game_id":440,"stv_port":27016,"stv_name":"Uncletopia | Chicago | 1 | All Maps | STV","players":[{"user_id":428,"name":"Bee_Pirate","steam_id":76561199000599111,"connected_time":3162000000000,"state":"active","ping":58},{"user_id":458,"name":"RaCoom","steam_id":76561198325125932,"connected_time":1037000000000,"state":"active","ping":88},{"user_id":395,"name":"The Loveable CHI.I.BI.","steam_id":76561198039262228,"connected_time":6189000000000,"state":"active","ping":77},{"user_id":444,"name":"The Don","steam_id":76561198016807790,"connected_time":1598000000000,"state":"active","ping":72},{"user_id":446,"name":"Snow☆","steam_id":76561198031290573,"connected_time":1533000000000,"state":"active","ping":50},{"user_id":460,"name":"itshuredoes","steam_id":76561199094108419,"connected_time":451000000000,"state":"active","ping":63},{"user_id":441,"name":"Epicmullen","steam_id":76561198259850795,"connected_time":1862000000000,"state":"active","ping":60},{"user_id":452,"name":"unsubtract","steam_id":76561198865158742,"connected_time":1244000000000,"state":"active","ping":57},{"user_id":434,"name":"an inebriated newt fancier","steam_id":76561197985428155,"connected_time":3005000000000,"state":"active","ping":60},{"user_id":443,"name":"daithy","steam_id":76561198168295777,"connected_time":1780000000000,"state":"active","ping":118},{"user_id":422,"name":"Thundermonkey (SMOKE)","steam_id":76561198017631728,"connected_time":3568000000000,"state":"active","ping":64},{"user_id":410,"name":"Tri-Dot","steam_id":76561199075186597,"connected_time":4707000000000,"state":"active","ping":70},{"user_id":420,"name":"anonpain","steam_id":76561198081317092,"connected_time":3878000000000,"state":"active","ping":52},{"user_id":447,"name":"Im totally a hacker","steam_id":76561198888005736,"connected_time":1499000000000,"state":"active","ping":71},{"user_id":462,"name":"Ehttri","steam_id":76561198170138667,"connected_time":6000000000,"state":"spawning","ping":70},{"user_id":455,"name":"BingoDingo","steam_id":76561198068692880,"connected_time":1186000000000,"state":"active","ping":74},{"user_id":451,"name":"Aurro (achievement hunting)","steam_id":76561198315692300,"connected_time":1407000000000,"state":"active","ping":46},{"user_id":381,"name":"Pheonix","steam_id":76561199470538309,"connected_time":6947000000000,"state":"active","ping":88},{"user_id":453,"name":"leonardo doujinshi","steam_id":76561198025810326,"connected_time":1239000000000,"state":"active","ping":75},{"user_id":459,"name":"Jihad","steam_id":76561198199803242,"connected_time":463000000000,"state":"active","ping":78},{"user_id":454,"name":"wizorb","steam_id":76561198002172674,"connected_time":1219000000000,"state":"active","ping":71},{"user_id":431,"name":"cooluser.exe","steam_id":76561198215142075,"connected_time":3097000000000,"state":"active","ping":64},{"user_id":456,"name":"elincyt","steam_id":76561198967771724,"connected_time":1175000000000,"state":"active","ping":79},{"user_id":438,"name":"wiiblob","steam_id":76561198109106242,"connected_time":2184000000000,"state":"active","ping":150}]},{"server_id":106,"name":"Uncletopia | Chicago | 2 | All Maps","name_short":"chi-2","host":"chi-1.us.uncletopia.com","port":27025,"enabled":true,"region":"us-central","cc":"us","latitude":41.881832,"longitude":-87.62318,"reserved":0,"last_update":"0001-01-01T00:00:00Z","name_a2s":"Uncletopia | Chicago | 2 | All Maps","protocol":17,"map":"pl_upward","folder":"tf","game":"Team Fortress","app_id":440,"player_count":24,"max_players":24,"Bots":0,"server_type":"Dedicated","server_os":"Linux","password":true,"vac":true,"version":"7882260","steam_id":85568392924469985,"keywords":["nocrits","nodmgspread","payload","uncletopia"],"game_id":440,"stv_port":27026,"stv_name":"Uncletopia | Chicago | 2 | All Maps | STV","players":[{"user_id":514,"name":"raiden, squeeze my hog","steam_id":76561198138221795,"connected_time":3939000000000,"state":"active","ping":75},{"user_id":552,"name":"wack","steam_id":76561198095697330,"connected_time":1662000000000,"state":"active","ping":74},{"user_id":581,"name":"pandoRA","steam_id":76561198075490385,"connected_time":104000000000,"state":"active","ping":105},{"user_id":580,"name":"Toottoot","steam_id":76561197992404836,"connected_time":119000000000,"state":"active","ping":44},{"user_id":498,"name":"0","steam_id":76561198046055673,"connected_time":4494000000000,"state":"active","ping":71},{"user_id":551,"name":"Lincs","steam_id":76561198049851872,"connected_time":1911000000000,"state":"active","ping":118},{"user_id":578,"name":"Goober","steam_id":76561198988863807,"connected_time":312000000000,"state":"active","ping":75},{"user_id":574,"name":"Scroobles","steam_id":76561199197646696,"connected_time":424000000000,"state":"active","ping":70},{"user_id":575,"name":"*‧˚kitsu ʚ♥ɞ","steam_id":76561198091741658,"connected_time":423000000000,"state":"active","ping":69},{"user_id":557,"name":"Furarc","steam_id":76561198078781020,"connected_time":1437000000000,"state":"active","ping":69},{"user_id":582,"name":"Giggles™","steam_id":76561198058708019,"connected_time":80000000000,"state":"active","ping":57},{"user_id":518,"name":"Pie™","steam_id":76561198158312625,"connected_time":3840000000000,"state":"active","ping":118},{"user_id":583,"name":"Menacing Pile of Frogs","steam_id":76561198360134800,"connected_time":65000000000,"state":"active","ping":78},{"user_id":540,"name":"Kλon","steam_id":76561198036064833,"connected_time":2578000000000,"state":"active","ping":47},{"user_id":561,"name":".-.","steam_id":76561198820617005,"connected_time":788000000000,"state":"active","ping":105},{"user_id":576,"name":"Cats Can Kill!","steam_id":76561198043652981,"connected_time":417000000000,"state":"active","ping":75},{"user_id":563,"name":"GeneralMike","steam_id":76561198065799430,"connected_time":693000000000,"state":"active","ping":60},{"user_id":579,"name":"YellerImp","steam_id":76561199221805167,"connected_time":274000000000,"state":"active","ping":39},{"user_id":508,"name":"Sychke","steam_id":76561198067144055,"connected_time":4222000000000,"state":"active","ping":45},{"user_id":564,"name":"Jaydyn","steam_id":76561198140326797,"connected_time":691000000000,"state":"active","ping":83},{"user_id":565,"name":"Madd Maxx","steam_id":76561198339584998,"connected_time":684000000000,"state":"active","ping":85},{"user_id":577,"name":"ƐՌѴƳ","steam_id":76561198099470277,"connected_time":389000000000,"state":"active","ping":87},{"user_id":568,"name":"Reverie","steam_id":76561198987005784,"connected_time":650000000000,"state":"active","ping":63},{"user_id":570,"name":"Chosen_One_of_Arroyo","steam_id":76561199229339031,"connected_time":612000000000,"state":"active","ping":90}]},{"server_id":402,"name":"Uncletopia | Chicago | 3 | All Maps","name_short":"chi-3","host":"chi-1.us.uncletopia.com","port":27035,"enabled":true,"region":"us-central","cc":"us","latitude":41.881832,"longitude":-87.62318,"reserved":0,"last_update":"0001-01-01T00:00:00Z","name_a2s":"Uncletopia | Chicago | 3 | All Maps","protocol":17,"map":"pl_snowycoast","folder":"tf","game":"Team Fortress","app_id":440,"player_count":24,"max_players":24,"Bots":0,"server_type":"Dedicated","server_os":"Linux","password":true,"vac":true,"version":"7882260","steam_id":85568392924515191,"keywords":["nocrits","nodmgspread","payload","uncletopia"],"game_id":440,"stv_port":27036,"stv_name":"Uncletopia | Chicago | 3 | All Maps | STV","players":[{"user_id":345,"name":"Snake Handler","steam_id":76561198027198306,"connected_time":716000000000,"state":"active","ping":55},{"user_id":320,"name":"codswallopslurp","steam_id":76561197972601902,"connected_time":2170000000000,"state":"active","ping":79},{"user_id":331,"name":"Glazed","steam_id":76561198043020404,"connected_time":1591000000000,"state":"active","ping":91},{"user_id":337,"name":"PyroEagle","steam_id":76561198296434231,"connected_time":1002000000000,"state":"active","ping":63},{"user_id":306,"name":"Tskuno","steam_id":76561198129291597,"connected_time":4140000000000,"state":"active","ping":60},{"user_id":341,"name":"Abed","steam_id":76561198120360801,"connected_time":916000000000,"state":"active","ping":95},{"user_id":335,"name":"Notation","steam_id":76561198119509319,"connected_time":1208000000000,"state":"active","ping":59},{"user_id":318,"name":"Vanya","steam_id":76561198042631561,"connected_time":2188000000000,"state":"active","ping":86},{"user_id":352,"name":"Gachalover","steam_id":76561199231552074,"connected_time":236000000000,"state":"active","ping":72},{"user_id":343,"name":"Copter_Boy","steam_id":76561198322921312,"connected_time":892000000000,"state":"active","ping":66},{"user_id":346,"name":"Rukh","steam_id":76561197999361315,"connected_time":678000000000,"state":"active","ping":90},{"user_id":304,"name":"Token","steam_id":76561198067814426,"connected_time":4206000000000,"state":"active","ping":80},{"user_id":349,"name":"killername","steam_id":76561199105156791,"connected_time":392000000000,"state":"active","ping":56},{"user_id":354,"name":"ItsRoy","steam_id":76561198119525485,"connected_time":199000000000,"state":"active","ping":60},{"user_id":339,"name":"xstar","steam_id":76561198170045102,"connected_time":970000000000,"state":"active","ping":61},{"user_id":353,"name":"Quakedad","steam_id":76561198055811307,"connected_time":232000000000,"state":"active","ping":164},{"user_id":358,"name":"s a d b o y s","steam_id":76561198037481669,"connected_time":66000000000,"state":"active","ping":59},{"user_id":215,"name":"ZofoJackson","steam_id":76561197998366861,"connected_time":10836000000000,"state":"active","ping":54},{"user_id":308,"name":"obamascout","steam_id":76561199073972797,"connected_time":4125000000000,"state":"active","ping":105},{"user_id":224,"name":"Pocket Snipers","steam_id":76561198207987376,"connected_time":10011000000000,"state":"active","ping":62},{"user_id":332,"name":"All 24 Pokémon movies at once","steam_id":76561198164738311,"connected_time":1380000000000,"state":"active","ping":64},{"user_id":356,"name":"fasterbum","steam_id":76561198142577444,"connected_time":181000000000,"state":"active","ping":55},{"user_id":296,"name":"Scalie with Soup","steam_id":76561198126745958,"connected_time":4969000000000,"state":"active","ping":79},{"user_id":357,"name":"Kazul","steam_id":76561198014925555,"connected_time":179000000000,"state":"active","ping":55}]},{"server_id":403,"name":"Uncletopia | Chicago | 4 | All Maps","name_short":"chi-4","host":"chi-1.us.uncletopia.com","port":27045,"enabled":true,"region":"us-central","cc":"us","latitude":41.881832,"longitude":-87.62318,"reserved":0,"last_update":"0001-01-01T00:00:00Z","name_a2s":"Uncletopia | Chicago | 4 | All Maps","protocol":17,"map":"ctf_2fort","folder":"tf","game":"Team Fortress","app_id":440,"player_count":23,"max_players":24,"Bots":0,"server_type":"Dedicated","server_os":"Linux","password":true,"vac":true,"version":"7882260","steam_id":85568392924515193,"keywords":["cp","nocrits","nodmgspread","uncletopia"],"game_id":440,"stv_port":27046,"stv_name":"Uncletopia | Chicago | 4 | All Maps | STV","players":[{"user_id":88,"name":"Fobby #Savetf2","steam_id":76561198047681469,"connected_time":2971000000000,"state":"connecting","ping":100},{"user_id":118,"name":"quint","steam_id":76561198046797995,"connected_time":145000000000,"state":"connecting","ping":65},{"user_id":119,"name":"Lunaul","steam_id":76561198169208358,"connected_time":132000000000,"state":"connecting","ping":68},{"user_id":120,"name":"r33312","steam_id":76561199187237536,"connected_time":96000000000,"state":"connecting","ping":437},{"user_id":89,"name":"Yada #savetf2","steam_id":76561199103981181,"connected_time":2865000000000,"state":"connecting","ping":84},{"user_id":112,"name":"WarrenOC","steam_id":76561199020871449,"connected_time":750000000000,"state":"connecting","ping":97},{"user_id":114,"name":"Merchant","steam_id":76561198130468663,"connected_time":722000000000,"state":"connecting","ping":61},{"user_id":121,"name":"zrsp1","steam_id":76561199030845505,"connected_time":41000000000,"state":"connecting","ping":65},{"user_id":104,"name":"Waffle Wannabe","steam_id":76561198064510650,"connected_time":1688000000000,"state":"connecting","ping":86},{"user_id":94,"name":"NarcolepticRock","steam_id":76561199123103642,"connected_time":2583000000000,"state":"connecting","ping":86},{"user_id":45,"name":"Beneban Vandersnatch","steam_id":76561198293295694,"connected_time":5532000000000,"state":"connecting","ping":114},{"user_id":67,"name":"Dr. PP","steam_id":76561199018184096,"connected_time":4507000000000,"state":"connecting","ping":131},{"user_id":49,"name":"99RM","steam_id":76561198107382571,"connected_time":5363000000000,"state":"connecting","ping":147},{"user_id":100,"name":"recycle","steam_id":76561198819562111,"connected_time":2048000000000,"state":"connecting","ping":88},{"user_id":84,"name":"OlympicChamp_12 | Trade.tf","steam_id":76561198830574526,"connected_time":3206000000000,"state":"connecting","ping":106},{"user_id":116,"name":"Critscare","steam_id":76561198087712508,"connected_time":623000000000,"state":"connecting","ping":61},{"user_id":126,"name":"RoFrogle","steam_id":76561199078941377,"connected_time":11000000000,"state":"connecting","ping":126},{"user_id":54,"name":"Cee","steam_id":76561199114277048,"connected_time":5242000000000,"state":"connecting","ping":65},{"user_id":97,"name":"Zeora","steam_id":76561198799145251,"connected_time":2115000000000,"state":"connecting","ping":76},{"user_id":123,"name":"Venk","steam_id":76561198251131422,"connected_time":33000000000,"state":"connecting","ping":69},{"user_id":124,"name":"Elias","steam_id":76561198106431732,"connected_time":27000000000,"state":"connecting","ping":44},{"user_id":98,"name":"TheAmazingSpy","steam_id":76561198392222427,"connected_time":2094000000000,"state":"connecting","ping":102},{"user_id":101,"name":"6thDog","steam_id":76561198097713905,"connected_time":1831000000000,"state":"connecting","ping":70}]},{"server_id":36,"name":"Uncletopia | Chicago | 5 | All Maps","name_short":"chi-5","host":"chi-2.us.uncletopia.com","port":27015,"enabled":true,"region":"us-central","cc":"us","latitude":41.881832,"longitude":-87.62318,"reserved":0,"last_update":"0001-01-01T00:00:00Z","name_a2s":"Uncletopia | Chicago | 5 | All Maps","protocol":17,"map":"koth_king","folder":"tf","game":"Team Fortress","app_id":440,"player_count":23,"max_players":24,"Bots":0,"server_type":"Dedicated","server_os":"Linux","password":true,"vac":true,"version":"7882260","steam_id":85568392924866362,"keywords":["cp","nocrits","nodmgspread","uncletopia"],"game_id":440,"stv_port":27016,"stv_name":"Uncletopia | Chicago | 5 | All Maps | STV","players":[{"user_id":14,"name":"Seer","steam_id":76561198013492052,"connected_time":3094000000000,"state":"active","ping":45},{"user_id":15,"name":"bananer_man_74","steam_id":76561199484199687,"connected_time":2198000000000,"state":"spawning","ping":164},{"user_id":48,"name":"KaleScrooge","steam_id":76561199229442595,"connected_time":421000000000,"state":"active","ping":166},{"user_id":29,"name":"TheMoneyMaker","steam_id":76561198313007819,"connected_time":954000000000,"state":"active","ping":80},{"user_id":33,"name":"derz","steam_id":76561198010742216,"connected_time":810000000000,"state":"active","ping":50},{"user_id":56,"name":"The Nikocado Enjoyer","steam_id":76561198263154374,"connected_time":67000000000,"state":"active","ping":61},{"user_id":49,"name":"Reisen Udongein Inaba","steam_id":76561198051082314,"connected_time":343000000000,"state":"active","ping":104},{"user_id":21,"name":"objective permanence","steam_id":76561198050393061,"connected_time":1612000000000,"state":"active","ping":75},{"user_id":34,"name":"Scotty","steam_id":76561198268006443,"connected_time":761000000000,"state":"active","ping":83},{"user_id":23,"name":"Maven (famous)","steam_id":76561198045517514,"connected_time":1492000000000,"state":"active","ping":61},{"user_id":36,"name":"hellen keller's dog","steam_id":76561198045356198,"connected_time":736000000000,"state":"active","ping":67},{"user_id":50,"name":"Junko","steam_id":76561198146089003,"connected_time":328000000000,"state":"active","ping":48},{"user_id":59,"name":"dekarrin","steam_id":76561198012736095,"connected_time":5000000000,"state":"spawning","ping":59},{"user_id":39,"name":"Peppino from Pizza Tower","steam_id":76561198144049265,"connected_time":693000000000,"state":"active","ping":72},{"user_id":57,"name":"LeRoy42","steam_id":76561198035591428,"connected_time":30000000000,"state":"active","ping":71},{"user_id":38,"name":"Mimbo (flying)","steam_id":76561198949324704,"connected_time":727000000000,"state":"active","ping":73},{"user_id":40,"name":"boolian","steam_id":76561198172187922,"connected_time":676000000000,"state":"active","ping":90},{"user_id":52,"name":"eat Pant","steam_id":76561197974965536,"connected_time":184000000000,"state":"active","ping":60},{"user_id":44,"name":"Thequirka (bad player)","steam_id":76561198968058652,"connected_time":535000000000,"state":"active","ping":97},{"user_id":55,"name":"kablong","steam_id":76561199094392047,"connected_time":149000000000,"state":"active","ping":80},{"user_id":58,"name":"pl.haker","steam_id":76561198278440186,"connected_time":18000000000,"state":"active","ping":205},{"user_id":47,"name":"s9","steam_id":76561198065339248,"connected_time":452000000000,"state":"active","ping":94},{"user_id":54,"name":"cornshot","steam_id":76561198043496387,"connected_time":182000000000,"state":"active","ping":108}]},{"server_id":37,"name":"Uncletopia | Chicago | 6 | All Maps","name_short":"chi-6","host":"chi-2.us.uncletopia.com","port":27025,"enabled":true,"region":"us-central","cc":"us","latitude":41.881832,"longitude":-87.62318,"reserved":0,"last_update":"0001-01-01T00:00:00Z","name_a2s":"Uncletopia | Chicago | 6 | All Maps","protocol":17,"map":"koth_viaduct","folder":"tf","game":"Team Fortress","app_id":440,"player_count":0,"max_players":24,"Bots":0,"server_type":"Dedicated","server_os":"Linux","password":true,"vac":true,"version":"7882260","steam_id":85568392924866363,"keywords":["cp","nocrits","nodmgspread","uncletopia"],"game_id":440,"stv_port":27026,"stv_name":"Uncletopia | Chicago | 6 | All Maps | STV","players":null},{"server_id":38,"name":"Uncletopia | Chicago | 7 | Stopwatch Beta","name_short":"chi-7","host":"chi-2.us.uncletopia.com","port":27035,"enabled":true,"region":"us-central","cc":"us","latitude":41.881832,"longitude":-87.62318,"reserved":0,"last_update":"0001-01-01T00:00:00Z","name_a2s":"Uncletopia | Chicago | 7 | Stopwatch Beta","protocol":17,"map":"pl_borneo","folder":"tf","game":"Team Fortress","app_id":440,"player_count":0,"max_players":24,"Bots":0,"server_type":"Dedicated","server_os":"Linux","password":true,"vac":true,"version":"7882260","steam_id":85568392924866364,"keywords":["nocrits","nodmgspread","payload","uncletopia"],"game_id":440,"stv_port":27036,"stv_name":"Uncletopia | Chicago | 7 | Stopwatch Beta | STV","players":null},{"server_id":39,"name":"Uncletopia | Chicago | 8 | Community","name_short":"chi-8","host":"chi-2.us.uncletopia.com","port":27045,"enabled":true,"region":"us-central","cc":"us","latitude":41.881832,"longitude":-87.62318,"reserved":0,"last_update":"0001-01-01T00:00:00Z","name_a2s":"Uncletopia | Chicago | 8 | Community","protocol":17,"map":"workshop/cp_overgrown_rc7b.ugc503939302","folder":"tf","game":"Team Fortress","app_id":440,"player_count":0,"max_players":24,"Bots":0,"server_type":"Dedicated","server_os":"Linux","password":true,"vac":true,"version":"7882260","steam_id":85568392924866365,"keywords":["cp","nocrits","nodmgspread","uncletopia"],"game_id":440,"stv_port":27046,"stv_name":"Uncletopia | Chicago | 8 | Community | STV","players":null},{"server_id":8,"name":"Uncletopia | Dallas | 1 | All Maps","name_short":"dal-1","host":"dal-1.us.uncletopia.com","port":27015,"enabled":true,"region":"us-central","cc":"us","latitude":32.779167,"longitude":-96.80889,"reserved":0,"last_update":"0001-01-01T00:00:00Z","name_a2s":"Uncletopia | Dallas | 1 | All Maps","protocol":17,"map":"cp_snakewater_final1","folder":"tf","game":"Team Fortress","app_id":440,"player_count":20,"max_players":24,"Bots":0,"server_type":"Dedicated","server_os":"Linux","password":true,"vac":true,"version":"7882260","steam_id":85568392924469986,"keywords":["cp","nocrits","nodmgspread","uncletopia"],"game_id":440,"stv_port":27016,"stv_name":"Uncletopia | Dallas | 1 | All Maps | STV","players":[{"user_id":407,"name":"Commissar","steam_id":76561198137223253,"connected_time":1104000000000,"state":"active","ping":46},{"user_id":414,"name":"popguy","steam_id":76561198856016840,"connected_time":2000000000,"state":"spawning","ping":81},{"user_id":387,"name":"FluttyPutty","steam_id":76561198218446556,"connected_time":2213000000000,"state":"active","ping":69},{"user_id":379,"name":"skyrim guard","steam_id":76561198807091783,"connected_time":2498000000000,"state":"active","ping":57},{"user_id":406,"name":"HewittRangers","steam_id":76561198376503064,"connected_time":1138000000000,"state":"active","ping":62},{"user_id":349,"name":"plink","steam_id":76561198057829889,"connected_time":4527000000000,"state":"active","ping":49},{"user_id":412,"name":"A Straw","steam_id":76561199367935846,"connected_time":153000000000,"state":"active","ping":66},{"user_id":401,"name":"TechnoBear2099","steam_id":76561198238863596,"connected_time":1419000000000,"state":"active","ping":32},{"user_id":292,"name":"Pom Pom Super Bomb","steam_id":76561198132316905,"connected_time":10418000000000,"state":"active","ping":62},{"user_id":398,"name":"MidSobbes08","steam_id":76561199013101925,"connected_time":1571000000000,"state":"active","ping":119},{"user_id":403,"name":"Bean41","steam_id":76561198828690986,"connected_time":1369000000000,"state":"active","ping":53},{"user_id":399,"name":"Psych03","steam_id":76561198061753667,"connected_time":1569000000000,"state":"active","ping":76},{"user_id":413,"name":"blunderly","steam_id":76561198131915334,"connected_time":132000000000,"state":"active","ping":59},{"user_id":390,"name":"Angry","steam_id":76561198862622760,"connected_time":2145000000000,"state":"active","ping":76},{"user_id":315,"name":"bwrbird","steam_id":76561198146167411,"connected_time":7776000000000,"state":"active","ping":64},{"user_id":405,"name":"Law","steam_id":76561198169960915,"connected_time":1312000000000,"state":"active","ping":58},{"user_id":408,"name":"aiming with drawing tablet","steam_id":76561198397662124,"connected_time":1028000000000,"state":"active","ping":64},{"user_id":381,"name":"An Unhappy Clown","steam_id":76561198175516514,"connected_time":2485000000000,"state":"active","ping":47},{"user_id":375,"name":"lker","steam_id":76561197976975075,"connected_time":2795000000000,"state":"active","ping":51},{"user_id":411,"name":"Bitblock","steam_id":76561198359772017,"connected_time":189000000000,"state":"active","ping":74}]},{"server_id":108,"name":"Uncletopia | Dallas | 2 | All Maps","name_short":"dal-2","host":"dal-1.us.uncletopia.com","port":27025,"enabled":true,"region":"us-central","cc":"us","latitude":32.779167,"longitude":-96.80889,"reserved":0,"last_update":"0001-01-01T00:00:00Z","name_a2s":"Uncletopia | Dallas | 2 | All Maps","protocol":17,"map":"pl_barnblitz","folder":"tf","game":"Team Fortress","app_id":440,"player_count":23,"max_players":24,"Bots":0,"server_type":"Dedicated","server_os":"Linux","password":true,"vac":true,"version":"7882260","steam_id":85568392924469988,"keywords":["nocrits","nodmgspread","payload","uncletopia"],"game_id":440,"stv_port":27026,"stv_name":"Uncletopia | Dallas | 2 | All Maps | STV","players":[{"user_id":426,"name":"Tele Co","steam_id":76561198041909269,"connected_time":3809000000000,"state":"active","ping":80},{"user_id":477,"name":"José","steam_id":76561199000982454,"connected_time":649000000000,"state":"active","ping":136},{"user_id":463,"name":"Aerobro","steam_id":76561198033530996,"connected_time":1465000000000,"state":"active","ping":65},{"user_id":460,"name":"Definitely Not A Cat","steam_id":76561198123464621,"connected_time":1579000000000,"state":"active","ping":99},{"user_id":432,"name":"milk master","steam_id":76561198127851014,"connected_time":3632000000000,"state":"active","ping":45},{"user_id":462,"name":"sh0blz","steam_id":76561198374792921,"connected_time":1488000000000,"state":"active","ping":84},{"user_id":442,"name":"Alkimia","steam_id":76561198385763137,"connected_time":3283000000000,"state":"active","ping":169},{"user_id":461,"name":"Big Dick Swinging","steam_id":76561198053819929,"connected_time":1576000000000,"state":"active","ping":74},{"user_id":475,"name":"Rhutebeer","steam_id":76561198018302761,"connected_time":1021000000000,"state":"active","ping":81},{"user_id":430,"name":"dweamy","steam_id":76561198119181880,"connected_time":3732000000000,"state":"active","ping":86},{"user_id":455,"name":"Eins","steam_id":76561199030343810,"connected_time":2383000000000,"state":"active","ping":59},{"user_id":482,"name":"Yunky","steam_id":76561197966495749,"connected_time":316000000000,"state":"active","ping":67},{"user_id":478,"name":"[chef] iron","steam_id":76561197970888616,"connected_time":637000000000,"state":"active","ping":60},{"user_id":471,"name":"CORONA™ and friends","steam_id":76561198342011115,"connected_time":1243000000000,"state":"active","ping":59},{"user_id":467,"name":"._.","steam_id":76561198127039453,"connected_time":1359000000000,"state":"active","ping":72},{"user_id":481,"name":"Uncle Berry","steam_id":76561198297223309,"connected_time":362000000000,"state":"active","ping":83},{"user_id":485,"name":"Gamba","steam_id":76561198069264650,"connected_time":111000000000,"state":"active","ping":84},{"user_id":473,"name":"charm","steam_id":76561198126751384,"connected_time":1091000000000,"state":"active","ping":66},{"user_id":472,"name":"Caboom","steam_id":76561198040221007,"connected_time":1159000000000,"state":"active","ping":65},{"user_id":483,"name":"cloaker","steam_id":76561199453618642,"connected_time":226000000000,"state":"active","ping":100},{"user_id":441,"name":"Moonflower ✦","steam_id":76561198191782483,"connected_time":3297000000000,"state":"active","ping":54},{"user_id":469,"name":"spud stealer 2000","steam_id":76561199264293695,"connected_time":1327000000000,"state":"active","ping":67},{"user_id":470,"name":"Waaagh!","steam_id":76561197995317887,"connected_time":1322000000000,"state":"active","ping":97}]},{"server_id":5,"name":"Uncletopia | Frankfurt | 1 | All Maps","name_short":"frk-1","host":"frk-1.de.uncletopia.com","port":27015,"enabled":true,"region":"eu","cc":"de","latitude":50.110924,"longitude":8.682127,"reserved":0,"last_update":"0001-01-01T00:00:00Z","name_a2s":"Uncletopia | Frankfurt | 1 | All Maps","protocol":17,"map":"pl_badwater","folder":"tf","game":"Team Fortress","app_id":440,"player_count":24,"max_players":24,"Bots":0,"server_type":"Dedicated","server_os":"Linux","password":true,"vac":true,"version":"7882260","steam_id":85568392924469989,"keywords":["nocrits","nodmgspread","payload","uncletopia"],"game_id":440,"stv_port":27016,"stv_name":"Uncletopia | Frankfurt | 1 | All Maps | STV","players":[{"user_id":315,"name":"hiathea","steam_id":76561198384185319,"connected_time":1400000000000,"state":"active","ping":182},{"user_id":235,"name":"Vershal Smershal","steam_id":76561198116223995,"connected_time":7648000000000,"state":"active","ping":61},{"user_id":326,"name":"Making Coffee","steam_id":76561198138281039,"connected_time":551000000000,"state":"active","ping":62},{"user_id":327,"name":"Laylakikio","steam_id":76561198090146457,"connected_time":548000000000,"state":"active","ping":58},{"user_id":241,"name":"xavier","steam_id":76561198076494034,"connected_time":7485000000000,"state":"active","ping":61},{"user_id":328,"name":"bug hunter","steam_id":76561198088624259,"connected_time":544000000000,"state":"active","ping":62},{"user_id":334,"name":"Adam","steam_id":76561198062388802,"connected_time":218000000000,"state":"active","ping":43},{"user_id":317,"name":"Bajas","steam_id":76561198179339326,"connected_time":1380000000000,"state":"active","ping":85},{"user_id":335,"name":"RIFT","steam_id":76561198991622379,"connected_time":104000000000,"state":"active","ping":60},{"user_id":303,"name":"vadr","steam_id":76561198334528186,"connected_time":2989000000000,"state":"active","ping":60},{"user_id":311,"name":"kırmızıgözler","steam_id":76561198116986693,"connected_time":1423000000000,"state":"active","ping":89},{"user_id":319,"name":"Tonne","steam_id":76561197970856766,"connected_time":1296000000000,"state":"active","ping":57},{"user_id":322,"name":"DM_Tiz","steam_id":76561198061478257,"connected_time":1127000000000,"state":"active","ping":46},{"user_id":329,"name":"singular demo jumping tactic","steam_id":76561198963378933,"connected_time":534000000000,"state":"active","ping":61},{"user_id":313,"name":"SPONGE","steam_id":76561198040933472,"connected_time":1417000000000,"state":"active","ping":60},{"user_id":330,"name":"fuckbuddyfuckbuddyfuckbuddy","steam_id":76561197988733568,"connected_time":533000000000,"state":"active","ping":69},{"user_id":331,"name":"shutthefuckupinator","steam_id":76561198821392242,"connected_time":528000000000,"state":"active","ping":94},{"user_id":332,"name":"HE IS THE LIGHT IN MY DARKNESS","steam_id":76561198798803845,"connected_time":507000000000,"state":"active","ping":52},{"user_id":333,"name":"congo","steam_id":76561198236836866,"connected_time":295000000000,"state":"active","ping":77},{"user_id":318,"name":"Vitamin Weee","steam_id":76561199183937747,"connected_time":1366000000000,"state":"active","ping":84},{"user_id":270,"name":"Bobo","steam_id":76561198052308399,"connected_time":5214000000000,"state":"active","ping":64},{"user_id":312,"name":"Cabbch","steam_id":76561198045955679,"connected_time":1422000000000,"state":"active","ping":60},{"user_id":321,"name":"Rarky","steam_id":76561198054398642,"connected_time":1229000000000,"state":"active","ping":51},{"user_id":324,"name":"Rahmed","steam_id":76561198136056704,"connected_time":1028000000000,"state":"active","ping":65}]},{"server_id":110,"name":"Uncletopia | Frankfurt | 2 | All Maps","name_short":"frk-2","host":"frk-1.de.uncletopia.com","port":27025,"enabled":true,"region":"eu","cc":"de","latitude":50.110924,"longitude":8.682127,"reserved":0,"last_update":"0001-01-01T00:00:00Z","name_a2s":"Uncletopia | Frankfurt | 2 | All Maps","protocol":17,"map":"cp_snakewater_final1","folder":"tf","game":"Team Fortress","app_id":440,"player_count":0,"max_players":24,"Bots":0,"server_type":"Dedicated","server_os":"Linux","password":true,"vac":true,"version":"7882260","steam_id":85568392924469990,"keywords":["cp","nocrits","nodmgspread","uncletopia"],"game_id":440,"stv_port":27026,"stv_name":"Uncletopia | Frankfurt | 2 | All Maps | STV","players":null},{"server_id":308,"name":"Uncletopia | Frankfurt | 3 | All Maps","name_short":"frk-3","host":"frk-1.de.uncletopia.com","port":27035,"enabled":true,"region":"eu","cc":"de","latitude":50.110924,"longitude":8.682127,"reserved":0,"last_update":"0001-01-01T00:00:00Z","name_a2s":"Uncletopia | Frankfurt | 3 | All Maps","protocol":17,"map":"pl_badwater","folder":"tf","game":"Team Fortress","app_id":440,"player_count":24,"max_players":24,"Bots":0,"server_type":"Dedicated","server_os":"Linux","password":true,"vac":true,"version":"7882260","steam_id":85568392924504274,"keywords":["nocrits","nodmgspread","payload","uncletopia"],"game_id":440,"stv_port":27036,"stv_name":"Uncletopia | Frankfurt | 3 | All Maps | STV","players":[{"user_id":201,"name":"Daruun","steam_id":76561198019068781,"connected_time":627000000000,"state":"active","ping":71},{"user_id":147,"name":"c.S \u003e (2S \u003e) 2H \u003e 236236S","steam_id":76561198101624996,"connected_time":4953000000000,"state":"active","ping":98},{"user_id":191,"name":"that fat croc from donkey kong","steam_id":76561198159172495,"connected_time":1672000000000,"state":"active","ping":75},{"user_id":209,"name":"flange","steam_id":76561198040182692,"connected_time":228000000000,"state":"active","ping":57},{"user_id":192,"name":"BELADIT","steam_id":76561198011911501,"connected_time":1404000000000,"state":"active","ping":68},{"user_id":183,"name":"Endi","steam_id":76561198914938199,"connected_time":2060000000000,"state":"active","ping":92},{"user_id":203,"name":"il","steam_id":76561198122662610,"connected_time":494000000000,"state":"active","ping":81},{"user_id":204,"name":"POZO sashisashisashi","steam_id":76561198400746168,"connected_time":490000000000,"state":"active","ping":97},{"user_id":193,"name":"Holy f stewie, I am shitting.","steam_id":76561198147173457,"connected_time":1362000000000,"state":"active","ping":68},{"user_id":205,"name":"xTheDarkLight","steam_id":76561198239128298,"connected_time":489000000000,"state":"active","ping":47},{"user_id":206,"name":"Rolloden","steam_id":76561198069414404,"connected_time":484000000000,"state":"active","ping":51},{"user_id":181,"name":"paguro","steam_id":76561198119560871,"connected_time":2175000000000,"state":"active","ping":75},{"user_id":153,"name":"Shekelstein","steam_id":76561198874759252,"connected_time":4722000000000,"state":"active","ping":90},{"user_id":198,"name":"Minus273C","steam_id":76561197967510404,"connected_time":873000000000,"state":"active","ping":175},{"user_id":210,"name":"Mean Green Peen","steam_id":76561198228455736,"connected_time":227000000000,"state":"active","ping":81},{"user_id":196,"name":"bachusa1657","steam_id":76561198202175911,"connected_time":1100000000000,"state":"active","ping":72},{"user_id":208,"name":"Darko","steam_id":76561198318825528,"connected_time":417000000000,"state":"active","ping":61},{"user_id":211,"name":"DooWooD","steam_id":76561198335810106,"connected_time":221000000000,"state":"active","ping":84},{"user_id":190,"name":"szmen","steam_id":76561198072569764,"connected_time":1858000000000,"state":"active","ping":70},{"user_id":187,"name":"Beeman999","steam_id":76561198138266242,"connected_time":1998000000000,"state":"active","ping":81},{"user_id":214,"name":"lawn","steam_id":76561198001243486,"connected_time":61000000000,"state":"active","ping":62},{"user_id":213,"name":"Ozzie","steam_id":76561197992915315,"connected_time":178000000000,"state":"active","ping":90},{"user_id":164,"name":"koray","steam_id":76561198260506514,"connected_time":3184000000000,"state":"active","ping":66}]},{"server_id":309,"name":"Uncletopia | Frankfurt | 4 | All Maps","name_short":"frk-4","host":"frk-1.de.uncletopia.com","port":27045,"enabled":true,"region":"eu","cc":"de","latitude":50.110924,"longitude":8.682127,"reserved":0,"last_update":"0001-01-01T00:00:00Z","name_a2s":"Uncletopia | Frankfurt | 4 | All Maps","protocol":17,"map":"pl_barnblitz","folder":"tf","game":"Team Fortress","app_id":440,"player_count":0,"max_players":24,"Bots":0,"server_type":"Dedicated","server_os":"Linux","password":true,"vac":true,"version":"7882260","steam_id":85568392924504275,"keywords":["nocrits","nodmgspread","payload","uncletopia"],"game_id":440,"stv_port":27046,"stv_name":"Uncletopia | Frankfurt | 4 | All Maps | STV","players":null},{"server_id":310,"name":"Uncletopia | Frankfurt | 5 | All Maps","name_short":"frk-5","host":"frk-1.de.uncletopia.com","port":27055,"enabled":true,"region":"eu","cc":"de","latitude":50.110924,"longitude":8.682127,"reserved":0,"last_update":"0001-01-01T00:00:00Z","name_a2s":"Uncletopia | Frankfurt | 5 | All Maps","protocol":17,"map":"koth_harvest_final","folder":"tf","game":"Team Fortress","app_id":440,"player_count":22,"max_players":24,"Bots":0,"server_type":"Dedicated","server_os":"Linux","password":true,"vac":true,"version":"7882260","steam_id":85568392924504277,"keywords":["cp","nocrits","nodmgspread","uncletopia"],"game_id":440,"stv_port":27056,"stv_name":"Uncletopia | Frankfurt | 5 | All Maps | STV","players":[{"user_id":204,"name":"Crisps","steam_id":76561198088973774,"connected_time":162000000000,"state":"active","ping":45},{"user_id":201,"name":"Teaguy","steam_id":76561197990776598,"connected_time":193000000000,"state":"active","ping":111},{"user_id":203,"name":"Live Laugh Love","steam_id":76561198306066820,"connected_time":181000000000,"state":"active","ping":84},{"user_id":177,"name":"AftiksPL","steam_id":76561198875182686,"connected_time":3159000000000,"state":"active","ping":92},{"user_id":183,"name":"_Starlight_","steam_id":76561197993885738,"connected_time":2483000000000,"state":"active","ping":88},{"user_id":188,"name":"koth_harvest_final enjoyer","steam_id":76561198055389492,"connected_time":2288000000000,"state":"active","ping":54},{"user_id":193,"name":"dn4k","steam_id":76561199221755690,"connected_time":1895000000000,"state":"active","ping":83},{"user_id":185,"name":"n.mob","steam_id":76561198389356439,"connected_time":2453000000000,"state":"active","ping":68},{"user_id":141,"name":"SM58 with severe stage-fright","steam_id":76561198114601678,"connected_time":6137000000000,"state":"active","ping":61},{"user_id":195,"name":"Swedish Vegan","steam_id":76561198042775020,"connected_time":1811000000000,"state":"active","ping":73},{"user_id":205,"name":"c0mpaz","steam_id":76561198165292894,"connected_time":145000000000,"state":"active","ping":46},{"user_id":206,"name":"heisenburger","steam_id":76561198284589853,"connected_time":98000000000,"state":"active","ping":96},{"user_id":166,"name":"Pyro is my mommy","steam_id":76561198975667801,"connected_time":4312000000000,"state":"active","ping":70},{"user_id":200,"name":"cuboidbird741","steam_id":76561198174823322,"connected_time":1215000000000,"state":"active","ping":65},{"user_id":202,"name":"IceGamesPlay","steam_id":76561198014078452,"connected_time":189000000000,"state":"active","ping":84},{"user_id":184,"name":"Lugialf","steam_id":76561198069050794,"connected_time":2477000000000,"state":"active","ping":94},{"user_id":198,"name":"Cataleptic","steam_id":76561197997966949,"connected_time":1751000000000,"state":"active","ping":76},{"user_id":179,"name":"SpaceNut","steam_id":76561198059198302,"connected_time":3112000000000,"state":"active","ping":63},{"user_id":190,"name":"DrBritish","steam_id":76561198084891833,"connected_time":2111000000000,"state":"active","ping":54},{"user_id":146,"name":"ackgh noo","steam_id":76561198066287297,"connected_time":6079000000000,"state":"active","ping":45},{"user_id":199,"name":"Dzan50","steam_id":76561198059758591,"connected_time":1716000000000,"state":"active","ping":106},{"user_id":181,"name":"BrotherPotato","steam_id":76561198049948120,"connected_time":3078000000000,"state":"active","ping":77}]},{"server_id":311,"name":"Uncletopia | Frankfurt | 6 | All Maps","name_short":"frk-6","host":"frk-1.de.uncletopia.com","port":27065,"enabled":true,"region":"eu","cc":"de","latitude":50.110924,"longitude":8.682127,"reserved":0,"last_update":"0001-01-01T00:00:00Z","name_a2s":"Uncletopia | Frankfurt | 6 | All Maps","protocol":17,"map":"pl_badwater","folder":"tf","game":"Team Fortress","app_id":440,"player_count":0,"max_players":24,"Bots":0,"server_type":"Dedicated","server_os":"Linux","password":true,"vac":true,"version":"7882260","steam_id":85568392924504278,"keywords":["nocrits","nodmgspread","payload","uncletopia"],"game_id":440,"stv_port":27066,"stv_name":"Uncletopia | Frankfurt | 6 | All Maps | STV","players":null},{"server_id":23,"name":"Uncletopia | Frankfurt | 7 | Stopwatch Beta","name_short":"frk-7","host":"frk-1.de.uncletopia.com","port":27075,"enabled":true,"region":"eu","cc":"de","latitude":50.110924,"longitude":8.682127,"reserved":0,"last_update":"0001-01-01T00:00:00Z","name_a2s":"Uncletopia | Frankfurt | 7 | Stopwatch Beta","protocol":17,"map":"cp_granary","folder":"tf","game":"Team Fortress","app_id":440,"player_count":0,"max_players":24,"Bots":0,"server_type":"Dedicated","server_os":"Linux","password":true,"vac":true,"version":"7882260","steam_id":85568392924742827,"keywords":["cp","nocrits","nodmgspread","uncletopia"],"game_id":440,"stv_port":27076,"stv_name":"Uncletopia | Frankfurt | 7 | Stopwatch Beta | STV","players":null},{"server_id":24,"name":"Uncletopia | Frankfurt | 8 | Community","name_short":"frk-8","host":"frk-1.de.uncletopia.com","port":27085,"enabled":true,"region":"eu","cc":"de","latitude":50.110924,"longitude":8.682127,"reserved":0,"last_update":"0001-01-01T00:00:00Z","name_a2s":"Uncletopia | Frankfurt | 8 | Community","protocol":17,"map":"workshop/cp_glassworks_rc6a.ugc454118349","folder":"tf","game":"Team Fortress","app_id":440,"player_count":24,"max_players":24,"Bots":0,"server_type":"Dedicated","server_os":"Linux","password":true,"vac":true,"version":"7882260","steam_id":85568392924742828,"keywords":["cp","nocrits","nodmgspread","uncletopia"],"game_id":440,"stv_port":27086,"stv_name":"Uncletopia | Frankfurt | 8 | Community | STV","players":[{"user_id":490,"name":"ldshwt","steam_id":76561198090364357,"connected_time":375000000000,"state":"active","ping":45},{"user_id":485,"name":"BarbÀtrou","steam_id":76561199439141531,"connected_time":553000000000,"state":"active","ping":219},{"user_id":493,"name":"Sobokhan","steam_id":76561197969214734,"connected_time":277000000000,"state":"active","ping":187},{"user_id":486,"name":"Stayprone","steam_id":76561197963491785,"connected_time":550000000000,"state":"active","ping":72},{"user_id":478,"name":"Shmeuk Mc Dee","steam_id":76561197999099632,"connected_time":904000000000,"state":"active","ping":193},{"user_id":467,"name":"kektuse","steam_id":76561198088426580,"connected_time":1906000000000,"state":"active","ping":60},{"user_id":494,"name":"flr","steam_id":76561198249327786,"connected_time":237000000000,"state":"active","ping":60},{"user_id":420,"name":"Smurph","steam_id":76561197996539360,"connected_time":4680000000000,"state":"active","ping":102},{"user_id":491,"name":"PingouinPoilu","steam_id":76561198025089253,"connected_time":363000000000,"state":"active","ping":71},{"user_id":479,"name":"padillacampos","steam_id":76561198161923970,"connected_time":902000000000,"state":"active","ping":88},{"user_id":492,"name":"NeoCopy","steam_id":76561198071823072,"connected_time":354000000000,"state":"active","ping":74},{"user_id":445,"name":"Drybooones","steam_id":76561198834232656,"connected_time":3172000000000,"state":"active","ping":65},{"user_id":457,"name":"Jemes","steam_id":76561198055620906,"connected_time":2229000000000,"state":"active","ping":69},{"user_id":495,"name":"Scipionemiliano","steam_id":76561198027646559,"connected_time":216000000000,"state":"active","ping":118},{"user_id":468,"name":"Daga","steam_id":76561198055450219,"connected_time":1902000000000,"state":"active","ping":60},{"user_id":476,"name":"Qwerty","steam_id":76561198023525894,"connected_time":1113000000000,"state":"active","ping":95},{"user_id":470,"name":"Captain HandicappedCock","steam_id":76561198109850402,"connected_time":1764000000000,"state":"active","ping":70},{"user_id":496,"name":"Aeinzalot","steam_id":76561198195288449,"connected_time":187000000000,"state":"active","ping":68},{"user_id":497,"name":"Just1s","steam_id":76561198026597437,"connected_time":146000000000,"state":"active","ping":62},{"user_id":481,"name":"hedon/","steam_id":76561198249832770,"connected_time":833000000000,"state":"active","ping":63},{"user_id":449,"name":"Psychicpie","steam_id":76561198126065206,"connected_time":3047000000000,"state":"active","ping":53},{"user_id":435,"name":"LooLeZ","steam_id":76561198068812096,"connected_time":4026000000000,"state":"active","ping":59},{"user_id":462,"name":"cursedbygod♡","steam_id":76561198318291047,"connected_time":2125000000000,"state":"active","ping":113},{"user_id":499,"name":"theconqueror","steam_id":76561199229806456,"connected_time":39000000000,"state":"active","ping":162}]},{"server_id":202,"name":"Uncletopia | Hong Kong | 1 | All Maps","name_short":"hgk-1","host":"hgk-1.hk.uncletopia.com","port":27015,"enabled":true,"region":"asia","cc":"hk","latitude":22.302711,"longitude":114.177216,"reserved":0,"last_update":"0001-01-01T00:00:00Z","name_a2s":"Uncletopia | Hong Kong | 1 | All Maps","protocol":17,"map":"koth_cascade","folder":"tf","game":"Team Fortress","app_id":440,"player_count":0,"max_players":24,"Bots":0,"server_type":"Dedicated","server_os":"Linux","password":true,"vac":true,"version":"7882260","steam_id":85568392924494504,"keywords":["cp","nocrits","nodmgspread","uncletopia"],"game_id":440,"stv_port":27016,"stv_name":"Uncletopia | Hong Kong | 1 | All Maps | STV","players":null},{"server_id":1,"name":"Uncletopia | Los Angeles | 1 | All Maps","name_short":"lax-1","host":"lax-1.us.uncletopia.com","port":27015,"enabled":true,"region":"us-west","cc":"us","latitude":33.94279,"longitude":-118.41004,"reserved":0,"last_update":"0001-01-01T00:00:00Z","name_a2s":"Uncletopia | Los Angeles | 1 | All Maps","protocol":17,"map":"koth_harvest_final","folder":"tf","game":"Team Fortress","app_id":440,"player_count":19,"max_players":24,"Bots":0,"server_type":"Dedicated","server_os":"Linux","password":true,"vac":true,"version":"7882260","steam_id":85568392924469991,"keywords":["cp","nocrits","nodmgspread","uncletopia"],"game_id":440,"stv_port":27016,"stv_name":"Uncletopia | Los Angeles | 1 | All Maps | STV","players":[{"user_id":440,"name":"stiiizy pod","steam_id":76561199093733603,"connected_time":410000000000,"state":"active","ping":50},{"user_id":433,"name":"Dongus","steam_id":76561197979056451,"connected_time":769000000000,"state":"active","ping":74},{"user_id":409,"name":"Registered Pencil","steam_id":76561198309140009,"connected_time":1994000000000,"state":"active","ping":134},{"user_id":443,"name":"Pah-Wraith Gul Dukat","steam_id":76561198033918106,"connected_time":98000000000,"state":"active","ping":31},{"user_id":437,"name":"Roamer.","steam_id":76561198321583117,"connected_time":648000000000,"state":"active","ping":91},{"user_id":442,"name":"Lapis💛 ","steam_id":76561198009198502,"connected_time":199000000000,"state":"active","ping":127},{"user_id":405,"name":"Altruisticailuridae","steam_id":76561198335295596,"connected_time":2174000000000,"state":"active","ping":51},{"user_id":381,"name":"DoubleX2000","steam_id":76561198164134387,"connected_time":3788000000000,"state":"active","ping":84},{"user_id":430,"name":"Spookydrop","steam_id":76561199244978757,"connected_time":1131000000000,"state":"active","ping":233},{"user_id":397,"name":"( ͡° ͜ʖ ͡°) clz9","steam_id":76561198258279528,"connected_time":2869000000000,"state":"active","ping":112},{"user_id":439,"name":"Busisness","steam_id":76561198118002086,"connected_time":500000000000,"state":"active","ping":216},{"user_id":346,"name":"TTV/ChadMorningWood","steam_id":76561198139832291,"connected_time":6674000000000,"state":"active","ping":90},{"user_id":422,"name":"GUS","steam_id":76561198231626592,"connected_time":1586000000000,"state":"active","ping":85},{"user_id":414,"name":"Flamelix","steam_id":76561198016064099,"connected_time":1937000000000,"state":"active","ping":75},{"user_id":441,"name":"Freckles","steam_id":76561198045671386,"connected_time":384000000000,"state":"active","ping":90},{"user_id":403,"name":"usedhalfcart","steam_id":76561198072621852,"connected_time":2546000000000,"state":"active","ping":94},{"user_id":417,"name":"Denim","steam_id":76561198035786964,"connected_time":1886000000000,"state":"active","ping":109},{"user_id":438,"name":"DanceBunny","steam_id":76561198243610560,"connected_time":620000000000,"state":"active","ping":107},{"user_id":427,"name":"alpharuby","steam_id":76561198051638462,"connected_time":1285000000000,"state":"active","ping":43}]},{"server_id":112,"name":"Uncletopia | Los Angeles | 2 | All Maps","name_short":"lax-2","host":"lax-1.us.uncletopia.com","port":27025,"enabled":true,"region":"us-west","cc":"us","latitude":33.94279,"longitude":-118.41004,"reserved":0,"last_update":"0001-01-01T00:00:00Z","name_a2s":"Uncletopia | Los Angeles | 2 | All Maps","protocol":17,"map":"cp_dustbowl","folder":"tf","game":"Team Fortress","app_id":440,"player_count":22,"max_players":24,"Bots":0,"server_type":"Dedicated","server_os":"Linux","password":true,"vac":true,"version":"7882260","steam_id":85568392924469992,"keywords":["cp","nocrits","nodmgspread","uncletopia"],"game_id":440,"stv_port":27026,"stv_name":"Uncletopia | Los Angeles | 2 | All Maps | STV","players":[{"user_id":110,"name":"Tmiracle","steam_id":76561198052375275,"connected_time":857000000000,"state":"active","ping":45},{"user_id":118,"name":"BocchiTheRock From BocchiTheRoc","steam_id":76561198986388085,"connected_time":196000000000,"state":"active","ping":106},{"user_id":83,"name":"Frank","steam_id":76561198126681511,"connected_time":3180000000000,"state":"active","ping":71},{"user_id":87,"name":"Ypuoi","steam_id":76561198170203261,"connected_time":2834000000000,"state":"active","ping":61},{"user_id":115,"name":"Grand","steam_id":76561198290143399,"connected_time":624000000000,"state":"active","ping":82},{"user_id":107,"name":"『Spoo』","steam_id":76561198141522554,"connected_time":1214000000000,"state":"active","ping":40},{"user_id":113,"name":"lol","steam_id":76561198026491738,"connected_time":783000000000,"state":"active","ping":54},{"user_id":100,"name":"Elite_Friendly","steam_id":76561198819972127,"connected_time":2022000000000,"state":"active","ping":75},{"user_id":26,"name":"Robogineer","steam_id":76561198026994739,"connected_time":6864000000000,"state":"active","ping":47},{"user_id":114,"name":"Orion","steam_id":76561198000418837,"connected_time":759000000000,"state":"active","ping":99},{"user_id":123,"name":"Bolder","steam_id":76561199061754867,"connected_time":90000000000,"state":"active","ping":142},{"user_id":119,"name":"Apprentice Pybro","steam_id":76561197996353534,"connected_time":164000000000,"state":"active","ping":45},{"user_id":109,"name":"DOPEam1ne","steam_id":76561198112204774,"connected_time":882000000000,"state":"active","ping":54},{"user_id":120,"name":"ncl.dxn","steam_id":76561199278919252,"connected_time":146000000000,"state":"active","ping":136},{"user_id":98,"name":"Truffles","steam_id":76561198095868800,"connected_time":2183000000000,"state":"active","ping":111},{"user_id":121,"name":"The Ugly Duckling","steam_id":76561199173272483,"connected_time":99000000000,"state":"active","ping":51},{"user_id":122,"name":"Merekitten","steam_id":76561198066307477,"connected_time":98000000000,"state":"active","ping":67},{"user_id":124,"name":"Fachedin","steam_id":76561198041850415,"connected_time":40000000000,"state":"active","ping":55},{"user_id":125,"name":"Milk","steam_id":76561198310991890,"connected_time":27000000000,"state":"active","ping":56},{"user_id":126,"name":"vgMaster749","steam_id":76561198205048900,"connected_time":7000000000,"state":"spawning","ping":99},{"user_id":92,"name":"tailorturtle","steam_id":76561198107481127,"connected_time":2294000000000,"state":"active","ping":147},{"user_id":44,"name":"Moomin","steam_id":76561198072726213,"connected_time":5878000000000,"state":"active","ping":46}]},{"server_id":324,"name":"Uncletopia | Los Angeles | 3 | All Maps","name_short":"lax-3","host":"lax-1.us.uncletopia.com","port":27035,"enabled":true,"region":"us-west","cc":"us","latitude":33.94279,"longitude":-118.41004,"reserved":0,"last_update":"0001-01-01T00:00:00Z","name_a2s":"Uncletopia | Los Angeles | 3 | All Maps","protocol":17,"map":"cp_snakewater_final1","folder":"tf","game":"Team Fortress","app_id":440,"player_count":0,"max_players":24,"Bots":0,"server_type":"Dedicated","server_os":"Linux","password":true,"vac":true,"version":"7882260","steam_id":85568392924510198,"keywords":["cp","nocrits","nodmgspread","uncletopia"],"game_id":440,"stv_port":27036,"stv_name":"Uncletopia | Los Angeles | 3 | All Maps | STV","players":null},{"server_id":25,"name":"Uncletopia | Los Angeles | 4 | Stopwatch Beta","name_short":"lax-4","host":"lax-1.us.uncletopia.com","port":27045,"enabled":true,"region":"us-west","cc":"us","latitude":33.94279,"longitude":-118.41004,"reserved":0,"last_update":"0001-01-01T00:00:00Z","name_a2s":"Uncletopia | Los Angeles | 4 | Stopwatch Beta","protocol":17,"map":"cp_snakewater_final1","folder":"tf","game":"Team Fortress","app_id":440,"player_count":0,"max_players":24,"Bots":0,"server_type":"Dedicated","server_os":"Linux","password":true,"vac":true,"version":"7882260","steam_id":85568392924510199,"keywords":["cp","nocrits","nodmgspread","uncletopia"],"game_id":440,"stv_port":27046,"stv_name":"Uncletopia | Los Angeles | 4 | Stopwatch Beta | STV","players":null},{"server_id":11,"name":"Uncletopia | London | 1 | All Maps","name_short":"lon-1","host":"lon-1.uk.uncletopia.com","port":27015,"enabled":true,"region":"eu","cc":"gb","latitude":51.509865,"longitude":-0.118092,"reserved":0,"last_update":"0001-01-01T00:00:00Z","name_a2s":"Uncletopia | London | 1 | All Maps","protocol":17,"map":"koth_lakeside_final","folder":"tf","game":"Team Fortress","app_id":440,"player_count":0,"max_players":24,"Bots":0,"server_type":"Dedicated","server_os":"Linux","password":true,"vac":true,"version":"7882260","steam_id":85568392924367362,"keywords":["cp","nocrits","nodmgspread","uncletopia"],"game_id":440,"stv_port":27016,"stv_name":"Uncletopia | London | 1 | All Maps | STV","players":null},{"server_id":114,"name":"Uncletopia | London | 2 | All Maps","name_short":"lon-2","host":"lon-1.uk.uncletopia.com","port":27025,"enabled":true,"region":"eu","cc":"gb","latitude":51.509865,"longitude":-0.118092,"reserved":0,"last_update":"0001-01-01T00:00:00Z","name_a2s":"Uncletopia | London | 2 | All Maps","protocol":17,"map":"pl_goldrush","folder":"tf","game":"Team Fortress","app_id":440,"player_count":9,"max_players":24,"Bots":0,"server_type":"Dedicated","server_os":"Linux","password":true,"vac":true,"version":"7882260","steam_id":85568392924470941,"keywords":["nocrits","nodmgspread","payload","uncletopia"],"game_id":440,"stv_port":27026,"stv_name":"Uncletopia | London | 2 | All Maps | STV","players":[{"user_id":357,"name":"❤ Pebbles ❤","steam_id":76561198111370630,"connected_time":83000000000,"state":"active","ping":45},{"user_id":358,"name":"ladeinglessiemprejuega","steam_id":76561198112986842,"connected_time":77000000000,"state":"active","ping":52},{"user_id":354,"name":"Gin-Gi","steam_id":76561198108332859,"connected_time":158000000000,"state":"active","ping":54},{"user_id":340,"name":"ack","steam_id":76561198139796077,"connected_time":1024000000000,"state":"active","ping":57},{"user_id":351,"name":"Michael Tansaction","steam_id":76561198051054132,"connected_time":243000000000,"state":"active","ping":47},{"user_id":355,"name":"R0mulone","steam_id":76561198352513792,"connected_time":158000000000,"state":"active","ping":64},{"user_id":353,"name":"FluoducK","steam_id":76561198158175778,"connected_time":179000000000,"state":"active","ping":59},{"user_id":356,"name":"noquieronitengo","steam_id":76561198108020034,"connected_time":149000000000,"state":"active","ping":65},{"user_id":350,"name":"gediot#2","steam_id":76561199229899155,"connected_time":637000000000,"state":"active","ping":30}]},{"server_id":320,"name":"Uncletopia | London | 3 | All Maps","name_short":"lon-3","host":"lon-1.uk.uncletopia.com","port":27035,"enabled":true,"region":"eu","cc":"gb","latitude":51.509865,"longitude":-0.118092,"reserved":0,"last_update":"0001-01-01T00:00:00Z","name_a2s":"Uncletopia | London | 3 | All Maps","protocol":17,"map":"pl_pier","folder":"tf","game":"Team Fortress","app_id":440,"player_count":24,"max_players":24,"Bots":0,"server_type":"Dedicated","server_os":"Linux","password":true,"vac":true,"version":"7882260","steam_id":85568392924510192,"keywords":["nocrits","nodmgspread","payload","uncletopia"],"game_id":440,"stv_port":27036,"stv_name":"Uncletopia | London | 3 | All Maps | STV","players":[{"user_id":298,"name":"CarrotFlowers LFT","steam_id":76561198154714698,"connected_time":2992000000000,"state":"active","ping":50},{"user_id":337,"name":"Papiro","steam_id":76561198328418824,"connected_time":801000000000,"state":"active","ping":67},{"user_id":321,"name":"Mammut","steam_id":76561198056773933,"connected_time":1699000000000,"state":"active","ping":59},{"user_id":332,"name":"good tea, nice house","steam_id":76561198041995133,"connected_time":1084000000000,"state":"active","ping":56},{"user_id":336,"name":"Raingnome @SaveTF2","steam_id":76561198007394958,"connected_time":864000000000,"state":"active","ping":55},{"user_id":312,"name":"Dog ?","steam_id":76561198347020945,"connected_time":2032000000000,"state":"active","ping":94},{"user_id":314,"name":"Desj","steam_id":76561198114212636,"connected_time":1795000000000,"state":"active","ping":57},{"user_id":270,"name":"-TA-skai","steam_id":76561198184881255,"connected_time":5805000000000,"state":"active","ping":70},{"user_id":272,"name":"zweat","steam_id":76561198113578197,"connected_time":5210000000000,"state":"active","ping":49},{"user_id":309,"name":"Deacon Dracul","steam_id":76561198046880663,"connected_time":2362000000000,"state":"active","ping":91},{"user_id":271,"name":"foof","steam_id":76561198308439257,"connected_time":5454000000000,"state":"active","ping":47},{"user_id":329,"name":"Envy","steam_id":76561198132723219,"connected_time":1217000000000,"state":"active","ping":105},{"user_id":313,"name":"ciarang","steam_id":76561198321860761,"connected_time":1867000000000,"state":"active","ping":40},{"user_id":334,"name":"Abhorrent","steam_id":76561198056338288,"connected_time":975000000000,"state":"active","ping":54},{"user_id":340,"name":"Christmas Ham","steam_id":76561198119601623,"connected_time":286000000000,"state":"active","ping":59},{"user_id":253,"name":"Lau","steam_id":76561197993573576,"connected_time":6894000000000,"state":"active","ping":97},{"user_id":335,"name":"BenteBent","steam_id":76561198297920637,"connected_time":906000000000,"state":"active","ping":38},{"user_id":260,"name":"etc","steam_id":76561197998394797,"connected_time":6466000000000,"state":"active","ping":54},{"user_id":333,"name":"Alibi","steam_id":76561198061845595,"connected_time":1040000000000,"state":"active","ping":49},{"user_id":338,"name":"swagmaster9000","steam_id":76561198232259356,"connected_time":753000000000,"state":"active","ping":75},{"user_id":311,"name":"Kumquat","steam_id":76561198200490386,"connected_time":2336000000000,"state":"active","ping":74},{"user_id":319,"name":"randompixel","steam_id":76561198003941207,"connected_time":1755000000000,"state":"active","ping":57},{"user_id":339,"name":"tone","steam_id":76561197975301462,"connected_time":440000000000,"state":"active","ping":53},{"user_id":327,"name":"BepisR47","steam_id":76561198084515716,"connected_time":1599000000000,"state":"active","ping":37}]},{"server_id":321,"name":"Uncletopia | London | 4 | All Maps","name_short":"lon-4","host":"lon-1.uk.uncletopia.com","port":27045,"enabled":true,"region":"eu","cc":"gb","latitude":51.509865,"longitude":-0.118092,"reserved":0,"last_update":"0001-01-01T00:00:00Z","name_a2s":"Uncletopia | London | 4 | All Maps","protocol":17,"map":"cp_process_final","folder":"tf","game":"Team Fortress","app_id":440,"player_count":24,"max_players":24,"Bots":0,"server_type":"Dedicated","server_os":"Linux","password":true,"vac":true,"version":"7882260","steam_id":85568392924510193,"keywords":["cp","nocrits","nodmgspread","uncletopia"],"game_id":440,"stv_port":27046,"stv_name":"Uncletopia | London | 4 | All Maps | STV","players":[{"user_id":778,"name":"two beers.","steam_id":76561198221391096,"connected_time":5983000000000,"state":"active","ping":55},{"user_id":874,"name":"Punchy","steam_id":76561197961020896,"connected_time":418000000000,"state":"active","ping":50},{"user_id":861,"name":"tl.rybar","steam_id":76561197960377282,"connected_time":1202000000000,"state":"active","ping":72},{"user_id":880,"name":"Gnarville","steam_id":76561198006373329,"connected_time":158000000000,"state":"active","ping":48},{"user_id":782,"name":"putrid weasel","steam_id":76561198012955043,"connected_time":5586000000000,"state":"active","ping":53},{"user_id":845,"name":"King Crimson","steam_id":76561198133665338,"connected_time":2544000000000,"state":"active","ping":78},{"user_id":877,"name":"csnipery","steam_id":76561199435280050,"connected_time":368000000000,"state":"active","ping":75},{"user_id":846,"name":"dinorno","steam_id":76561198146276830,"connected_time":2265000000000,"state":"active","ping":95},{"user_id":879,"name":"Dr. Benway","steam_id":76561198408165005,"connected_time":194000000000,"state":"active","ping":57},{"user_id":872,"name":"Tomex999","steam_id":76561198049587675,"connected_time":589000000000,"state":"active","ping":96},{"user_id":849,"name":"Aight","steam_id":76561198300453404,"connected_time":2082000000000,"state":"active","ping":88},{"user_id":868,"name":"Tort","steam_id":76561198329646769,"connected_time":701000000000,"state":"active","ping":58},{"user_id":869,"name":"inebriation of the senses","steam_id":76561198977420882,"connected_time":701000000000,"state":"active","ping":44},{"user_id":854,"name":"b ull","steam_id":76561199233979726,"connected_time":1537000000000,"state":"active","ping":94},{"user_id":870,"name":"skill","steam_id":76561198106012909,"connected_time":691000000000,"state":"active","ping":84},{"user_id":856,"name":"bad","steam_id":76561198138027145,"connected_time":1530000000000,"state":"active","ping":64},{"user_id":860,"name":"Riordan the Armpit Inspector","steam_id":76561198001346236,"connected_time":1233000000000,"state":"active","ping":83},{"user_id":878,"name":"Superiumentarius","steam_id":76561198081642249,"connected_time":289000000000,"state":"active","ping":60},{"user_id":858,"name":"Jucatron","steam_id":76561198044259577,"connected_time":1340000000000,"state":"active","ping":86},{"user_id":867,"name":"ducks","steam_id":76561198166148685,"connected_time":865000000000,"state":"active","ping":30},{"user_id":863,"name":"bowchika wowa #SlavaUkraine","steam_id":76561198159564550,"connected_time":1176000000000,"state":"active","ping":70},{"user_id":864,"name":"Cirox","steam_id":76561198383142404,"connected_time":1175000000000,"state":"active","ping":101},{"user_id":873,"name":"ChPerette","steam_id":76561198060004887,"connected_time":564000000000,"state":"active","ping":45},{"user_id":866,"name":"Milca_11 [Bacon Weider ARC]","steam_id":76561198848650365,"connected_time":1163000000000,"state":"active","ping":77}]},{"server_id":21,"name":"Uncletopia | London | 5 | All Maps","name_short":"lon-5","host":"lon-1.uk.uncletopia.com","port":27055,"enabled":true,"region":"eu","cc":"gb","latitude":51.509865,"longitude":-0.118092,"reserved":0,"last_update":"0001-01-01T00:00:00Z","name_a2s":"Uncletopia | London | 5 | All Maps","protocol":17,"map":"koth_viaduct","folder":"tf","game":"Team Fortress","app_id":440,"player_count":3,"max_players":24,"Bots":0,"server_type":"Dedicated","server_os":"Linux","password":true,"vac":true,"version":"7882260","steam_id":85568392924742829,"keywords":["cp","nocrits","nodmgspread","uncletopia"],"game_id":440,"stv_port":27056,"stv_name":"Uncletopia | London | 5 | All Maps | STV","players":[{"user_id":192,"name":"H-say","steam_id":76561198177400362,"connected_time":5481000000000,"state":"active","ping":106},{"user_id":208,"name":"K.V. #RemoveRandomCrits","steam_id":76561197994832993,"connected_time":4593000000000,"state":"active","ping":77},{"user_id":242,"name":"vroom-vroom","steam_id":76561199190415509,"connected_time":2359000000000,"state":"active","ping":59}]},{"server_id":22,"name":"Uncletopia | London | 6 | All Maps","name_short":"lon-6","host":"lon-1.uk.uncletopia.com","port":27065,"enabled":true,"region":"eu","cc":"gb","latitude":51.509865,"longitude":-0.118092,"reserved":0,"last_update":"0001-01-01T00:00:00Z","name_a2s":"Uncletopia | London | 6 | All Maps","protocol":17,"map":"cp_process_final","folder":"tf","game":"Team Fortress","app_id":440,"player_count":0,"max_players":24,"Bots":0,"server_type":"Dedicated","server_os":"Linux","password":true,"vac":true,"version":"7882260","steam_id":85568392924742830,"keywords":["cp","nocrits","nodmgspread","uncletopia"],"game_id":440,"stv_port":27066,"stv_name":"Uncletopia | London | 6 | All Maps | STV","players":null},{"server_id":40,"name":"Uncletopia | London | 7 | No Payload","name_short":"lon-7","host":"lon-1.uk.uncletopia.com","port":27075,"enabled":true,"region":"eu","cc":"gb","latitude":51.509865,"longitude":-0.118092,"reserved":0,"last_update":"0001-01-01T00:00:00Z","name_a2s":"Uncletopia | London | 7 | No Payload","protocol":17,"map":"cp_freight_final1","folder":"tf","game":"Team Fortress","app_id":440,"player_count":0,"max_players":24,"Bots":0,"server_type":"Dedicated","server_os":"Linux","password":true,"vac":true,"version":"7882260","steam_id":85568392924964314,"keywords":["cp","nocrits","nodmgspread","uncletopia"],"game_id":440,"stv_port":27076,"stv_name":"Uncletopia | London | 7 | No Payload | STV","players":null},{"server_id":41,"name":"Uncletopia | London | 8 | Community","name_short":"lon-8","host":"lon-1.uk.uncletopia.com","port":27085,"enabled":true,"region":"eu","cc":"gb","latitude":51.509865,"longitude":-0.118092,"reserved":0,"last_update":"0001-01-01T00:00:00Z","name_a2s":"Uncletopia | London | 8 | Community","protocol":17,"map":"workshop/koth_ramjam_rc1.ugc459778887","folder":"tf","game":"Team Fortress","app_id":440,"player_count":0,"max_players":24,"Bots":0,"server_type":"Dedicated","server_os":"Linux","password":true,"vac":true,"version":"7882260","steam_id":85568392924964315,"keywords":["cp","nocrits","nodmgspread","uncletopia"],"game_id":440,"stv_port":27086,"stv_name":"Uncletopia | London | 8 | Community | STV","players":null},{"server_id":300,"name":"Uncletopia | Montréal | 1 | All Maps","name_short":"mtl-1","host":"mtl-1.ca.uncletopia.com","port":27015,"enabled":true,"region":"us-east","cc":"ca","latitude":45.50889,"longitude":-73.56167,"reserved":0,"last_update":"0001-01-01T00:00:00Z","name_a2s":"Uncletopia | Montréal | 1 | All Maps","protocol":17,"map":"cp_altitude","folder":"tf","game":"Team Fortress","app_id":440,"player_count":0,"max_players":24,"Bots":0,"server_type":"Dedicated","server_os":"Linux","password":true,"vac":true,"version":"7882260","steam_id":85568392924500087,"keywords":["cp","nocrits","nodmgspread","uncletopia"],"game_id":440,"stv_port":27016,"stv_name":"Uncletopia | Montréal | 1 | All Maps | STV","players":null},{"server_id":301,"name":"Uncletopia | Montréal | 2 | All Maps","name_short":"mtl-2","host":"mtl-1.ca.uncletopia.com","port":27025,"enabled":true,"region":"us-east","cc":"ca","latitude":45.50889,"longitude":-73.56167,"reserved":0,"last_update":"0001-01-01T00:00:00Z","name_a2s":"Uncletopia | Montréal | 2 | All Maps","protocol":17,"map":"cp_egypt_final","folder":"tf","game":"Team Fortress","app_id":440,"player_count":0,"max_players":24,"Bots":0,"server_type":"Dedicated","server_os":"Linux","password":true,"vac":true,"version":"7882260","steam_id":85568392924500088,"keywords":["cp","nocrits","nodmgspread","uncletopia"],"game_id":440,"stv_port":27026,"stv_name":"Uncletopia | Montréal | 2 | All Maps | STV","players":null},{"server_id":302,"name":"Uncletopia | Montréal | 3 | All Maps","name_short":"mtl-3","host":"mtl-1.ca.uncletopia.com","port":27035,"enabled":true,"region":"us-east","cc":"ca","latitude":45.50889,"longitude":-73.56167,"reserved":0,"last_update":"0001-01-01T00:00:00Z","name_a2s":"Uncletopia | Montréal | 3 | All Maps","protocol":17,"map":"pl_badwater","folder":"tf","game":"Team Fortress","app_id":440,"player_count":0,"max_players":24,"Bots":0,"server_type":"Dedicated","server_os":"Linux","password":true,"vac":true,"version":"7882260","steam_id":85568392924500089,"keywords":["nocrits","nodmgspread","payload","uncletopia"],"game_id":440,"stv_port":27036,"stv_name":"Uncletopia | Montréal | 3 | All Maps | STV","players":null},{"server_id":303,"name":"Uncletopia | Montréal | 4 | No Payload","name_short":"mtl-4","host":"mtl-1.ca.uncletopia.com","port":27045,"enabled":true,"region":"us-east","cc":"ca","latitude":45.50889,"longitude":-73.56167,"reserved":0,"last_update":"0001-01-01T00:00:00Z","name_a2s":"Uncletopia | Montréal | 4 | No Payload","protocol":17,"map":"cp_altitude","folder":"tf","game":"Team Fortress","app_id":440,"player_count":0,"max_players":24,"Bots":0,"server_type":"Dedicated","server_os":"Linux","password":true,"vac":true,"version":"7882260","steam_id":85568392924500090,"keywords":["cp","nocrits","nodmgspread","uncletopia"],"game_id":440,"stv_port":27046,"stv_name":"Uncletopia | Montréal | 4 | No Payload | STV","players":null},{"server_id":13,"name":"Uncletopia | New York City | 1 | All Maps","name_short":"nyc-1","host":"nyc-1.us.uncletopia.com","port":27015,"enabled":true,"region":"us-east","cc":"us","latitude":40.73061,"longitude":-73.93524,"reserved":0,"last_update":"0001-01-01T00:00:00Z","name_a2s":"Uncletopia | New York City | 1 | All Maps","protocol":17,"map":"cp_powerhouse","folder":"tf","game":"Team Fortress","app_id":440,"player_count":23,"max_players":24,"Bots":0,"server_type":"Dedicated","server_os":"Linux","password":true,"vac":true,"version":"7882260","steam_id":85568392924469993,"keywords":["cp","nocrits","nodmgspread","uncletopia"],"game_id":440,"stv_port":27016,"stv_name":"Uncletopia | New York City | 1 | All Maps | STV","players":[{"user_id":255,"name":"Fashion","steam_id":76561198056788026,"connected_time":710000000000,"state":"active","ping":65},{"user_id":251,"name":"Sire Salty","steam_id":76561198079639072,"connected_time":2097000000000,"state":"active","ping":49},{"user_id":238,"name":"Bocchi the Cock","steam_id":76561198152455316,"connected_time":2697000000000,"state":"active","ping":139},{"user_id":270,"name":"grate_chanpeon-232","steam_id":76561198073424589,"connected_time":180000000000,"state":"active","ping":46},{"user_id":250,"name":"2gs Heavy","steam_id":76561198085388962,"connected_time":2295000000000,"state":"active","ping":64},{"user_id":272,"name":"1001NinjaDucks","steam_id":76561198058169660,"connected_time":144000000000,"state":"active","ping":46},{"user_id":249,"name":"endangered spycrab","steam_id":76561198993581426,"connected_time":2454000000000,"state":"active","ping":62},{"user_id":252,"name":"Irregulars","steam_id":76561198048498230,"connected_time":1892000000000,"state":"active","ping":30},{"user_id":213,"name":"SHADY SWEATER SALESMAN","steam_id":76561198014616865,"connected_time":4933000000000,"state":"active","ping":64},{"user_id":239,"name":"Krusty Nut","steam_id":76561198120637924,"connected_time":2642000000000,"state":"active","ping":53},{"user_id":229,"name":"B.","steam_id":76561198040445907,"connected_time":3799000000000,"state":"active","ping":80},{"user_id":240,"name":"emilee (evil)","steam_id":76561198061455664,"connected_time":2626000000000,"state":"active","ping":54},{"user_id":254,"name":"Crab Rangoon","steam_id":76561198059310510,"connected_time":768000000000,"state":"active","ping":45},{"user_id":256,"name":"SAUL GOODMAN","steam_id":76561198328356716,"connected_time":706000000000,"state":"active","ping":58},{"user_id":275,"name":"Gruko","steam_id":76561198282965665,"connected_time":36000000000,"state":"active","ping":32},{"user_id":267,"name":"Steve","steam_id":76561198040262355,"connected_time":286000000000,"state":"active","ping":43},{"user_id":257,"name":"drdoofus123","steam_id":76561198016826181,"connected_time":658000000000,"state":"active","ping":63},{"user_id":244,"name":"shploopie","steam_id":76561198264289810,"connected_time":2614000000000,"state":"active","ping":67},{"user_id":258,"name":"RomanLegate","steam_id":76561198931699640,"connected_time":618000000000,"state":"active","ping":70},{"user_id":273,"name":"saib","steam_id":76561198966980576,"connected_time":121000000000,"state":"active","ping":41},{"user_id":274,"name":"Kuai","steam_id":76561198321216513,"connected_time":113000000000,"state":"active","ping":51},{"user_id":261,"name":"champion  turkey","steam_id":76561198151338482,"connected_time":558000000000,"state":"active","ping":47},{"user_id":269,"name":"Comrade Rock","steam_id":76561198185093227,"connected_time":258000000000,"state":"active","ping":93}]},{"server_id":14,"name":"Uncletopia | New York City | 2 | All Maps","name_short":"nyc-2","host":"nyc-1.us.uncletopia.com","port":27025,"enabled":true,"region":"us-east","cc":"us","latitude":40.73061,"longitude":-73.93524,"reserved":0,"last_update":"0001-01-01T00:00:00Z","name_a2s":"Uncletopia | New York City | 2 | All Maps","protocol":17,"map":"cp_dustbowl","folder":"tf","game":"Team Fortress","app_id":440,"player_count":24,"max_players":24,"Bots":0,"server_type":"Dedicated","server_os":"Linux","password":true,"vac":true,"version":"7882260","steam_id":85568392924469994,"keywords":["cp","nocrits","nodmgspread","uncletopia"],"game_id":440,"stv_port":27026,"stv_name":"Uncletopia | New York City | 2 | All Maps | STV","players":[{"user_id":77,"name":"twitch.tv/frostsnail","steam_id":76561197989859175,"connected_time":1335000000000,"state":"active","ping":130},{"user_id":104,"name":"Rose Wolf","steam_id":76561198437084762,"connected_time":279000000000,"state":"active","ping":105},{"user_id":99,"name":"Super63","steam_id":76561197981504131,"connected_time":583000000000,"state":"active","ping":50},{"user_id":51,"name":"Bigsumoslammer","steam_id":76561198044505076,"connected_time":3245000000000,"state":"active","ping":44},{"user_id":68,"name":"Big Iron","steam_id":76561198798937656,"connected_time":1556000000000,"state":"active","ping":72},{"user_id":100,"name":"alex","steam_id":76561198095203229,"connected_time":480000000000,"state":"active","ping":69},{"user_id":105,"name":"BallofBandages","steam_id":76561198089817918,"connected_time":89000000000,"state":"active","ping":49},{"user_id":64,"name":"Herdez Hot Salsa","steam_id":76561197991740906,"connected_time":1655000000000,"state":"active","ping":69},{"user_id":65,"name":"t.tv/stabslive","steam_id":76561198293116584,"connected_time":1605000000000,"state":"active","ping":61},{"user_id":83,"name":"IanTheAwsm","steam_id":76561198093031738,"connected_time":1149000000000,"state":"active","ping":125},{"user_id":102,"name":"Mr.Bady","steam_id":76561199094651706,"connected_time":412000000000,"state":"active","ping":80},{"user_id":94,"name":"AudioMedic","steam_id":76561198333939032,"connected_time":784000000000,"state":"active","ping":46},{"user_id":95,"name":"BenTimelord","steam_id":76561198991231597,"connected_time":766000000000,"state":"active","ping":134},{"user_id":73,"name":"Canadian","steam_id":76561199104281653,"connected_time":1528000000000,"state":"active","ping":56},{"user_id":75,"name":"thomasdee725!!!","steam_id":76561199189526173,"connected_time":1452000000000,"state":"active","ping":65},{"user_id":98,"name":"swooce","steam_id":76561198156232484,"connected_time":666000000000,"state":"active","ping":51},{"user_id":93,"name":"DiscoTraveler","steam_id":76561199240168088,"connected_time":855000000000,"state":"active","ping":57},{"user_id":103,"name":"RainbowRT","steam_id":76561198349922957,"connected_time":376000000000,"state":"active","ping":74},{"user_id":81,"name":"Peepster","steam_id":76561198297854733,"connected_time":1191000000000,"state":"active","ping":84},{"user_id":101,"name":"Raptor","steam_id":76561198061638593,"connected_time":478000000000,"state":"active","ping":70},{"user_id":85,"name":"Okpar","steam_id":76561199221067945,"connected_time":1100000000000,"state":"active","ping":92},{"user_id":96,"name":"FloatinMarioYT","steam_id":76561198902731836,"connected_time":755000000000,"state":"active","ping":106},{"user_id":87,"name":"TheSquirrelofHuscurl","steam_id":76561198073379623,"connected_time":1027000000000,"state":"active","ping":88},{"user_id":88,"name":"QWERTY_KKL","steam_id":76561199156419203,"connected_time":1022000000000,"state":"active","ping":66}]},{"server_id":15,"name":"Uncletopia | New York City | 3 | Stopwatch Beta","name_short":"nyc-3","host":"nyc-1.us.uncletopia.com","port":27035,"enabled":true,"region":"us-east","cc":"us","latitude":40.73061,"longitude":-73.93524,"reserved":0,"last_update":"0001-01-01T00:00:00Z","name_a2s":"Uncletopia | New York City | 3 | Stopwatch Beta","protocol":17,"map":"koth_highpass","folder":"tf","game":"Team Fortress","app_id":440,"player_count":0,"max_players":24,"Bots":0,"server_type":"Dedicated","server_os":"Linux","password":true,"vac":true,"version":"7882260","steam_id":85568392924742820,"keywords":["cp","nocrits","nodmgspread","uncletopia"],"game_id":440,"stv_port":27036,"stv_name":"Uncletopia | New York City | 3 | Stopwatch Beta | STV","players":null},{"server_id":16,"name":"Uncletopia | New York City | 4 | Community","name_short":"nyc-4","host":"nyc-1.us.uncletopia.com","port":27045,"enabled":true,"region":"us-east","cc":"us","latitude":40.73061,"longitude":-73.93524,"reserved":0,"last_update":"0001-01-01T00:00:00Z","name_a2s":"Uncletopia | New York City | 4 | Community","protocol":17,"map":"workshop/koth_trenchfoot_b1a.ugc731436616","folder":"tf","game":"Team Fortress","app_id":440,"player_count":0,"max_players":24,"Bots":0,"server_type":"Dedicated","server_os":"Linux","password":true,"vac":true,"version":"7882260","steam_id":85568392924742821,"keywords":["cp","nocrits","nodmgspread","uncletopia"],"game_id":440,"stv_port":27046,"stv_name":"Uncletopia | New York City | 4 | Community | STV","players":null},{"server_id":142,"name":"Uncletopia | São Paulo | 1 | All Maps","name_short":"sao-1","host":"sao-1.br.uncletopia.com","port":27015,"enabled":true,"region":"sa","cc":"br","latitude":-23.533773,"longitude":-46.62529,"reserved":0,"last_update":"0001-01-01T00:00:00Z","name_a2s":"Uncletopia | São Paulo | 1 | All Maps","protocol":17,"map":"koth_highpass","folder":"tf","game":"Team Fortress","app_id":440,"player_count":5,"max_players":24,"Bots":0,"server_type":"Dedicated","server_os":"Linux","password":true,"vac":true,"version":"7882260","steam_id":85568392924469996,"keywords":["cp","nocrits","nodmgspread","uncletopia"],"game_id":440,"stv_port":27016,"stv_name":"Uncletopia | São Paulo | 1 | All Maps | STV","players":[{"user_id":15,"name":"CatalanMadridista","steam_id":76561199182150779,"connected_time":1021000000000,"state":"active","ping":101},{"user_id":16,"name":"TuVieja_777_","steam_id":76561199289101211,"connected_time":994000000000,"state":"active","ping":101},{"user_id":17,"name":"probrinecrack","steam_id":76561199081029120,"connected_time":849000000000,"state":"active","ping":98},{"user_id":18,"name":"kate ❀","steam_id":76561198805567120,"connected_time":164000000000,"state":"active","ping":73},{"user_id":19,"name":"Homero chino","steam_id":76561199066605566,"connected_time":159000000000,"state":"active","ping":94}]},{"server_id":143,"name":"Uncletopia | São Paulo | 2 | All Maps","name_short":"sao-2","host":"sao-2.br.uncletopia.com","port":27015,"enabled":true,"region":"sa","cc":"br","latitude":-23.533773,"longitude":-46.62529,"reserved":0,"last_update":"0001-01-01T00:00:00Z","name_a2s":"Uncletopia | São Paulo | 2 | All Maps","protocol":17,"map":"koth_cascade","folder":"tf","game":"Team Fortress","app_id":440,"player_count":0,"max_players":24,"Bots":0,"server_type":"Dedicated","server_os":"Linux","password":true,"vac":true,"version":"7882260","steam_id":85568392924485349,"keywords":["cp","nocrits","nodmgspread","uncletopia"],"game_id":440,"stv_port":27016,"stv_name":"Uncletopia | São Paulo | 2 | All Maps | STV","players":null},{"server_id":7,"name":"Uncletopia | Seattle | 1 | All Maps","name_short":"sea-1","host":"sea-1.us.uncletopia.com","port":27015,"enabled":true,"region":"us-west","cc":"us","latitude":47.608013,"longitude":-122.33517,"reserved":0,"last_update":"0001-01-01T00:00:00Z","name_a2s":"Uncletopia | Seattle | 1 | All Maps","protocol":17,"map":"pl_badwater","folder":"tf","game":"Team Fortress","app_id":440,"player_count":24,"max_players":24,"Bots":0,"server_type":"Dedicated","server_os":"Linux","password":true,"vac":true,"version":"7882260","steam_id":85568392924469997,"keywords":["nocrits","nodmgspread","payload","uncletopia"],"game_id":440,"stv_port":27016,"stv_name":"Uncletopia | Seattle | 1 | All Maps | STV","players":[{"user_id":218,"name":"Username","steam_id":76561198855586261,"connected_time":2842000000000,"state":"active","ping":64},{"user_id":242,"name":"sudoku_fiend","steam_id":76561198152029104,"connected_time":2122000000000,"state":"active","ping":91},{"user_id":215,"name":"They/Them Rattussy","steam_id":76561198238186628,"connected_time":2987000000000,"state":"active","ping":78},{"user_id":239,"name":"V∆lume The 1rd","steam_id":76561198133260990,"connected_time":2435000000000,"state":"active","ping":59},{"user_id":246,"name":"Noremac_","steam_id":76561198074701001,"connected_time":1744000000000,"state":"active","ping":101},{"user_id":194,"name":"Dr. Cgad","steam_id":76561198203411640,"connected_time":5653000000000,"state":"active","ping":110},{"user_id":207,"name":"evilOlive","steam_id":76561198106222025,"connected_time":4598000000000,"state":"active","ping":105},{"user_id":252,"name":"reverie","steam_id":76561198168158637,"connected_time":1226000000000,"state":"active","ping":87},{"user_id":174,"name":"Saint Laurent Don","steam_id":76561198116820706,"connected_time":6994000000000,"state":"active","ping":71},{"user_id":216,"name":"Akustin","steam_id":76561198110015463,"connected_time":2907000000000,"state":"active","ping":83},{"user_id":253,"name":"louie, engineer main","steam_id":76561198168084763,"connected_time":1219000000000,"state":"active","ping":44},{"user_id":258,"name":"Apollo","steam_id":76561198162364702,"connected_time":170000000000,"state":"active","ping":54},{"user_id":245,"name":"Noxitril_Enjoyer","steam_id":76561198870649125,"connected_time":1767000000000,"state":"active","ping":89},{"user_id":255,"name":"h","steam_id":76561198868164815,"connected_time":1035000000000,"state":"active","ping":55},{"user_id":248,"name":"Vincent Van Bro","steam_id":76561197966919802,"connected_time":1634000000000,"state":"active","ping":60},{"user_id":251,"name":"Tibetan Pop Star","steam_id":76561198844903984,"connected_time":1339000000000,"state":"active","ping":85},{"user_id":257,"name":"slap cheeks","steam_id":76561198128285450,"connected_time":506000000000,"state":"active","ping":91},{"user_id":125,"name":"fox news goblin","steam_id":76561198167648580,"connected_time":9728000000000,"state":"active","ping":76},{"user_id":227,"name":"Arsonist Goose","steam_id":76561198147441830,"connected_time":2671000000000,"state":"active","ping":71},{"user_id":250,"name":"Mitchell","steam_id":76561197972922328,"connected_time":1457000000000,"state":"active","ping":85},{"user_id":256,"name":"Tazzz","steam_id":76561198280897107,"connected_time":1029000000000,"state":"active","ping":105},{"user_id":236,"name":"Deathkillsme","steam_id":76561198059468746,"connected_time":2491000000000,"state":"active","ping":46},{"user_id":237,"name":"kramer","steam_id":76561198117761965,"connected_time":2484000000000,"state":"active","ping":126},{"user_id":244,"name":"SibilantSerpent","steam_id":76561198154488754,"connected_time":1893000000000,"state":"active","ping":62}]},{"server_id":119,"name":"Uncletopia | Seattle | 2 | All Maps","name_short":"sea-2","host":"sea-1.us.uncletopia.com","port":27025,"enabled":true,"region":"us-west","cc":"us","latitude":47.608013,"longitude":-122.33517,"reserved":0,"last_update":"0001-01-01T00:00:00Z","name_a2s":"Uncletopia | Seattle | 2 | All Maps","protocol":17,"map":"cp_egypt_final","folder":"tf","game":"Team Fortress","app_id":440,"player_count":17,"max_players":24,"Bots":0,"server_type":"Dedicated","server_os":"Linux","password":true,"vac":true,"version":"7882260","steam_id":85568392924469998,"keywords":["cp","nocrits","nodmgspread","uncletopia"],"game_id":440,"stv_port":27026,"stv_name":"Uncletopia | Seattle | 2 | All Maps | STV","players":[{"user_id":188,"name":"hunterzar","steam_id":76561198347666725,"connected_time":669000000000,"state":"active","ping":113},{"user_id":148,"name":"Bubble Blowing Baby Hunter","steam_id":76561198104679689,"connected_time":4029000000000,"state":"active","ping":55},{"user_id":149,"name":"t.tv/lillieceon","steam_id":76561198062297621,"connected_time":4025000000000,"state":"active","ping":124},{"user_id":150,"name":"FaelisongTalim","steam_id":76561198061921771,"connected_time":4019000000000,"state":"active","ping":109},{"user_id":189,"name":"Vin","steam_id":76561198137057777,"connected_time":610000000000,"state":"active","ping":62},{"user_id":196,"name":"tf2pyroenjoyer","steam_id":76561198388184353,"connected_time":154000000000,"state":"active","ping":55},{"user_id":195,"name":"KittyToy","steam_id":76561198043990701,"connected_time":260000000000,"state":"active","ping":55},{"user_id":171,"name":"Dairy Queen","steam_id":76561198285298576,"connected_time":2481000000000,"state":"active","ping":110},{"user_id":197,"name":"♥ Kass ♥","steam_id":76561198275728291,"connected_time":149000000000,"state":"active","ping":111},{"user_id":186,"name":"My Face? When?","steam_id":76561198059485070,"connected_time":1032000000000,"state":"active","ping":145},{"user_id":173,"name":"Jmercy","steam_id":76561198977162219,"connected_time":2445000000000,"state":"active","ping":158},{"user_id":198,"name":"Emu","steam_id":76561198004595048,"connected_time":33000000000,"state":"active","ping":55},{"user_id":79,"name":"Power Jake","steam_id":76561198051510260,"connected_time":9238000000000,"state":"active","ping":60},{"user_id":199,"name":"cp_AnnoyingOrange","steam_id":76561198058956253,"connected_time":24000000000,"state":"active","ping":52},{"user_id":175,"name":"Quon Grene for Vice Prez","steam_id":76561198127545817,"connected_time":2399000000000,"state":"active","ping":74},{"user_id":130,"name":"VerminKing","steam_id":76561198060887391,"connected_time":4935000000000,"state":"active","ping":56},{"user_id":184,"name":"Boyaredeen","steam_id":76561198880492636,"connected_time":1360000000000,"state":"active","ping":50}]},{"server_id":406,"name":"Uncletopia | Seattle | 3 | Stopwatch Beta","name_short":"sea-3","host":"sea-1.us.uncletopia.com","port":27035,"enabled":true,"region":"us-west","cc":"us","latitude":47.608013,"longitude":-122.33517,"reserved":0,"last_update":"0001-01-01T00:00:00Z","name_a2s":"Uncletopia | Seattle | 3 | Stopwatch Beta","protocol":17,"map":"cp_mountainlab","folder":"tf","game":"Team Fortress","app_id":440,"player_count":0,"max_players":24,"Bots":0,"server_type":"Dedicated","server_os":"Linux","password":true,"vac":true,"version":"7882260","steam_id":85568392924515217,"keywords":["cp","nocrits","nodmgspread","uncletopia"],"game_id":440,"stv_port":27036,"stv_name":"Uncletopia | Seattle | 3 | Stopwatch Beta | STV","players":null},{"server_id":17,"name":"Uncletopia | San Francisco | 1 | All Maps","name_short":"sfo-1","host":"sfo-1.us.uncletopia.com","port":27015,"enabled":true,"region":"us-west","cc":"us","latitude":37.77397,"longitude":-122.4313,"reserved":0,"last_update":"0001-01-01T00:00:00Z","name_a2s":"Uncletopia | San Francisco | 1 | All Maps","protocol":17,"map":"cp_process_final","folder":"tf","game":"Team Fortress","app_id":440,"player_count":0,"max_players":24,"Bots":0,"server_type":"Dedicated","server_os":"Linux","password":true,"vac":true,"version":"7757534","steam_id":85568392924469999,"keywords":["cp","nocrits","nodmgspread","uncletopia"],"game_id":440,"stv_port":27016,"stv_name":"Uncletopia | San Francisco | 1 | All Maps | STV","players":null},{"server_id":18,"name":"Uncletopia | San Francisco | 2 | All Maps","name_short":"sfo-2","host":"sfo-1.us.uncletopia.com","port":27025,"enabled":true,"region":"us-west","cc":"us","latitude":37.77397,"longitude":-122.4313,"reserved":0,"last_update":"0001-01-01T00:00:00Z","name_a2s":"Uncletopia | San Francisco | 2 | All Maps","protocol":17,"map":"koth_highpass","folder":"tf","game":"Team Fortress","app_id":440,"player_count":0,"max_players":24,"Bots":0,"server_type":"Dedicated","server_os":"Linux","password":true,"vac":true,"version":"7757534","steam_id":85568392924470000,"keywords":["cp","nocrits","nodmgspread","uncletopia"],"game_id":440,"stv_port":27026,"stv_name":"Uncletopia | San Francisco | 2 | All Maps | STV","players":null},{"server_id":19,"name":"Uncletopia | San Francisco | 3 | Stopwatch Beta","name_short":"sfo-3","host":"sfo-1.us.uncletopia.com","port":27035,"enabled":true,"region":"us-west","cc":"us","latitude":37.77397,"longitude":-122.4313,"reserved":0,"last_update":"0001-01-01T00:00:00Z","name_a2s":"Uncletopia | San Francisco | 3 | Stopwatch Beta","protocol":17,"map":"koth_lakeside_final","folder":"tf","game":"Team Fortress","app_id":440,"player_count":0,"max_players":24,"Bots":0,"server_type":"Dedicated","server_os":"Linux","password":true,"vac":true,"version":"7757534","steam_id":85568392924742824,"keywords":["cp","nocrits","nodmgspread","uncletopia"],"game_id":440,"stv_port":27036,"stv_name":"Uncletopia | San Francisco | 3 | Stopwatch Beta | STV","players":null},{"server_id":20,"name":"Uncletopia | San Francisco | 4 | Community","name_short":"sfo-4","host":"sfo-1.us.uncletopia.com","port":27045,"enabled":true,"region":"us-west","cc":"us","latitude":37.77397,"longitude":-122.4313,"reserved":0,"last_update":"0001-01-01T00:00:00Z","name_a2s":"Uncletopia | San Francisco | 4 | Community","protocol":17,"map":"cp_altitude","folder":"tf","game":"Team Fortress","app_id":440,"player_count":0,"max_players":24,"Bots":0,"server_type":"Dedicated","server_os":"Linux","password":true,"vac":true,"version":"7757534","steam_id":85568392924742826,"keywords":["cp","nocrits","nodmgspread","uncletopia"],"game_id":440,"stv_port":27046,"stv_name":"Uncletopia | San Francisco | 4 | Community | STV","players":null},{"server_id":141,"name":"Uncletopia | Sydney | 1 | All Maps","name_short":"syd-1","host":"syd-1.au.uncletopia.com","port":27015,"enabled":true,"region":"au","cc":"au","latitude":-33.865143,"longitude":151.2099,"reserved":0,"last_update":"0001-01-01T00:00:00Z","name_a2s":"Uncletopia | Sydney | 1 | All Maps","protocol":17,"map":"cp_snakewater_final1","folder":"tf","game":"Team Fortress","app_id":440,"player_count":0,"max_players":24,"Bots":0,"server_type":"Dedicated","server_os":"Linux","password":true,"vac":true,"version":"7882260","steam_id":85568392924470001,"keywords":["cp","nocrits","nodmgspread","uncletopia"],"game_id":440,"stv_port":27016,"stv_name":"Uncletopia | Sydney | 1 | All Maps | STV","players":null},{"server_id":123,"name":"Uncletopia | Sydney | 2 | All Maps","name_short":"syd-2","host":"syd-1.au.uncletopia.com","port":27025,"enabled":true,"region":"au","cc":"au","latitude":-33.865143,"longitude":151.2099,"reserved":0,"last_update":"0001-01-01T00:00:00Z","name_a2s":"Uncletopia | Sydney | 2 | All Maps","protocol":17,"map":"pl_barnblitz","folder":"tf","game":"Team Fortress","app_id":440,"player_count":0,"max_players":24,"Bots":0,"server_type":"Dedicated","server_os":"Linux","password":true,"vac":true,"version":"7882260","steam_id":85568392924470002,"keywords":["nocrits","nodmgspread","payload","uncletopia"],"game_id":440,"stv_port":27026,"stv_name":"Uncletopia | Sydney | 2 | All Maps | STV","players":null},{"server_id":395,"name":"Uncletopia | Sydney | 3 | All Maps","name_short":"syd-3","host":"syd-1.au.uncletopia.com","port":27035,"enabled":true,"region":"au","cc":"au","latitude":-33.865143,"longitude":151.2099,"reserved":0,"last_update":"0001-01-01T00:00:00Z","name_a2s":"Uncletopia | Sydney | 3 | All Maps","protocol":17,"map":"pl_badwater","folder":"tf","game":"Team Fortress","app_id":440,"player_count":0,"max_players":24,"Bots":0,"server_type":"Dedicated","server_os":"Linux","password":true,"vac":true,"version":"7882260","steam_id":85568392925194467,"keywords":["nocrits","nodmgspread","payload","uncletopia"],"game_id":440,"stv_port":27036,"stv_name":"Uncletopia | Sydney | 3 | All Maps | STV","players":null},{"server_id":396,"name":"Uncletopia | Sydney | 4 | All Maps","name_short":"syd-4","host":"syd-1.au.uncletopia.com","port":27045,"enabled":true,"region":"au","cc":"au","latitude":-33.865143,"longitude":151.2099,"reserved":0,"last_update":"0001-01-01T00:00:00Z","name_a2s":"Uncletopia | Sydney | 4 | All Maps","protocol":17,"map":"cp_dustbowl","folder":"tf","game":"Team Fortress","app_id":440,"player_count":0,"max_players":24,"Bots":0,"server_type":"Dedicated","server_os":"Linux","password":true,"vac":true,"version":"7882260","steam_id":85568392925397958,"keywords":["cp","nocrits","nodmgspread","uncletopia"],"game_id":440,"stv_port":27046,"stv_name":"Uncletopia | Sydney | 4 | All Maps | STV","players":null},{"server_id":58,"name":"Uncletopia | Sydney | 5 | Stopwatch Beta","name_short":"syd-5","host":"syd-1.au.uncletopia.com","port":27055,"enabled":true,"region":"au","cc":"au","latitude":-33.865143,"longitude":151.2099,"reserved":0,"last_update":"0001-01-01T00:00:00Z","name_a2s":"Uncletopia | Sydney | 5 | Stopwatch Beta","protocol":17,"map":"pl_swiftwater_final1","folder":"tf","game":"Team Fortress","app_id":440,"player_count":0,"max_players":24,"Bots":0,"server_type":"Dedicated","server_os":"Linux","password":true,"vac":true,"version":"7882260","steam_id":85568392925397959,"keywords":["nocrits","nodmgspread","payload","uncletopia"],"game_id":440,"stv_port":27056,"stv_name":"Uncletopia | Sydney | 5 | Stopwatch Beta | STV","players":null},{"server_id":59,"name":"Uncletopia | Sydney | 6 | Community","name_short":"syd-6","host":"syd-1.au.uncletopia.com","port":27065,"enabled":true,"region":"au","cc":"au","latitude":-33.865143,"longitude":151.2099,"reserved":0,"last_update":"0001-01-01T00:00:00Z","name_a2s":"Uncletopia | Sydney | 6 | Community","protocol":17,"map":"pl_snowycoast","folder":"tf","game":"Team Fortress","app_id":440,"player_count":0,"max_players":24,"Bots":0,"server_type":"Dedicated","server_os":"Linux","password":true,"vac":true,"version":"7882260","steam_id":85568392925397960,"keywords":["nocrits","nodmgspread","payload","uncletopia"],"game_id":440,"stv_port":27066,"stv_name":"Uncletopia | Sydney | 6 | Community | STV","players":null},{"server_id":49,"name":"Uncletopia | Warsaw | 1 | All Maps","name_short":"waw-1","host":"waw-1.pl.uncletopia.com","port":27015,"enabled":true,"region":"eu","cc":"pl","latitude":52.2297,"longitude":21.017532,"reserved":0,"last_update":"0001-01-01T00:00:00Z","name_a2s":"","protocol":0,"map":"","folder":"","game":"","app_id":0,"player_count":0,"max_players":0,"Bots":0,"server_type":"","server_os":"","password":false,"vac":false,"version":"","steam_id":0,"keywords":null,"game_id":0,"stv_port":0,"stv_name":"","players":null},{"server_id":50,"name":"Uncletopia | Warsaw | 2 | All Maps","name_short":"waw-2","host":"waw-1.pl.uncletopia.com","port":27025,"enabled":true,"region":"eu","cc":"pl","latitude":52.2297,"longitude":21.017532,"reserved":0,"last_update":"0001-01-01T00:00:00Z","name_a2s":"Uncletopia | Warsaw | 2 | All Maps","protocol":17,"map":"koth_highpass","folder":"tf","game":"Team Fortress","app_id":440,"player_count":0,"max_players":24,"Bots":0,"server_type":"Dedicated","server_os":"Linux","password":true,"vac":true,"version":"7882260","steam_id":85568392925397851,"keywords":["cp","nocrits","nodmgspread","uncletopia"],"game_id":440,"stv_port":27026,"stv_name":"Uncletopia | Warsaw | 2 | All Maps | STV","players":null},{"server_id":51,"name":"Uncletopia | Warsaw | 3 | All Maps","name_short":"waw-3","host":"waw-1.pl.uncletopia.com","port":27035,"enabled":true,"region":"eu","cc":"pl","latitude":52.2297,"longitude":21.017532,"reserved":0,"last_update":"0001-01-01T00:00:00Z","name_a2s":"Uncletopia | Warsaw | 3 | All Maps","protocol":17,"map":"koth_viaduct","folder":"tf","game":"Team Fortress","app_id":440,"player_count":0,"max_players":24,"Bots":0,"server_type":"Dedicated","server_os":"Linux","password":true,"vac":true,"version":"7882260","steam_id":85568392925397852,"keywords":["cp","nocrits","nodmgspread","uncletopia"],"game_id":440,"stv_port":27036,"stv_name":"Uncletopia | Warsaw | 3 | All Maps | STV","players":null},{"server_id":52,"name":"Uncletopia | Warsaw | 4 | All Maps","name_short":"waw-4","host":"waw-1.pl.uncletopia.com","port":27045,"enabled":true,"region":"eu","cc":"pl","latitude":52.2297,"longitude":21.017532,"reserved":0,"last_update":"0001-01-01T00:00:00Z","name_a2s":"Uncletopia | Warsaw | 4 | All Maps","protocol":17,"map":"koth_highpass","folder":"tf","game":"Team Fortress","app_id":440,"player_count":1,"max_players":24,"Bots":0,"server_type":"Dedicated","server_os":"Linux","password":true,"vac":true,"version":"7882260","steam_id":85568392925397853,"keywords":["cp","nocrits","nodmgspread","uncletopia"],"game_id":440,"stv_port":27046,"stv_name":"Uncletopia | Warsaw | 4 | All Maps | STV","players":[{"user_id":10,"name":"Ketich","steam_id":76561198021772703,"connected_time":9000000000,"state":"spawning","ping":62}]},{"server_id":53,"name":"Uncletopia | Warsaw | 5 | Stopwatch Beta","name_short":"waw-5","host":"waw-1.pl.uncletopia.com","port":27055,"enabled":true,"region":"eu","cc":"pl","latitude":52.2297,"longitude":21.017532,"reserved":0,"last_update":"0001-01-01T00:00:00Z","name_a2s":"Uncletopia | Warsaw | 5 | Stopwatch Beta","protocol":17,"map":"pl_upward","folder":"tf","game":"Team Fortress","app_id":440,"player_count":0,"max_players":24,"Bots":0,"server_type":"Dedicated","server_os":"Linux","password":true,"vac":true,"version":"7882260","steam_id":85568392925397854,"keywords":["nocrits","nodmgspread","payload","uncletopia"],"game_id":440,"stv_port":27056,"stv_name":"Uncletopia | Warsaw | 5 | Stopwatch Beta | STV","players":null},{"server_id":54,"name":"Uncletopia | Warsaw | 6 | Community","name_short":"waw-6","host":"waw-1.pl.uncletopia.com","port":27065,"enabled":true,"region":"eu","cc":"pl","latitude":52.2297,"longitude":21.017532,"reserved":0,"last_update":"0001-01-01T00:00:00Z","name_a2s":"Uncletopia | Warsaw | 6 | Community","protocol":17,"map":"workshop/cp_fulgur_rc2a.ugc2068252300","folder":"tf","game":"Team Fortress","app_id":440,"player_count":0,"max_players":24,"Bots":0,"server_type":"Dedicated","server_os":"Linux","password":true,"vac":true,"version":"7882260","steam_id":85568392925397856,"keywords":["cp","nocrits","nodmgspread","uncletopia"],"game_id":440,"stv_port":27066,"stv_name":"Uncletopia | Warsaw | 6 | Community | STV","players":null}]}