{"status":true,"message":"","result":[{"server_id":2,"name":"Uncletopia | Chicago | 1 | All Maps","name_short":"chi-1","host":"chi-1.us.uncletopia.com","port":27015,"enabled":true,"region":"us-central","cc":"us","latitude":41.881832,"longitude":-87.62318,"reserved":0,"last_update":"0001-01-01T00:00:00Z","name_a2s":"Uncletopia | Chicago | 1 | All Maps","protocol":17,"map":"cp_mountainlab","folder":"tf","game":"Team Fortress","app_id":440,"player_count":24,"max_players":24,"Bots":0,"server_type":"Dedicated","server_os":"Linux","password":true,"vac":true,"version":"7932396","steam_id":85568392924469984,"keywords":["cp","nocrits","nodmgspread","uncletopia"],"game_id":440,"stv_port":27016,"stv_name":"Uncletopia | Chicago | 1 | All Maps | STV","players":[{"user_id":169,"name":"LerN","steam_id":76561198083463877,"connected_time":2987000000000,"state":"active","ping":45},{"user_id":154,"name":"Celestial Bodies","steam_id":76561198212572955,"connected_time":3128000000000,"state":"active","ping":78},{"user_id":274,"name":"Im High","steam_id":76561198049954886,"connected_time":1182000000000,"state":"active","ping":65},{"user_id":123,"name":"berserker_tf2 yt","steam_id":76561198303464488,"connected_time":5204000000000,"state":"active","ping":59},{"user_id":277,"name":"Ibrahim","steam_id":76561198028320625,"connected_time":1139000000000,"state":"active","ping":66},{"user_id":157,"name":"skps","steam_id":76561198083276946,"connected_time":3117000000000,"state":"active","ping":69},{"user_id":283,"name":"reymundo","steam_id":76561197989412830,"connected_time":172000000000,"state":"active","ping":115},{"user_id":211,"name":"Hank the Tank","steam_id":76561198424853684,"connected_time":2214000000000,"state":"active","ping":89},{"user_id":280,"name":"Jirachi","steam_id":76561198341537452,"connected_time":968000000000,"state":"active","ping":81},{"user_id":136,"name":"Ritzy","steam_id":76561198381955342,"connected_time":4207000000000,"state":"active","ping":144},{"user_id":150,"name":"Oxygen Denier","steam_id":76561197986051713,"connected_time":3164000000000,"state":"active","ping":83},{"user_id":282,"name":"Joe Family guy","steam_id":76561198065327106,"connected_time":631000000000,"state":"active","ping":86},{"user_id":276,"name":"Blk_Mage_Ctype","steam_id":76561198041290184,"connected_time":1159000000000,"state":"active","ping":65},{"user_id":127,"name":"Acro","steam_id":76561198092451804,"connected_time":4395000000000,"state":"active","ping":67},{"user_id":151,"name":"ipadkid","steam_id":76561199239446808,"connected_time":3149000000000,"state":"active","ping":79},{"user_id":188,"name":"Polly Geist","steam_id":76561198271964253,"connected_time":2594000000000,"state":"active","ping":75},{"user_id":202,"name":"bobby wasabi","steam_id":76561198380018244,"connected_time":2461000000000,"state":"active","ping":93},{"user_id":239,"name":"richard clock","steam_id":76561198048455671,"connected_time":1742000000000,"state":"active","ping":56},{"user_id":134,"name":"Aeonspassed","steam_id":76561198014016451,"connected_time":4231000000000,"state":"active","ping":52},{"user_id":275,"name":"joe","steam_id":76561199389283507,"connected_time":1169000000000,"state":"active","ping":112},{"user_id":176,"name":"Tomcouger","steam_id":76561198022866923,"connected_time":2888000000000,"state":"active","ping":132},{"user_id":210,"name":"Adam (Cursed Confetti Creature)","steam_id":76561198317690197,"connected_time":2270000000000,"state":"active","ping":48},{"user_id":279,"name":"Lost","steam_id":76561198093713427,"connected_time":1102000000000,"state":"active","ping":60},{"user_id":285,"name":"Undertime Slopper","steam_id":76561198396789061,"connected_time":136000000000,"state":"active","ping":82}]},{"server_id":106,"name":"Uncletopia | Chicago | 2 | All Maps","name_short":"chi-2","host":"chi-1.us.uncletopia.com","port":27025,"enabled":true,"region":"us-central","cc":"us","latitude":41.881832,"longitude":-87.62318,"reserved":0,"last_update":"0001-01-01T00:00:00Z","name_a2s":"Uncletopia | Chicago | 2 | All Maps","protocol":17,"map":"pl_pier","folder":"tf","game":"Team Fortress","app_id":440,"player_count":23,"max_players":24,"Bots":0,"server_type":"Dedicated","server_os":"Linux","password":true,"vac":true,"version":"7932396","steam_id":85568392924469985,"keywords":["nocrits","nodmgspread","payload","uncletopia"],"game_id":440,"stv_port":27026,"stv_name":"Uncletopia | Chicago | 2 | All Maps | STV","players":[{"user_id":559,"name":":)","steam_id":76561198093921290,"connected_time":1104000000000,"state":"active","ping":46},{"user_id":521,"name":"Benson","steam_id":76561198110704686,"connected_time":3210000000000,"state":"active","ping":50},{"user_id":538,"name":"skogg yenseii","steam_id":76561198304265800,"connected_time":2828000000000,"state":"active","ping":83},{"user_id":534,"name":"❌️AYCE_ANEMOIA❌","steam_id":76561199035613356,"connected_time":2870000000000,"state":"active","ping":169},{"user_id":557,"name":"valorant lover","steam_id":76561198037826370,"connected_time":1443000000000,"state":"active","ping":59},{"user_id":561,"name":"skogg rocketdanny2009","steam_id":76561198307081282,"connected_time":1088000000000,"state":"active","ping":68},{"user_id":524,"name":"Mythical Lag","steam_id":76561198347031281,"connected_time":3124000000000,"state":"active","ping":75},{"user_id":526,"name":"Fatass Engineer","steam_id":76561199233572024,"connected_time":3082000000000,"state":"active","ping":48},{"user_id":556,"name":"Yoshi","steam_id":76561198975207722,"connected_time":1478000000000,"state":"active","ping":68},{"user_id":563,"name":"Jurgles","steam_id":76561199097050224,"connected_time":841000000000,"state":"active","ping":84},{"user_id":527,"name":"Rec","steam_id":76561198022813906,"connected_time":3048000000000,"state":"active","ping":59},{"user_id":558,"name":"Ultimate Gohan","steam_id":76561198065614782,"connected_time":1121000000000,"state":"active","ping":63},{"user_id":536,"name":"Owixan","steam_id":76561198074990070,"connected_time":2846000000000,"state":"active","ping":39},{"user_id":553,"name":"Quibbli","steam_id":76561199214866732,"connected_time":2089000000000,"state":"active","ping":72},{"user_id":554,"name":"kite","steam_id":76561198346516392,"connected_time":1844000000000,"state":"active","ping":73},{"user_id":548,"name":"Dotshin","steam_id":76561198452926392,"connected_time":2396000000000,"state":"active","ping":116},{"user_id":539,"name":"Obelisk","steam_id":76561198049416866,"connected_time":2823000000000,"state":"active","ping":81},{"user_id":530,"name":"Mindset","steam_id":76561198107074449,"connected_time":2983000000000,"state":"active","ping":53},{"user_id":529,"name":"cornshot","steam_id":76561198043496387,"connected_time":3040000000000,"state":"active","ping":110},{"user_id":532,"name":"The King","steam_id":76561198117344758,"connected_time":2882000000000,"state":"active","ping":91},{"user_id":613,"name":"Zoot","steam_id":76561198121944243,"connected_time":36000000000,"state":"active","ping":83},{"user_id":591,"name":"cutix","steam_id":76561198306912450,"connected_time":501000000000,"state":"active","ping":75},{"user_id":564,"name":"Kamikaze Cowboy","steam_id":76561198076220556,"connected_time":803000000000,"state":"active","ping":110}]},{"server_id":402,"name":"Uncletopia | Chicago | 3 | All Maps","name_short":"chi-3","host":"chi-1.us.uncletopia.com","port":27035,"enabled":true,"region":"us-central","cc":"us","latitude":41.881832,"longitude":-87.62318,"reserved":0,"last_update":"0001-01-01T00:00:00Z","name_a2s":"Uncletopia | Chicago | 3 | All Maps","protocol":17,"map":"cp_dustbowl","folder":"tf","game":"Team Fortress","app_id":440,"player_count":24,"max_players":24,"Bots":0,"server_type":"Dedicated","server_os":"Linux","password":true,"vac":true,"version":"7932396","steam_id":85568392924515191,"keywords":["cp","nocrits","nodmgspread","uncletopia"],"game_id":440,"stv_port":27036,"stv_name":"Uncletopia | Chicago | 3 | All Maps | STV","players":[{"user_id":69,"name":"elyina","steam_id":76561198035310295,"connected_time":742000000000,"state":"active","ping":89},{"user_id":75,"name":"DJ Pierce","steam_id":76561198394241466,"connected_time":394000000000,"state":"active","ping":78},{"user_id":33,"name":"eat Pant","steam_id":76561197974965536,"connected_time":2968000000000,"state":"active","ping":57},{"user_id":63,"name":"MorsPrima","steam_id":76561199196014252,"connected_time":1199000000000,"state":"active","ping":124},{"user_id":36,"name":"MikeLovesRabbit","steam_id":76561197997742625,"connected_time":2716000000000,"state":"active","ping":64},{"user_id":70,"name":"cock spotting!!! (look up)","steam_id":76561198073269122,"connected_time":737000000000,"state":"active","ping":74},{"user_id":71,"name":"I Like Cheese","steam_id":76561198006265659,"connected_time":714000000000,"state":"active","ping":65},{"user_id":39,"name":"TheSmolPopato","steam_id":76561199076606348,"connected_time":2432000000000,"state":"active","ping":58},{"user_id":76,"name":"SuiteTooth","steam_id":76561198454780869,"connected_time":276000000000,"state":"active","ping":80},{"user_id":41,"name":"hum","steam_id":76561198085457599,"connected_time":2315000000000,"state":"active","ping":76},{"user_id":42,"name":"JHLO","steam_id":76561198074359967,"connected_time":2244000000000,"state":"active","ping":72},{"user_id":74,"name":"korporal","steam_id":76561198207374692,"connected_time":429000000000,"state":"active","ping":58},{"user_id":66,"name":"SlurpyTheDog","steam_id":76561198799733154,"connected_time":951000000000,"state":"active","ping":78},{"user_id":57,"name":"Discourse","steam_id":76561198984286678,"connected_time":1919000000000,"state":"active","ping":54},{"user_id":67,"name":"Toblerone","steam_id":76561198057374871,"connected_time":859000000000,"state":"active","ping":60},{"user_id":60,"name":"MoonWolf","steam_id":76561198095735033,"connected_time":1525000000000,"state":"active","ping":77},{"user_id":48,"name":"Gaming123","steam_id":76561198801780168,"connected_time":2145000000000,"state":"active","ping":71},{"user_id":51,"name":"YaGirlVann","steam_id":76561199257900151,"connected_time":2015000000000,"state":"active","ping":80},{"user_id":52,"name":"TrashBoat","steam_id":76561199089671432,"connected_time":2002000000000,"state":"active","ping":96},{"user_id":53,"name":"OrionCurtis5","steam_id":76561198105386748,"connected_time":1990000000000,"state":"active","ping":94},{"user_id":54,"name":"Lesser Edgelord","steam_id":76561198800339067,"connected_time":1986000000000,"state":"active","ping":133},{"user_id":55,"name":"GRONT","steam_id":76561198040464533,"connected_time":1972000000000,"state":"active","ping":78},{"user_id":72,"name":"Bean0914","steam_id":76561198261906023,"connected_time":709000000000,"state":"active","ping":89},{"user_id":73,"name":"frostedflakes99","steam_id":76561199049292578,"connected_time":701000000000,"state":"active","ping":105}]},{"server_id":403,"name":"Uncletopia | Chicago | 4 | All Maps","name_short":"chi-4","host":"chi-1.us.uncletopia.com","port":27045,"enabled":true,"region":"us-central","cc":"us","latitude":41.881832,"longitude":-87.62318,"reserved":0,"last_update":"0001-01-01T00:00:00Z","name_a2s":"Uncletopia | Chicago | 4 | All Maps","protocol":17,"map":"cp_dustbowl","folder":"tf","game":"Team Fortress","app_id":440,"player_count":22,"max_players":24,"Bots":0,"server_type":"Dedicated","server_os":"Linux","password":true,"vac":true,"version":"7932396","steam_id":85568392924515193,"keywords":["cp","nocrits","nodmgspread","uncletopia"],"game_id":440,"stv_port":27046,"stv_name":"Uncletopia | Chicago | 4 | All Maps | STV","players":[{"user_id":240,"name":"squirtle","steam_id":76561198211451045,"connected_time":168000000000,"state":"active","ping":77},{"user_id":250,"name":"That wasn't milk","steam_id":76561198155294045,"connected_time":99000000000,"state":"active","ping":76},{"user_id":221,"name":"mel0n","steam_id":76561198034817244,"connected_time":1672000000000,"state":"active","ping":60},{"user_id":223,"name":"Sandman","steam_id":76561199046497884,"connected_time":1637000000000,"state":"active","ping":70},{"user_id":242,"name":"senorpapel","steam_id":76561198040507073,"connected_time":154000000000,"state":"active","ping":69},{"user_id":225,"name":"A CLASSIC BLUNDER","steam_id":76561198195141221,"connected_time":1264000000000,"state":"active","ping":95},{"user_id":241,"name":"duneblaster0","steam_id":76561198040364680,"connected_time":167000000000,"state":"active","ping":45},{"user_id":243,"name":"strangedeath","steam_id":76561198154159297,"connected_time":152000000000,"state":"active","ping":72},{"user_id":238,"name":"Dog Goggles","steam_id":76561197995233692,"connected_time":667000000000,"state":"active","ping":83},{"user_id":245,"name":"Gay Heathcliff","steam_id":76561198044288534,"connected_time":141000000000,"state":"active","ping":93},{"user_id":185,"name":"MaineGameBoy","steam_id":76561198278698726,"connected_time":4119000000000,"state":"active","ping":108},{"user_id":251,"name":"Dude Named Bob","steam_id":76561198310448093,"connected_time":28000000000,"state":"active","ping":45},{"user_id":204,"name":"SanitysEdge","steam_id":76561198130732813,"connected_time":2128000000000,"state":"active","ping":103},{"user_id":236,"name":"Wess","steam_id":76561198302735017,"connected_time":851000000000,"state":"active","ping":59},{"user_id":247,"name":"Willem Dafoe","steam_id":76561198037453253,"connected_time":126000000000,"state":"active","ping":58},{"user_id":147,"name":"minty","steam_id":76561198096347625,"connected_time":6192000000000,"state":"active","ping":75},{"user_id":248,"name":"george washington","steam_id":76561199210541615,"connected_time":119000000000,"state":"active","ping":87},{"user_id":249,"name":"bluehoodie77","steam_id":76561199441768573,"connected_time":115000000000,"state":"active","ping":87},{"user_id":237,"name":"Jezzus","steam_id":76561199289676387,"connected_time":849000000000,"state":"active","ping":74},{"user_id":166,"name":"Ejaculation Zach","steam_id":76561198203765200,"connected_time":4903000000000,"state":"active","ping":59},{"user_id":191,"name":"pele","steam_id":76561198021224745,"connected_time":2899000000000,"state":"active","ping":59},{"user_id":210,"name":"skooma_consuma","steam_id":76561197974009843,"connected_time":1961000000000,"state":"active","ping":60}]},{"server_id":36,"name":"Uncletopia | Chicago | 5 | All Maps","name_short":"chi-5","host":"chi-2.us.uncletopia.com","port":27015,"enabled":true,"region":"us-central","cc":"us","latitude":41.881832,"longitude":-87.62318,"reserved":0,"last_update":"0001-01-01T00:00:00Z","name_a2s":"Uncletopia | Chicago | 5 | All Maps","protocol":17,"map":"cp_process_final","folder":"tf","game":"Team Fortress","app_id":440,"player_count":24,"max_players":24,"Bots":0,"server_type":"Dedicated","server_os":"Linux","password":true,"vac":true,"version":"7932396","steam_id":85568392924866362,"keywords":["cp","nocrits","nodmgspread","uncletopia"],"game_id":440,"stv_port":27016,"stv_name":"Uncletopia | Chicago | 5 | All Maps | STV","players":[{"user_id":557,"name":"◥(◥▶_◀◤)◤","steam_id":76561198007464245,"connected_time":1168000000000,"state":"active","ping":75},{"user_id":558,"name":"imng","steam_id":76561198014988031,"connected_time":1145000000000,"state":"active","ping":75},{"user_id":556,"name":"Captain Dusk","steam_id":76561199093333752,"connected_time":1212000000000,"state":"active","ping":79},{"user_id":534,"name":"novu","steam_id":76561198886997024,"connected_time":2899000000000,"state":"active","ping":91},{"user_id":577,"name":"ATL1 | SparkStorm","steam_id":76561198095817025,"connected_time":40000000000,"state":"active","ping":49},{"user_id":519,"name":"Epifiny","steam_id":76561198027958086,"connected_time":3701000000000,"state":"active","ping":71},{"user_id":560,"name":"Awenova","steam_id":76561198322928940,"connected_time":1084000000000,"state":"active","ping":59},{"user_id":511,"name":"Mr. Luggy","steam_id":76561198072723392,"connected_time":4489000000000,"state":"active","ping":90},{"user_id":569,"name":"Domino's App ft. Hatsune Miku","steam_id":76561198073853955,"connected_time":800000000000,"state":"active","ping":100},{"user_id":573,"name":"checkswing","steam_id":76561198999816132,"connected_time":492000000000,"state":"active","ping":81},{"user_id":510,"name":"Mephistopheles","steam_id":76561198253731826,"connected_time":4858000000000,"state":"active","ping":70},{"user_id":571,"name":"The_RainbowTrout","steam_id":76561199309554436,"connected_time":755000000000,"state":"active","ping":91},{"user_id":564,"name":"Hayd3nQ","steam_id":76561198124849736,"connected_time":1022000000000,"state":"active","ping":90},{"user_id":525,"name":"aiden","steam_id":76561198449527009,"connected_time":3423000000000,"state":"active","ping":105},{"user_id":521,"name":"the animals are leaving","steam_id":76561198043873119,"connected_time":3452000000000,"state":"active","ping":65},{"user_id":574,"name":"Ice dispenser(real)","steam_id":76561198298310744,"connected_time":465000000000,"state":"active","ping":67},{"user_id":576,"name":"jeckatk","steam_id":76561198848930696,"connected_time":166000000000,"state":"active","ping":62},{"user_id":547,"name":"wfaawj8f09h308fa","steam_id":76561198165212575,"connected_time":2138000000000,"state":"active","ping":75},{"user_id":566,"name":"Rhutebeer","steam_id":76561198018302761,"connected_time":998000000000,"state":"active","ping":100},{"user_id":503,"name":"yomo","steam_id":76561198063175935,"connected_time":5663000000000,"state":"active","ping":75},{"user_id":514,"name":"nelly modelo","steam_id":76561198044875206,"connected_time":4239000000000,"state":"active","ping":98},{"user_id":529,"name":"ly_dee","steam_id":76561198074956732,"connected_time":3395000000000,"state":"active","ping":136},{"user_id":418,"name":"we're so back","steam_id":76561198058485742,"connected_time":10966000000000,"state":"active","ping":64},{"user_id":542,"name":"g00bur","steam_id":76561197993622520,"connected_time":2232000000000,"state":"active","ping":72}]},{"server_id":37,"name":"Uncletopia | Chicago | 6 | All Maps","name_short":"chi-6","host":"chi-2.us.uncletopia.com","port":27025,"enabled":true,"region":"us-central","cc":"us","latitude":41.881832,"longitude":-87.62318,"reserved":0,"last_update":"0001-01-01T00:00:00Z","name_a2s":"Uncletopia | Chicago | 6 | All Maps","protocol":17,"map":"pl_borneo","folder":"tf","game":"Team Fortress","app_id":440,"player_count":3,"max_players":24,"Bots":0,"server_type":"Dedicated","server_os":"Linux","password":true,"vac":true,"version":"7932396","steam_id":85568392924866363,"keywords":["nocrits","nodmgspread","payload","uncletopia"],"game_id":440,"stv_port":27026,"stv_name":"Uncletopia | Chicago | 6 | All Maps | STV","players":[{"user_id":23,"name":"dnaak","steam_id":76561197960489193,"connected_time":614000000000,"state":"active","ping":44},{"user_id":22,"name":"LeadHickory","steam_id":76561198219756521,"connected_time":730000000000,"state":"active","ping":84},{"user_id":27,"name":"jras","steam_id":76561198159797901,"connected_time":79000000000,"state":"active","ping":65}]},{"server_id":38,"name":"Uncletopia | Chicago | 7 | Stopwatch Beta","name_short":"chi-7","host":"chi-2.us.uncletopia.com","port":27035,"enabled":true,"region":"us-central","cc":"us","latitude":41.881832,"longitude":-87.62318,"reserved":0,"last_update":"0001-01-01T00:00:00Z","name_a2s":"Uncletopia | Chicago | 7 | Stopwatch Beta","protocol":17,"map":"pl_borneo","folder":"tf","game":"Team Fortress","app_id":440,"player_count":0,"max_players":24,"Bots":0,"server_type":"Dedicated","server_os":"Linux","password":true,"vac":true,"version":"7932396","steam_id":85568392924866364,"keywords":["nocrits","nodmgspread","payload","uncletopia"],"game_id":440,"stv_port":27036,"stv_name":"Uncletopia | Chicago | 7 | Stopwatch Beta | STV","players":null},{"server_id":39,"name":"Uncletopia | Chicago | 8 | Community","name_short":"chi-8","host":"chi-2.us.uncletopia.com","port":27045,"enabled":true,"region":"us-central","cc":"us","latitude":41.881832,"longitude":-87.62318,"reserved":0,"last_update":"0001-01-01T00:00:00Z","name_a2s":"Uncletopia | Chicago | 8 | Community","protocol":17,"map":"workshop/pl_badwater_pro_v12.ugc2142942074","folder":"tf","game":"Team Fortress","app_id":440,"player_count":24,"max_players":24,"Bots":0,"server_type":"Dedicated","server_os":"Linux","password":true,"vac":true,"version":"7932396","steam_id":85568392924866365,"keywords":["nocrits","nodmgspread","payload","uncletopia"],"game_id":440,"stv_port":27046,"stv_name":"Uncletopia | Chicago | 8 | Community | STV","players":[{"user_id":98,"name":"Grilled Jizo","steam_id":76561199250875340,"connected_time":170000000000,"state":"active","ping":75},{"user_id":99,"name":"White_Wizard_Named_Corona","steam_id":76561198055652735,"connected_time":116000000000,"state":"active","ping":98},{"user_id":100,"name":"Frontier Psychiatrist","steam_id":76561198038689088,"connected_time":36000000000,"state":"active","ping":92},{"user_id":66,"name":"Poberl","steam_id":76561198823051158,"connected_time":1877000000000,"state":"active","ping":58},{"user_id":88,"name":"Strangelove","steam_id":76561198353773611,"connected_time":873000000000,"state":"active","ping":85},{"user_id":67,"name":"all toasters toast toast","steam_id":76561198140846580,"connected_time":1800000000000,"state":"active","ping":71},{"user_id":84,"name":"Nortel Network Telephone T7316","steam_id":76561198399261089,"connected_time":1022000000000,"state":"active","ping":89},{"user_id":69,"name":"AudaCD","steam_id":76561198202775853,"connected_time":1775000000000,"state":"active","ping":61},{"user_id":90,"name":"Huntpk","steam_id":76561198340591674,"connected_time":801000000000,"state":"active","ping":37},{"user_id":97,"name":"npc energy","steam_id":76561198035342207,"connected_time":236000000000,"state":"active","ping":46},{"user_id":58,"name":"OATS | ChromeBroke","steam_id":76561198325403141,"connected_time":2592000000000,"state":"active","ping":71},{"user_id":59,"name":"Hindmost","steam_id":76561199081837220,"connected_time":2462000000000,"state":"active","ping":84},{"user_id":96,"name":"Skeleton Hotel","steam_id":76561198041704727,"connected_time":369000000000,"state":"active","ping":54},{"user_id":71,"name":"BluCoffee","steam_id":76561198214995967,"connected_time":1752000000000,"state":"active","ping":74},{"user_id":72,"name":"goblin tf2","steam_id":76561198033073709,"connected_time":1746000000000,"state":"active","ping":70},{"user_id":62,"name":"vbatalon888","steam_id":76561199097761803,"connected_time":2363000000000,"state":"active","ping":75},{"user_id":73,"name":"INFINITE","steam_id":76561197971285557,"connected_time":1741000000000,"state":"active","ping":70},{"user_id":74,"name":"CORONA™ and friends","steam_id":76561198342011115,"connected_time":1735000000000,"state":"active","ping":65},{"user_id":92,"name":"gorf?","steam_id":76561198142286417,"connected_time":630000000000,"state":"active","ping":56},{"user_id":91,"name":"Sqiddwr","steam_id":76561197998071622,"connected_time":756000000000,"state":"active","ping":82},{"user_id":82,"name":"Killerkarate","steam_id":76561198067533929,"connected_time":1386000000000,"state":"active","ping":55},{"user_id":78,"name":"rawrski","steam_id":76561197972464020,"connected_time":1672000000000,"state":"active","ping":72},{"user_id":95,"name":"the Curse of El Capitau","steam_id":76561198080085454,"connected_time":470000000000,"state":"active","ping":121},{"user_id":87,"name":"JohnnyGitGud","steam_id":76561198401455467,"connected_time":947000000000,"state":"active","ping":118}]},{"server_id":8,"name":"Uncletopia | Dallas | 1 | All Maps","name_short":"dal-1","host":"dal-1.us.uncletopia.com","port":27015,"enabled":true,"region":"us-central","cc":"us","latitude":32.779167,"longitude":-96.80889,"reserved":0,"last_update":"0001-01-01T00:00:00Z","name_a2s":"Uncletopia | Dallas | 1 | All Maps","protocol":17,"map":"pl_barnblitz","folder":"tf","game":"Team Fortress","app_id":440,"player_count":23,"max_players":24,"Bots":0,"server_type":"Dedicated","server_os":"Linux","password":true,"vac":true,"version":"7932396","steam_id":85568392924469986,"keywords":["nocrits","nodmgspread","payload","uncletopia"],"game_id":440,"stv_port":27016,"stv_name":"Uncletopia | Dallas | 1 | All Maps | STV","players":[{"user_id":612,"name":"gadisboss","steam_id":76561198301704975,"connected_time":316000000000,"state":"active","ping":71},{"user_id":587,"name":"._.","steam_id":76561198064255155,"connected_time":2521000000000,"state":"active","ping":64},{"user_id":617,"name":"GreenApples","steam_id":76561198120559543,"connected_time":234000000000,"state":"active","ping":86},{"user_id":601,"name":"Mehman","steam_id":76561199020244051,"connected_time":1970000000000,"state":"active","ping":107},{"user_id":511,"name":"Moonflower ✦","steam_id":76561198191782483,"connected_time":9021000000000,"state":"active","ping":50},{"user_id":569,"name":"Sup m8","steam_id":76561198081659121,"connected_time":3847000000000,"state":"active","ping":32},{"user_id":562,"name":"fleepore (:","steam_id":76561199238295034,"connected_time":4102000000000,"state":"active","ping":71},{"user_id":582,"name":"Acolyte Of Pain","steam_id":76561198143094194,"connected_time":3563000000000,"state":"active","ping":93},{"user_id":606,"name":"Bush.exe","steam_id":76561198124385307,"connected_time":1162000000000,"state":"active","ping":90},{"user_id":591,"name":"{ST} Oxythemoron","steam_id":76561198060089965,"connected_time":2363000000000,"state":"active","ping":50},{"user_id":621,"name":"Boredbombknight","steam_id":76561199124037552,"connected_time":67000000000,"state":"active","ping":79},{"user_id":618,"name":"Kosmo","steam_id":76561198079015843,"connected_time":107000000000,"state":"active","ping":59},{"user_id":603,"name":"Stillkill","steam_id":76561198065069057,"connected_time":1696000000000,"state":"active","ping":43},{"user_id":602,"name":"JimJee","steam_id":76561199120656064,"connected_time":1960000000000,"state":"active","ping":63},{"user_id":620,"name":"BeanBearpoproni","steam_id":76561198996236942,"connected_time":73000000000,"state":"active","ping":126},{"user_id":613,"name":"chiswola","steam_id":76561198046920142,"connected_time":306000000000,"state":"active","ping":98},{"user_id":611,"name":"Propaniac Gaming ☑","steam_id":76561198133963270,"connected_time":321000000000,"state":"active","ping":54},{"user_id":614,"name":"Jercer | RGL.gg","steam_id":76561198123971694,"connected_time":296000000000,"state":"active","ping":61},{"user_id":605,"name":"FanaticSalt","steam_id":76561199380123059,"connected_time":1192000000000,"state":"active","ping":42},{"user_id":596,"name":"dweamy","steam_id":76561198119181880,"connected_time":2312000000000,"state":"active","ping":60},{"user_id":604,"name":"moe","steam_id":76561198929586245,"connected_time":1655000000000,"state":"active","ping":80},{"user_id":607,"name":"Tan_Rat","steam_id":76561198313629344,"connected_time":620000000000,"state":"active","ping":73},{"user_id":616,"name":"K) Mazin","steam_id":76561198003419146,"connected_time":287000000000,"state":"active","ping":80}]},{"server_id":108,"name":"Uncletopia | Dallas | 2 | All Maps","name_short":"dal-2","host":"dal-1.us.uncletopia.com","port":27025,"enabled":true,"region":"us-central","cc":"us","latitude":32.779167,"longitude":-96.80889,"reserved":0,"last_update":"0001-01-01T00:00:00Z","name_a2s":"Uncletopia | Dallas | 2 | All Maps","protocol":17,"map":"pl_frontier_final","folder":"tf","game":"Team Fortress","app_id":440,"player_count":24,"max_players":24,"Bots":0,"server_type":"Dedicated","server_os":"Linux","password":true,"vac":true,"version":"7932396","steam_id":85568392924469988,"keywords":["nocrits","nodmgspread","payload","uncletopia"],"game_id":440,"stv_port":27026,"stv_name":"Uncletopia | Dallas | 2 | All Maps | STV","players":[{"user_id":204,"name":"Solider Sentry","steam_id":76561198412786186,"connected_time":2250000000000,"state":"active","ping":61},{"user_id":217,"name":"Eins","steam_id":76561199030343810,"connected_time":1767000000000,"state":"active","ping":57},{"user_id":218,"name":"Ellis gaming","steam_id":76561199122336760,"connected_time":1758000000000,"state":"active","ping":64},{"user_id":208,"name":"[DEEP] Roz257","steam_id":76561198842844532,"connected_time":1959000000000,"state":"active","ping":98},{"user_id":236,"name":"brains","steam_id":76561198197388678,"connected_time":48000000000,"state":"active","ping":75},{"user_id":227,"name":"._.","steam_id":76561198820617005,"connected_time":888000000000,"state":"active","ping":117},{"user_id":192,"name":"DiscoTraveler","steam_id":76561199240168088,"connected_time":3297000000000,"state":"active","ping":79},{"user_id":223,"name":"cypherzero","steam_id":76561199182960322,"connected_time":1049000000000,"state":"active","ping":53},{"user_id":228,"name":"Naldo","steam_id":76561198121273420,"connected_time":834000000000,"state":"active","ping":99},{"user_id":219,"name":"Howl","steam_id":76561198199217834,"connected_time":1252000000000,"state":"active","ping":103},{"user_id":229,"name":"Orange Triangle","steam_id":76561198320498182,"connected_time":825000000000,"state":"active","ping":80},{"user_id":211,"name":"Pringles","steam_id":76561198170085170,"connected_time":1870000000000,"state":"active","ping":58},{"user_id":226,"name":"Uncle Boozy","steam_id":76561198301054092,"connected_time":905000000000,"state":"active","ping":48},{"user_id":225,"name":"SaaxoM","steam_id":76561198208256603,"connected_time":1005000000000,"state":"active","ping":85},{"user_id":196,"name":"*‧˚kitsu ʚ♥ɞ","steam_id":76561198091741658,"connected_time":2925000000000,"state":"active","ping":61},{"user_id":230,"name":"Shalom","steam_id":76561198410005222,"connected_time":820000000000,"state":"active","ping":62},{"user_id":237,"name":"green demon","steam_id":76561198203353732,"connected_time":7000000000,"state":"spawning","ping":63},{"user_id":233,"name":"lynt","steam_id":76561198988333976,"connected_time":676000000000,"state":"active","ping":65},{"user_id":198,"name":"Unreliable Narrator","steam_id":76561198021303959,"connected_time":2877000000000,"state":"active","ping":83},{"user_id":207,"name":"TheBambiTrain","steam_id":76561198152514929,"connected_time":1969000000000,"state":"active","ping":84},{"user_id":222,"name":"Lemon","steam_id":76561198119362095,"connected_time":1116000000000,"state":"active","ping":72},{"user_id":215,"name":"DoofLord","steam_id":76561198073140033,"connected_time":1822000000000,"state":"active","ping":74},{"user_id":234,"name":"Captain Jack Harkness","steam_id":76561199390353195,"connected_time":379000000000,"state":"active","ping":79},{"user_id":185,"name":"I'mWalkerHere","steam_id":76561199310055450,"connected_time":3702000000000,"state":"active","ping":98}]},{"server_id":5,"name":"Uncletopia | Frankfurt | 1 | All Maps","name_short":"frk-1","host":"frk-1.de.uncletopia.com","port":27015,"enabled":true,"region":"eu","cc":"de","latitude":50.110924,"longitude":8.682127,"reserved":0,"last_update":"0001-01-01T00:00:00Z","name_a2s":"Uncletopia | Frankfurt | 1 | All Maps","protocol":17,"map":"pl_swiftwater_final1","folder":"tf","game":"Team Fortress","app_id":440,"player_count":20,"max_players":24,"Bots":0,"server_type":"Dedicated","server_os":"Linux","password":true,"vac":true,"version":"7932396","steam_id":85568392924469989,"keywords":["nocrits","nodmgspread","payload","uncletopia"],"game_id":440,"stv_port":27016,"stv_name":"Uncletopia | Frankfurt | 1 | All Maps | STV","players":[{"user_id":570,"name":"Raven","steam_id":76561198036076305,"connected_time":1573000000000,"state":"active","ping":55},{"user_id":567,"name":"GlitchyFazSFM","steam_id":76561198451902812,"connected_time":1733000000000,"state":"active","ping":165},{"user_id":585,"name":"GoatLord1","steam_id":76561198157964544,"connected_time":581000000000,"state":"active","ping":66},{"user_id":547,"name":"enter","steam_id":76561198048374516,"connected_time":2711000000000,"state":"active","ping":125},{"user_id":568,"name":"obi☭","steam_id":76561198040154461,"connected_time":1723000000000,"state":"active","ping":75},{"user_id":587,"name":"Portal2Player","steam_id":76561198062870114,"connected_time":107000000000,"state":"active","ping":165},{"user_id":591,"name":"Dr.Disrespect","steam_id":76561198043820228,"connected_time":80000000000,"state":"active","ping":45},{"user_id":513,"name":"woop","steam_id":76561198985105074,"connected_time":4299000000000,"state":"active","ping":77},{"user_id":593,"name":"Qwerty","steam_id":76561198023525894,"connected_time":67000000000,"state":"active","ping":87},{"user_id":572,"name":"CombustionNation","steam_id":76561198138212388,"connected_time":1511000000000,"state":"active","ping":56},{"user_id":584,"name":"Cabbch","steam_id":76561198045955679,"connected_time":643000000000,"state":"active","ping":53},{"user_id":586,"name":"JugoTopia","steam_id":76561197996067209,"connected_time":460000000000,"state":"active","ping":117},{"user_id":575,"name":"Larry Penus","steam_id":76561198207546233,"connected_time":1368000000000,"state":"active","ping":59},{"user_id":560,"name":"avalon","steam_id":76561198003212528,"connected_time":2114000000000,"state":"active","ping":60},{"user_id":592,"name":"avnya","steam_id":76561198863728032,"connected_time":76000000000,"state":"active","ping":79},{"user_id":543,"name":"Monsteh","steam_id":76561198325898181,"connected_time":2975000000000,"state":"active","ping":69},{"user_id":589,"name":"nymph","steam_id":76561199249569889,"connected_time":96000000000,"state":"active","ping":60},{"user_id":590,"name":"duped","steam_id":76561199003445591,"connected_time":94000000000,"state":"active","ping":45},{"user_id":580,"name":"[HOL] Solringen","steam_id":76561198003584681,"connected_time":1207000000000,"state":"active","ping":71}]},{"server_id":110,"name":"Uncletopia | Frankfurt | 2 | All Maps","name_short":"frk-2","host":"frk-1.de.uncletopia.com","port":27025,"enabled":true,"region":"eu","cc":"de","latitude":50.110924,"longitude":8.682127,"reserved":0,"last_update":"0001-01-01T00:00:00Z","name_a2s":"Uncletopia | Frankfurt | 2 | All Maps","protocol":17,"map":"pl_frontier_final","folder":"tf","game":"Team Fortress","app_id":440,"player_count":0,"max_players":24,"Bots":0,"server_type":"Dedicated","server_os":"Linux","password":true,"vac":true,"version":"7932396","steam_id":85568392924469990,"keywords":["nocrits","nodmgspread","payload","uncletopia"],"game_id":440,"stv_port":27026,"stv_name":"Uncletopia | Frankfurt | 2 | All Maps | STV","players":null},{"server_id":308,"name":"Uncletopia | Frankfurt | 3 | All Maps","name_short":"frk-3","host":"frk-1.de.uncletopia.com","port":27035,"enabled":true,"region":"eu","cc":"de","latitude":50.110924,"longitude":8.682127,"reserved":0,"last_update":"0001-01-01T00:00:00Z","name_a2s":"Uncletopia | Frankfurt | 3 | All Maps","protocol":17,"map":"pl_frontier_final","folder":"tf","game":"Team Fortress","app_id":440,"player_count":0,"max_players":24,"Bots":0,"server_type":"Dedicated","server_os":"Linux","password":true,"vac":true,"version":"7932396","steam_id":85568392924504274,"keywords":["nocrits","nodmgspread","payload","uncletopia"],"game_id":440,"stv_port":27036,"stv_name":"Uncletopia | Frankfurt | 3 | All Maps | STV","players":null},{"server_id":309,"name":"Uncletopia | Frankfurt | 4 | All Maps","name_short":"frk-4","host":"frk-1.de.uncletopia.com","port":27045,"enabled":true,"region":"eu","cc":"de","latitude":50.110924,"longitude":8.682127,"reserved":0,"last_update":"0001-01-01T00:00:00Z","name_a2s":"Uncletopia | Frankfurt | 4 | All Maps","protocol":17,"map":"pl_upward","folder":"tf","game":"Team Fortress","app_id":440,"player_count":24,"max_players":24,"Bots":0,"server_type":"Dedicated","server_os":"Linux","password":true,"vac":true,"version":"7932396","steam_id":85568392924504275,"keywords":["nocrits","nodmgspread","payload","uncletopia"],"game_id":440,"stv_port":27046,"stv_name":"Uncletopia | Frankfurt | 4 | All Maps | STV","players":[{"user_id":748,"name":"cuddle","steam_id":76561198805181599,"connected_time":2474000000000,"state":"active","ping":65},{"user_id":752,"name":"asdqwer","steam_id":76561198058312220,"connected_time":1851000000000,"state":"active","ping":60},{"user_id":767,"name":"rocky","steam_id":76561198162392569,"connected_time":357000000000,"state":"active","ping":147},{"user_id":722,"name":"Critical","steam_id":76561198000772038,"connected_time":4405000000000,"state":"active","ping":100},{"user_id":761,"name":"Labia in Fishnets","steam_id":76561198061382104,"connected_time":1073000000000,"state":"active","ping":62},{"user_id":775,"name":"meow (they/them)","steam_id":76561198416657815,"connected_time":83000000000,"state":"active","ping":79},{"user_id":704,"name":"Teathling","steam_id":76561198061580505,"connected_time":6456000000000,"state":"active","ping":53},{"user_id":766,"name":"Etherhel","steam_id":76561198838449544,"connected_time":418000000000,"state":"active","ping":84},{"user_id":768,"name":"THE CLUELESS CLOWN","steam_id":76561198246990590,"connected_time":260000000000,"state":"active","ping":50},{"user_id":769,"name":"♥ Emma ♥","steam_id":76561198046796406,"connected_time":229000000000,"state":"active","ping":45},{"user_id":774,"name":"Dropper","steam_id":76561198161519416,"connected_time":103000000000,"state":"active","ping":88},{"user_id":776,"name":"can u do sum for me","steam_id":76561198132723577,"connected_time":77000000000,"state":"active","ping":82},{"user_id":770,"name":"Vitamin Weee","steam_id":76561199183937747,"connected_time":213000000000,"state":"active","ping":83},{"user_id":778,"name":"dd","steam_id":76561198257836694,"connected_time":67000000000,"state":"active","ping":45},{"user_id":779,"name":"rodeybodey","steam_id":76561198165351355,"connected_time":64000000000,"state":"active","ping":92},{"user_id":751,"name":"BUREK od Sira","steam_id":76561198092589818,"connected_time":2195000000000,"state":"active","ping":74},{"user_id":739,"name":"誰かが見ている","steam_id":76561198834913692,"connected_time":3730000000000,"state":"active","ping":69},{"user_id":780,"name":"NotChloe","steam_id":76561198080658092,"connected_time":34000000000,"state":"active","ping":76},{"user_id":771,"name":"Joetf2 -iwnl- FRAGMASTERS","steam_id":76561198097712283,"connected_time":146000000000,"state":"active","ping":89},{"user_id":740,"name":"when you sleep","steam_id":76561198028164246,"connected_time":3360000000000,"state":"active","ping":66},{"user_id":765,"name":"playerarda04","steam_id":76561198923648132,"connected_time":511000000000,"state":"active","ping":115},{"user_id":732,"name":"Naxz Dendenz","steam_id":76561198015804604,"connected_time":4210000000000,"state":"active","ping":85},{"user_id":762,"name":"KNNTX","steam_id":76561198161313074,"connected_time":846000000000,"state":"active","ping":101},{"user_id":733,"name":"SeaKane","steam_id":76561198165453318,"connected_time":4171000000000,"state":"active","ping":50}]},{"server_id":310,"name":"Uncletopia | Frankfurt | 5 | All Maps","name_short":"frk-5","host":"frk-1.de.uncletopia.com","port":27055,"enabled":true,"region":"eu","cc":"de","latitude":50.110924,"longitude":8.682127,"reserved":0,"last_update":"0001-01-01T00:00:00Z","name_a2s":"Uncletopia | Frankfurt | 5 | All Maps","protocol":17,"map":"cp_altitude","folder":"tf","game":"Team Fortress","app_id":440,"player_count":0,"max_players":24,"Bots":0,"server_type":"Dedicated","server_os":"Linux","password":true,"vac":true,"version":"7932396","steam_id":85568392924504277,"keywords":["cp","nocrits","nodmgspread","uncletopia"],"game_id":440,"stv_port":27056,"stv_name":"Uncletopia | Frankfurt | 5 | All Maps | STV","players":null},{"server_id":311,"name":"Uncletopia | Frankfurt | 6 | All Maps","name_short":"frk-6","host":"frk-1.de.uncletopia.com","port":27065,"enabled":true,"region":"eu","cc":"de","latitude":50.110924,"longitude":8.682127,"reserved":0,"last_update":"0001-01-01T00:00:00Z","name_a2s":"Uncletopia | Frankfurt | 6 | All Maps","protocol":17,"map":"koth_viaduct","folder":"tf","game":"Team Fortress","app_id":440,"player_count":0,"max_players":24,"Bots":0,"server_type":"Dedicated","server_os":"Linux","password":true,"vac":true,"version":"7932396","steam_id":85568392924504278,"keywords":["cp","nocrits","nodmgspread","uncletopia"],"game_id":440,"stv_port":27066,"stv_name":"Uncletopia | Frankfurt | 6 | All Maps | STV","players":null},{"server_id":23,"name":"Uncletopia | Frankfurt | 7 | Stopwatch Beta","name_short":"frk-7","host":"frk-1.de.uncletopia.com","port":27075,"enabled":true,"region":"eu","cc":"de","latitude":50.110924,"longitude":8.682127,"reserved":0,"last_update":"0001-01-01T00:00:00Z","name_a2s":"Uncletopia | Frankfurt | 7 | Stopwatch Beta","protocol":17,"map":"pl_snowycoast","folder":"tf","game":"Team Fortress","app_id":440,"player_count":0,"max_players":24,"Bots":0,"server_type":"Dedicated","server_os":"Linux","password":true,"vac":true,"version":"7932396","steam_id":85568392924742827,"keywords":["nocrits","nodmgspread","payload","uncletopia"],"game_id":440,"stv_port":27076,"stv_name":"Uncletopia | Frankfurt | 7 | Stopwatch Beta | STV","players":null},{"server_id":24,"name":"Uncletopia | Frankfurt | 8 | Community","name_short":"frk-8","host":"frk-1.de.uncletopia.com","port":27085,"enabled":true,"region":"eu","cc":"de","latitude":50.110924,"longitude":8.682127,"reserved":0,"last_update":"0001-01-01T00:00:00Z","name_a2s":"Uncletopia | Frankfurt | 8 | Community","protocol":17,"map":"workshop/cp_alloy_rc3.ugc592805587","folder":"tf","game":"Team Fortress","app_id":440,"player_count":0,"max_players":24,"Bots":0,"server_type":"Dedicated","server_os":"Linux","password":true,"vac":true,"version":"7932396","steam_id":85568392924742828,"keywords":["cp","nocrits","nodmgspread","uncletopia"],"game_id":440,"stv_port":27086,"stv_name":"Uncletopia | Frankfurt | 8 | Community | STV","players":null},{"server_id":202,"name":"Uncletopia | Hong Kong | 1 | All Maps","name_short":"hgk-1","host":"hgk-1.hk.uncletopia.com","port":27015,"enabled":true,"region":"asia","cc":"hk","latitude":22.302711,"longitude":114.177216,"reserved":0,"last_update":"0001-01-01T00:00:00Z","name_a2s":"Uncletopia | Hong Kong | 1 | All Maps","protocol":17,"map":"cp_altitude","folder":"tf","game":"Team Fortress","app_id":440,"player_count":0,"max_players":24,"Bots":0,"server_type":"Dedicated","server_os":"Linux","password":true,"vac":true,"version":"7932396","steam_id":85568392924494504,"keywords":["cp","nocrits","nodmgspread","uncletopia"],"game_id":440,"stv_port":27016,"stv_name":"Uncletopia | Hong Kong | 1 | All Maps | STV","players":null},{"server_id":1,"name":"Uncletopia | Los Angeles | 1 | All Maps","name_short":"lax-1","host":"lax-1.us.uncletopia.com","port":27015,"enabled":true,"region":"us-west","cc":"us","latitude":33.94279,"longitude":-118.41004,"reserved":0,"last_update":"0001-01-01T00:00:00Z","name_a2s":"Uncletopia | Los Angeles | 1 | All Maps","protocol":17,"map":"pl_frontier_final","folder":"tf","game":"Team Fortress","app_id":440,"player_count":24,"max_players":24,"Bots":0,"server_type":"Dedicated","server_os":"Linux","password":true,"vac":true,"version":"7932396","steam_id":85568392924469991,"keywords":["nocrits","nodmgspread","payload","uncletopia"],"game_id":440,"stv_port":27016,"stv_name":"Uncletopia | Los Angeles | 1 | All Maps | STV","players":[{"user_id":161,"name":"normal","steam_id":76561198133712839,"connected_time":3103000000000,"state":"active","ping":102},{"user_id":132,"name":"cockroach massive","steam_id":76561198011675372,"connected_time":5131000000000,"state":"active","ping":85},{"user_id":173,"name":"nat","steam_id":76561198179923093,"connected_time":1631000000000,"state":"active","ping":45},{"user_id":196,"name":"Sgt. Eclair","steam_id":76561198156384194,"connected_time":426000000000,"state":"active","ping":47},{"user_id":190,"name":"DamienIsAsian","steam_id":76561198228819444,"connected_time":1010000000000,"state":"active","ping":66},{"user_id":176,"name":"Elfy","steam_id":76561199166448617,"connected_time":1571000000000,"state":"active","ping":83},{"user_id":158,"name":"NotAWeeb","steam_id":76561198165530739,"connected_time":3121000000000,"state":"active","ping":52},{"user_id":197,"name":"Zigadox","steam_id":76561198079813479,"connected_time":384000000000,"state":"active","ping":119},{"user_id":198,"name":"..flop","steam_id":76561197989058876,"connected_time":367000000000,"state":"active","ping":68},{"user_id":191,"name":"Cagnus Marlsen","steam_id":76561198063341193,"connected_time":1004000000000,"state":"active","ping":75},{"user_id":172,"name":"coolbust carti","steam_id":76561198065384345,"connected_time":1970000000000,"state":"active","ping":54},{"user_id":193,"name":"Metal Mouse","steam_id":76561198271975696,"connected_time":931000000000,"state":"active","ping":52},{"user_id":202,"name":"IanFishooks","steam_id":76561199403427527,"connected_time":167000000000,"state":"active","ping":121},{"user_id":179,"name":"Gazelle","steam_id":76561198336397088,"connected_time":1466000000000,"state":"active","ping":60},{"user_id":180,"name":"blossom","steam_id":76561198042735130,"connected_time":1368000000000,"state":"active","ping":84},{"user_id":181,"name":"Wagemage","steam_id":76561198013625580,"connected_time":1336000000000,"state":"active","ping":95},{"user_id":182,"name":"Jam Jams","steam_id":76561198128811267,"connected_time":1314000000000,"state":"active","ping":99},{"user_id":183,"name":"sunny","steam_id":76561198069380992,"connected_time":1296000000000,"state":"active","ping":83},{"user_id":170,"name":"FlapJacksWithButter","steam_id":76561199440019550,"connected_time":2257000000000,"state":"active","ping":100},{"user_id":119,"name":"Pines","steam_id":76561199024146278,"connected_time":6220000000000,"state":"active","ping":65},{"user_id":203,"name":"Stranger in a Strange Land","steam_id":76561198049843671,"connected_time":135000000000,"state":"active","ping":114},{"user_id":199,"name":"The Hoagie Hero","steam_id":76561198057569298,"connected_time":343000000000,"state":"active","ping":131},{"user_id":200,"name":"ashsillygoober","steam_id":76561199454622997,"connected_time":329000000000,"state":"active","ping":126},{"user_id":201,"name":"hoOmIN","steam_id":76561198334947079,"connected_time":272000000000,"state":"active","ping":45}]},{"server_id":112,"name":"Uncletopia | Los Angeles | 2 | All Maps","name_short":"lax-2","host":"lax-1.us.uncletopia.com","port":27025,"enabled":true,"region":"us-west","cc":"us","latitude":33.94279,"longitude":-118.41004,"reserved":0,"last_update":"0001-01-01T00:00:00Z","name_a2s":"Uncletopia | Los Angeles | 2 | All Maps","protocol":17,"map":"cp_dustbowl","folder":"tf","game":"Team Fortress","app_id":440,"player_count":24,"max_players":24,"Bots":0,"server_type":"Dedicated","server_os":"Linux","password":true,"vac":true,"version":"7932396","steam_id":85568392924469992,"keywords":["cp","nocrits","nodmgspread","uncletopia"],"game_id":440,"stv_port":27026,"stv_name":"Uncletopia | Los Angeles | 2 | All Maps | STV","players":[{"user_id":318,"name":"Vile Gunner","steam_id":76561198806668514,"connected_time":1814000000000,"state":"active","ping":94},{"user_id":345,"name":"That Red Bomber","steam_id":76561199331226294,"connected_time":578000000000,"state":"active","ping":64},{"user_id":353,"name":"Dive(z)","steam_id":76561198140843225,"connected_time":95000000000,"state":"active","ping":76},{"user_id":338,"name":"Nephi","steam_id":76561198031525122,"connected_time":856000000000,"state":"active","ping":127},{"user_id":327,"name":"Rock Kickass","steam_id":76561198450510841,"connected_time":1519000000000,"state":"active","ping":79},{"user_id":354,"name":"pt","steam_id":76561198143023330,"connected_time":1000000000,"state":"spawning","ping":32},{"user_id":333,"name":"Still Alive","steam_id":76561198042523000,"connected_time":1264000000000,"state":"active","ping":100},{"user_id":298,"name":"greens beans","steam_id":76561198153611491,"connected_time":2629000000000,"state":"active","ping":69},{"user_id":299,"name":"riSygneD","steam_id":76561198331618687,"connected_time":2590000000000,"state":"active","ping":33},{"user_id":346,"name":"Honeybunch","steam_id":76561198014850580,"connected_time":560000000000,"state":"active","ping":68},{"user_id":343,"name":"jlsimon911","steam_id":76561199404849068,"connected_time":661000000000,"state":"active","ping":67},{"user_id":348,"name":"Zel","steam_id":76561198093795799,"connected_time":523000000000,"state":"active","ping":71},{"user_id":347,"name":"Zeora","steam_id":76561198799145251,"connected_time":557000000000,"state":"active","ping":108},{"user_id":303,"name":"mine diam","steam_id":76561198119123981,"connected_time":2563000000000,"state":"active","ping":75},{"user_id":350,"name":"A UsedNom","steam_id":76561198402832756,"connected_time":350000000000,"state":"active","ping":55},{"user_id":344,"name":"Wayne_87","steam_id":76561199221149867,"connected_time":613000000000,"state":"active","ping":54},{"user_id":305,"name":"beans","steam_id":76561199082781884,"connected_time":2552000000000,"state":"active","ping":56},{"user_id":352,"name":"Cooki","steam_id":76561198051705314,"connected_time":256000000000,"state":"active","ping":126},{"user_id":324,"name":"lightsword24","steam_id":76561198227552556,"connected_time":1581000000000,"state":"active","ping":71},{"user_id":325,"name":"bobby cigarette","steam_id":76561198059780866,"connected_time":1577000000000,"state":"active","ping":96},{"user_id":274,"name":"Day","steam_id":76561198071356262,"connected_time":5245000000000,"state":"active","ping":103},{"user_id":326,"name":"Freedy","steam_id":76561199115274103,"connected_time":1562000000000,"state":"active","ping":58},{"user_id":335,"name":"rosable ☆","steam_id":76561199164371592,"connected_time":1247000000000,"state":"active","ping":113},{"user_id":337,"name":"Mocha Josie","steam_id":76561198066452726,"connected_time":924000000000,"state":"active","ping":49}]},{"server_id":324,"name":"Uncletopia | Los Angeles | 3 | All Maps","name_short":"lax-3","host":"lax-1.us.uncletopia.com","port":27035,"enabled":true,"region":"us-west","cc":"us","latitude":33.94279,"longitude":-118.41004,"reserved":0,"last_update":"0001-01-01T00:00:00Z","name_a2s":"Uncletopia | Los Angeles | 3 | All Maps","protocol":17,"map":"pl_swiftwater_final1","folder":"tf","game":"Team Fortress","app_id":440,"player_count":0,"max_players":24,"Bots":0,"server_type":"Dedicated","server_os":"Linux","password":true,"vac":true,"version":"7932396","steam_id":85568392924510198,"keywords":["nocrits","nodmgspread","payload","uncletopia"],"game_id":440,"stv_port":27036,"stv_name":"Uncletopia | Los Angeles | 3 | All Maps | STV","players":null},{"server_id":25,"name":"Uncletopia | Los Angeles | 4 | Stopwatch Beta","name_short":"lax-4","host":"lax-1.us.uncletopia.com","port":27045,"enabled":true,"region":"us-west","cc":"us","latitude":33.94279,"longitude":-118.41004,"reserved":0,"last_update":"0001-01-01T00:00:00Z","name_a2s":"Uncletopia | Los Angeles | 4 | Stopwatch Beta","protocol":17,"map":"workshop/koth_clearcut_b15.ugc2107050255","folder":"tf","game":"Team Fortress","app_id":440,"player_count":0,"max_players":24,"Bots":0,"server_type":"Dedicated","server_os":"Linux","password":true,"vac":true,"version":"7932396","steam_id":85568392924510199,"keywords":["cp","nocrits","nodmgspread","uncletopia"],"game_id":440,"stv_port":27046,"stv_name":"Uncletopia | Los Angeles | 4 | Stopwatch Beta | STV","players":null},{"server_id":11,"name":"Uncletopia | London | 1 | All Maps","name_short":"lon-1","host":"lon-1.uk.uncletopia.com","port":27015,"enabled":true,"region":"eu","cc":"gb","latitude":51.509865,"longitude":-0.118092,"reserved":0,"last_update":"0001-01-01T00:00:00Z","name_a2s":"Uncletopia | London | 1 | All Maps","protocol":17,"map":"pl_upward","folder":"tf","game":"Team Fortress","app_id":440,"player_count":23,"max_players":24,"Bots":0,"server_type":"Dedicated","server_os":"Linux","password":true,"vac":true,"version":"7932396","steam_id":85568392924367362,"keywords":["nocrits","nodmgspread","payload","uncletopia"],"game_id":440,"stv_port":27016,"stv_name":"Uncletopia | London | 1 | All Maps | STV","players":[{"user_id":723,"name":"Cod","steam_id":76561198087848782,"connected_time":1036000000000,"state":"active","ping":172},{"user_id":725,"name":"MANYYYYY","steam_id":76561198218613716,"connected_time":564000000000,"state":"active","ping":90},{"user_id":732,"name":"Sarah Obama Michella","steam_id":76561198078996559,"connected_time":358000000000,"state":"active","ping":88},{"user_id":699,"name":"Neiro👽ᗩYY ᒪᗰᗩO","steam_id":76561198046743985,"connected_time":1680000000000,"state":"active","ping":71},{"user_id":721,"name":"Mamaki","steam_id":76561198799617313,"connected_time":1144000000000,"state":"active","ping":87},{"user_id":696,"name":"snake","steam_id":76561198378235611,"connected_time":2078000000000,"state":"active","ping":76},{"user_id":714,"name":"Faustino","steam_id":76561198061771785,"connected_time":1350000000000,"state":"active","ping":83},{"user_id":701,"name":"siental","steam_id":76561198275457864,"connected_time":1629000000000,"state":"active","ping":31},{"user_id":710,"name":"stun","steam_id":76561199436823532,"connected_time":1407000000000,"state":"active","ping":169},{"user_id":704,"name":"Bubblegum","steam_id":76561198271590771,"connected_time":1583000000000,"state":"active","ping":54},{"user_id":715,"name":"tm`","steam_id":76561197993580412,"connected_time":1318000000000,"state":"active","ping":69},{"user_id":739,"name":"Rat Gaming","steam_id":76561198997885594,"connected_time":63000000000,"state":"active","ping":110},{"user_id":728,"name":"The F-Word (Femboy)","steam_id":76561198072320671,"connected_time":449000000000,"state":"active","ping":35},{"user_id":663,"name":"mohemmedmokhter2005","steam_id":76561199197650506,"connected_time":6099000000000,"state":"active","ping":113},{"user_id":729,"name":"chess milk","steam_id":76561198122814249,"connected_time":447000000000,"state":"active","ping":41},{"user_id":730,"name":"Milk","steam_id":76561198125876588,"connected_time":403000000000,"state":"active","ping":43},{"user_id":716,"name":"Valen","steam_id":76561198049614521,"connected_time":1297000000000,"state":"active","ping":71},{"user_id":717,"name":"AR Peetzo","steam_id":76561198101998300,"connected_time":1282000000000,"state":"active","ping":64},{"user_id":724,"name":"murf","steam_id":76561199184831395,"connected_time":948000000000,"state":"active","ping":45},{"user_id":731,"name":"Flostro","steam_id":76561198259793697,"connected_time":397000000000,"state":"active","ping":69},{"user_id":718,"name":"Byrkoué","steam_id":76561198128782412,"connected_time":1276000000000,"state":"active","ping":63},{"user_id":737,"name":"Toofy","steam_id":76561197989727907,"connected_time":281000000000,"state":"active","ping":76},{"user_id":738,"name":"asko","steam_id":76561198081966620,"connected_time":242000000000,"state":"active","ping":89}]},{"server_id":114,"name":"Uncletopia | London | 2 | All Maps","name_short":"lon-2","host":"lon-1.uk.uncletopia.com","port":27025,"enabled":true,"region":"eu","cc":"gb","latitude":51.509865,"longitude":-0.118092,"reserved":0,"last_update":"0001-01-01T00:00:00Z","name_a2s":"Uncletopia | London | 2 | All Maps","protocol":17,"map":"pl_badwater","folder":"tf","game":"Team Fortress","app_id":440,"player_count":24,"max_players":24,"Bots":0,"server_type":"Dedicated","server_os":"Linux","password":true,"vac":true,"version":"7932396","steam_id":85568392924470941,"keywords":["nocrits","nodmgspread","payload","uncletopia"],"game_id":440,"stv_port":27026,"stv_name":"Uncletopia | London | 2 | All Maps | STV","players":[{"user_id":660,"name":"jonobrow","steam_id":76561198014630492,"connected_time":2759000000000,"state":"active","ping":53},{"user_id":683,"name":"Darkmaen","steam_id":76561198060543390,"connected_time":598000000000,"state":"active","ping":53},{"user_id":687,"name":"Mikeal Ziller","steam_id":76561198241759034,"connected_time":372000000000,"state":"active","ping":87},{"user_id":652,"name":"Dee","steam_id":76561198105520278,"connected_time":3011000000000,"state":"active","ping":70},{"user_id":650,"name":"StarBridge56","steam_id":76561198154221684,"connected_time":3141000000000,"state":"active","ping":87},{"user_id":689,"name":"Dr.Cranium","steam_id":76561197992726926,"connected_time":335000000000,"state":"active","ping":122},{"user_id":691,"name":"neko pei","steam_id":76561198315388141,"connected_time":254000000000,"state":"active","ping":42},{"user_id":682,"name":"Whimsyy","steam_id":76561198065557010,"connected_time":665000000000,"state":"active","ping":58},{"user_id":692,"name":"JonaMake","steam_id":76561198415629249,"connected_time":248000000000,"state":"active","ping":97},{"user_id":630,"name":"Envy","steam_id":76561198132723219,"connected_time":3813000000000,"state":"active","ping":108},{"user_id":685,"name":"Herb","steam_id":76561198205266944,"connected_time":585000000000,"state":"active","ping":41},{"user_id":693,"name":"туалет ник","steam_id":76561198855953840,"connected_time":222000000000,"state":"active","ping":142},{"user_id":686,"name":"K A I K I","steam_id":76561198129292451,"connected_time":477000000000,"state":"active","ping":120},{"user_id":698,"name":"margaret thatcher's girl power","steam_id":76561199401283123,"connected_time":107000000000,"state":"active","ping":43},{"user_id":695,"name":"Everness","steam_id":76561197994803883,"connected_time":203000000000,"state":"active","ping":82},{"user_id":688,"name":"Fofenho","steam_id":76561198436817109,"connected_time":370000000000,"state":"active","ping":45},{"user_id":666,"name":"Kowakum","steam_id":76561197998125950,"connected_time":1955000000000,"state":"active","ping":119},{"user_id":667,"name":"QualityRubbish","steam_id":76561198069645046,"connected_time":1944000000000,"state":"active","ping":55},{"user_id":670,"name":"[zzubo] Hallowasniet","steam_id":76561198168485956,"connected_time":1879000000000,"state":"active","ping":55},{"user_id":671,"name":"[zzubo] joonstoons","steam_id":76561198328082426,"connected_time":1847000000000,"state":"active","ping":39},{"user_id":674,"name":"Meterora","steam_id":76561198092422131,"connected_time":1651000000000,"state":"active","ping":54},{"user_id":696,"name":"ack","steam_id":76561198139796077,"connected_time":199000000000,"state":"active","ping":57},{"user_id":697,"name":"Анаша Задорная","steam_id":76561199064928901,"connected_time":185000000000,"state":"active","ping":115},{"user_id":673,"name":"Steaamy","steam_id":76561198068109548,"connected_time":1781000000000,"state":"active","ping":57}]},{"server_id":320,"name":"Uncletopia | London | 3 | All Maps","name_short":"lon-3","host":"lon-1.uk.uncletopia.com","port":27035,"enabled":true,"region":"eu","cc":"gb","latitude":51.509865,"longitude":-0.118092,"reserved":0,"last_update":"0001-01-01T00:00:00Z","name_a2s":"Uncletopia | London | 3 | All Maps","protocol":17,"map":"pl_upward","folder":"tf","game":"Team Fortress","app_id":440,"player_count":0,"max_players":24,"Bots":0,"server_type":"Dedicated","server_os":"Linux","password":true,"vac":true,"version":"7932396","steam_id":85568392924510192,"keywords":["nocrits","nodmgspread","payload","uncletopia"],"game_id":440,"stv_port":27036,"stv_name":"Uncletopia | London | 3 | All Maps | STV","players":null},{"server_id":321,"name":"Uncletopia | London | 4 | All Maps","name_short":"lon-4","host":"lon-1.uk.uncletopia.com","port":27045,"enabled":true,"region":"eu","cc":"gb","latitude":51.509865,"longitude":-0.118092,"reserved":0,"last_update":"0001-01-01T00:00:00Z","name_a2s":"Uncletopia | London | 4 | All Maps","protocol":17,"map":"pl_pier","folder":"tf","game":"Team Fortress","app_id":440,"player_count":0,"max_players":24,"Bots":0,"server_type":"Dedicated","server_os":"Linux","password":true,"vac":true,"version":"7932396","steam_id":85568392924510193,"keywords":["nocrits","nodmgspread","payload","uncletopia"],"game_id":440,"stv_port":27046,"stv_name":"Uncletopia | London | 4 | All Maps | STV","players":null},{"server_id":21,"name":"Uncletopia | London | 5 | All Maps","name_short":"lon-5","host":"lon-1.uk.uncletopia.com","port":27055,"enabled":true,"region":"eu","cc":"gb","latitude":51.509865,"longitude":-0.118092,"reserved":0,"last_update":"0001-01-01T00:00:00Z","name_a2s":"Uncletopia | London | 5 | All Maps","protocol":17,"map":"pl_frontier_final","folder":"tf","game":"Team Fortress","app_id":440,"player_count":0,"max_players":24,"Bots":0,"server_type":"Dedicated","server_os":"Linux","password":true,"vac":true,"version":"7932396","steam_id":85568392924742829,"keywords":["nocrits","nodmgspread","payload","uncletopia"],"game_id":440,"stv_port":27056,"stv_name":"Uncletopia | London | 5 | All Maps | STV","players":null},{"server_id":22,"name":"Uncletopia | London | 6 | All Maps","name_short":"lon-6","host":"lon-1.uk.uncletopia.com","port":27065,"enabled":true,"region":"eu","cc":"gb","latitude":51.509865,"longitude":-0.118092,"reserved":0,"last_update":"0001-01-01T00:00:00Z","name_a2s":"Uncletopia | London | 6 | All Maps","protocol":17,"map":"koth_nucleus","folder":"tf","game":"Team Fortress","app_id":440,"player_count":6,"max_players":24,"Bots":0,"server_type":"Dedicated","server_os":"Linux","password":true,"vac":true,"version":"7932396","steam_id":85568392924742830,"keywords":["cp","nocrits","nodmgspread","uncletopia"],"game_id":440,"stv_port":27066,"stv_name":"Uncletopia | London | 6 | All Maps | STV","players":[{"user_id":253,"name":"frmsilva81","steam_id":76561198972047000,"connected_time":505000000000,"state":"active","ping":228},{"user_id":254,"name":"Anttech","steam_id":76561198065184022,"connected_time":47000000000,"state":"active","ping":59},{"user_id":250,"name":"FliX","steam_id":76561198027639280,"connected_time":626000000000,"state":"active","ping":55},{"user_id":240,"name":"NotTony69","steam_id":76561199122717140,"connected_time":1231000000000,"state":"active","ping":173},{"user_id":187,"name":"Nyhde","steam_id":76561198012771416,"connected_time":5205000000000,"state":"active","ping":191},{"user_id":229,"name":"Mario","steam_id":76561198321794277,"connected_time":2923000000000,"state":"active","ping":141}]},{"server_id":40,"name":"Uncletopia | London | 7 | No Payload","name_short":"lon-7","host":"lon-1.uk.uncletopia.com","port":27075,"enabled":true,"region":"eu","cc":"gb","latitude":51.509865,"longitude":-0.118092,"reserved":0,"last_update":"0001-01-01T00:00:00Z","name_a2s":"Uncletopia | London | 7 | No Payload","protocol":17,"map":"koth_nucleus","folder":"tf","game":"Team Fortress","app_id":440,"player_count":0,"max_players":24,"Bots":0,"server_type":"Dedicated","server_os":"Linux","password":true,"vac":true,"version":"7932396","steam_id":85568392924964314,"keywords":["cp","nocrits","nodmgspread","uncletopia"],"game_id":440,"stv_port":27076,"stv_name":"Uncletopia | London | 7 | No Payload | STV","players":null},{"server_id":41,"name":"Uncletopia | London | 8 | Community","name_short":"lon-8","host":"lon-1.uk.uncletopia.com","port":27085,"enabled":true,"region":"eu","cc":"gb","latitude":51.509865,"longitude":-0.118092,"reserved":0,"last_update":"0001-01-01T00:00:00Z","name_a2s":"Uncletopia | London | 8 | Community","protocol":17,"map":"workshop/cp_glassworks_rc6a.ugc454118349","folder":"tf","game":"Team Fortress","app_id":440,"player_count":0,"max_players":24,"Bots":0,"server_type":"Dedicated","server_os":"Linux","password":true,"vac":true,"version":"7932396","steam_id":85568392924964315,"keywords":["cp","nocrits","nodmgspread","uncletopia"],"game_id":440,"stv_port":27086,"stv_name":"Uncletopia | London | 8 | Community | STV","players":null},{"server_id":300,"name":"Uncletopia | Montréal | 1 | All Maps","name_short":"mtl-1","host":"mtl-1.ca.uncletopia.com","port":27015,"enabled":true,"region":"us-east","cc":"ca","latitude":45.50889,"longitude":-73.56167,"reserved":0,"last_update":"0001-01-01T00:00:00Z","name_a2s":"Uncletopia | Montréal | 1 | All Maps","protocol":17,"map":"cp_altitude","folder":"tf","game":"Team Fortress","app_id":440,"player_count":0,"max_players":24,"Bots":0,"server_type":"Dedicated","server_os":"Linux","password":true,"vac":true,"version":"7932396","steam_id":85568392924500087,"keywords":["cp","nocrits","nodmgspread","uncletopia"],"game_id":440,"stv_port":27016,"stv_name":"Uncletopia | Montréal | 1 | All Maps | STV","players":null},{"server_id":301,"name":"Uncletopia | Montréal | 2 | All Maps","name_short":"mtl-2","host":"mtl-1.ca.uncletopia.com","port":27025,"enabled":true,"region":"us-east","cc":"ca","latitude":45.50889,"longitude":-73.56167,"reserved":0,"last_update":"0001-01-01T00:00:00Z","name_a2s":"Uncletopia | Montréal | 2 | All Maps","protocol":17,"map":"cp_sunshine","folder":"tf","game":"Team Fortress","app_id":440,"player_count":12,"max_players":24,"Bots":0,"server_type":"Dedicated","server_os":"Linux","password":true,"vac":true,"version":"7932396","steam_id":85568392924500088,"keywords":["cp","nocrits","nodmgspread","uncletopia"],"game_id":440,"stv_port":27026,"stv_name":"Uncletopia | Montréal | 2 | All Maps | STV","players":[{"user_id":11,"name":"Big Milk","steam_id":76561198066904836,"connected_time":1020000000000,"state":"active","ping":69},{"user_id":6,"name":"Auklin","steam_id":76561198069877582,"connected_time":1575000000000,"state":"active","ping":72},{"user_id":9,"name":"simedogg","steam_id":76561198069286632,"connected_time":1244000000000,"state":"active","ping":73},{"user_id":22,"name":"[BBC] Justario","steam_id":76561198016095410,"connected_time":140000000000,"state":"active","ping":45},{"user_id":17,"name":"Your Local Festive Furry","steam_id":76561199030190462,"connected_time":192000000000,"state":"active","ping":61},{"user_id":13,"name":"bookreader","steam_id":76561198978568007,"connected_time":604000000000,"state":"active","ping":41},{"user_id":23,"name":"lost in spaaaaace","steam_id":76561199085974120,"connected_time":75000000000,"state":"active","ping":62},{"user_id":16,"name":"Jean Deere","steam_id":76561198105101309,"connected_time":244000000000,"state":"active","ping":72},{"user_id":24,"name":"OneTrueCorvid","steam_id":76561199012953221,"connected_time":48000000000,"state":"active","ping":76},{"user_id":25,"name":"aesfg (an idiotic free to play)","steam_id":76561199177781991,"connected_time":21000000000,"state":"active","ping":242},{"user_id":20,"name":"Grimm Dawn","steam_id":76561198216712921,"connected_time":174000000000,"state":"active","ping":77},{"user_id":21,"name":"Vladimir Chirgin","steam_id":76561198170035235,"connected_time":165000000000,"state":"active","ping":52}]},{"server_id":302,"name":"Uncletopia | Montréal | 3 | All Maps","name_short":"mtl-3","host":"mtl-1.ca.uncletopia.com","port":27035,"enabled":true,"region":"us-east","cc":"ca","latitude":45.50889,"longitude":-73.56167,"reserved":0,"last_update":"0001-01-01T00:00:00Z","name_a2s":"Uncletopia | Montréal | 3 | All Maps","protocol":17,"map":"pl_upward","folder":"tf","game":"Team Fortress","app_id":440,"player_count":0,"max_players":24,"Bots":0,"server_type":"Dedicated","server_os":"Linux","password":true,"vac":true,"version":"7932396","steam_id":85568392924500089,"keywords":["nocrits","nodmgspread","payload","uncletopia"],"game_id":440,"stv_port":27036,"stv_name":"Uncletopia | Montréal | 3 | All Maps | STV","players":null},{"server_id":303,"name":"Uncletopia | Montréal | 4 | No Payload","name_short":"mtl-4","host":"mtl-1.ca.uncletopia.com","port":27045,"enabled":true,"region":"us-east","cc":"ca","latitude":45.50889,"longitude":-73.56167,"reserved":0,"last_update":"0001-01-01T00:00:00Z","name_a2s":"Uncletopia | Montréal | 4 | No Payload","protocol":17,"map":"cp_snakewater_final1","folder":"tf","game":"Team Fortress","app_id":440,"player_count":0,"max_players":24,"Bots":0,"server_type":"Dedicated","server_os":"Linux","password":true,"vac":true,"version":"7932396","steam_id":85568392924500090,"keywords":["cp","nocrits","nodmgspread","uncletopia"],"game_id":440,"stv_port":27046,"stv_name":"Uncletopia | Montréal | 4 | No Payload | STV","players":null},{"server_id":13,"name":"Uncletopia | New York City | 1 | All Maps","name_short":"nyc-1","host":"nyc-1.us.uncletopia.com","port":27015,"enabled":true,"region":"us-east","cc":"us","latitude":40.73061,"longitude":-73.93524,"reserved":0,"last_update":"0001-01-01T00:00:00Z","name_a2s":"Uncletopia | New York City | 1 | All Maps","protocol":17,"map":"koth_highpass","folder":"tf","game":"Team Fortress","app_id":440,"player_count":23,"max_players":24,"Bots":0,"server_type":"Dedicated","server_os":"Linux","password":true,"vac":true,"version":"7932396","steam_id":85568392924469993,"keywords":["cp","nocrits","nodmgspread","uncletopia"],"game_id":440,"stv_port":27016,"stv_name":"Uncletopia | New York City | 1 | All Maps | STV","players":[{"user_id":382,"name":"boy smell","steam_id":76561198261007627,"connected_time":67000000000,"state":"spawning","ping":87},{"user_id":367,"name":"Hydroxianchaos","steam_id":76561198043786828,"connected_time":733000000000,"state":"active","ping":59},{"user_id":383,"name":"Thedarkdot","steam_id":76561199200787877,"connected_time":55000000000,"state":"active","ping":50},{"user_id":280,"name":"(☞ ͡° ͜ʖ ͡°)☞","steam_id":76561199130128575,"connected_time":6590000000000,"state":"active","ping":95},{"user_id":353,"name":"DaRoyalYoshi","steam_id":76561198145186375,"connected_time":1353000000000,"state":"active","ping":48},{"user_id":314,"name":"lwyr","steam_id":76561198007982579,"connected_time":3689000000000,"state":"active","ping":44},{"user_id":335,"name":"ADRIEN BRODY","steam_id":76561198009299473,"connected_time":2464000000000,"state":"active","ping":57},{"user_id":342,"name":"Pan Wizard","steam_id":76561198031939694,"connected_time":2300000000000,"state":"active","ping":69},{"user_id":378,"name":"Devoid","steam_id":76561198254039012,"connected_time":386000000000,"state":"active","ping":32},{"user_id":365,"name":"jeff","steam_id":76561198059450566,"connected_time":804000000000,"state":"active","ping":54},{"user_id":351,"name":"water and water and water water","steam_id":76561198257848207,"connected_time":1467000000000,"state":"active","ping":73},{"user_id":380,"name":"whoopsydoodle","steam_id":76561198045145360,"connected_time":287000000000,"state":"active","ping":45},{"user_id":375,"name":"Spimtmot733","steam_id":76561199029189825,"connected_time":452000000000,"state":"active","ping":52},{"user_id":207,"name":"ATL1 | cola","steam_id":76561198374390458,"connected_time":11906000000000,"state":"active","ping":65},{"user_id":374,"name":"footoftheday","steam_id":76561198052712449,"connected_time":494000000000,"state":"active","ping":77},{"user_id":377,"name":"k3ramb1t","steam_id":76561198097880352,"connected_time":413000000000,"state":"active","ping":54},{"user_id":370,"name":"JoCaleb02","steam_id":76561198272389829,"connected_time":687000000000,"state":"active","ping":47},{"user_id":343,"name":"Pebel","steam_id":76561198128639471,"connected_time":2068000000000,"state":"active","ping":114},{"user_id":371,"name":"Penis Chopper","steam_id":76561199016999537,"connected_time":629000000000,"state":"active","ping":91},{"user_id":372,"name":"swan","steam_id":76561198012569200,"connected_time":608000000000,"state":"active","ping":57},{"user_id":376,"name":"T9 Raincool","steam_id":76561198042953645,"connected_time":451000000000,"state":"active","ping":59},{"user_id":352,"name":"IZISOO","steam_id":76561198970380577,"connected_time":1433000000000,"state":"active","ping":97},{"user_id":354,"name":"Lucille_Bluth","steam_id":76561198206133916,"connected_time":1070000000000,"state":"active","ping":68}]},{"server_id":14,"name":"Uncletopia | New York City | 2 | All Maps","name_short":"nyc-2","host":"nyc-1.us.uncletopia.com","port":27025,"enabled":true,"region":"us-east","cc":"us","latitude":40.73061,"longitude":-73.93524,"reserved":0,"last_update":"0001-01-01T00:00:00Z","name_a2s":"Uncletopia | New York City | 2 | All Maps","protocol":17,"map":"cp_sunshine","folder":"tf","game":"Team Fortress","app_id":440,"player_count":24,"max_players":24,"Bots":0,"server_type":"Dedicated","server_os":"Linux","password":true,"vac":true,"version":"7932396","steam_id":85568392924469994,"keywords":["cp","nocrits","nodmgspread","uncletopia"],"game_id":440,"stv_port":27026,"stv_name":"Uncletopia | New York City | 2 | All Maps | STV","players":[{"user_id":168,"name":"shark kid","steam_id":76561198055660354,"connected_time":1653000000000,"state":"active","ping":83},{"user_id":145,"name":"sqerkbo","steam_id":76561198080012700,"connected_time":3403000000000,"state":"active","ping":43},{"user_id":173,"name":"Mr. Durian","steam_id":76561198093813212,"connected_time":1453000000000,"state":"active","ping":66},{"user_id":174,"name":"minecraft","steam_id":76561198104345201,"connected_time":1441000000000,"state":"active","ping":49},{"user_id":119,"name":"jim bob","steam_id":76561198815547064,"connected_time":5342000000000,"state":"active","ping":57},{"user_id":165,"name":"lagzer","steam_id":76561198029295449,"connected_time":1818000000000,"state":"active","ping":139},{"user_id":181,"name":"Chris P. Bacon","steam_id":76561198000851038,"connected_time":1307000000000,"state":"active","ping":55},{"user_id":177,"name":"joddson63","steam_id":76561198124576125,"connected_time":1405000000000,"state":"active","ping":85},{"user_id":169,"name":"Tough Puffin","steam_id":76561198024011010,"connected_time":1651000000000,"state":"active","ping":75},{"user_id":134,"name":"Xx_gam3rberg_xX","steam_id":76561199035781025,"connected_time":4279000000000,"state":"active","ping":87},{"user_id":160,"name":"Rumi_killer","steam_id":76561198077439866,"connected_time":2155000000000,"state":"active","ping":104},{"user_id":166,"name":"Jabs","steam_id":76561198004411240,"connected_time":1788000000000,"state":"active","ping":61},{"user_id":186,"name":"a table","steam_id":76561198158461279,"connected_time":137000000000,"state":"active","ping":82},{"user_id":130,"name":"CryshireWithAK","steam_id":76561198857908089,"connected_time":4643000000000,"state":"active","ping":78},{"user_id":183,"name":"LukeLeal","steam_id":76561198049822995,"connected_time":1037000000000,"state":"active","ping":159},{"user_id":162,"name":"sciencenerd42","steam_id":76561198274563320,"connected_time":1994000000000,"state":"active","ping":39},{"user_id":69,"name":"KBoneski ♡","steam_id":76561198307409065,"connected_time":8221000000000,"state":"active","ping":94},{"user_id":163,"name":"KrashBoomBang","steam_id":76561199002978777,"connected_time":1976000000000,"state":"active","ping":51},{"user_id":185,"name":"Ellis McGruber","steam_id":76561198060739536,"connected_time":509000000000,"state":"active","ping":56},{"user_id":158,"name":"Unk","steam_id":76561198031717617,"connected_time":2361000000000,"state":"active","ping":44},{"user_id":180,"name":"A little less gun","steam_id":76561198400987463,"connected_time":1357000000000,"state":"active","ping":79},{"user_id":184,"name":"gIBBY","steam_id":76561198080099598,"connected_time":962000000000,"state":"active","ping":42},{"user_id":182,"name":"♥Bunny♥Slut♥","steam_id":76561198206376851,"connected_time":1200000000000,"state":"active","ping":73},{"user_id":187,"name":"Virtual Zorua","steam_id":76561198196180302,"connected_time":137000000000,"state":"active","ping":62}]},{"server_id":15,"name":"Uncletopia | New York City | 3 | Stopwatch Beta","name_short":"nyc-3","host":"nyc-1.us.uncletopia.com","port":27035,"enabled":true,"region":"us-east","cc":"us","latitude":40.73061,"longitude":-73.93524,"reserved":0,"last_update":"0001-01-01T00:00:00Z","name_a2s":"Uncletopia | New York City | 3 | Stopwatch Beta","protocol":17,"map":"koth_lakeside_final","folder":"tf","game":"Team Fortress","app_id":440,"player_count":0,"max_players":24,"Bots":0,"server_type":"Dedicated","server_os":"Linux","password":true,"vac":true,"version":"7932396","steam_id":85568392924742820,"keywords":["cp","nocrits","nodmgspread","uncletopia"],"game_id":440,"stv_port":27036,"stv_name":"Uncletopia | New York City | 3 | Stopwatch Beta | STV","players":null},{"server_id":16,"name":"Uncletopia | New York City | 4 | Community","name_short":"nyc-4","host":"nyc-1.us.uncletopia.com","port":27045,"enabled":true,"region":"us-east","cc":"us","latitude":40.73061,"longitude":-73.93524,"reserved":0,"last_update":"0001-01-01T00:00:00Z","name_a2s":"Uncletopia | New York City | 4 | Community","protocol":17,"map":"workshop/koth_bagel_rc6.ugc2514036946","folder":"tf","game":"Team Fortress","app_id":440,"player_count":22,"max_players":24,"Bots":0,"server_type":"Dedicated","server_os":"Linux","password":true,"vac":true,"version":"7932396","steam_id":85568392924742821,"keywords":["cp","nocrits","nodmgspread","uncletopia"],"game_id":440,"stv_port":27046,"stv_name":"Uncletopia | New York City | 4 | Community | STV","players":[{"user_id":477,"name":"stampdawg","steam_id":76561198050500060,"connected_time":644000000000,"state":"active","ping":73},{"user_id":461,"name":"Ji-man Choi","steam_id":76561198107899101,"connected_time":1246000000000,"state":"active","ping":46},{"user_id":470,"name":"Rokiller","steam_id":76561199192105565,"connected_time":886000000000,"state":"active","ping":68},{"user_id":476,"name":"J3FF","steam_id":76561199209782011,"connected_time":710000000000,"state":"active","ping":55},{"user_id":484,"name":"Medicated Thembo","steam_id":76561198035868181,"connected_time":131000000000,"state":"active","ping":111},{"user_id":438,"name":"Fairchild Republic A-10 Thndrbl","steam_id":76561199038043360,"connected_time":2511000000000,"state":"active","ping":72},{"user_id":467,"name":"Mildly fat ass haver","steam_id":76561198080541736,"connected_time":972000000000,"state":"active","ping":116},{"user_id":442,"name":"AnnieM","steam_id":76561199435467297,"connected_time":2183000000000,"state":"active","ping":87},{"user_id":485,"name":"KrylonHeretic","steam_id":76561198139811459,"connected_time":107000000000,"state":"active","ping":126},{"user_id":468,"name":"ansmew","steam_id":76561198075200670,"connected_time":971000000000,"state":"active","ping":60},{"user_id":471,"name":"The Nikocado Enjoyer","steam_id":76561198263154374,"connected_time":828000000000,"state":"active","ping":59},{"user_id":469,"name":"Cajun Nationalist","steam_id":76561198278940630,"connected_time":937000000000,"state":"active","ping":75},{"user_id":453,"name":"MattJettskie","steam_id":76561199229493583,"connected_time":1532000000000,"state":"active","ping":91},{"user_id":486,"name":"Crazy Cane","steam_id":76561198993941174,"connected_time":30000000000,"state":"active","ping":101},{"user_id":462,"name":"FROYO Ding Dong","steam_id":76561198379421700,"connected_time":1172000000000,"state":"active","ping":55},{"user_id":443,"name":"Zoawsome","steam_id":76561198018758753,"connected_time":2161000000000,"state":"active","ping":65},{"user_id":480,"name":"BeefClapper420","steam_id":76561198080892634,"connected_time":472000000000,"state":"active","ping":66},{"user_id":481,"name":"Joe Blake","steam_id":76561198085388962,"connected_time":353000000000,"state":"active","ping":90},{"user_id":456,"name":"Oxygen User","steam_id":76561199111975528,"connected_time":1382000000000,"state":"active","ping":95},{"user_id":474,"name":"Erce","steam_id":76561198183481573,"connected_time":810000000000,"state":"active","ping":49},{"user_id":482,"name":"let me in gaben","steam_id":76561198083619784,"connected_time":353000000000,"state":"active","ping":60},{"user_id":460,"name":"iceguycrudding","steam_id":76561198161385366,"connected_time":1296000000000,"state":"active","ping":58}]},{"server_id":142,"name":"Uncletopia | São Paulo | 1 | All Maps","name_short":"sao-1","host":"sao-1.br.uncletopia.com","port":27015,"enabled":true,"region":"sa","cc":"br","latitude":-23.533773,"longitude":-46.62529,"reserved":0,"last_update":"0001-01-01T00:00:00Z","name_a2s":"Uncletopia | São Paulo | 1 | All Maps","protocol":17,"map":"koth_cascade","folder":"tf","game":"Team Fortress","app_id":440,"player_count":0,"max_players":24,"Bots":0,"server_type":"Dedicated","server_os":"Linux","password":true,"vac":true,"version":"7932396","steam_id":85568392924469996,"keywords":["cp","nocrits","nodmgspread","uncletopia"],"game_id":440,"stv_port":27016,"stv_name":"Uncletopia | São Paulo | 1 | All Maps | STV","players":null},{"server_id":143,"name":"Uncletopia | São Paulo | 2 | All Maps","name_short":"sao-2","host":"sao-2.br.uncletopia.com","port":27015,"enabled":true,"region":"sa","cc":"br","latitude":-23.533773,"longitude":-46.62529,"reserved":0,"last_update":"0001-01-01T00:00:00Z","name_a2s":"Uncletopia | São Paulo | 2 | All Maps","protocol":17,"map":"koth_cascade","folder":"tf","game":"Team Fortress","app_id":440,"player_count":0,"max_players":24,"Bots":0,"server_type":"Dedicated","server_os":"Linux","password":true,"vac":true,"version":"7932396","steam_id":85568392924485349,"keywords":["cp","nocrits","nodmgspread","uncletopia"],"game_id":440,"stv_port":27016,"stv_name":"Uncletopia | São Paulo | 2 | All Maps | STV","players":null},{"server_id":7,"name":"Uncletopia | Seattle | 1 | All Maps","name_short":"sea-1","host":"sea-1.us.uncletopia.com","port":27015,"enabled":true,"region":"us-west","cc":"us","latitude":47.608013,"longitude":-122.33517,"reserved":0,"last_update":"0001-01-01T00:00:00Z","name_a2s":"Uncletopia | Seattle | 1 | All Maps","protocol":17,"map":"pl_snowycoast","folder":"tf","game":"Team Fortress","app_id":440,"player_count":24,"max_players":24,"Bots":0,"server_type":"Dedicated","server_os":"Linux","password":true,"vac":true,"version":"7932396","steam_id":85568392924469997,"keywords":["nocrits","nodmgspread","payload","uncletopia"],"game_id":440,"stv_port":27016,"stv_name":"Uncletopia | Seattle | 1 | All Maps | STV","players":[{"user_id":267,"name":"Ayayayayayahuasca","steam_id":76561199002906056,"connected_time":1947000000000,"state":"active","ping":46},{"user_id":272,"name":"skosgo -eg","steam_id":76561197996403345,"connected_time":1244000000000,"state":"active","ping":79},{"user_id":273,"name":"Furrio","steam_id":76561198174104607,"connected_time":1243000000000,"state":"active","ping":85},{"user_id":279,"name":"yeah right","steam_id":76561198301127098,"connected_time":1107000000000,"state":"active","ping":87},{"user_id":250,"name":"FireQuiz","steam_id":76561198107357249,"connected_time":3525000000000,"state":"active","ping":69},{"user_id":276,"name":"DistantJragon","steam_id":76561198117563641,"connected_time":1222000000000,"state":"active","ping":101},{"user_id":288,"name":"Dog wif Hat","steam_id":76561199006526991,"connected_time":497000000000,"state":"active","ping":72},{"user_id":246,"name":"Scorcho","steam_id":76561198071413833,"connected_time":3676000000000,"state":"active","ping":74},{"user_id":287,"name":"cob","steam_id":76561198040642125,"connected_time":600000000000,"state":"active","ping":79},{"user_id":152,"name":"bubblefier","steam_id":76561198872316133,"connected_time":8562000000000,"state":"active","ping":68},{"user_id":282,"name":"🤘TF2.BET (Owner)","steam_id":76561199017754044,"connected_time":978000000000,"state":"active","ping":62},{"user_id":268,"name":"J O S H³²","steam_id":76561198122603779,"connected_time":1753000000000,"state":"active","ping":75},{"user_id":275,"name":"Mitchell","steam_id":76561197972922328,"connected_time":1227000000000,"state":"active","ping":86},{"user_id":266,"name":"VerseG","steam_id":76561198059246919,"connected_time":2547000000000,"state":"active","ping":46},{"user_id":277,"name":"Dreamzapp","steam_id":76561199084936632,"connected_time":1221000000000,"state":"active","ping":96},{"user_id":271,"name":"Keamy","steam_id":76561199471434875,"connected_time":1698000000000,"state":"active","ping":44},{"user_id":289,"name":"Oaky Loafs","steam_id":76561198317179010,"connected_time":391000000000,"state":"active","ping":59},{"user_id":269,"name":"maleficent ⸸","steam_id":76561198177893343,"connected_time":1744000000000,"state":"active","ping":73},{"user_id":280,"name":"level 7 firemancer","steam_id":76561198209571677,"connected_time":1069000000000,"state":"active","ping":128},{"user_id":274,"name":"atlas","steam_id":76561198398383076,"connected_time":1242000000000,"state":"active","ping":91},{"user_id":252,"name":"Your Local Queer Librarian","steam_id":76561198013077080,"connected_time":3386000000000,"state":"active","ping":113},{"user_id":195,"name":"Puppygirl GF","steam_id":76561198085813708,"connected_time":6329000000000,"state":"active","ping":114},{"user_id":286,"name":"Chad the Sex Haver","steam_id":76561198058236528,"connected_time":695000000000,"state":"active","ping":82},{"user_id":283,"name":"Dusk (little)","steam_id":76561198088681558,"connected_time":974000000000,"state":"active","ping":49}]},{"server_id":119,"name":"Uncletopia | Seattle | 2 | All Maps","name_short":"sea-2","host":"sea-1.us.uncletopia.com","port":27025,"enabled":true,"region":"us-west","cc":"us","latitude":47.608013,"longitude":-122.33517,"reserved":0,"last_update":"0001-01-01T00:00:00Z","name_a2s":"Uncletopia | Seattle | 2 | All Maps","protocol":17,"map":"cp_granary","folder":"tf","game":"Team Fortress","app_id":440,"player_count":24,"max_players":24,"Bots":0,"server_type":"Dedicated","server_os":"Linux","password":true,"vac":true,"version":"7932396","steam_id":85568392924469998,"keywords":["cp","nocrits","nodmgspread","uncletopia"],"game_id":440,"stv_port":27026,"stv_name":"Uncletopia | Seattle | 2 | All Maps | STV","players":[{"user_id":558,"name":"TQman","steam_id":76561199031963925,"connected_time":70000000000,"state":"active","ping":53},{"user_id":547,"name":"Cardboardcoin","steam_id":76561199421284163,"connected_time":515000000000,"state":"active","ping":81},{"user_id":479,"name":"BarrowBaron","steam_id":76561198013633236,"connected_time":5484000000000,"state":"active","ping":92},{"user_id":500,"name":"Ockulus","steam_id":76561199069638460,"connected_time":3808000000000,"state":"active","ping":80},{"user_id":550,"name":"Robin Suarez","steam_id":76561198014698593,"connected_time":455000000000,"state":"active","ping":45},{"user_id":540,"name":"Monty","steam_id":76561197993567253,"connected_time":866000000000,"state":"active","ping":48},{"user_id":545,"name":"Arg0","steam_id":76561198074858755,"connected_time":746000000000,"state":"active","ping":85},{"user_id":536,"name":"Bookhead","steam_id":76561197962042356,"connected_time":1638000000000,"state":"active","ping":30},{"user_id":542,"name":"› Pavvy","steam_id":76561197998662839,"connected_time":814000000000,"state":"active","ping":60},{"user_id":557,"name":"Starpillow ♡","steam_id":76561198095034817,"connected_time":165000000000,"state":"active","ping":60},{"user_id":506,"name":"Market Brand","steam_id":76561197980385816,"connected_time":3545000000000,"state":"active","ping":53},{"user_id":552,"name":"HellaCopter","steam_id":76561198062313698,"connected_time":441000000000,"state":"active","ping":53},{"user_id":530,"name":"Cinnifox","steam_id":76561198068773971,"connected_time":1692000000000,"state":"active","ping":65},{"user_id":546,"name":"Cringe Nae Nae Baby","steam_id":76561198942358541,"connected_time":720000000000,"state":"active","ping":90},{"user_id":538,"name":"MrVegasAguitar","steam_id":76561198084466946,"connected_time":1519000000000,"state":"active","ping":130},{"user_id":556,"name":"ilun","steam_id":76561198042913843,"connected_time":200000000000,"state":"active","ping":58},{"user_id":521,"name":"Mocha","steam_id":76561199100342013,"connected_time":2458000000000,"state":"active","ping":70},{"user_id":527,"name":"Coowil","steam_id":76561198070985437,"connected_time":2018000000000,"state":"active","ping":40},{"user_id":551,"name":"Booster Gold","steam_id":76561198045873731,"connected_time":450000000000,"state":"active","ping":57},{"user_id":496,"name":"TeriyakiDynamite","steam_id":76561198050049346,"connected_time":3908000000000,"state":"active","ping":95},{"user_id":518,"name":"etymology","steam_id":76561198043558709,"connected_time":2858000000000,"state":"active","ping":45},{"user_id":554,"name":"Chrisscar","steam_id":76561198086298130,"connected_time":403000000000,"state":"active","ping":75},{"user_id":476,"name":"Vapor Man","steam_id":76561198210173112,"connected_time":5571000000000,"state":"active","ping":165},{"user_id":537,"name":"mrthugpug1732","steam_id":76561198881200768,"connected_time":1631000000000,"state":"active","ping":92}]},{"server_id":406,"name":"Uncletopia | Seattle | 3 | Stopwatch Beta","name_short":"sea-3","host":"sea-1.us.uncletopia.com","port":27035,"enabled":true,"region":"us-west","cc":"us","latitude":47.608013,"longitude":-122.33517,"reserved":0,"last_update":"0001-01-01T00:00:00Z","name_a2s":"Uncletopia | Seattle | 3 | Stopwatch Beta","protocol":17,"map":"workshop/koth_clearcut_b15.ugc2107050255","folder":"tf","game":"Team Fortress","app_id":440,"player_count":0,"max_players":24,"Bots":0,"server_type":"Dedicated","server_os":"Linux","password":true,"vac":true,"version":"7932396","steam_id":85568392924515217,"keywords":["cp","nocrits","nodmgspread","uncletopia"],"game_id":440,"stv_port":27036,"stv_name":"Uncletopia | Seattle | 3 | Stopwatch Beta | STV","players":null},{"server_id":17,"name":"Uncletopia | San Francisco | 1 | All Maps","name_short":"sfo-1","host":"sfo-1.us.uncletopia.com","port":27015,"enabled":true,"region":"us-west","cc":"us","latitude":37.77397,"longitude":-122.4313,"reserved":0,"last_update":"0001-01-01T00:00:00Z","name_a2s":"Uncletopia | San Francisco | 1 | All Maps","protocol":17,"map":"koth_lakeside_final","folder":"tf","game":"Team Fortress","app_id":440,"player_count":0,"max_players":24,"Bots":0,"server_type":"Dedicated","server_os":"Linux","password":true,"vac":true,"version":"7932396","steam_id":85568392924469999,"keywords":["cp","nocrits","nodmgspread","uncletopia"],"game_id":440,"stv_port":27016,"stv_name":"Uncletopia | San Francisco | 1 | All Maps | STV","players":null},{"server_id":18,"name":"Uncletopia | San Francisco | 2 | All Maps","name_short":"sfo-2","host":"sfo-1.us.uncletopia.com","port":27025,"enabled":true,"region":"us-west","cc":"us","latitude":37.77397,"longitude":-122.4313,"reserved":0,"last_update":"0001-01-01T00:00:00Z","name_a2s":"Uncletopia | San Francisco | 2 | All Maps","protocol":17,"map":"koth_highpass","folder":"tf","game":"Team Fortress","app_id":440,"player_count":0,"max_players":24,"Bots":0,"server_type":"Dedicated","server_os":"Linux","password":true,"vac":true,"version":"7932396","steam_id":85568392924470000,"keywords":["cp","nocrits","nodmgspread","uncletopia"],"game_id":440,"stv_port":27026,"stv_name":"Uncletopia | San Francisco | 2 | All Maps | STV","players":null},{"server_id":19,"name":"Uncletopia | San Francisco | 3 | Stopwatch Beta","name_short":"sfo-3","host":"sfo-1.us.uncletopia.com","port":27035,"enabled":true,"region":"us-west","cc":"us","latitude":37.77397,"longitude":-122.4313,"reserved":0,"last_update":"0001-01-01T00:00:00Z","name_a2s":"Uncletopia | San Francisco | 3 | Stopwatch Beta","protocol":17,"map":"koth_lakeside_final","folder":"tf","game":"Team Fortress","app_id":440,"player_count":0,"max_players":24,"Bots":0,"server_type":"Dedicated","server_os":"Linux","password":true,"vac":true,"version":"7932396","steam_id":85568392924742824,"keywords":["cp","nocrits","nodmgspread","uncletopia"],"game_id":440,"stv_port":27036,"stv_name":"Uncletopia | San Francisco | 3 | Stopwatch Beta | STV","players":null},{"server_id":20,"name":"Uncletopia | San Francisco | 4 | Community","name_short":"sfo-4","host":"sfo-1.us.uncletopia.com","port":27045,"enabled":true,"region":"us-west","cc":"us","latitude":37.77397,"longitude":-122.4313,"reserved":0,"last_update":"0001-01-01T00:00:00Z","name_a2s":"Uncletopia | San Francisco | 4 | Community","protocol":17,"map":"pl_borneo","folder":"tf","game":"Team Fortress","app_id":440,"player_count":0,"max_players":24,"Bots":0,"server_type":"Dedicated","server_os":"Linux","password":true,"vac":true,"version":"7932396","steam_id":85568392924742826,"keywords":["nocrits","nodmgspread","payload","uncletopia"],"game_id":440,"stv_port":27046,"stv_name":"Uncletopia | San Francisco | 4 | Community | STV","players":null},{"server_id":141,"name":"Uncletopia | Sydney | 1 | All Maps","name_short":"syd-1","host":"syd-1.au.uncletopia.com","port":27015,"enabled":true,"region":"au","cc":"au","latitude":-33.865143,"longitude":151.2099,"reserved":0,"last_update":"0001-01-01T00:00:00Z","name_a2s":"Uncletopia | Sydney | 1 | All Maps","protocol":17,"map":"pl_pier","folder":"tf","game":"Team Fortress","app_id":440,"player_count":0,"max_players":24,"Bots":0,"server_type":"Dedicated","server_os":"Linux","password":true,"vac":true,"version":"7932396","steam_id":85568392924470001,"keywords":["nocrits","nodmgspread","payload","uncletopia"],"game_id":440,"stv_port":27016,"stv_name":"Uncletopia | Sydney | 1 | All Maps | STV","players":null},{"server_id":123,"name":"Uncletopia | Sydney | 2 | All Maps","name_short":"syd-2","host":"syd-1.au.uncletopia.com","port":27025,"enabled":true,"region":"au","cc":"au","latitude":-33.865143,"longitude":151.2099,"reserved":0,"last_update":"0001-01-01T00:00:00Z","name_a2s":"Uncletopia | Sydney | 2 | All Maps","protocol":17,"map":"koth_lakeside_final","folder":"tf","game":"Team Fortress","app_id":440,"player_count":0,"max_players":24,"Bots":0,"server_type":"Dedicated","server_os":"Linux","password":true,"vac":true,"version":"7932396","steam_id":85568392924470002,"keywords":["cp","nocrits","nodmgspread","uncletopia"],"game_id":440,"stv_port":27026,"stv_name":"Uncletopia | Sydney | 2 | All Maps | STV","players":null},{"server_id":395,"name":"Uncletopia | Sydney | 3 | All Maps","name_short":"syd-3","host":"syd-1.au.uncletopia.com","port":27035,"enabled":true,"region":"au","cc":"au","latitude":-33.865143,"longitude":151.2099,"reserved":0,"last_update":"0001-01-01T00:00:00Z","name_a2s":"Uncletopia | Sydney | 3 | All Maps","protocol":17,"map":"pl_frontier_final","folder":"tf","game":"Team Fortress","app_id":440,"player_count":0,"max_players":24,"Bots":0,"server_type":"Dedicated","server_os":"Linux","password":true,"vac":true,"version":"7932396","steam_id":85568392925194467,"keywords":["nocrits","nodmgspread","payload","uncletopia"],"game_id":440,"stv_port":27036,"stv_name":"Uncletopia | Sydney | 3 | All Maps | STV","players":null},{"server_id":396,"name":"Uncletopia | Sydney | 4 | All Maps","name_short":"syd-4","host":"syd-1.au.uncletopia.com","port":27045,"enabled":true,"region":"au","cc":"au","latitude":-33.865143,"longitude":151.2099,"reserved":0,"last_update":"0001-01-01T00:00:00Z","name_a2s":"Uncletopia | Sydney | 4 | All Maps","protocol":17,"map":"pl_pier","folder":"tf","game":"Team Fortress","app_id":440,"player_count":0,"max_players":24,"Bots":0,"server_type":"Dedicated","server_os":"Linux","password":true,"vac":true,"version":"7932396","steam_id":85568392925397958,"keywords":["nocrits","nodmgspread","payload","uncletopia"],"game_id":440,"stv_port":27046,"stv_name":"Uncletopia | Sydney | 4 | All Maps | STV","players":null},{"server_id":58,"name":"Uncletopia | Sydney | 5 | Stopwatch Beta","name_short":"syd-5","host":"syd-1.au.uncletopia.com","port":27055,"enabled":true,"region":"au","cc":"au","latitude":-33.865143,"longitude":151.2099,"reserved":0,"last_update":"0001-01-01T00:00:00Z","name_a2s":"Uncletopia | Sydney | 5 | Stopwatch Beta","protocol":17,"map":"pl_borneo","folder":"tf","game":"Team Fortress","app_id":440,"player_count":0,"max_players":24,"Bots":0,"server_type":"Dedicated","server_os":"Linux","password":true,"vac":true,"version":"7932396","steam_id":85568392925397959,"keywords":["nocrits","nodmgspread","payload","uncletopia"],"game_id":440,"stv_port":27056,"stv_name":"Uncletopia | Sydney | 5 | Stopwatch Beta | STV","players":null},{"server_id":59,"name":"Uncletopia | Sydney | 6 | Community","name_short":"syd-6","host":"syd-1.au.uncletopia.com","port":27065,"enabled":true,"region":"au","cc":"au","latitude":-33.865143,"longitude":151.2099,"reserved":0,"last_update":"0001-01-01T00:00:00Z","name_a2s":"Uncletopia | Sydney | 6 | Community","protocol":17,"map":"workshop/pl_highwood_b13.ugc1769496557","folder":"tf","game":"Team Fortress","app_id":440,"player_count":0,"max_players":24,"Bots":0,"server_type":"Dedicated","server_os":"Linux","password":true,"vac":true,"version":"7932396","steam_id":85568392925397960,"keywords":["nocrits","nodmgspread","payload","uncletopia"],"game_id":440,"stv_port":27066,"stv_name":"Uncletopia | Sydney | 6 | Community | STV","players":null},{"server_id":49,"name":"Uncletopia | Warsaw | 1 | All Maps","name_short":"waw-1","host":"waw-1.pl.uncletopia.com","port":27015,"enabled":true,"region":"eu","cc":"pl","latitude":52.2297,"longitude":21.017532,"reserved":0,"last_update":"0001-01-01T00:00:00Z","name_a2s":"","protocol":0,"map":"","folder":"","game":"","app_id":0,"player_count":0,"max_players":0,"Bots":0,"server_type":"","server_os":"","password":false,"vac":false,"version":"","steam_id":0,"keywords":null,"game_id":0,"stv_port":0,"stv_name":"","players":null},{"server_id":50,"name":"Uncletopia | Warsaw | 2 | All Maps","name_short":"waw-2","host":"waw-1.pl.uncletopia.com","port":27025,"enabled":true,"region":"eu","cc":"pl","latitude":52.2297,"longitude":21.017532,"reserved":0,"last_update":"0001-01-01T00:00:00Z","name_a2s":"Uncletopia | Warsaw | 2 | All Maps","protocol":17,"map":"koth_lakeside_final","folder":"tf","game":"Team Fortress","app_id":440,"player_count":0,"max_players":24,"Bots":0,"server_type":"Dedicated","server_os":"Linux","password":true,"vac":true,"version":"7932396","steam_id":85568392925397851,"keywords":["cp","nocrits","nodmgspread","uncletopia"],"game_id":440,"stv_port":27026,"stv_name":"Uncletopia | Warsaw | 2 | All Maps | STV","players":null},{"server_id":51,"name":"Uncletopia | Warsaw | 3 | All Maps","name_short":"waw-3","host":"waw-1.pl.uncletopia.com","port":27035,"enabled":true,"region":"eu","cc":"pl","latitude":52.2297,"longitude":21.017532,"reserved":0,"last_update":"0001-01-01T00:00:00Z","name_a2s":"Uncletopia | Warsaw | 3 | All Maps","protocol":17,"map":"koth_cascade","folder":"tf","game":"Team Fortress","app_id":440,"player_count":0,"max_players":24,"Bots":0,"server_type":"Dedicated","server_os":"Linux","password":true,"vac":true,"version":"7932396","steam_id":85568392925397852,"keywords":["cp","nocrits","nodmgspread","uncletopia"],"game_id":440,"stv_port":27036,"stv_name":"Uncletopia | Warsaw | 3 | All Maps | STV","players":null},{"server_id":52,"name":"Uncletopia | Warsaw | 4 | All Maps","name_short":"waw-4","host":"waw-1.pl.uncletopia.com","port":27045,"enabled":true,"region":"eu","cc":"pl","latitude":52.2297,"longitude":21.017532,"reserved":0,"last_update":"0001-01-01T00:00:00Z","name_a2s":"Uncletopia | Warsaw | 4 | All Maps","protocol":17,"map":"pl_barnblitz","folder":"tf","game":"Team Fortress","app_id":440,"player_count":0,"max_players":24,"Bots":0,"server_type":"Dedicated","server_os":"Linux","password":true,"vac":true,"version":"7932396","steam_id":85568392925397853,"keywords":["nocrits","nodmgspread","payload","uncletopia"],"game_id":440,"stv_port":27046,"stv_name":"Uncletopia | Warsaw | 4 | All Maps | STV","players":null},{"server_id":53,"name":"Uncletopia | Warsaw | 5 | Stopwatch Beta","name_short":"waw-5","host":"waw-1.pl.uncletopia.com","port":27055,"enabled":true,"region":"eu","cc":"pl","latitude":52.2297,"longitude":21.017532,"reserved":0,"last_update":"0001-01-01T00:00:00Z","name_a2s":"Uncletopia | Warsaw | 5 | Stopwatch Beta","protocol":17,"map":"workshop/pl_vigil_rc9.ugc1266210012","folder":"tf","game":"Team Fortress","app_id":440,"player_count":0,"max_players":24,"Bots":0,"server_type":"Dedicated","server_os":"Linux","password":true,"vac":true,"version":"7932396","steam_id":85568392925397854,"keywords":["nocrits","nodmgspread","payload","uncletopia"],"game_id":440,"stv_port":27056,"stv_name":"Uncletopia | Warsaw | 5 | Stopwatch Beta | STV","players":null},{"server_id":54,"name":"Uncletopia | Warsaw | 6 | Community","name_short":"waw-6","host":"waw-1.pl.uncletopia.com","port":27065,"enabled":true,"region":"eu","cc":"pl","latitude":52.2297,"longitude":21.017532,"reserved":0,"last_update":"0001-01-01T00:00:00Z","name_a2s":"Uncletopia | Warsaw | 6 | Community","protocol":17,"map":"workshop/cp_bruhstbowl_b6.ugc2878604990","folder":"tf","game":"Team Fortress","app_id":440,"player_count":0,"max_players":24,"Bots":0,"server_type":"Dedicated","server_os":"Linux","password":true,"vac":true,"version":"7932396","steam_id":85568392925397856,"keywords":["cp","nocrits","nodmgspread","uncletopia"],"game_id":440,"stv_port":27066,"stv_name":"Uncletopia | Warsaw | 6 | Community | STV","players":null}]}