{"status":true,"message":"","result":[{"server_id":9,"name":"Uncletopia | Atlanta | 1 | All Maps","name_short":"atl-1","host":"atl-1.us.uncletopia.com","port":27015,"enabled":true,"region":"us-east","cc":"us","latitude":33.753746,"longitude":-84.38633,"reserved":0,"last_update":"0001-01-01T00:00:00Z","name_a2s":"Uncletopia | Atlanta | 1 | All Maps","protocol":17,"map":"pl_borneo","folder":"tf","game":"Team Fortress","app_id":440,"player_count":24,"max_players":24,"Bots":0,"server_type":"Dedicated","server_os":"Linux","password":true,"vac":true,"version":"7961495","steam_id":85568392924469982,"keywords":["nocrits","nodmgspread","payload","uncletopia"],"game_id":440,"stv_port":27016,"stv_name":"Uncletopia | Atlanta | 1 | All Maps | STV","players":[{"user_id":405,"name":"mr poop","steam_id":76561199195196632,"connected_time":1393000000000,"state":"active","ping":71},{"user_id":414,"name":"why","steam_id":76561199059732212,"connected_time":1073000000000,"state":"active","ping":57},{"user_id":397,"name":"Immoral Boi","steam_id":76561198069551646,"connected_time":1760000000000,"state":"active","ping":61},{"user_id":371,"name":"Whisk #GOOD GAMER","steam_id":76561198272318229,"connected_time":2497000000000,"state":"active","ping":79},{"user_id":346,"name":"lil hog","steam_id":76561199230929836,"connected_time":5364000000000,"state":"active","ping":87},{"user_id":372,"name":"C Papi","steam_id":76561198027779564,"connected_time":2496000000000,"state":"active","ping":51},{"user_id":402,"name":"Erchius (she/her)","steam_id":76561198256892300,"connected_time":1417000000000,"state":"active","ping":46},{"user_id":417,"name":"Macro","steam_id":76561199442846226,"connected_time":522000000000,"state":"active","ping":77},{"user_id":403,"name":"Makoto #Retired","steam_id":76561199013758239,"connected_time":1416000000000,"state":"active","ping":49},{"user_id":353,"name":"DuckMann","steam_id":76561198197058638,"connected_time":4425000000000,"state":"active","ping":44},{"user_id":404,"name":"smuffy","steam_id":76561198091459506,"connected_time":1404000000000,"state":"active","ping":66},{"user_id":363,"name":"Electroid","steam_id":76561199092263960,"connected_time":3825000000000,"state":"active","ping":45},{"user_id":383,"name":"Sushi Cookies","steam_id":76561199008634102,"connected_time":2086000000000,"state":"active","ping":89},{"user_id":406,"name":"gugcat","steam_id":76561198129822860,"connected_time":1355000000000,"state":"active","ping":118},{"user_id":398,"name":"Poo","steam_id":76561198265144507,"connected_time":1432000000000,"state":"active","ping":74},{"user_id":419,"name":"thomasdee725???","steam_id":76561199189526173,"connected_time":47000000000,"state":"active","ping":141},{"user_id":416,"name":"Seskova","steam_id":76561198090207032,"connected_time":597000000000,"state":"active","ping":131},{"user_id":418,"name":"Drilly22","steam_id":76561198068838338,"connected_time":405000000000,"state":"active","ping":65},{"user_id":409,"name":"BumpofNight","steam_id":76561198011581312,"connected_time":1282000000000,"state":"active","ping":67},{"user_id":369,"name":"Albino Jellyfish","steam_id":76561198208561097,"connected_time":2509000000000,"state":"active","ping":57},{"user_id":361,"name":"trianamarco780","steam_id":76561199084319677,"connected_time":3909000000000,"state":"active","ping":101},{"user_id":415,"name":"HarryjusttHarry","steam_id":76561198982810452,"connected_time":852000000000,"state":"active","ping":112},{"user_id":413,"name":"fortnite.jimmy.2014","steam_id":76561199177672325,"connected_time":1141000000000,"state":"active","ping":46},{"user_id":388,"name":"Dr.Inkmix(femboy)","steam_id":76561198854070384,"connected_time":1843000000000,"state":"active","ping":137}]},{"server_id":104,"name":"Uncletopia | Atlanta | 2 | All Maps","name_short":"atl-2","host":"atl-1.us.uncletopia.com","port":27025,"enabled":true,"region":"us-east","cc":"us","latitude":33.753746,"longitude":-84.38633,"reserved":0,"last_update":"0001-01-01T00:00:00Z","name_a2s":"Uncletopia | Atlanta | 2 | All Maps","protocol":17,"map":"pl_pier","folder":"tf","game":"Team Fortress","app_id":440,"player_count":24,"max_players":24,"Bots":0,"server_type":"Dedicated","server_os":"Linux","password":true,"vac":true,"version":"7961495","steam_id":85568392924469983,"keywords":["nocrits","nodmgspread","payload","uncletopia"],"game_id":440,"stv_port":27026,"stv_name":"Uncletopia | Atlanta | 2 | All Maps | STV","players":[{"user_id":341,"name":"тUв","steam_id":76561199229726499,"connected_time":750000000000,"state":"active","ping":61},{"user_id":313,"name":"Aureolin","steam_id":76561198210274835,"connected_time":2459000000000,"state":"active","ping":85},{"user_id":332,"name":"2cats_2curious","steam_id":76561198027143149,"connected_time":1072000000000,"state":"active","ping":62},{"user_id":345,"name":"chris","steam_id":76561198209248312,"connected_time":420000000000,"state":"active","ping":85},{"user_id":324,"name":"Oxygen User","steam_id":76561199111975528,"connected_time":1546000000000,"state":"active","ping":56},{"user_id":350,"name":"Gilliam Onzo","steam_id":76561198066671343,"connected_time":309000000000,"state":"active","ping":56},{"user_id":305,"name":"biojuice BIOJUICE","steam_id":76561198083429635,"connected_time":2843000000000,"state":"active","ping":180},{"user_id":354,"name":"jandajanda","steam_id":76561198235722476,"connected_time":70000000000,"state":"active","ping":61},{"user_id":331,"name":"trepidotractatos","steam_id":76561198815950232,"connected_time":1247000000000,"state":"active","ping":60},{"user_id":352,"name":"Legit_Jaxer","steam_id":76561198172234053,"connected_time":271000000000,"state":"active","ping":100},{"user_id":285,"name":"Virus","steam_id":76561198252166472,"connected_time":3788000000000,"state":"active","ping":66},{"user_id":346,"name":"ligma male","steam_id":76561198145320480,"connected_time":393000000000,"state":"active","ping":78},{"user_id":333,"name":"GARFIELD FAN 2009","steam_id":76561198801838706,"connected_time":853000000000,"state":"active","ping":70},{"user_id":351,"name":"KrashBoomBang","steam_id":76561199002978777,"connected_time":285000000000,"state":"active","ping":79},{"user_id":317,"name":"Ashe is Kiriko main","steam_id":76561198245775974,"connected_time":2227000000000,"state":"active","ping":134},{"user_id":307,"name":"He rolls his own","steam_id":76561198058162684,"connected_time":2767000000000,"state":"active","ping":68},{"user_id":320,"name":"Syndra's Futa Balls","steam_id":76561198058671296,"connected_time":2077000000000,"state":"active","ping":55},{"user_id":337,"name":"beans","steam_id":76561198061673313,"connected_time":827000000000,"state":"active","ping":72},{"user_id":329,"name":"Tony Pizza","steam_id":76561198276513608,"connected_time":1309000000000,"state":"active","ping":165},{"user_id":321,"name":"Regin360","steam_id":76561198271970751,"connected_time":2076000000000,"state":"active","ping":136},{"user_id":302,"name":"jojobinks613","steam_id":76561198841293111,"connected_time":3186000000000,"state":"active","ping":69},{"user_id":340,"name":"ARP 2600","steam_id":76561198103192069,"connected_time":802000000000,"state":"active","ping":81},{"user_id":353,"name":"Universe Man","steam_id":76561197997710655,"connected_time":234000000000,"state":"active","ping":62},{"user_id":279,"name":"Yuck","steam_id":76561198001667870,"connected_time":4367000000000,"state":"active","ping":79}]},{"server_id":400,"name":"Uncletopia | Atlanta | 3 | Stopwatch","name_short":"atl-3","host":"atl-1.us.uncletopia.com","port":27035,"enabled":true,"region":"us-east","cc":"us","latitude":33.753746,"longitude":-84.38633,"reserved":0,"last_update":"0001-01-01T00:00:00Z","name_a2s":"Uncletopia | Atlanta | 3 | Stopwatch","protocol":17,"map":"workshop/koth_product_final.ugc454272353","folder":"tf","game":"Team Fortress","app_id":440,"player_count":0,"max_players":24,"Bots":0,"server_type":"Dedicated","server_os":"Linux","password":true,"vac":true,"version":"7961495","steam_id":85568392924515187,"keywords":["cp","nocrits","nodmgspread","uncletopia"],"game_id":440,"stv_port":27036,"stv_name":"Uncletopia | Atlanta | 3 | Stopwatch | STV","players":null},{"server_id":401,"name":"Uncletopia | Atlanta | 4 | Community","name_short":"atl-4","host":"atl-1.us.uncletopia.com","port":27045,"enabled":true,"region":"us-east","cc":"us","latitude":33.753746,"longitude":-84.38633,"reserved":0,"last_update":"0001-01-01T00:00:00Z","name_a2s":"Uncletopia | Atlanta | 4 | Community","protocol":17,"map":"workshop/pl_boundary_final1.ugc456799153","folder":"tf","game":"Team Fortress","app_id":440,"player_count":0,"max_players":24,"Bots":0,"server_type":"Dedicated","server_os":"Linux","password":true,"vac":true,"version":"7961495","steam_id":85568392924515188,"keywords":["nocrits","nodmgspread","payload","uncletopia"],"game_id":440,"stv_port":27046,"stv_name":"Uncletopia | Atlanta | 4 | Community | STV","players":null},{"server_id":2,"name":"Uncletopia | Chicago | 1 | All Maps","name_short":"chi-1","host":"chi-1.us.uncletopia.com","port":27015,"enabled":true,"region":"us-central","cc":"us","latitude":41.881832,"longitude":-87.62318,"reserved":0,"last_update":"0001-01-01T00:00:00Z","name_a2s":"Uncletopia | Chicago | 1 | All Maps","protocol":17,"map":"pl_swiftwater_final1","folder":"tf","game":"Team Fortress","app_id":440,"player_count":22,"max_players":24,"Bots":0,"server_type":"Dedicated","server_os":"Linux","password":true,"vac":true,"version":"7961495","steam_id":85568392924469984,"keywords":["nocrits","nodmgspread","payload","uncletopia"],"game_id":440,"stv_port":27016,"stv_name":"Uncletopia | Chicago | 1 | All Maps | STV","players":[{"user_id":556,"name":"Eomy","steam_id":76561198297783627,"connected_time":0,"state":"spawning","ping":19},{"user_id":553,"name":"decompose","steam_id":76561198049258493,"connected_time":18000000000,"state":"spawning","ping":131},{"user_id":492,"name":"troll","steam_id":76561198082680563,"connected_time":5038000000000,"state":"active","ping":58},{"user_id":520,"name":"Dreysidel","steam_id":76561198056496183,"connected_time":2309000000000,"state":"active","ping":49},{"user_id":551,"name":"Cyclops_672","steam_id":76561198080169497,"connected_time":22000000000,"state":"active","ping":52},{"user_id":536,"name":"Mads Mikkelsen","steam_id":76561198083482001,"connected_time":1189000000000,"state":"active","ping":134},{"user_id":495,"name":"elpful","steam_id":76561198189659530,"connected_time":4758000000000,"state":"active","ping":70},{"user_id":504,"name":"spire","steam_id":76561198367664346,"connected_time":4049000000000,"state":"active","ping":54},{"user_id":552,"name":"Sych06","steam_id":76561198798979302,"connected_time":20000000000,"state":"active","ping":61},{"user_id":532,"name":"Qwerty","steam_id":76561198023525894,"connected_time":1776000000000,"state":"active","ping":159},{"user_id":368,"name":"Siz","steam_id":76561198072962154,"connected_time":14513000000000,"state":"active","ping":73},{"user_id":539,"name":"Basco","steam_id":76561198272995231,"connected_time":805000000000,"state":"active","ping":60},{"user_id":550,"name":"Chadmander","steam_id":76561197974136337,"connected_time":51000000000,"state":"active","ping":36},{"user_id":548,"name":"Steel Tombstone","steam_id":76561199160542103,"connected_time":165000000000,"state":"active","ping":59},{"user_id":460,"name":"Strange Diplomat","steam_id":76561198428191920,"connected_time":7561000000000,"state":"active","ping":71},{"user_id":512,"name":"Tito","steam_id":76561198041702529,"connected_time":3708000000000,"state":"active","ping":73},{"user_id":554,"name":"Scarecrow","steam_id":76561198045870511,"connected_time":16000000000,"state":"active","ping":46},{"user_id":555,"name":"YummerBummer","steam_id":76561198094773987,"connected_time":14000000000,"state":"spawning","ping":65},{"user_id":449,"name":"ark","steam_id":76561198041066271,"connected_time":8802000000000,"state":"active","ping":59},{"user_id":549,"name":"tack","steam_id":76561198408477421,"connected_time":159000000000,"state":"active","ping":78},{"user_id":475,"name":"neil","steam_id":76561198122666918,"connected_time":6467000000000,"state":"active","ping":75},{"user_id":537,"name":"SandHanitizer","steam_id":76561198234676500,"connected_time":954000000000,"state":"active","ping":59}]},{"server_id":106,"name":"Uncletopia | Chicago | 2 | All Maps","name_short":"chi-2","host":"chi-1.us.uncletopia.com","port":27025,"enabled":true,"region":"us-central","cc":"us","latitude":41.881832,"longitude":-87.62318,"reserved":0,"last_update":"0001-01-01T00:00:00Z","name_a2s":"Uncletopia | Chicago | 2 | All Maps","protocol":17,"map":"cp_altitude","folder":"tf","game":"Team Fortress","app_id":440,"player_count":24,"max_players":24,"Bots":0,"server_type":"Dedicated","server_os":"Linux","password":true,"vac":true,"version":"7961495","steam_id":85568392924469985,"keywords":["cp","nocrits","nodmgspread","uncletopia"],"game_id":440,"stv_port":27026,"stv_name":"Uncletopia | Chicago | 2 | All Maps | STV","players":[{"user_id":450,"name":"imng","steam_id":76561198014988031,"connected_time":184000000000,"state":"active","ping":63},{"user_id":422,"name":"[El Fail] MR.BadassMCLee","steam_id":76561198043787818,"connected_time":1964000000000,"state":"active","ping":100},{"user_id":434,"name":"chaffy","steam_id":76561198021754567,"connected_time":1131000000000,"state":"active","ping":62},{"user_id":451,"name":"pup","steam_id":76561198145921847,"connected_time":163000000000,"state":"active","ping":65},{"user_id":455,"name":"Ulysses","steam_id":76561199229870438,"connected_time":21000000000,"state":"active","ping":87},{"user_id":435,"name":"NoSoul","steam_id":76561198143822176,"connected_time":1126000000000,"state":"active","ping":79},{"user_id":431,"name":"europan hookmouth truther","steam_id":76561198238451764,"connected_time":1240000000000,"state":"active","ping":76},{"user_id":432,"name":"TheoLynwood","steam_id":76561198079596878,"connected_time":1190000000000,"state":"active","ping":64},{"user_id":436,"name":"Gingoguy","steam_id":76561198088931297,"connected_time":1073000000000,"state":"active","ping":50},{"user_id":446,"name":"Joey Slapps","steam_id":76561198364717555,"connected_time":806000000000,"state":"active","ping":86},{"user_id":356,"name":"Gun","steam_id":76561199264073138,"connected_time":5281000000000,"state":"active","ping":89},{"user_id":419,"name":"runescape legend","steam_id":76561198077791373,"connected_time":2251000000000,"state":"active","ping":53},{"user_id":404,"name":"strawberry donut","steam_id":76561198354284591,"connected_time":3280000000000,"state":"active","ping":51},{"user_id":437,"name":"Gregory","steam_id":76561199070901945,"connected_time":1040000000000,"state":"active","ping":82},{"user_id":447,"name":"DrChillin","steam_id":76561198043824865,"connected_time":617000000000,"state":"active","ping":74},{"user_id":453,"name":"violent monkey porn","steam_id":76561199285074344,"connected_time":131000000000,"state":"active","ping":56},{"user_id":405,"name":"Zozbieta","steam_id":76561198010336265,"connected_time":3162000000000,"state":"active","ping":75},{"user_id":438,"name":"On The Bright Side...","steam_id":76561198168785883,"connected_time":979000000000,"state":"active","ping":45},{"user_id":448,"name":"A.I_Leeky","steam_id":76561199042332603,"connected_time":370000000000,"state":"active","ping":93},{"user_id":454,"name":"Onion My Ate Dog My","steam_id":76561198155848925,"connected_time":113000000000,"state":"active","ping":62},{"user_id":441,"name":"crittr","steam_id":76561198014302068,"connected_time":933000000000,"state":"active","ping":72},{"user_id":427,"name":"ekgooby","steam_id":76561198043678479,"connected_time":1742000000000,"state":"active","ping":45},{"user_id":442,"name":"JeffTrash","steam_id":76561198975550775,"connected_time":931000000000,"state":"active","ping":77},{"user_id":444,"name":"cfamadas","steam_id":76561199055881965,"connected_time":928000000000,"state":"active","ping":78}]},{"server_id":402,"name":"Uncletopia | Chicago | 3 | All Maps","name_short":"chi-3","host":"chi-1.us.uncletopia.com","port":27035,"enabled":true,"region":"us-central","cc":"us","latitude":41.881832,"longitude":-87.62318,"reserved":0,"last_update":"0001-01-01T00:00:00Z","name_a2s":"Uncletopia | Chicago | 3 | All Maps","protocol":17,"map":"pl_upward","folder":"tf","game":"Team Fortress","app_id":440,"player_count":24,"max_players":24,"Bots":0,"server_type":"Dedicated","server_os":"Linux","password":true,"vac":true,"version":"7961495","steam_id":85568392924515191,"keywords":["nocrits","nodmgspread","payload","uncletopia"],"game_id":440,"stv_port":27036,"stv_name":"Uncletopia | Chicago | 3 | All Maps | STV","players":[{"user_id":19,"name":"Wild_Rumpus","steam_id":76561198066393719,"connected_time":6371000000000,"state":"active","ping":58},{"user_id":15,"name":"bane","steam_id":76561198196769297,"connected_time":6971000000000,"state":"active","ping":56},{"user_id":31,"name":"the sledgehammer train","steam_id":76561198053967778,"connected_time":5876000000000,"state":"active","ping":62},{"user_id":86,"name":"Carl Brutananadilewski","steam_id":76561198004884267,"connected_time":3173000000000,"state":"active","ping":58},{"user_id":149,"name":"darkvoid","steam_id":76561198094512992,"connected_time":56000000000,"state":"active","ping":45},{"user_id":60,"name":"Tanyao (Furiten)","steam_id":76561198980504345,"connected_time":4763000000000,"state":"active","ping":63},{"user_id":130,"name":"Lish","steam_id":76561198447356180,"connected_time":1085000000000,"state":"active","ping":67},{"user_id":147,"name":"playguy carter","steam_id":76561198080679337,"connected_time":147000000000,"state":"active","ping":60},{"user_id":81,"name":"Keymaster","steam_id":76561198881514228,"connected_time":3233000000000,"state":"active","ping":62},{"user_id":102,"name":"Captain Buggy","steam_id":76561198024444448,"connected_time":2413000000000,"state":"active","ping":79},{"user_id":38,"name":"CF-TF2","steam_id":76561198145893044,"connected_time":5496000000000,"state":"active","ping":62},{"user_id":121,"name":"brains","steam_id":76561198197388678,"connected_time":1251000000000,"state":"active","ping":55},{"user_id":143,"name":"The Horselords and Animal Gods","steam_id":76561197975094050,"connected_time":520000000000,"state":"active","ping":103},{"user_id":146,"name":"dullahan","steam_id":76561198278736434,"connected_time":166000000000,"state":"active","ping":72},{"user_id":71,"name":"byoing yoing yoing","steam_id":76561198125947844,"connected_time":3481000000000,"state":"active","ping":93},{"user_id":144,"name":"Soy King","steam_id":76561198263025614,"connected_time":336000000000,"state":"active","ping":101},{"user_id":131,"name":"The Scringler","steam_id":76561199016537311,"connected_time":1077000000000,"state":"active","ping":62},{"user_id":123,"name":"Dude","steam_id":76561199058616824,"connected_time":1239000000000,"state":"active","ping":72},{"user_id":42,"name":"dadgummit","steam_id":76561198005806915,"connected_time":5360000000000,"state":"active","ping":73},{"user_id":137,"name":"Sharkwark","steam_id":76561199218566982,"connected_time":887000000000,"state":"active","ping":57},{"user_id":133,"name":"strawberry milk","steam_id":76561198025514255,"connected_time":1056000000000,"state":"active","ping":76},{"user_id":126,"name":"TLG, Certified Gamer Mom","steam_id":76561198076669951,"connected_time":1161000000000,"state":"active","ping":75},{"user_id":77,"name":"Beebo, Son of Beebo","steam_id":76561198055948497,"connected_time":3340000000000,"state":"active","ping":59},{"user_id":140,"name":"tk","steam_id":76561198090506450,"connected_time":860000000000,"state":"active","ping":89}]},{"server_id":403,"name":"Uncletopia | Chicago | 4 | All Maps","name_short":"chi-4","host":"chi-1.us.uncletopia.com","port":27045,"enabled":true,"region":"us-central","cc":"us","latitude":41.881832,"longitude":-87.62318,"reserved":0,"last_update":"0001-01-01T00:00:00Z","name_a2s":"Uncletopia | Chicago | 4 | All Maps","protocol":17,"map":"pl_pier","folder":"tf","game":"Team Fortress","app_id":440,"player_count":24,"max_players":24,"Bots":0,"server_type":"Dedicated","server_os":"Linux","password":true,"vac":true,"version":"7961495","steam_id":85568392924515193,"keywords":["nocrits","nodmgspread","payload","uncletopia"],"game_id":440,"stv_port":27046,"stv_name":"Uncletopia | Chicago | 4 | All Maps | STV","players":[{"user_id":335,"name":"Six Piece Chicken McNobody","steam_id":76561198129848222,"connected_time":1820000000000,"state":"active","ping":58},{"user_id":366,"name":"Ursus Ludius","steam_id":76561198025470722,"connected_time":265000000000,"state":"active","ping":60},{"user_id":340,"name":"MDEEEEE","steam_id":76561198058460585,"connected_time":1767000000000,"state":"active","ping":107},{"user_id":364,"name":"Hamlindigo Blue™","steam_id":76561198116337540,"connected_time":297000000000,"state":"active","ping":85},{"user_id":355,"name":"JensonIsFree","steam_id":76561198082869766,"connected_time":869000000000,"state":"active","ping":83},{"user_id":255,"name":"mr ploobmeister","steam_id":76561198128908529,"connected_time":7359000000000,"state":"active","ping":76},{"user_id":357,"name":"clonewarslover24","steam_id":76561198144673121,"connected_time":793000000000,"state":"active","ping":75},{"user_id":353,"name":"slasher4713","steam_id":76561199033532858,"connected_time":1154000000000,"state":"active","ping":54},{"user_id":348,"name":"Holdie","steam_id":76561198070378200,"connected_time":1584000000000,"state":"active","ping":60},{"user_id":367,"name":"silicasandwhich","steam_id":76561198178809821,"connected_time":257000000000,"state":"active","ping":66},{"user_id":363,"name":"Evil little man","steam_id":76561198311053471,"connected_time":336000000000,"state":"active","ping":83},{"user_id":356,"name":"Pharthus","steam_id":76561198093866050,"connected_time":861000000000,"state":"active","ping":78},{"user_id":315,"name":"♥cinnamonboy♥","steam_id":76561198882330338,"connected_time":3114000000000,"state":"active","ping":76},{"user_id":292,"name":"Elias","steam_id":76561198106431732,"connected_time":4339000000000,"state":"active","ping":56},{"user_id":359,"name":"bagel","steam_id":76561198061512239,"connected_time":747000000000,"state":"active","ping":57},{"user_id":329,"name":"Aztea","steam_id":76561198982089893,"connected_time":2265000000000,"state":"active","ping":87},{"user_id":352,"name":"No |HM|","steam_id":76561198181534443,"connected_time":1251000000000,"state":"active","ping":164},{"user_id":351,"name":"comet sooicidy","steam_id":76561198025173479,"connected_time":1314000000000,"state":"active","ping":87},{"user_id":330,"name":"Passionate Map Researcher","steam_id":76561199490508357,"connected_time":2251000000000,"state":"active","ping":68},{"user_id":361,"name":"Citrocy","steam_id":76561198159482802,"connected_time":709000000000,"state":"active","ping":143},{"user_id":360,"name":"DWW","steam_id":76561198132274074,"connected_time":740000000000,"state":"active","ping":68},{"user_id":365,"name":"Flyinglab","steam_id":76561198042161408,"connected_time":292000000000,"state":"active","ping":60},{"user_id":350,"name":"Mr.Sex","steam_id":76561198169957571,"connected_time":1551000000000,"state":"active","ping":92},{"user_id":321,"name":"HumFreY","steam_id":76561198076639682,"connected_time":2542000000000,"state":"active","ping":82}]},{"server_id":36,"name":"Uncletopia | Chicago | 5 | All Maps","name_short":"chi-5","host":"chi-2.us.uncletopia.com","port":27015,"enabled":true,"region":"us-central","cc":"us","latitude":41.881832,"longitude":-87.62318,"reserved":0,"last_update":"0001-01-01T00:00:00Z","name_a2s":"Uncletopia | Chicago | 5 | All Maps","protocol":17,"map":"pl_borneo","folder":"tf","game":"Team Fortress","app_id":440,"player_count":24,"max_players":24,"Bots":0,"server_type":"Dedicated","server_os":"Linux","password":true,"vac":true,"version":"7961495","steam_id":85568392924866362,"keywords":["nocrits","nodmgspread","payload","uncletopia"],"game_id":440,"stv_port":27016,"stv_name":"Uncletopia | Chicago | 5 | All Maps | STV","players":[{"user_id":283,"name":"goober","steam_id":76561199452679604,"connected_time":1039000000000,"state":"active","ping":92},{"user_id":275,"name":"Rich Tigress Fina","steam_id":76561198034166729,"connected_time":1417000000000,"state":"active","ping":72},{"user_id":302,"name":"Icaras","steam_id":76561198416724843,"connected_time":422000000000,"state":"active","ping":130},{"user_id":267,"name":"Volteer","steam_id":76561198069395024,"connected_time":1575000000000,"state":"active","ping":76},{"user_id":276,"name":"Greyline","steam_id":76561198019651823,"connected_time":1411000000000,"state":"active","ping":62},{"user_id":299,"name":"ATL1 | to4st","steam_id":76561198981009008,"connected_time":737000000000,"state":"active","ping":55},{"user_id":285,"name":"BigNut","steam_id":76561198073570489,"connected_time":909000000000,"state":"active","ping":79},{"user_id":282,"name":"heheheheheh","steam_id":76561198884486994,"connected_time":1089000000000,"state":"active","ping":70},{"user_id":286,"name":"Mad Dog","steam_id":76561198093145692,"connected_time":905000000000,"state":"active","ping":77},{"user_id":254,"name":"A Rhino with Coronavirus","steam_id":76561197999451366,"connected_time":2687000000000,"state":"active","ping":64},{"user_id":232,"name":"artemisjackson2","steam_id":76561199094686268,"connected_time":4456000000000,"state":"active","ping":63},{"user_id":220,"name":"fish (2:3)","steam_id":76561198134331073,"connected_time":4600000000000,"state":"active","ping":97},{"user_id":287,"name":"Krissy","steam_id":76561197960848174,"connected_time":896000000000,"state":"active","ping":69},{"user_id":274,"name":"Enron Hubbard","steam_id":76561198012951411,"connected_time":1441000000000,"state":"active","ping":55},{"user_id":288,"name":"gamingengineer55","steam_id":76561199167429510,"connected_time":867000000000,"state":"active","ping":82},{"user_id":289,"name":"Silverstream73","steam_id":76561198848035770,"connected_time":866000000000,"state":"active","ping":46},{"user_id":290,"name":"xanakin skywocker","steam_id":76561198347313393,"connected_time":843000000000,"state":"active","ping":70},{"user_id":291,"name":"bleach65","steam_id":76561198115270571,"connected_time":824000000000,"state":"active","ping":82},{"user_id":300,"name":"Anyar","steam_id":76561198160174097,"connected_time":611000000000,"state":"active","ping":82},{"user_id":262,"name":"Doggy Maid Kikimora","steam_id":76561198097117564,"connected_time":2445000000000,"state":"active","ping":100},{"user_id":298,"name":"yum","steam_id":76561199103766971,"connected_time":758000000000,"state":"active","ping":63},{"user_id":295,"name":"hazel (she/her)","steam_id":76561198879911815,"connected_time":782000000000,"state":"active","ping":60},{"user_id":296,"name":"KUNA","steam_id":76561198078547621,"connected_time":777000000000,"state":"active","ping":79},{"user_id":301,"name":"creeeeeee","steam_id":76561198392539722,"connected_time":574000000000,"state":"active","ping":88}]},{"server_id":37,"name":"Uncletopia | Chicago | 6 | All Maps","name_short":"chi-6","host":"chi-2.us.uncletopia.com","port":27025,"enabled":true,"region":"us-central","cc":"us","latitude":41.881832,"longitude":-87.62318,"reserved":0,"last_update":"0001-01-01T00:00:00Z","name_a2s":"Uncletopia | Chicago | 6 | All Maps","protocol":17,"map":"pl_barnblitz","folder":"tf","game":"Team Fortress","app_id":440,"player_count":24,"max_players":24,"Bots":0,"server_type":"Dedicated","server_os":"Linux","password":true,"vac":true,"version":"7961495","steam_id":85568392924866363,"keywords":["nocrits","nodmgspread","payload","uncletopia"],"game_id":440,"stv_port":27026,"stv_name":"Uncletopia | Chicago | 6 | All Maps | STV","players":[{"user_id":177,"name":"steve","steam_id":76561197961024357,"connected_time":1709000000000,"state":"active","ping":59},{"user_id":155,"name":"Aegle","steam_id":76561198871463455,"connected_time":2675000000000,"state":"active","ping":94},{"user_id":111,"name":"Whimsical Bruh","steam_id":76561199069973423,"connected_time":5090000000000,"state":"active","ping":56},{"user_id":183,"name":"Ham","steam_id":76561198143371318,"connected_time":1368000000000,"state":"active","ping":98},{"user_id":197,"name":"freak ya nature","steam_id":76561198310502474,"connected_time":835000000000,"state":"active","ping":53},{"user_id":199,"name":"Owl Pacino","steam_id":76561197979970666,"connected_time":493000000000,"state":"active","ping":58},{"user_id":193,"name":"Weed Dealer","steam_id":76561198418604400,"connected_time":1071000000000,"state":"active","ping":93},{"user_id":146,"name":"MMAD","steam_id":76561198026446420,"connected_time":3683000000000,"state":"active","ping":86},{"user_id":157,"name":"ono","steam_id":76561198024377986,"connected_time":2652000000000,"state":"active","ping":82},{"user_id":132,"name":"Firedust19","steam_id":76561198153238631,"connected_time":4437000000000,"state":"active","ping":106},{"user_id":181,"name":"D(b) Hell","steam_id":76561198067869016,"connected_time":1537000000000,"state":"active","ping":45},{"user_id":185,"name":"Quark","steam_id":76561198328155605,"connected_time":1334000000000,"state":"active","ping":51},{"user_id":204,"name":"Strangelove","steam_id":76561198353773611,"connected_time":294000000000,"state":"active","ping":88},{"user_id":187,"name":"doc","steam_id":76561197997949711,"connected_time":1297000000000,"state":"active","ping":59},{"user_id":166,"name":"1.50 Costco Hotdog","steam_id":76561199083888017,"connected_time":2129000000000,"state":"active","ping":99},{"user_id":59,"name":"Mint Jelly","steam_id":76561197991286751,"connected_time":7508000000000,"state":"active","ping":48},{"user_id":189,"name":"frthollama","steam_id":76561199114778257,"connected_time":1157000000000,"state":"active","ping":100},{"user_id":190,"name":"biden cart 15 dollars","steam_id":76561198253731826,"connected_time":1150000000000,"state":"active","ping":64},{"user_id":202,"name":"wuddles","steam_id":76561198025782349,"connected_time":421000000000,"state":"active","ping":107},{"user_id":160,"name":"hideyochest","steam_id":76561198090366059,"connected_time":2573000000000,"state":"active","ping":69},{"user_id":191,"name":"Creature","steam_id":76561198194585781,"connected_time":1140000000000,"state":"active","ping":93},{"user_id":182,"name":"Ominous Whir","steam_id":76561198002851724,"connected_time":1470000000000,"state":"active","ping":69},{"user_id":195,"name":"TheBeefCow","steam_id":76561198396895911,"connected_time":1050000000000,"state":"active","ping":69}]},{"server_id":38,"name":"Uncletopia | Chicago | 7 | Stopwatch","name_short":"chi-7","host":"chi-2.us.uncletopia.com","port":27035,"enabled":true,"region":"us-central","cc":"us","latitude":41.881832,"longitude":-87.62318,"reserved":0,"last_update":"0001-01-01T00:00:00Z","name_a2s":"Uncletopia | Chicago | 7 | Stopwatch","protocol":17,"map":"cp_sunshine","folder":"tf","game":"Team Fortress","app_id":440,"player_count":22,"max_players":24,"Bots":0,"server_type":"Dedicated","server_os":"Linux","password":true,"vac":true,"version":"7961495","steam_id":85568392924866364,"keywords":["cp","nocrits","nodmgspread","uncletopia"],"game_id":440,"stv_port":27036,"stv_name":"Uncletopia | Chicago | 7 | Stopwatch | STV","players":[{"user_id":145,"name":"road to hales own Backscatter","steam_id":76561199176290258,"connected_time":1053000000000,"state":"active","ping":55},{"user_id":154,"name":"Draekonik","steam_id":76561198327492856,"connected_time":390000000000,"state":"active","ping":48},{"user_id":149,"name":"redzach","steam_id":76561198444094359,"connected_time":705000000000,"state":"active","ping":34},{"user_id":153,"name":"bookreader","steam_id":76561198978568007,"connected_time":513000000000,"state":"active","ping":59},{"user_id":151,"name":"friendly salamander","steam_id":76561198888219116,"connected_time":646000000000,"state":"active","ping":43},{"user_id":102,"name":"Allister","steam_id":76561197999823352,"connected_time":3951000000000,"state":"active","ping":68},{"user_id":155,"name":"9gon Danmar33","steam_id":76561198056453091,"connected_time":379000000000,"state":"active","ping":46},{"user_id":156,"name":"tau0976","steam_id":76561199149015168,"connected_time":375000000000,"state":"active","ping":51},{"user_id":157,"name":"9gon Salt","steam_id":76561198116645978,"connected_time":359000000000,"state":"active","ping":59},{"user_id":158,"name":"Enderbot64","steam_id":76561198155398070,"connected_time":355000000000,"state":"active","ping":32},{"user_id":47,"name":"Smellfeast","steam_id":76561198418165673,"connected_time":6753000000000,"state":"active","ping":32},{"user_id":159,"name":"spider mastermind (real)","steam_id":76561199433948284,"connected_time":325000000000,"state":"active","ping":54},{"user_id":160,"name":"faze pantalla","steam_id":76561198250215734,"connected_time":295000000000,"state":"active","ping":58},{"user_id":161,"name":"faze waadden","steam_id":76561198325569425,"connected_time":293000000000,"state":"active","ping":49},{"user_id":163,"name":"splot","steam_id":76561199133681385,"connected_time":232000000000,"state":"active","ping":66},{"user_id":164,"name":"goaty_jones","steam_id":76561199185121010,"connected_time":222000000000,"state":"active","ping":98},{"user_id":138,"name":"general.b","steam_id":76561198162480519,"connected_time":2012000000000,"state":"active","ping":53},{"user_id":128,"name":"Mentally Ill Woman","steam_id":76561198072030567,"connected_time":2414000000000,"state":"active","ping":45},{"user_id":166,"name":"The mobster","steam_id":76561198996802079,"connected_time":103000000000,"state":"active","ping":79},{"user_id":167,"name":"LavenderSys","steam_id":76561198289106015,"connected_time":96000000000,"state":"active","ping":85},{"user_id":168,"name":"Torensz64(But weezer)","steam_id":76561198239036482,"connected_time":93000000000,"state":"active","ping":42},{"user_id":169,"name":"Praxeas Busybody","steam_id":76561198035618952,"connected_time":33000000000,"state":"spawning","ping":62}]},{"server_id":39,"name":"Uncletopia | Chicago | 8 | Community","name_short":"chi-8","host":"chi-2.us.uncletopia.com","port":27045,"enabled":true,"region":"us-central","cc":"us","latitude":41.881832,"longitude":-87.62318,"reserved":0,"last_update":"0001-01-01T00:00:00Z","name_a2s":"Uncletopia | Chicago | 8 | Community","protocol":17,"map":"workshop/pl_barnblitz_pro7.ugc582280235","folder":"tf","game":"Team Fortress","app_id":440,"player_count":0,"max_players":24,"Bots":0,"server_type":"Dedicated","server_os":"Linux","password":true,"vac":true,"version":"7961495","steam_id":85568392924866365,"keywords":["nocrits","nodmgspread","payload","uncletopia"],"game_id":440,"stv_port":27046,"stv_name":"Uncletopia | Chicago | 8 | Community | STV","players":null},{"server_id":8,"name":"Uncletopia | Dallas | 1 | All Maps","name_short":"dal-1","host":"dal-1.us.uncletopia.com","port":27015,"enabled":true,"region":"us-central","cc":"us","latitude":32.779167,"longitude":-96.80889,"reserved":0,"last_update":"0001-01-01T00:00:00Z","name_a2s":"Uncletopia | Dallas | 1 | All Maps","protocol":17,"map":"koth_lakeside_final","folder":"tf","game":"Team Fortress","app_id":440,"player_count":0,"max_players":24,"Bots":0,"server_type":"Dedicated","server_os":"Linux","password":true,"vac":true,"version":"7961495","steam_id":85568392924469986,"keywords":["cp","nocrits","nodmgspread","uncletopia"],"game_id":440,"stv_port":27016,"stv_name":"Uncletopia | Dallas | 1 | All Maps | STV","players":null},{"server_id":108,"name":"Uncletopia | Dallas | 2 | All Maps","name_short":"dal-2","host":"dal-1.us.uncletopia.com","port":27025,"enabled":true,"region":"us-central","cc":"us","latitude":32.779167,"longitude":-96.80889,"reserved":0,"last_update":"0001-01-01T00:00:00Z","name_a2s":"Uncletopia | Dallas | 2 | All Maps","protocol":17,"map":"cp_snakewater_final1","folder":"tf","game":"Team Fortress","app_id":440,"player_count":23,"max_players":24,"Bots":0,"server_type":"Dedicated","server_os":"Linux","password":true,"vac":true,"version":"7961495","steam_id":85568392924469988,"keywords":["cp","nocrits","nodmgspread","uncletopia"],"game_id":440,"stv_port":27026,"stv_name":"Uncletopia | Dallas | 2 | All Maps | STV","players":[{"user_id":235,"name":"slime ( ,'' w'' )","steam_id":76561198198984282,"connected_time":790000000000,"state":"active","ping":92},{"user_id":245,"name":"leesh","steam_id":76561198079603938,"connected_time":490000000000,"state":"active","ping":62},{"user_id":220,"name":"MrSourLemmon","steam_id":76561199367994914,"connected_time":1672000000000,"state":"active","ping":58},{"user_id":226,"name":"qwatta","steam_id":76561198064982327,"connected_time":1148000000000,"state":"active","ping":44},{"user_id":194,"name":"LerN","steam_id":76561198083463877,"connected_time":3655000000000,"state":"active","ping":76},{"user_id":238,"name":"dynam_ic554","steam_id":76561199068623664,"connected_time":690000000000,"state":"active","ping":101},{"user_id":185,"name":"S T U N - S E E D but backwards","steam_id":76561198175955138,"connected_time":4494000000000,"state":"active","ping":88},{"user_id":203,"name":"on a sick one","steam_id":76561198327633561,"connected_time":2950000000000,"state":"active","ping":65},{"user_id":250,"name":"Brain Magic","steam_id":76561198010201477,"connected_time":195000000000,"state":"active","ping":79},{"user_id":223,"name":"Cyxzar","steam_id":76561198214066477,"connected_time":1605000000000,"state":"active","ping":48},{"user_id":135,"name":"TacoMan4Life","steam_id":76561198832562728,"connected_time":7268000000000,"state":"active","ping":82},{"user_id":239,"name":"doro","steam_id":76561198099041747,"connected_time":682000000000,"state":"active","ping":75},{"user_id":216,"name":"Steben","steam_id":76561198182247921,"connected_time":1877000000000,"state":"active","ping":53},{"user_id":244,"name":"SecretAgentMoose","steam_id":76561198121657843,"connected_time":507000000000,"state":"active","ping":94},{"user_id":241,"name":"extremophile","steam_id":76561198098631397,"connected_time":611000000000,"state":"active","ping":76},{"user_id":219,"name":"Legless Amphibian","steam_id":76561198880476222,"connected_time":1693000000000,"state":"active","ping":57},{"user_id":217,"name":"daD","steam_id":76561198188498762,"connected_time":1705000000000,"state":"active","ping":65},{"user_id":232,"name":"oncologist","steam_id":76561197997321386,"connected_time":1004000000000,"state":"active","ping":56},{"user_id":211,"name":"Splexiey","steam_id":76561199122155213,"connected_time":2697000000000,"state":"active","ping":82},{"user_id":109,"name":"selvhat","steam_id":76561198114225509,"connected_time":9931000000000,"state":"active","ping":71},{"user_id":251,"name":"ultraviolet","steam_id":76561198248461754,"connected_time":152000000000,"state":"active","ping":104},{"user_id":254,"name":"Ryzema","steam_id":76561198165594229,"connected_time":60000000000,"state":"active","ping":82},{"user_id":202,"name":"CALsHero09","steam_id":76561198155881095,"connected_time":2953000000000,"state":"active","ping":104}]},{"server_id":404,"name":"Uncletopia | Dallas | 3 | All Maps","name_short":"dal-3","host":"dal-1.us.uncletopia.com","port":27035,"enabled":true,"region":"us-central","cc":"us","latitude":32.779167,"longitude":-96.80889,"reserved":0,"last_update":"0001-01-01T00:00:00Z","name_a2s":"Uncletopia | Dallas | 3 | All Maps","protocol":17,"map":"cp_steel","folder":"tf","game":"Team Fortress","app_id":440,"player_count":24,"max_players":24,"Bots":0,"server_type":"Dedicated","server_os":"Linux","password":true,"vac":true,"version":"7961495","steam_id":85568392924515219,"keywords":["cp","nocrits","nodmgspread","uncletopia"],"game_id":440,"stv_port":27036,"stv_name":"Uncletopia | Dallas | 3 | All Maps | STV","players":[{"user_id":55,"name":"Young Sheldon Tik-Tok Clip","steam_id":76561198253927199,"connected_time":811000000000,"state":"active","ping":150},{"user_id":64,"name":"Jutsu","steam_id":76561198058671945,"connected_time":616000000000,"state":"active","ping":75},{"user_id":13,"name":"dantheman","steam_id":76561199486390813,"connected_time":4844000000000,"state":"active","ping":84},{"user_id":57,"name":"Sanic","steam_id":76561198083124962,"connected_time":766000000000,"state":"active","ping":74},{"user_id":25,"name":"Yamn Zaddy","steam_id":76561198074678001,"connected_time":3152000000000,"state":"active","ping":62},{"user_id":58,"name":"Rock Kickass","steam_id":76561198450510841,"connected_time":743000000000,"state":"active","ping":82},{"user_id":17,"name":"Da Policia","steam_id":76561198012762789,"connected_time":3812000000000,"state":"active","ping":46},{"user_id":59,"name":"pablo","steam_id":76561199182194253,"connected_time":713000000000,"state":"active","ping":78},{"user_id":52,"name":"Happy Bucket","steam_id":76561198066053527,"connected_time":1100000000000,"state":"active","ping":89},{"user_id":43,"name":"Xtar","steam_id":76561198301774048,"connected_time":2044000000000,"state":"active","ping":81},{"user_id":44,"name":"cbagels","steam_id":76561198453866972,"connected_time":1993000000000,"state":"active","ping":93},{"user_id":50,"name":"Doodly Noodles 魔鐘","steam_id":76561198007405067,"connected_time":1128000000000,"state":"active","ping":58},{"user_id":31,"name":"nerv","steam_id":76561198012678811,"connected_time":2912000000000,"state":"active","ping":81},{"user_id":66,"name":"Philo","steam_id":76561198061873341,"connected_time":477000000000,"state":"active","ping":89},{"user_id":33,"name":"BlueGhost","steam_id":76561199173223772,"connected_time":2564000000000,"state":"active","ping":48},{"user_id":34,"name":"Risky","steam_id":76561198231029328,"connected_time":2438000000000,"state":"active","ping":88},{"user_id":35,"name":"Mr.Pan","steam_id":76561198069030613,"connected_time":2438000000000,"state":"active","ping":63},{"user_id":67,"name":"Citizen Cyrus","steam_id":76561198158676927,"connected_time":355000000000,"state":"active","ping":67},{"user_id":38,"name":"King Cotton","steam_id":76561198292444376,"connected_time":2307000000000,"state":"active","ping":58},{"user_id":48,"name":"ruyon","steam_id":76561198376916657,"connected_time":1914000000000,"state":"active","ping":137},{"user_id":61,"name":"$3.99 shrimps","steam_id":76561198077272494,"connected_time":691000000000,"state":"active","ping":75},{"user_id":62,"name":"beardedchinchilla","steam_id":76561198106462464,"connected_time":630000000000,"state":"active","ping":61},{"user_id":63,"name":"Spinch","steam_id":76561198296224166,"connected_time":627000000000,"state":"active","ping":70},{"user_id":47,"name":"Propaniac Gaming ☑","steam_id":76561198133963270,"connected_time":1939000000000,"state":"active","ping":67}]},{"server_id":405,"name":"Uncletopia | Dallas | 4 | Community","name_short":"dal-4","host":"dal-1.us.uncletopia.com","port":27045,"enabled":true,"region":"us-central","cc":"us","latitude":32.779167,"longitude":-96.80889,"reserved":0,"last_update":"0001-01-01T00:00:00Z","name_a2s":"Uncletopia | Dallas | 4 | Community","protocol":17,"map":"workshop/koth_product_final.ugc454272353","folder":"tf","game":"Team Fortress","app_id":440,"player_count":0,"max_players":24,"Bots":0,"server_type":"Dedicated","server_os":"Linux","password":true,"vac":true,"version":"7961495","steam_id":85568392924515220,"keywords":["cp","nocrits","nodmgspread","uncletopia"],"game_id":440,"stv_port":27046,"stv_name":"Uncletopia | Dallas | 4 | Community | STV","players":null},{"server_id":5,"name":"Uncletopia | Frankfurt | 1 | All Maps","name_short":"frk-1","host":"frk-1.de.uncletopia.com","port":27015,"enabled":true,"region":"eu","cc":"de","latitude":50.110924,"longitude":8.682127,"reserved":0,"last_update":"0001-01-01T00:00:00Z","name_a2s":"Uncletopia | Frankfurt | 1 | All Maps","protocol":17,"map":"koth_cascade","folder":"tf","game":"Team Fortress","app_id":440,"player_count":0,"max_players":24,"Bots":0,"server_type":"Dedicated","server_os":"Linux","password":true,"vac":true,"version":"7961495","steam_id":85568392924469989,"keywords":["cp","nocrits","nodmgspread","uncletopia"],"game_id":440,"stv_port":27016,"stv_name":"Uncletopia | Frankfurt | 1 | All Maps | STV","players":null},{"server_id":110,"name":"Uncletopia | Frankfurt | 2 | All Maps","name_short":"frk-2","host":"frk-1.de.uncletopia.com","port":27025,"enabled":true,"region":"eu","cc":"de","latitude":50.110924,"longitude":8.682127,"reserved":0,"last_update":"0001-01-01T00:00:00Z","name_a2s":"Uncletopia | Frankfurt | 2 | All Maps","protocol":17,"map":"koth_cascade","folder":"tf","game":"Team Fortress","app_id":440,"player_count":0,"max_players":24,"Bots":0,"server_type":"Dedicated","server_os":"Linux","password":true,"vac":true,"version":"7961495","steam_id":85568392924469990,"keywords":["cp","nocrits","nodmgspread","uncletopia"],"game_id":440,"stv_port":27026,"stv_name":"Uncletopia | Frankfurt | 2 | All Maps | STV","players":null},{"server_id":308,"name":"Uncletopia | Frankfurt | 3 | All Maps","name_short":"frk-3","host":"frk-1.de.uncletopia.com","port":27035,"enabled":true,"region":"eu","cc":"de","latitude":50.110924,"longitude":8.682127,"reserved":0,"last_update":"0001-01-01T00:00:00Z","name_a2s":"Uncletopia | Frankfurt | 3 | All Maps","protocol":17,"map":"cp_process_final","folder":"tf","game":"Team Fortress","app_id":440,"player_count":24,"max_players":24,"Bots":0,"server_type":"Dedicated","server_os":"Linux","password":true,"vac":true,"version":"7961495","steam_id":85568392924504274,"keywords":["cp","nocrits","nodmgspread","uncletopia"],"game_id":440,"stv_port":27036,"stv_name":"Uncletopia | Frankfurt | 3 | All Maps | STV","players":[{"user_id":507,"name":"ChesseKnight","steam_id":76561198102476339,"connected_time":393000000000,"state":"active","ping":73},{"user_id":483,"name":"Tomex999","steam_id":76561198049587675,"connected_time":2174000000000,"state":"active","ping":78},{"user_id":503,"name":"Sweetcheesus","steam_id":76561198022299033,"connected_time":694000000000,"state":"active","ping":60},{"user_id":421,"name":"Bobirulez","steam_id":76561198009125458,"connected_time":7366000000000,"state":"active","ping":75},{"user_id":511,"name":"Jeryx","steam_id":76561197995602803,"connected_time":69000000000,"state":"active","ping":72},{"user_id":505,"name":"Lucky Number 13","steam_id":76561198043951279,"connected_time":622000000000,"state":"active","ping":67},{"user_id":506,"name":"agent youppii","steam_id":76561198055264447,"connected_time":570000000000,"state":"active","ping":70},{"user_id":478,"name":"Superiumentarius","steam_id":76561198081642249,"connected_time":2435000000000,"state":"active","ping":45},{"user_id":473,"name":"Drillbit","steam_id":76561198011421635,"connected_time":2805000000000,"state":"active","ping":55},{"user_id":429,"name":"Vershal Smershal","steam_id":76561198116223995,"connected_time":6394000000000,"state":"active","ping":59},{"user_id":474,"name":"Thundergodstonelate","steam_id":76561198040893623,"connected_time":2784000000000,"state":"active","ping":83},{"user_id":512,"name":"my mom","steam_id":76561199225201569,"connected_time":41000000000,"state":"active","ping":134},{"user_id":439,"name":"SPONGE","steam_id":76561198040933472,"connected_time":5452000000000,"state":"active","ping":60},{"user_id":451,"name":"Lance Corporal Boiled Egg","steam_id":76561197989717358,"connected_time":4715000000000,"state":"active","ping":50},{"user_id":415,"name":"Bajas","steam_id":76561198179339326,"connected_time":7486000000000,"state":"active","ping":81},{"user_id":513,"name":"Evoidant","steam_id":76561198160705594,"connected_time":14000000000,"state":"active","ping":53},{"user_id":466,"name":"Tigerente","steam_id":76561198075855969,"connected_time":3444000000000,"state":"active","ping":51},{"user_id":502,"name":"Wilderhammer","steam_id":76561198132133702,"connected_time":1037000000000,"state":"active","ping":44},{"user_id":509,"name":"Summer ♥","steam_id":76561198047723907,"connected_time":264000000000,"state":"active","ping":55},{"user_id":514,"name":"thekoolest88","steam_id":76561199022415672,"connected_time":11000000000,"state":"spawning","ping":134},{"user_id":486,"name":"Samou","steam_id":76561198116891858,"connected_time":2062000000000,"state":"active","ping":66},{"user_id":485,"name":"BoB's BurGers","steam_id":76561198273194512,"connected_time":2100000000000,"state":"active","ping":77},{"user_id":500,"name":"Bonca","steam_id":76561198137503531,"connected_time":1187000000000,"state":"active","ping":74},{"user_id":510,"name":"☁ Lou1smeister ☁","steam_id":76561198004032968,"connected_time":257000000000,"state":"active","ping":71}]},{"server_id":309,"name":"Uncletopia | Frankfurt | 4 | All Maps","name_short":"frk-4","host":"frk-1.de.uncletopia.com","port":27045,"enabled":true,"region":"eu","cc":"de","latitude":50.110924,"longitude":8.682127,"reserved":0,"last_update":"0001-01-01T00:00:00Z","name_a2s":"Uncletopia | Frankfurt | 4 | All Maps","protocol":17,"map":"koth_lakeside_final","folder":"tf","game":"Team Fortress","app_id":440,"player_count":0,"max_players":24,"Bots":0,"server_type":"Dedicated","server_os":"Linux","password":true,"vac":true,"version":"7961495","steam_id":85568392924504275,"keywords":["cp","nocrits","nodmgspread","uncletopia"],"game_id":440,"stv_port":27046,"stv_name":"Uncletopia | Frankfurt | 4 | All Maps | STV","players":null},{"server_id":310,"name":"Uncletopia | Frankfurt | 5 | All Maps","name_short":"frk-5","host":"frk-1.de.uncletopia.com","port":27055,"enabled":true,"region":"eu","cc":"de","latitude":50.110924,"longitude":8.682127,"reserved":0,"last_update":"0001-01-01T00:00:00Z","name_a2s":"Uncletopia | Frankfurt | 5 | All Maps","protocol":17,"map":"pl_upward","folder":"tf","game":"Team Fortress","app_id":440,"player_count":0,"max_players":24,"Bots":0,"server_type":"Dedicated","server_os":"Linux","password":true,"vac":true,"version":"7961495","steam_id":85568392924504277,"keywords":["nocrits","nodmgspread","payload","uncletopia"],"game_id":440,"stv_port":27056,"stv_name":"Uncletopia | Frankfurt | 5 | All Maps | STV","players":null},{"server_id":311,"name":"Uncletopia | Frankfurt | 6 | All Maps","name_short":"frk-6","host":"frk-1.de.uncletopia.com","port":27065,"enabled":true,"region":"eu","cc":"de","latitude":50.110924,"longitude":8.682127,"reserved":0,"last_update":"0001-01-01T00:00:00Z","name_a2s":"Uncletopia | Frankfurt | 6 | All Maps","protocol":17,"map":"koth_lakeside_final","folder":"tf","game":"Team Fortress","app_id":440,"player_count":0,"max_players":24,"Bots":0,"server_type":"Dedicated","server_os":"Linux","password":true,"vac":true,"version":"7961495","steam_id":85568392924504278,"keywords":["cp","nocrits","nodmgspread","uncletopia"],"game_id":440,"stv_port":27066,"stv_name":"Uncletopia | Frankfurt | 6 | All Maps | STV","players":null},{"server_id":23,"name":"Uncletopia | Frankfurt | 7 | Stopwatch","name_short":"frk-7","host":"frk-1.de.uncletopia.com","port":27075,"enabled":true,"region":"eu","cc":"de","latitude":50.110924,"longitude":8.682127,"reserved":0,"last_update":"0001-01-01T00:00:00Z","name_a2s":"Uncletopia | Frankfurt | 7 | Stopwatch","protocol":17,"map":"pl_borneo","folder":"tf","game":"Team Fortress","app_id":440,"player_count":20,"max_players":24,"Bots":0,"server_type":"Dedicated","server_os":"Linux","password":true,"vac":true,"version":"7961495","steam_id":85568392924742827,"keywords":["nocrits","nodmgspread","payload","uncletopia"],"game_id":440,"stv_port":27076,"stv_name":"Uncletopia | Frankfurt | 7 | Stopwatch | STV","players":[{"user_id":666,"name":"blake.roussel01","steam_id":76561198225907088,"connected_time":611000000000,"state":"active","ping":139},{"user_id":626,"name":"Wild Meep","steam_id":76561198199271438,"connected_time":4266000000000,"state":"active","ping":147},{"user_id":608,"name":"RAD","steam_id":76561197993028790,"connected_time":5273000000000,"state":"active","ping":61},{"user_id":667,"name":"RudiPrico4","steam_id":76561199014381495,"connected_time":570000000000,"state":"active","ping":45},{"user_id":574,"name":"God's Goofiest Goober","steam_id":76561198103175187,"connected_time":7734000000000,"state":"active","ping":57},{"user_id":668,"name":"Jozef Ricochet","steam_id":76561198807362540,"connected_time":540000000000,"state":"active","ping":84},{"user_id":648,"name":"Ran33","steam_id":76561197991474499,"connected_time":3150000000000,"state":"active","ping":94},{"user_id":662,"name":"MEGOS","steam_id":76561198172740637,"connected_time":1306000000000,"state":"active","ping":53},{"user_id":572,"name":"tapeworms!","steam_id":76561198069649097,"connected_time":8118000000000,"state":"active","ping":60},{"user_id":669,"name":"CBT","steam_id":76561199439141531,"connected_time":159000000000,"state":"active","ping":57},{"user_id":670,"name":"DankDuck","steam_id":76561198160086418,"connected_time":102000000000,"state":"active","ping":84},{"user_id":651,"name":"Pultow","steam_id":76561198023438448,"connected_time":2421000000000,"state":"active","ping":69},{"user_id":671,"name":"❤Speedbump❤","steam_id":76561198388690313,"connected_time":63000000000,"state":"active","ping":52},{"user_id":672,"name":"Pink Girl","steam_id":76561199073183192,"connected_time":30000000000,"state":"active","ping":253},{"user_id":611,"name":"Mal","steam_id":76561197999975704,"connected_time":5096000000000,"state":"active","ping":45},{"user_id":673,"name":"djst","steam_id":76561198278919161,"connected_time":12000000000,"state":"active","ping":80},{"user_id":674,"name":"Bruv","steam_id":76561198383157445,"connected_time":8000000000,"state":"active","ping":143},{"user_id":641,"name":"*Stare*","steam_id":76561199072209884,"connected_time":3480000000000,"state":"active","ping":60},{"user_id":646,"name":"Villiger","steam_id":76561199009560517,"connected_time":3285000000000,"state":"active","ping":45},{"user_id":642,"name":"hawker127","steam_id":76561198259488237,"connected_time":3468000000000,"state":"active","ping":52}]},{"server_id":24,"name":"Uncletopia | Frankfurt | 8 | Community","name_short":"frk-8","host":"frk-1.de.uncletopia.com","port":27085,"enabled":true,"region":"eu","cc":"de","latitude":50.110924,"longitude":8.682127,"reserved":0,"last_update":"0001-01-01T00:00:00Z","name_a2s":"Uncletopia | Frankfurt | 8 | Community","protocol":17,"map":"workshop/koth_trenchfoot_ab1.ugc731436616","folder":"tf","game":"Team Fortress","app_id":440,"player_count":0,"max_players":24,"Bots":0,"server_type":"Dedicated","server_os":"Linux","password":true,"vac":true,"version":"7961495","steam_id":85568392924742828,"keywords":["cp","nocrits","nodmgspread","uncletopia"],"game_id":440,"stv_port":27086,"stv_name":"Uncletopia | Frankfurt | 8 | Community | STV","players":null},{"server_id":202,"name":"Uncletopia | Hong Kong | 1 | All Maps","name_short":"hgk-1","host":"hgk-1.hk.uncletopia.com","port":27015,"enabled":true,"region":"asia","cc":"hk","latitude":22.302711,"longitude":114.177216,"reserved":0,"last_update":"0001-01-01T00:00:00Z","name_a2s":"Uncletopia | Hong Kong | 1 | All Maps","protocol":17,"map":"cp_gravelpit","folder":"tf","game":"Team Fortress","app_id":440,"player_count":0,"max_players":24,"Bots":0,"server_type":"Dedicated","server_os":"Linux","password":true,"vac":true,"version":"7961495","steam_id":85568392924494504,"keywords":["cp","nocrits","nodmgspread","uncletopia"],"game_id":440,"stv_port":27016,"stv_name":"Uncletopia | Hong Kong | 1 | All Maps | STV","players":null},{"server_id":1,"name":"Uncletopia | Los Angeles | 1 | All Maps","name_short":"lax-1","host":"lax-1.us.uncletopia.com","port":27015,"enabled":true,"region":"us-west","cc":"us","latitude":33.94279,"longitude":-118.41004,"reserved":0,"last_update":"0001-01-01T00:00:00Z","name_a2s":"Uncletopia | Los Angeles | 1 | All Maps","protocol":17,"map":"koth_viaduct","folder":"tf","game":"Team Fortress","app_id":440,"player_count":1,"max_players":24,"Bots":0,"server_type":"Dedicated","server_os":"Linux","password":true,"vac":true,"version":"7961495","steam_id":85568392924469991,"keywords":["cp","nocrits","nodmgspread","uncletopia"],"game_id":440,"stv_port":27016,"stv_name":"Uncletopia | Los Angeles | 1 | All Maps | STV","players":[{"user_id":10,"name":"Silence","steam_id":76561197962448566,"connected_time":47000000000,"state":"active","ping":45}]},{"server_id":112,"name":"Uncletopia | Los Angeles | 2 | All Maps","name_short":"lax-2","host":"lax-1.us.uncletopia.com","port":27025,"enabled":true,"region":"us-west","cc":"us","latitude":33.94279,"longitude":-118.41004,"reserved":0,"last_update":"0001-01-01T00:00:00Z","name_a2s":"Uncletopia | Los Angeles | 2 | All Maps","protocol":17,"map":"koth_cascade","folder":"tf","game":"Team Fortress","app_id":440,"player_count":0,"max_players":24,"Bots":0,"server_type":"Dedicated","server_os":"Linux","password":true,"vac":true,"version":"7961495","steam_id":85568392924469992,"keywords":["cp","nocrits","nodmgspread","uncletopia"],"game_id":440,"stv_port":27026,"stv_name":"Uncletopia | Los Angeles | 2 | All Maps | STV","players":null},{"server_id":324,"name":"Uncletopia | Los Angeles | 3 | All Maps","name_short":"lax-3","host":"lax-1.us.uncletopia.com","port":27035,"enabled":true,"region":"us-west","cc":"us","latitude":33.94279,"longitude":-118.41004,"reserved":0,"last_update":"0001-01-01T00:00:00Z","name_a2s":"Uncletopia | Los Angeles | 3 | All Maps","protocol":17,"map":"pl_frontier_final","folder":"tf","game":"Team Fortress","app_id":440,"player_count":15,"max_players":24,"Bots":0,"server_type":"Dedicated","server_os":"Linux","password":true,"vac":true,"version":"7961495","steam_id":85568392924510198,"keywords":["nocrits","nodmgspread","payload","uncletopia"],"game_id":440,"stv_port":27036,"stv_name":"Uncletopia | Los Angeles | 3 | All Maps | STV","players":[{"user_id":11,"name":"shrimpboi783","steam_id":76561199091069924,"connected_time":2350000000000,"state":"active","ping":43},{"user_id":13,"name":"MiTiP","steam_id":76561198868699864,"connected_time":1556000000000,"state":"active","ping":79},{"user_id":16,"name":"Meat Dragon","steam_id":76561198120319256,"connected_time":849000000000,"state":"active","ping":104},{"user_id":18,"name":"Evarrel","steam_id":76561199508242414,"connected_time":745000000000,"state":"active","ping":69},{"user_id":19,"name":"booxofdeath","steam_id":76561198358253942,"connected_time":688000000000,"state":"active","ping":33},{"user_id":21,"name":"Quibl","steam_id":76561199110591930,"connected_time":307000000000,"state":"active","ping":80},{"user_id":22,"name":"Mr.Bones","steam_id":76561198205170595,"connected_time":288000000000,"state":"active","ping":78},{"user_id":31,"name":"joecool","steam_id":76561198414164768,"connected_time":55000000000,"state":"active","ping":32},{"user_id":24,"name":"Gazelle","steam_id":76561198336397088,"connected_time":257000000000,"state":"active","ping":50},{"user_id":25,"name":"day6","steam_id":76561198168492250,"connected_time":239000000000,"state":"active","ping":52},{"user_id":26,"name":"POSTAL_Dude","steam_id":76561199229560501,"connected_time":212000000000,"state":"active","ping":59},{"user_id":28,"name":"hyazz","steam_id":76561199100342013,"connected_time":125000000000,"state":"active","ping":46},{"user_id":29,"name":"AkshA","steam_id":76561198369212102,"connected_time":98000000000,"state":"active","ping":292},{"user_id":30,"name":"mkl","steam_id":76561197986401685,"connected_time":80000000000,"state":"active","ping":90},{"user_id":32,"name":"Manwiththeblue","steam_id":76561198895919404,"connected_time":46000000000,"state":"active","ping":31}]},{"server_id":25,"name":"Uncletopia | Los Angeles | 4 | Stopwatch","name_short":"lax-4","host":"lax-1.us.uncletopia.com","port":27045,"enabled":true,"region":"us-west","cc":"us","latitude":33.94279,"longitude":-118.41004,"reserved":0,"last_update":"0001-01-01T00:00:00Z","name_a2s":"Uncletopia | Los Angeles | 4 | Stopwatch","protocol":17,"map":"koth_highpass","folder":"tf","game":"Team Fortress","app_id":440,"player_count":0,"max_players":24,"Bots":0,"server_type":"Dedicated","server_os":"Linux","password":true,"vac":true,"version":"7961495","steam_id":85568392924510199,"keywords":["cp","nocrits","nodmgspread","uncletopia"],"game_id":440,"stv_port":27046,"stv_name":"Uncletopia | Los Angeles | 4 | Stopwatch | STV","players":null},{"server_id":11,"name":"Uncletopia | London | 1 | All Maps","name_short":"lon-1","host":"lon-1.uk.uncletopia.com","port":27015,"enabled":true,"region":"eu","cc":"gb","latitude":51.509865,"longitude":-0.118092,"reserved":0,"last_update":"0001-01-01T00:00:00Z","name_a2s":"Uncletopia | London | 1 | All Maps","protocol":17,"map":"pl_pier","folder":"tf","game":"Team Fortress","app_id":440,"player_count":24,"max_players":24,"Bots":0,"server_type":"Dedicated","server_os":"Linux","password":true,"vac":true,"version":"7961495","steam_id":85568392924367362,"keywords":["nocrits","nodmgspread","payload","uncletopia"],"game_id":440,"stv_port":27016,"stv_name":"Uncletopia | London | 1 | All Maps | STV","players":[{"user_id":1171,"name":"Lubrsi","steam_id":76561198040208195,"connected_time":1387000000000,"state":"active","ping":51},{"user_id":1173,"name":"em ❤","steam_id":76561198156678840,"connected_time":946000000000,"state":"active","ping":42},{"user_id":1175,"name":"Joo ♦","steam_id":76561197987609203,"connected_time":749000000000,"state":"active","ping":69},{"user_id":1140,"name":"Minimi","steam_id":76561198873850443,"connected_time":3995000000000,"state":"active","ping":46},{"user_id":1166,"name":"Sabour","steam_id":76561197963965445,"connected_time":1525000000000,"state":"active","ping":51},{"user_id":1172,"name":"JimGrimm","steam_id":76561198044573050,"connected_time":1354000000000,"state":"active","ping":133},{"user_id":1155,"name":"waj","steam_id":76561198053628243,"connected_time":2821000000000,"state":"active","ping":45},{"user_id":1177,"name":"your personal medic","steam_id":76561197961707932,"connected_time":627000000000,"state":"active","ping":60},{"user_id":1146,"name":"jean","steam_id":76561198060780111,"connected_time":3546000000000,"state":"active","ping":74},{"user_id":1116,"name":"Yelowchy","steam_id":76561198199416121,"connected_time":5484000000000,"state":"active","ping":69},{"user_id":1121,"name":"Sandshee","steam_id":76561198088574666,"connected_time":5421000000000,"state":"active","ping":45},{"user_id":1158,"name":"Caramel","steam_id":76561198021214844,"connected_time":2592000000000,"state":"active","ping":50},{"user_id":1163,"name":"Bill Carr","steam_id":76561198110033943,"connected_time":1767000000000,"state":"active","ping":35},{"user_id":1152,"name":"egirlcatnip","steam_id":76561198276104603,"connected_time":2997000000000,"state":"active","ping":64},{"user_id":1143,"name":"sora (live)","steam_id":76561198096547662,"connected_time":3943000000000,"state":"active","ping":48},{"user_id":1156,"name":"rat","steam_id":76561198130412963,"connected_time":2791000000000,"state":"active","ping":162},{"user_id":1144,"name":"GIRLBITER alice","steam_id":76561198180361759,"connected_time":3922000000000,"state":"active","ping":42},{"user_id":1159,"name":"be upside down","steam_id":76561198122226417,"connected_time":2445000000000,"state":"active","ping":43},{"user_id":1142,"name":"✿aura✿","steam_id":76561198066258544,"connected_time":3992000000000,"state":"active","ping":54},{"user_id":1160,"name":"how can a fucking sausage","steam_id":76561198094560834,"connected_time":2414000000000,"state":"active","ping":45},{"user_id":1170,"name":"john","steam_id":76561198245582196,"connected_time":1424000000000,"state":"active","ping":294},{"user_id":1128,"name":"Ziemniaczki","steam_id":76561198061866742,"connected_time":4623000000000,"state":"active","ping":64},{"user_id":1145,"name":"Laru","steam_id":76561197998838438,"connected_time":3571000000000,"state":"active","ping":89},{"user_id":1174,"name":"Jon","steam_id":76561199380849468,"connected_time":945000000000,"state":"active","ping":68}]},{"server_id":114,"name":"Uncletopia | London | 2 | All Maps","name_short":"lon-2","host":"lon-1.uk.uncletopia.com","port":27025,"enabled":true,"region":"eu","cc":"gb","latitude":51.509865,"longitude":-0.118092,"reserved":0,"last_update":"0001-01-01T00:00:00Z","name_a2s":"Uncletopia | London | 2 | All Maps","protocol":17,"map":"pl_borneo","folder":"tf","game":"Team Fortress","app_id":440,"player_count":24,"max_players":24,"Bots":0,"server_type":"Dedicated","server_os":"Linux","password":true,"vac":true,"version":"7961495","steam_id":85568392924470941,"keywords":["nocrits","nodmgspread","payload","uncletopia"],"game_id":440,"stv_port":27026,"stv_name":"Uncletopia | London | 2 | All Maps | STV","players":[{"user_id":507,"name":"Haha?","steam_id":76561198056882245,"connected_time":511000000000,"state":"active","ping":43},{"user_id":518,"name":"jack'o classes","steam_id":76561199030218131,"connected_time":145000000000,"state":"active","ping":42},{"user_id":453,"name":"Gorgeous George","steam_id":76561198144256544,"connected_time":3462000000000,"state":"active","ping":48},{"user_id":445,"name":"lexi ★","steam_id":76561198988695461,"connected_time":3588000000000,"state":"active","ping":85},{"user_id":506,"name":"Henry","steam_id":76561198108018305,"connected_time":563000000000,"state":"active","ping":84},{"user_id":508,"name":"Wolviller111","steam_id":76561198098570009,"connected_time":469000000000,"state":"active","ping":55},{"user_id":517,"name":"ROX","steam_id":76561198272289320,"connected_time":266000000000,"state":"active","ping":45},{"user_id":477,"name":"colonelpuppycorn","steam_id":76561198964360520,"connected_time":1904000000000,"state":"active","ping":160},{"user_id":515,"name":"Ryan Gosling (Literally me)","steam_id":76561198438150893,"connected_time":344000000000,"state":"active","ping":102},{"user_id":519,"name":"Skaza","steam_id":76561198010292540,"connected_time":138000000000,"state":"active","ping":74},{"user_id":505,"name":"doctor sex","steam_id":76561198029044617,"connected_time":613000000000,"state":"active","ping":45},{"user_id":442,"name":"yuri boy","steam_id":76561198024292352,"connected_time":3668000000000,"state":"active","ping":65},{"user_id":433,"name":"Bubbah🐾","steam_id":76561198061730609,"connected_time":4132000000000,"state":"active","ping":88},{"user_id":510,"name":"Skinny101","steam_id":76561197985599360,"connected_time":448000000000,"state":"active","ping":44},{"user_id":480,"name":"jeff","steam_id":76561198272815746,"connected_time":1851000000000,"state":"active","ping":51},{"user_id":394,"name":"HoneyBe_","steam_id":76561198288930154,"connected_time":8430000000000,"state":"active","ping":59},{"user_id":444,"name":"⭐Bv","steam_id":76561198048943710,"connected_time":3593000000000,"state":"active","ping":53},{"user_id":511,"name":"Watermelon","steam_id":76561198078349914,"connected_time":427000000000,"state":"active","ping":51},{"user_id":520,"name":"Gnome Hunter","steam_id":76561198878206817,"connected_time":114000000000,"state":"active","ping":57},{"user_id":497,"name":"OutOfDucks","steam_id":76561198166376227,"connected_time":1410000000000,"state":"active","ping":57},{"user_id":514,"name":"r06u3","steam_id":76561198254099253,"connected_time":386000000000,"state":"active","ping":177},{"user_id":499,"name":"i miss you","steam_id":76561197980736364,"connected_time":1161000000000,"state":"active","ping":76},{"user_id":492,"name":"smiley","steam_id":76561198042245117,"connected_time":1620000000000,"state":"active","ping":53},{"user_id":487,"name":"Danny Mullen Freed The Slaves","steam_id":76561198198803773,"connected_time":1753000000000,"state":"active","ping":63}]},{"server_id":320,"name":"Uncletopia | London | 3 | All Maps","name_short":"lon-3","host":"lon-1.uk.uncletopia.com","port":27035,"enabled":true,"region":"eu","cc":"gb","latitude":51.509865,"longitude":-0.118092,"reserved":0,"last_update":"0001-01-01T00:00:00Z","name_a2s":"Uncletopia | London | 3 | All Maps","protocol":17,"map":"cp_dustbowl","folder":"tf","game":"Team Fortress","app_id":440,"player_count":0,"max_players":24,"Bots":0,"server_type":"Dedicated","server_os":"Linux","password":true,"vac":true,"version":"7961495","steam_id":85568392924510192,"keywords":["cp","nocrits","nodmgspread","uncletopia"],"game_id":440,"stv_port":27036,"stv_name":"Uncletopia | London | 3 | All Maps | STV","players":null},{"server_id":321,"name":"Uncletopia | London | 4 | All Maps","name_short":"lon-4","host":"lon-1.uk.uncletopia.com","port":27045,"enabled":true,"region":"eu","cc":"gb","latitude":51.509865,"longitude":-0.118092,"reserved":0,"last_update":"0001-01-01T00:00:00Z","name_a2s":"Uncletopia | London | 4 | All Maps","protocol":17,"map":"pl_upward","folder":"tf","game":"Team Fortress","app_id":440,"player_count":24,"max_players":24,"Bots":0,"server_type":"Dedicated","server_os":"Linux","password":true,"vac":true,"version":"7961495","steam_id":85568392924510193,"keywords":["nocrits","nodmgspread","payload","uncletopia"],"game_id":440,"stv_port":27046,"stv_name":"Uncletopia | London | 4 | All Maps | STV","players":[{"user_id":417,"name":"free back real estate","steam_id":76561197999437155,"connected_time":3651000000000,"state":"active","ping":40},{"user_id":433,"name":"dyzio","steam_id":76561198387858937,"connected_time":2801000000000,"state":"active","ping":95},{"user_id":461,"name":"Auntie Jane The Demo Main","steam_id":76561199154515506,"connected_time":583000000000,"state":"active","ping":40},{"user_id":435,"name":"Plague","steam_id":76561198053648794,"connected_time":2377000000000,"state":"active","ping":47},{"user_id":462,"name":"toni","steam_id":76561198159304317,"connected_time":535000000000,"state":"active","ping":75},{"user_id":436,"name":"ort","steam_id":76561198304985645,"connected_time":2352000000000,"state":"active","ping":69},{"user_id":463,"name":"gaming (official)","steam_id":76561198106012909,"connected_time":478000000000,"state":"active","ping":73},{"user_id":464,"name":"Team Fortress","steam_id":76561198058722801,"connected_time":438000000000,"state":"active","ping":47},{"user_id":466,"name":"eMcP","steam_id":76561198382509396,"connected_time":401000000000,"state":"active","ping":57},{"user_id":430,"name":"Palcówa","steam_id":76561199044887226,"connected_time":2917000000000,"state":"active","ping":62},{"user_id":473,"name":"ediheelo","steam_id":76561198363615045,"connected_time":71000000000,"state":"active","ping":63},{"user_id":474,"name":"o","steam_id":76561198084853733,"connected_time":29000000000,"state":"spawning","ping":88},{"user_id":467,"name":"chonkster","steam_id":76561198316059681,"connected_time":393000000000,"state":"active","ping":59},{"user_id":449,"name":"Luchar","steam_id":76561198065089732,"connected_time":1317000000000,"state":"active","ping":71},{"user_id":471,"name":"Aftiks","steam_id":76561198875182686,"connected_time":296000000000,"state":"active","ping":92},{"user_id":468,"name":"Totally_faraam","steam_id":76561199230162663,"connected_time":380000000000,"state":"active","ping":130},{"user_id":445,"name":"dzirau","steam_id":76561198068680178,"connected_time":1668000000000,"state":"active","ping":55},{"user_id":451,"name":"A Table","steam_id":76561198056456470,"connected_time":1278000000000,"state":"active","ping":62},{"user_id":460,"name":"Blar","steam_id":76561198042438229,"connected_time":822000000000,"state":"active","ping":51},{"user_id":469,"name":"Vince","steam_id":76561199103000131,"connected_time":332000000000,"state":"active","ping":40},{"user_id":455,"name":"Hyppy ja liipasin pohjaan :D","steam_id":76561198080669698,"connected_time":1188000000000,"state":"active","ping":83},{"user_id":470,"name":"Munchkin","steam_id":76561198119528210,"connected_time":305000000000,"state":"active","ping":45},{"user_id":459,"name":"tomydjoh","steam_id":76561198077421906,"connected_time":994000000000,"state":"active","ping":47},{"user_id":472,"name":"STiNGHAN","steam_id":76561198023989090,"connected_time":201000000000,"state":"active","ping":75}]},{"server_id":21,"name":"Uncletopia | London | 5 | All Maps","name_short":"lon-5","host":"lon-1.uk.uncletopia.com","port":27055,"enabled":true,"region":"eu","cc":"gb","latitude":51.509865,"longitude":-0.118092,"reserved":0,"last_update":"0001-01-01T00:00:00Z","name_a2s":"Uncletopia | London | 5 | All Maps","protocol":17,"map":"pl_pier","folder":"tf","game":"Team Fortress","app_id":440,"player_count":0,"max_players":24,"Bots":0,"server_type":"Dedicated","server_os":"Linux","password":true,"vac":true,"version":"7961495","steam_id":85568392924742829,"keywords":["nocrits","nodmgspread","payload","uncletopia"],"game_id":440,"stv_port":27056,"stv_name":"Uncletopia | London | 5 | All Maps | STV","players":null},{"server_id":22,"name":"Uncletopia | London | 6 | All Maps","name_short":"lon-6","host":"lon-1.uk.uncletopia.com","port":27065,"enabled":true,"region":"eu","cc":"gb","latitude":51.509865,"longitude":-0.118092,"reserved":0,"last_update":"0001-01-01T00:00:00Z","name_a2s":"Uncletopia | London | 6 | All Maps","protocol":17,"map":"pl_frontier_final","folder":"tf","game":"Team Fortress","app_id":440,"player_count":24,"max_players":24,"Bots":0,"server_type":"Dedicated","server_os":"Linux","password":true,"vac":true,"version":"7961495","steam_id":85568392924742830,"keywords":["nocrits","nodmgspread","payload","uncletopia"],"game_id":440,"stv_port":27066,"stv_name":"Uncletopia | London | 6 | All Maps | STV","players":[{"user_id":282,"name":"Grumps","steam_id":76561198014384637,"connected_time":4127000000000,"state":"active","ping":39},{"user_id":325,"name":"KittyKate ❤","steam_id":76561198116340817,"connected_time":1048000000000,"state":"active","ping":60},{"user_id":339,"name":"egc","steam_id":76561198052948489,"connected_time":600000000000,"state":"active","ping":90},{"user_id":320,"name":"I failed by DBS check","steam_id":76561198136239861,"connected_time":1824000000000,"state":"active","ping":50},{"user_id":338,"name":"ToTenLis","steam_id":76561198168581334,"connected_time":698000000000,"state":"active","ping":95},{"user_id":326,"name":"BuzzBees ❤","steam_id":76561198101502273,"connected_time":1027000000000,"state":"active","ping":54},{"user_id":327,"name":"Plop_","steam_id":76561198112567921,"connected_time":942000000000,"state":"active","ping":44},{"user_id":328,"name":"Dozer","steam_id":76561197998742338,"connected_time":888000000000,"state":"active","ping":53},{"user_id":336,"name":"Lemon","steam_id":76561198188535947,"connected_time":760000000000,"state":"active","ping":68},{"user_id":280,"name":"geriatric joel","steam_id":76561198132922827,"connected_time":4200000000000,"state":"active","ping":41},{"user_id":281,"name":"MEOWRON","steam_id":76561198423803012,"connected_time":4199000000000,"state":"active","ping":50},{"user_id":329,"name":"dodge","steam_id":76561198085296668,"connected_time":886000000000,"state":"active","ping":43},{"user_id":296,"name":"w+m1","steam_id":76561198010428082,"connected_time":3285000000000,"state":"active","ping":62},{"user_id":333,"name":"SoaCrow","steam_id":76561198069420717,"connected_time":821000000000,"state":"active","ping":60},{"user_id":331,"name":"Dr Bondus Bolongus Dongus","steam_id":76561198378657692,"connected_time":833000000000,"state":"active","ping":47},{"user_id":315,"name":"Friendly Guy","steam_id":76561197998449897,"connected_time":2113000000000,"state":"active","ping":147},{"user_id":285,"name":"Marty Pants","steam_id":76561198004449634,"connected_time":4101000000000,"state":"active","ping":56},{"user_id":344,"name":"Cooki","steam_id":76561198051705314,"connected_time":357000000000,"state":"active","ping":138},{"user_id":332,"name":"Steen","steam_id":76561198122992510,"connected_time":833000000000,"state":"active","ping":75},{"user_id":345,"name":"Saken","steam_id":76561198049075295,"connected_time":349000000000,"state":"active","ping":60},{"user_id":347,"name":"help","steam_id":76561199056338917,"connected_time":241000000000,"state":"active","ping":139},{"user_id":335,"name":"CiVillain","steam_id":76561198059617732,"connected_time":817000000000,"state":"active","ping":72},{"user_id":290,"name":"LivEssense","steam_id":76561198052476979,"connected_time":3985000000000,"state":"active","ping":88},{"user_id":218,"name":"b0g","steam_id":76561198051124946,"connected_time":7514000000000,"state":"active","ping":51}]},{"server_id":40,"name":"Uncletopia | London | 7 | Stopwatch","name_short":"lon-7","host":"lon-1.uk.uncletopia.com","port":27075,"enabled":true,"region":"eu","cc":"gb","latitude":51.509865,"longitude":-0.118092,"reserved":0,"last_update":"0001-01-01T00:00:00Z","name_a2s":"Uncletopia | London | 7 | Stopwatch","protocol":17,"map":"workshop/koth_clearcut_b15.ugc2107050255","folder":"tf","game":"Team Fortress","app_id":440,"player_count":0,"max_players":24,"Bots":0,"server_type":"Dedicated","server_os":"Linux","password":true,"vac":true,"version":"7961495","steam_id":85568392924964314,"keywords":["cp","nocrits","nodmgspread","uncletopia"],"game_id":440,"stv_port":27076,"stv_name":"Uncletopia | London | 7 | Stopwatch | STV","players":null},{"server_id":41,"name":"Uncletopia | London | 8 | Community","name_short":"lon-8","host":"lon-1.uk.uncletopia.com","port":27085,"enabled":true,"region":"eu","cc":"gb","latitude":51.509865,"longitude":-0.118092,"reserved":0,"last_update":"0001-01-01T00:00:00Z","name_a2s":"Uncletopia | London | 8 | Community","protocol":17,"map":"workshop/pl_boundary_final1.ugc456799153","folder":"tf","game":"Team Fortress","app_id":440,"player_count":0,"max_players":24,"Bots":0,"server_type":"Dedicated","server_os":"Linux","password":true,"vac":true,"version":"7961495","steam_id":85568392924964315,"keywords":["nocrits","nodmgspread","payload","uncletopia"],"game_id":440,"stv_port":27086,"stv_name":"Uncletopia | London | 8 | Community | STV","players":null},{"server_id":300,"name":"Uncletopia | Montréal | 1 | One Thousand Uncles","name_short":"mtl-1","host":"mtl-1.ca.uncletopia.com","port":27015,"enabled":true,"region":"us-east","cc":"ca","latitude":45.50889,"longitude":-73.56167,"reserved":0,"last_update":"0001-01-01T00:00:00Z","name_a2s":"Uncletopia | Montréal | 1 | One Thousand Uncles","protocol":17,"map":"cp_egypt_final","folder":"tf","game":"Team Fortress","app_id":440,"player_count":24,"max_players":32,"Bots":16,"server_type":"Dedicated","server_os":"Linux","password":true,"vac":true,"version":"7961495","steam_id":85568392924500087,"keywords":["alltalk","bots","cp","danepve","increased_maxplayers","norespawntime","uncletopia"],"game_id":440,"stv_port":0,"stv_name":"","players":[{"user_id":272,"name":"morbidly a beast","steam_id":76561198061653298,"connected_time":185000000000,"state":"active","ping":53},{"user_id":250,"name":"Robert Nutbar","steam_id":76561198062334757,"connected_time":925000000000,"state":"active","ping":69},{"user_id":273,"name":"Koshiethedeathless","steam_id":76561199090202897,"connected_time":149000000000,"state":"active","ping":71},{"user_id":240,"name":"tree","steam_id":76561198061189527,"connected_time":1591000000000,"state":"active","ping":73},{"user_id":207,"name":"flamingo","steam_id":76561198854099251,"connected_time":3949000000000,"state":"active","ping":213},{"user_id":248,"name":"DrMisteryous2","steam_id":76561198336307012,"connected_time":1301000000000,"state":"active","ping":167},{"user_id":274,"name":"Ze Healing","steam_id":76561198292152075,"connected_time":41000000000,"state":"active","ping":47},{"user_id":246,"name":"LeFunnyMan","steam_id":76561199081645289,"connected_time":1364000000000,"state":"active","ping":75}]},{"server_id":301,"name":"Uncletopia | Montréal | 2 | One Thousand Uncles","name_short":"mtl-2","host":"mtl-1.ca.uncletopia.com","port":27025,"enabled":true,"region":"us-east","cc":"ca","latitude":45.50889,"longitude":-73.56167,"reserved":0,"last_update":"0001-01-01T00:00:00Z","name_a2s":"Uncletopia | Montréal | 2 | One Thousand Uncles","protocol":17,"map":"pl_chilly","folder":"tf","game":"Team Fortress","app_id":440,"player_count":0,"max_players":32,"Bots":0,"server_type":"Dedicated","server_os":"Linux","password":true,"vac":true,"version":"7961495","steam_id":85568392924500088,"keywords":["alltalk","danepve","increased_maxplayers","norespawntime","payload","uncletopia"],"game_id":440,"stv_port":0,"stv_name":"","players":null},{"server_id":302,"name":"Uncletopia | Montréal | 3 | One Thousand Uncles","name_short":"mtl-3","host":"mtl-1.ca.uncletopia.com","port":27035,"enabled":true,"region":"us-east","cc":"ca","latitude":45.50889,"longitude":-73.56167,"reserved":0,"last_update":"0001-01-01T00:00:00Z","name_a2s":"Uncletopia | Montréal | 3 | One Thousand Uncles","protocol":17,"map":"pl_upward","folder":"tf","game":"Team Fortress","app_id":440,"player_count":20,"max_players":32,"Bots":16,"server_type":"Dedicated","server_os":"Linux","password":true,"vac":true,"version":"7961495","steam_id":85568392924500089,"keywords":["alltalk","bots","danepve","increased_maxplayers","norespawntime","payload","uncletopia"],"game_id":440,"stv_port":0,"stv_name":"","players":[{"user_id":154,"name":"bundykeats","steam_id":76561199214099646,"connected_time":745000000000,"state":"active","ping":75},{"user_id":171,"name":"bruhuk obama","steam_id":76561199465581064,"connected_time":448000000000,"state":"active","ping":86},{"user_id":172,"name":"Angstrom Boli","steam_id":76561198025670585,"connected_time":316000000000,"state":"active","ping":77},{"user_id":173,"name":"Metal Silver","steam_id":76561198422159570,"connected_time":257000000000,"state":"active","ping":84}]},{"server_id":13,"name":"Uncletopia | New York City | 1 | All Maps","name_short":"nyc-1","host":"nyc-1.us.uncletopia.com","port":27015,"enabled":true,"region":"us-east","cc":"us","latitude":40.73061,"longitude":-73.93524,"reserved":0,"last_update":"0001-01-01T00:00:00Z","name_a2s":"Uncletopia | New York City | 1 | All Maps","protocol":17,"map":"koth_brazil","folder":"tf","game":"Team Fortress","app_id":440,"player_count":0,"max_players":24,"Bots":0,"server_type":"Dedicated","server_os":"Linux","password":true,"vac":true,"version":"7961495","steam_id":85568392924469993,"keywords":["cp","nocrits","nodmgspread","uncletopia"],"game_id":440,"stv_port":27016,"stv_name":"Uncletopia | New York City | 1 | All Maps | STV","players":null},{"server_id":14,"name":"Uncletopia | New York City | 2 | All Maps","name_short":"nyc-2","host":"nyc-1.us.uncletopia.com","port":27025,"enabled":true,"region":"us-east","cc":"us","latitude":40.73061,"longitude":-73.93524,"reserved":0,"last_update":"0001-01-01T00:00:00Z","name_a2s":"Uncletopia | New York City | 2 | All Maps","protocol":17,"map":"cp_gorge","folder":"tf","game":"Team Fortress","app_id":440,"player_count":24,"max_players":24,"Bots":0,"server_type":"Dedicated","server_os":"Linux","password":true,"vac":true,"version":"7961495","steam_id":85568392924469994,"keywords":["cp","nocrits","nodmgspread","uncletopia"],"game_id":440,"stv_port":27026,"stv_name":"Uncletopia | New York City | 2 | All Maps | STV","players":[{"user_id":19,"name":"Noobert McGlitchington the 3st","steam_id":76561198073176682,"connected_time":5069000000000,"state":"active","ping":72},{"user_id":20,"name":"ʏᴜᴊɪ","steam_id":76561198401572620,"connected_time":5022000000000,"state":"active","ping":70},{"user_id":74,"name":"Exhiet","steam_id":76561198218111020,"connected_time":1785000000000,"state":"active","ping":60},{"user_id":95,"name":"DrMania82","steam_id":76561198113086878,"connected_time":502000000000,"state":"active","ping":73},{"user_id":82,"name":"Baron von Whoopsie","steam_id":76561197996691013,"connected_time":1182000000000,"state":"active","ping":56},{"user_id":90,"name":"RectalExam","steam_id":76561197970502312,"connected_time":611000000000,"state":"active","ping":90},{"user_id":72,"name":"✪Type_Alpha","steam_id":76561198122780598,"connected_time":2045000000000,"state":"active","ping":59},{"user_id":26,"name":"OKLOLOM3","steam_id":76561199151881507,"connected_time":4621000000000,"state":"active","ping":52},{"user_id":91,"name":"Ptahotep","steam_id":76561198008708645,"connected_time":600000000000,"state":"active","ping":112},{"user_id":64,"name":"majorbobfunction","steam_id":76561198042464632,"connected_time":2800000000000,"state":"active","ping":61},{"user_id":76,"name":"mhm.","steam_id":76561198085815757,"connected_time":1703000000000,"state":"active","ping":61},{"user_id":71,"name":"owlbortch","steam_id":76561198042849350,"connected_time":2188000000000,"state":"active","ping":84},{"user_id":83,"name":"People's_Hero","steam_id":76561198103255788,"connected_time":1111000000000,"state":"active","ping":50},{"user_id":78,"name":"leon my beloved","steam_id":76561198089430717,"connected_time":1691000000000,"state":"active","ping":80},{"user_id":87,"name":"Im totally a hacker","steam_id":76561198888005736,"connected_time":864000000000,"state":"active","ping":69},{"user_id":84,"name":"lliwwill1","steam_id":76561198116603193,"connected_time":1077000000000,"state":"active","ping":62},{"user_id":79,"name":"AquaTsunami","steam_id":76561199085473809,"connected_time":1689000000000,"state":"active","ping":54},{"user_id":65,"name":"Coop","steam_id":76561198042839356,"connected_time":2770000000000,"state":"active","ping":60},{"user_id":60,"name":"just call me joe","steam_id":76561198043911582,"connected_time":3007000000000,"state":"active","ping":47},{"user_id":66,"name":"MR DADDY","steam_id":76561198350794663,"connected_time":2734000000000,"state":"active","ping":55},{"user_id":96,"name":"frenemy","steam_id":76561198011363677,"connected_time":453000000000,"state":"active","ping":75},{"user_id":80,"name":"meow :3","steam_id":76561198236343140,"connected_time":1664000000000,"state":"active","ping":74},{"user_id":51,"name":"Mer","steam_id":76561198192171041,"connected_time":4049000000000,"state":"active","ping":106},{"user_id":98,"name":"Leethalweapon","steam_id":76561198412167609,"connected_time":349000000000,"state":"active","ping":76}]},{"server_id":15,"name":"Uncletopia | New York City | 3 | Stopwatch","name_short":"nyc-3","host":"nyc-1.us.uncletopia.com","port":27035,"enabled":true,"region":"us-east","cc":"us","latitude":40.73061,"longitude":-73.93524,"reserved":0,"last_update":"0001-01-01T00:00:00Z","name_a2s":"Uncletopia | New York City | 3 | Stopwatch","protocol":17,"map":"workshop/cp_reckoner_rc6.ugc674719999","folder":"tf","game":"Team Fortress","app_id":440,"player_count":0,"max_players":24,"Bots":0,"server_type":"Dedicated","server_os":"Linux","password":true,"vac":true,"version":"7961495","steam_id":85568392924742820,"keywords":["cp","nocrits","nodmgspread","uncletopia"],"game_id":440,"stv_port":27036,"stv_name":"Uncletopia | New York City | 3 | Stopwatch | STV","players":null},{"server_id":16,"name":"Uncletopia | New York City | 4 | Community","name_short":"nyc-4","host":"nyc-1.us.uncletopia.com","port":27045,"enabled":true,"region":"us-east","cc":"us","latitude":40.73061,"longitude":-73.93524,"reserved":0,"last_update":"0001-01-01T00:00:00Z","name_a2s":"Uncletopia | New York City | 4 | Community","protocol":17,"map":"workshop/cp_indulge.ugc528106646","folder":"tf","game":"Team Fortress","app_id":440,"player_count":0,"max_players":24,"Bots":0,"server_type":"Dedicated","server_os":"Linux","password":true,"vac":true,"version":"7961495","steam_id":85568392924742821,"keywords":["cp","nocrits","nodmgspread","uncletopia"],"game_id":440,"stv_port":27046,"stv_name":"Uncletopia | New York City | 4 | Community | STV","players":null},{"server_id":142,"name":"Uncletopia | São Paulo | 1 | All Maps","name_short":"sao-1","host":"sao-1.br.uncletopia.com","port":27015,"enabled":true,"region":"sa","cc":"br","latitude":-23.533773,"longitude":-46.62529,"reserved":0,"last_update":"0001-01-01T00:00:00Z","name_a2s":"Uncletopia | São Paulo | 1 | All Maps","protocol":17,"map":"cp_granary","folder":"tf","game":"Team Fortress","app_id":440,"player_count":0,"max_players":24,"Bots":0,"server_type":"Dedicated","server_os":"Linux","password":true,"vac":true,"version":"7961495","steam_id":85568392924469996,"keywords":["cp","nocrits","nodmgspread","uncletopia"],"game_id":440,"stv_port":27016,"stv_name":"Uncletopia | São Paulo | 1 | All Maps | STV","players":null},{"server_id":143,"name":"Uncletopia | São Paulo | 2 | Community","name_short":"sao-2","host":"sao-2.br.uncletopia.com","port":27015,"enabled":true,"region":"sa","cc":"br","latitude":-23.533773,"longitude":-46.62529,"reserved":0,"last_update":"0001-01-01T00:00:00Z","name_a2s":"Uncletopia | São Paulo | 2 | Community","protocol":17,"map":"workshop/koth_product_final.ugc454272353","folder":"tf","game":"Team Fortress","app_id":440,"player_count":0,"max_players":24,"Bots":0,"server_type":"Dedicated","server_os":"Linux","password":true,"vac":true,"version":"7961495","steam_id":85568392924485349,"keywords":["cp","nocrits","nodmgspread","uncletopia"],"game_id":440,"stv_port":27016,"stv_name":"Uncletopia | São Paulo | 2 | Community | STV","players":null},{"server_id":7,"name":"Uncletopia | Seattle | 1 | All Maps","name_short":"sea-1","host":"sea-1.us.uncletopia.com","port":27015,"enabled":true,"region":"us-west","cc":"us","latitude":47.608013,"longitude":-122.33517,"reserved":0,"last_update":"0001-01-01T00:00:00Z","name_a2s":"Uncletopia | Seattle | 1 | All Maps","protocol":17,"map":"cp_powerhouse","folder":"tf","game":"Team Fortress","app_id":440,"player_count":24,"max_players":24,"Bots":0,"server_type":"Dedicated","server_os":"Linux","password":true,"vac":true,"version":"7961495","steam_id":85568392924469997,"keywords":["cp","nocrits","nodmgspread","uncletopia"],"game_id":440,"stv_port":27016,"stv_name":"Uncletopia | Seattle | 1 | All Maps | STV","players":[{"user_id":489,"name":"Douglass Mackey","steam_id":76561198254668621,"connected_time":153000000000,"state":"active","ping":45},{"user_id":441,"name":"RiceFarmer","steam_id":76561198869180993,"connected_time":3052000000000,"state":"active","ping":45},{"user_id":450,"name":"OGBobbyJohns","steam_id":76561197964339077,"connected_time":2376000000000,"state":"active","ping":47},{"user_id":452,"name":"Hobbes","steam_id":76561198087956236,"connected_time":2270000000000,"state":"active","ping":77},{"user_id":492,"name":"Dongus","steam_id":76561197979056451,"connected_time":132000000000,"state":"active","ping":56},{"user_id":451,"name":"Aardappel","steam_id":76561198030894676,"connected_time":2343000000000,"state":"active","ping":61},{"user_id":482,"name":"moe","steam_id":76561198929586245,"connected_time":865000000000,"state":"active","ping":73},{"user_id":491,"name":"Ridley","steam_id":76561198014857463,"connected_time":140000000000,"state":"active","ping":108},{"user_id":476,"name":"Greskrendtregk","steam_id":76561197969553142,"connected_time":1098000000000,"state":"active","ping":50},{"user_id":487,"name":"smeasly","steam_id":76561198028718812,"connected_time":230000000000,"state":"active","ping":31},{"user_id":493,"name":"Sakura Futaba","steam_id":76561198017153764,"connected_time":119000000000,"state":"active","ping":76},{"user_id":473,"name":"Matty G","steam_id":76561198111074457,"connected_time":1492000000000,"state":"active","ping":65},{"user_id":470,"name":"Derblitz","steam_id":76561198040953176,"connected_time":1545000000000,"state":"active","ping":83},{"user_id":486,"name":"Nom Skirrett","steam_id":76561198014600788,"connected_time":235000000000,"state":"active","ping":60},{"user_id":468,"name":"Lane (She/Her)","steam_id":76561199048555878,"connected_time":1559000000000,"state":"active","ping":47},{"user_id":480,"name":"ATHEIST TIL I REALIZED I AM GOD","steam_id":76561199190800520,"connected_time":986000000000,"state":"active","ping":41},{"user_id":336,"name":"Katie XXII","steam_id":76561198135534297,"connected_time":10311000000000,"state":"active","ping":48},{"user_id":404,"name":"top 10 sidewalks","steam_id":76561198844273999,"connected_time":4560000000000,"state":"active","ping":46},{"user_id":477,"name":"Can of Oranges","steam_id":76561199121813529,"connected_time":1098000000000,"state":"active","ping":43},{"user_id":485,"name":"JawnyMac","steam_id":76561198179529599,"connected_time":288000000000,"state":"active","ping":75},{"user_id":455,"name":"Mr. Biggles","steam_id":76561197995249096,"connected_time":2164000000000,"state":"active","ping":57},{"user_id":494,"name":"zackboi2007","steam_id":76561199475415135,"connected_time":68000000000,"state":"active","ping":68},{"user_id":369,"name":"Thexx she/they","steam_id":76561198113823050,"connected_time":7552000000000,"state":"active","ping":61},{"user_id":393,"name":"Robogineer","steam_id":76561198026994739,"connected_time":5744000000000,"state":"active","ping":74}]},{"server_id":119,"name":"Uncletopia | Seattle | 2 | All Maps","name_short":"sea-2","host":"sea-1.us.uncletopia.com","port":27025,"enabled":true,"region":"us-west","cc":"us","latitude":47.608013,"longitude":-122.33517,"reserved":0,"last_update":"0001-01-01T00:00:00Z","name_a2s":"Uncletopia | Seattle | 2 | All Maps","protocol":17,"map":"koth_lakeside_final","folder":"tf","game":"Team Fortress","app_id":440,"player_count":0,"max_players":24,"Bots":0,"server_type":"Dedicated","server_os":"Linux","password":true,"vac":true,"version":"7961495","steam_id":85568392924469998,"keywords":["cp","nocrits","nodmgspread","uncletopia"],"game_id":440,"stv_port":27026,"stv_name":"Uncletopia | Seattle | 2 | All Maps | STV","players":null},{"server_id":406,"name":"Uncletopia | Seattle | 3 | Stopwatch","name_short":"sea-3","host":"sea-1.us.uncletopia.com","port":27035,"enabled":true,"region":"us-west","cc":"us","latitude":47.608013,"longitude":-122.33517,"reserved":0,"last_update":"0001-01-01T00:00:00Z","name_a2s":"Uncletopia | Seattle | 3 | Stopwatch","protocol":17,"map":"workshop/koth_jamram_rc1a.ugc2964065613","folder":"tf","game":"Team Fortress","app_id":440,"player_count":0,"max_players":24,"Bots":0,"server_type":"Dedicated","server_os":"Linux","password":true,"vac":true,"version":"7961495","steam_id":85568392924515217,"keywords":["cp","nocrits","nodmgspread","uncletopia"],"game_id":440,"stv_port":27036,"stv_name":"Uncletopia | Seattle | 3 | Stopwatch | STV","players":null},{"server_id":17,"name":"Uncletopia | San Francisco | 1 | All Maps","name_short":"sfo-1","host":"sfo-1.us.uncletopia.com","port":27015,"enabled":true,"region":"us-west","cc":"us","latitude":37.77397,"longitude":-122.4313,"reserved":0,"last_update":"0001-01-01T00:00:00Z","name_a2s":"Uncletopia | San Francisco | 1 | All Maps","protocol":17,"map":"koth_highpass","folder":"tf","game":"Team Fortress","app_id":440,"player_count":0,"max_players":24,"Bots":0,"server_type":"Dedicated","server_os":"Linux","password":true,"vac":true,"version":"7961495","steam_id":85568392924469999,"keywords":["cp","nocrits","nodmgspread","uncletopia"],"game_id":440,"stv_port":27016,"stv_name":"Uncletopia | San Francisco | 1 | All Maps | STV","players":null},{"server_id":18,"name":"Uncletopia | San Francisco | 2 | All Maps","name_short":"sfo-2","host":"sfo-1.us.uncletopia.com","port":27025,"enabled":true,"region":"us-west","cc":"us","latitude":37.77397,"longitude":-122.4313,"reserved":0,"last_update":"0001-01-01T00:00:00Z","name_a2s":"Uncletopia | San Francisco | 2 | All Maps","protocol":17,"map":"koth_cascade","folder":"tf","game":"Team Fortress","app_id":440,"player_count":0,"max_players":24,"Bots":0,"server_type":"Dedicated","server_os":"Linux","password":true,"vac":true,"version":"7961495","steam_id":85568392924470000,"keywords":["cp","nocrits","nodmgspread","uncletopia"],"game_id":440,"stv_port":27026,"stv_name":"Uncletopia | San Francisco | 2 | All Maps | STV","players":null},{"server_id":19,"name":"Uncletopia | San Francisco | 3 | Stopwatch","name_short":"sfo-3","host":"sfo-1.us.uncletopia.com","port":27035,"enabled":true,"region":"us-west","cc":"us","latitude":37.77397,"longitude":-122.4313,"reserved":0,"last_update":"0001-01-01T00:00:00Z","name_a2s":"Uncletopia | San Francisco | 3 | Stopwatch","protocol":17,"map":"pl_swiftwater_final1","folder":"tf","game":"Team Fortress","app_id":440,"player_count":0,"max_players":24,"Bots":0,"server_type":"Dedicated","server_os":"Linux","password":true,"vac":true,"version":"7961495","steam_id":85568392924742824,"keywords":["nocrits","nodmgspread","payload","uncletopia"],"game_id":440,"stv_port":27036,"stv_name":"Uncletopia | San Francisco | 3 | Stopwatch | STV","players":null},{"server_id":20,"name":"Uncletopia | San Francisco | 4 | Community","name_short":"sfo-4","host":"sfo-1.us.uncletopia.com","port":27045,"enabled":true,"region":"us-west","cc":"us","latitude":37.77397,"longitude":-122.4313,"reserved":0,"last_update":"0001-01-01T00:00:00Z","name_a2s":"Uncletopia | San Francisco | 4 | Community","protocol":17,"map":"workshop/pl_shoreleave_rc2.ugc1238849347","folder":"tf","game":"Team Fortress","app_id":440,"player_count":0,"max_players":24,"Bots":0,"server_type":"Dedicated","server_os":"Linux","password":true,"vac":true,"version":"7961495","steam_id":85568392924742826,"keywords":["nocrits","nodmgspread","payload","uncletopia"],"game_id":440,"stv_port":27046,"stv_name":"Uncletopia | San Francisco | 4 | Community | STV","players":null},{"server_id":141,"name":"Uncletopia | Sydney | 1 | All Maps","name_short":"syd-1","host":"syd-1.au.uncletopia.com","port":27015,"enabled":true,"region":"au","cc":"au","latitude":-33.865143,"longitude":151.2099,"reserved":0,"last_update":"0001-01-01T00:00:00Z","name_a2s":"Uncletopia | Sydney | 1 | All Maps","protocol":17,"map":"koth_nucleus","folder":"tf","game":"Team Fortress","app_id":440,"player_count":0,"max_players":24,"Bots":0,"server_type":"Dedicated","server_os":"Linux","password":true,"vac":true,"version":"7961495","steam_id":85568392924470001,"keywords":["cp","nocrits","nodmgspread","uncletopia"],"game_id":440,"stv_port":27016,"stv_name":"Uncletopia | Sydney | 1 | All Maps | STV","players":null},{"server_id":123,"name":"Uncletopia | Sydney | 2 | All Maps","name_short":"syd-2","host":"syd-1.au.uncletopia.com","port":27025,"enabled":true,"region":"au","cc":"au","latitude":-33.865143,"longitude":151.2099,"reserved":0,"last_update":"0001-01-01T00:00:00Z","name_a2s":"Uncletopia | Sydney | 2 | All Maps","protocol":17,"map":"cp_fastlane","folder":"tf","game":"Team Fortress","app_id":440,"player_count":0,"max_players":24,"Bots":0,"server_type":"Dedicated","server_os":"Linux","password":true,"vac":true,"version":"7961495","steam_id":85568392924470002,"keywords":["cp","nocrits","nodmgspread","uncletopia"],"game_id":440,"stv_port":27026,"stv_name":"Uncletopia | Sydney | 2 | All Maps | STV","players":null},{"server_id":395,"name":"Uncletopia | Sydney | 3 | All Maps","name_short":"syd-3","host":"syd-1.au.uncletopia.com","port":27035,"enabled":true,"region":"au","cc":"au","latitude":-33.865143,"longitude":151.2099,"reserved":0,"last_update":"0001-01-01T00:00:00Z","name_a2s":"Uncletopia | Sydney | 3 | All Maps","protocol":17,"map":"cp_metalworks","folder":"tf","game":"Team Fortress","app_id":440,"player_count":0,"max_players":24,"Bots":0,"server_type":"Dedicated","server_os":"Linux","password":true,"vac":true,"version":"7961495","steam_id":85568392925194467,"keywords":["cp","nocrits","nodmgspread","uncletopia"],"game_id":440,"stv_port":27036,"stv_name":"Uncletopia | Sydney | 3 | All Maps | STV","players":null},{"server_id":396,"name":"Uncletopia | Sydney | 4 | All Maps","name_short":"syd-4","host":"syd-1.au.uncletopia.com","port":27045,"enabled":true,"region":"au","cc":"au","latitude":-33.865143,"longitude":151.2099,"reserved":0,"last_update":"0001-01-01T00:00:00Z","name_a2s":"Uncletopia | Sydney | 4 | All Maps","protocol":17,"map":"koth_cascade","folder":"tf","game":"Team Fortress","app_id":440,"player_count":0,"max_players":24,"Bots":0,"server_type":"Dedicated","server_os":"Linux","password":true,"vac":true,"version":"7961495","steam_id":85568392925397958,"keywords":["cp","nocrits","nodmgspread","uncletopia"],"game_id":440,"stv_port":27046,"stv_name":"Uncletopia | Sydney | 4 | All Maps | STV","players":null},{"server_id":58,"name":"Uncletopia | Sydney | 5 | Stopwatch","name_short":"syd-5","host":"syd-1.au.uncletopia.com","port":27055,"enabled":true,"region":"au","cc":"au","latitude":-33.865143,"longitude":151.2099,"reserved":0,"last_update":"0001-01-01T00:00:00Z","name_a2s":"Uncletopia | Sydney | 5 | Stopwatch","protocol":17,"map":"workshop/koth_product_final.ugc454272353","folder":"tf","game":"Team Fortress","app_id":440,"player_count":0,"max_players":24,"Bots":0,"server_type":"Dedicated","server_os":"Linux","password":true,"vac":true,"version":"7961495","steam_id":85568392925397959,"keywords":["cp","nocrits","nodmgspread","uncletopia"],"game_id":440,"stv_port":27056,"stv_name":"Uncletopia | Sydney | 5 | Stopwatch | STV","players":null},{"server_id":59,"name":"Uncletopia | Sydney | 6 | Community","name_short":"syd-6","host":"syd-1.au.uncletopia.com","port":27065,"enabled":true,"region":"au","cc":"au","latitude":-33.865143,"longitude":151.2099,"reserved":0,"last_update":"0001-01-01T00:00:00Z","name_a2s":"Uncletopia | Sydney | 6 | Community","protocol":17,"map":"workshop/koth_trenchfoot_ab1.ugc731436616","folder":"tf","game":"Team Fortress","app_id":440,"player_count":0,"max_players":24,"Bots":0,"server_type":"Dedicated","server_os":"Linux","password":true,"vac":true,"version":"7961495","steam_id":85568392925397960,"keywords":["cp","nocrits","nodmgspread","uncletopia"],"game_id":440,"stv_port":27066,"stv_name":"Uncletopia | Sydney | 6 | Community | STV","players":null},{"server_id":49,"name":"Uncletopia | Warsaw | 1 | One Thousand Uncles","name_short":"waw-1","host":"waw-1.pl.uncletopia.com","port":27015,"enabled":true,"region":"eu","cc":"pl","latitude":52.2297,"longitude":21.017532,"reserved":0,"last_update":"0001-01-01T00:00:00Z","name_a2s":"Uncletopia | Warsaw | 1 | One Thousand Uncles","protocol":17,"map":"cp_dustbowl","folder":"tf","game":"Team Fortress","app_id":440,"player_count":23,"max_players":32,"Bots":16,"server_type":"Dedicated","server_os":"Linux","password":true,"vac":true,"version":"7961495","steam_id":85568392925397850,"keywords":["alltalk","bots","cp","danepve","increased_maxplayers","norespawntime","uncletopia"],"game_id":440,"stv_port":0,"stv_name":"","players":[{"user_id":694,"name":"ZharMeny","steam_id":76561199086841610,"connected_time":2697000000000,"state":"active","ping":99},{"user_id":696,"name":"con","steam_id":76561198850438326,"connected_time":619000000000,"state":"active","ping":165},{"user_id":625,"name":"0scr_","steam_id":76561198042631352,"connected_time":10485000000000,"state":"active","ping":81},{"user_id":686,"name":"uninspired","steam_id":76561199107097373,"connected_time":3767000000000,"state":"active","ping":89},{"user_id":626,"name":"7","steam_id":76561198086304421,"connected_time":10413000000000,"state":"active","ping":110},{"user_id":629,"name":"BigBakedpotato","steam_id":76561199455683923,"connected_time":10100000000000,"state":"active","ping":164},{"user_id":681,"name":"Marcus","steam_id":76561198086814162,"connected_time":6471000000000,"state":"active","ping":60}]},{"server_id":50,"name":"Uncletopia | Warsaw | 2 | One Thousand Uncles","name_short":"waw-2","host":"waw-1.pl.uncletopia.com","port":27025,"enabled":true,"region":"eu","cc":"pl","latitude":52.2297,"longitude":21.017532,"reserved":0,"last_update":"0001-01-01T00:00:00Z","name_a2s":"Uncletopia | Warsaw | 2 | One Thousand Uncles","protocol":17,"map":"pl_pier","folder":"tf","game":"Team Fortress","app_id":440,"player_count":0,"max_players":32,"Bots":0,"server_type":"Dedicated","server_os":"Linux","password":true,"vac":true,"version":"7961495","steam_id":85568392925397851,"keywords":["alltalk","danepve","increased_maxplayers","norespawntime","payload","uncletopia"],"game_id":440,"stv_port":0,"stv_name":"","players":null},{"server_id":51,"name":"Uncletopia | Warsaw | 3 | All Maps","name_short":"waw-3","host":"waw-1.pl.uncletopia.com","port":27035,"enabled":true,"region":"eu","cc":"pl","latitude":52.2297,"longitude":21.017532,"reserved":0,"last_update":"0001-01-01T00:00:00Z","name_a2s":"Uncletopia | Warsaw | 3 | All Maps","protocol":17,"map":"koth_viaduct","folder":"tf","game":"Team Fortress","app_id":440,"player_count":0,"max_players":24,"Bots":0,"server_type":"Dedicated","server_os":"Linux","password":true,"vac":true,"version":"7961495","steam_id":85568392925397852,"keywords":["cp","nocrits","nodmgspread","uncletopia"],"game_id":440,"stv_port":27036,"stv_name":"Uncletopia | Warsaw | 3 | All Maps | STV","players":null},{"server_id":52,"name":"Uncletopia | Warsaw | 4 | All Maps","name_short":"waw-4","host":"waw-1.pl.uncletopia.com","port":27045,"enabled":true,"region":"eu","cc":"pl","latitude":52.2297,"longitude":21.017532,"reserved":0,"last_update":"0001-01-01T00:00:00Z","name_a2s":"Uncletopia | Warsaw | 4 | All Maps","protocol":17,"map":"koth_cascade","folder":"tf","game":"Team Fortress","app_id":440,"player_count":0,"max_players":24,"Bots":0,"server_type":"Dedicated","server_os":"Linux","password":true,"vac":true,"version":"7961495","steam_id":85568392925397853,"keywords":["cp","nocrits","nodmgspread","uncletopia"],"game_id":440,"stv_port":27046,"stv_name":"Uncletopia | Warsaw | 4 | All Maps | STV","players":null},{"server_id":53,"name":"Uncletopia | Warsaw | 5 | Stopwatch","name_short":"waw-5","host":"waw-1.pl.uncletopia.com","port":27055,"enabled":true,"region":"eu","cc":"pl","latitude":52.2297,"longitude":21.017532,"reserved":0,"last_update":"0001-01-01T00:00:00Z","name_a2s":"Uncletopia | Warsaw | 5 | Stopwatch","protocol":17,"map":"koth_highpass","folder":"tf","game":"Team Fortress","app_id":440,"player_count":0,"max_players":24,"Bots":0,"server_type":"Dedicated","server_os":"Linux","password":true,"vac":true,"version":"7961495","steam_id":85568392925397854,"keywords":["cp","nocrits","nodmgspread","uncletopia"],"game_id":440,"stv_port":27056,"stv_name":"Uncletopia | Warsaw | 5 | Stopwatch | STV","players":null},{"server_id":54,"name":"Uncletopia | Warsaw | 6 | Community","name_short":"waw-6","host":"waw-1.pl.uncletopia.com","port":27065,"enabled":true,"region":"eu","cc":"pl","latitude":52.2297,"longitude":21.017532,"reserved":0,"last_update":"0001-01-01T00:00:00Z","name_a2s":"Uncletopia | Warsaw | 6 | Community","protocol":17,"map":"workshop/cp_overgrown_rc8.ugc503939302","folder":"tf","game":"Team Fortress","app_id":440,"player_count":0,"max_players":24,"Bots":0,"server_type":"Dedicated","server_os":"Linux","password":true,"vac":true,"version":"7961495","steam_id":85568392925397856,"keywords":["cp","nocrits","nodmgspread","uncletopia"],"game_id":440,"stv_port":27066,"stv_name":"Uncletopia | Warsaw | 6 | Community | STV","players":null}]}