{"status":true,"message":"","result":[{"server_id":9,"name":"Uncletopia | Atlanta | 1 | All Maps","name_short":"atl-1","host":"atl-1.us.uncletopia.com","port":27015,"enabled":true,"region":"us-east","cc":"us","latitude":33.753746,"longitude":-84.38633,"reserved":0,"last_update":"0001-01-01T00:00:00Z","name_a2s":"Uncletopia | Atlanta | 1 | All Maps","protocol":17,"map":"pl_borneo","folder":"tf","game":"Team Fortress","app_id":440,"player_count":24,"max_players":24,"Bots":0,"server_type":"Dedicated","server_os":"Linux","password":true,"vac":true,"version":"7882260","steam_id":85568392924469982,"keywords":["nocrits","nodmgspread","payload","uncletopia"],"game_id":440,"stv_port":27016,"stv_name":"Uncletopia | Atlanta | 1 | All Maps | STV","players":[{"user_id":118,"name":"Dev","steam_id":76561198388276870,"connected_time":2851000000000,"state":"active","ping":85},{"user_id":132,"name":"Blade","steam_id":76561198153163098,"connected_time":1133000000000,"state":"active","ping":54},{"user_id":104,"name":"SparkStorm","steam_id":76561198095817025,"connected_time":3422000000000,"state":"active","ping":45},{"user_id":121,"name":"drain.pablo.2005","steam_id":76561198303963691,"connected_time":2461000000000,"state":"active","ping":56},{"user_id":130,"name":"Pango","steam_id":76561198069811545,"connected_time":1911000000000,"state":"active","ping":45},{"user_id":126,"name":"Reverie","steam_id":76561198149406613,"connected_time":2106000000000,"state":"active","ping":60},{"user_id":115,"name":"TransientPoe","steam_id":76561198028957025,"connected_time":3032000000000,"state":"active","ping":69},{"user_id":103,"name":"William Wallace","steam_id":76561199343316814,"connected_time":3426000000000,"state":"active","ping":58},{"user_id":83,"name":"milo","steam_id":76561199061380038,"connected_time":5629000000000,"state":"active","ping":60},{"user_id":105,"name":"BIG HOG","steam_id":76561198079923652,"connected_time":3418000000000,"state":"active","ping":62},{"user_id":106,"name":"J The Jounin","steam_id":76561198034583622,"connected_time":3417000000000,"state":"active","ping":58},{"user_id":110,"name":"thomasdee725!!!","steam_id":76561199189526173,"connected_time":3296000000000,"state":"active","ping":119},{"user_id":127,"name":"_normal","steam_id":76561198338505734,"connected_time":2104000000000,"state":"active","ping":95},{"user_id":78,"name":"Blossom","steam_id":76561198088220476,"connected_time":6162000000000,"state":"active","ping":77},{"user_id":131,"name":"Temujin","steam_id":76561198030936583,"connected_time":1890000000000,"state":"active","ping":47},{"user_id":129,"name":"mineblast99","steam_id":76561199065648954,"connected_time":1965000000000,"state":"active","ping":60},{"user_id":133,"name":"Mage","steam_id":76561198285026879,"connected_time":928000000000,"state":"active","ping":79},{"user_id":87,"name":"Lucky","steam_id":76561198418262145,"connected_time":4736000000000,"state":"active","ping":113},{"user_id":134,"name":"ash","steam_id":76561198127890645,"connected_time":664000000000,"state":"active","ping":67},{"user_id":101,"name":"Bag","steam_id":76561198012395490,"connected_time":3619000000000,"state":"active","ping":53},{"user_id":112,"name":"highschool drop-out","steam_id":76561198366299848,"connected_time":3202000000000,"state":"active","ping":55},{"user_id":124,"name":"Indigolake","steam_id":76561198202215807,"connected_time":2169000000000,"state":"active","ping":89},{"user_id":137,"name":"Dr. Twa","steam_id":76561198295529541,"connected_time":528000000000,"state":"active","ping":76},{"user_id":117,"name":"sentry turret","steam_id":76561198327057433,"connected_time":3005000000000,"state":"active","ping":91}]},{"server_id":104,"name":"Uncletopia | Atlanta | 2 | All Maps","name_short":"atl-2","host":"atl-1.us.uncletopia.com","port":27025,"enabled":true,"region":"us-east","cc":"us","latitude":33.753746,"longitude":-84.38633,"reserved":0,"last_update":"0001-01-01T00:00:00Z","name_a2s":"Uncletopia | Atlanta | 2 | All Maps","protocol":17,"map":"koth_lakeside_final","folder":"tf","game":"Team Fortress","app_id":440,"player_count":1,"max_players":24,"Bots":0,"server_type":"Dedicated","server_os":"Linux","password":true,"vac":true,"version":"7882260","steam_id":85568392924469983,"keywords":["cp","nocrits","nodmgspread","uncletopia"],"game_id":440,"stv_port":27026,"stv_name":"Uncletopia | Atlanta | 2 | All Maps | STV","players":[{"user_id":9,"name":"Sprinklze","steam_id":76561198163562681,"connected_time":157000000000,"state":"active","ping":33}]},{"server_id":400,"name":"Uncletopia | Atlanta | 3 | Community","name_short":"atl-3","host":"atl-1.us.uncletopia.com","port":27035,"enabled":true,"region":"us-east","cc":"us","latitude":33.753746,"longitude":-84.38633,"reserved":0,"last_update":"0001-01-01T00:00:00Z","name_a2s":"Uncletopia | Atlanta | 3 | Community","protocol":17,"map":"workshop/koth_ramjam_rc1.ugc459778887","folder":"tf","game":"Team Fortress","app_id":440,"player_count":0,"max_players":24,"Bots":0,"server_type":"Dedicated","server_os":"Linux","password":true,"vac":true,"version":"7882260","steam_id":85568392924515187,"keywords":["cp","nocrits","nodmgspread","uncletopia"],"game_id":440,"stv_port":27036,"stv_name":"Uncletopia | Atlanta | 3 | Community | STV","players":null},{"server_id":401,"name":"Uncletopia | Atlanta | 4 | No Payload","name_short":"atl-4","host":"atl-1.us.uncletopia.com","port":27045,"enabled":true,"region":"us-east","cc":"us","latitude":33.753746,"longitude":-84.38633,"reserved":0,"last_update":"0001-01-01T00:00:00Z","name_a2s":"","protocol":0,"map":"","folder":"","game":"","app_id":0,"player_count":0,"max_players":0,"Bots":0,"server_type":"","server_os":"","password":false,"vac":false,"version":"","steam_id":0,"keywords":null,"game_id":0,"stv_port":0,"stv_name":"","players":null},{"server_id":2,"name":"Uncletopia | Chicago | 1 | All Maps","name_short":"chi-1","host":"chi-1.us.uncletopia.com","port":27015,"enabled":true,"region":"us-central","cc":"us","latitude":41.881832,"longitude":-87.62318,"reserved":0,"last_update":"0001-01-01T00:00:00Z","name_a2s":"Uncletopia | Chicago | 1 | All Maps","protocol":17,"map":"pl_upward","folder":"tf","game":"Team Fortress","app_id":440,"player_count":24,"max_players":24,"Bots":0,"server_type":"Dedicated","server_os":"Linux","password":true,"vac":true,"version":"7882260","steam_id":85568392924469984,"keywords":["nocrits","nodmgspread","payload","uncletopia"],"game_id":440,"stv_port":27016,"stv_name":"Uncletopia | Chicago | 1 | All Maps | STV","players":[{"user_id":292,"name":"Racoon.zip","steam_id":76561199023759321,"connected_time":1135000000000,"state":"active","ping":77},{"user_id":314,"name":"Furry on main","steam_id":76561198371577822,"connected_time":65000000000,"state":"active","ping":60},{"user_id":311,"name":"Sir_Derp","steam_id":76561198957113905,"connected_time":84000000000,"state":"active","ping":97},{"user_id":312,"name":"Voodo133","steam_id":76561198042670351,"connected_time":81000000000,"state":"active","ping":87},{"user_id":236,"name":"Horrizan","steam_id":76561197965028480,"connected_time":6820000000000,"state":"active","ping":80},{"user_id":302,"name":"Weerk","steam_id":76561199209543551,"connected_time":627000000000,"state":"active","ping":78},{"user_id":308,"name":"yeah","steam_id":76561198003214384,"connected_time":268000000000,"state":"active","ping":65},{"user_id":293,"name":"strctfsh","steam_id":76561198083619784,"connected_time":1098000000000,"state":"active","ping":58},{"user_id":309,"name":"lofile","steam_id":76561198083798918,"connected_time":141000000000,"state":"active","ping":61},{"user_id":294,"name":"Lalo Salamanca","steam_id":76561198319726270,"connected_time":1090000000000,"state":"active","ping":97},{"user_id":307,"name":"Craig Isonychia","steam_id":76561198272013678,"connected_time":279000000000,"state":"active","ping":72},{"user_id":285,"name":"ttv/lilirouxxx","steam_id":76561198000522179,"connected_time":1848000000000,"state":"active","ping":65},{"user_id":284,"name":"Cedric","steam_id":76561198072090580,"connected_time":1884000000000,"state":"active","ping":92},{"user_id":242,"name":"noah","steam_id":76561198173310157,"connected_time":6141000000000,"state":"active","ping":60},{"user_id":290,"name":"Dr. Wario","steam_id":76561198901238861,"connected_time":1146000000000,"state":"active","ping":105},{"user_id":295,"name":"Dreszerg","steam_id":76561198838757422,"connected_time":1087000000000,"state":"active","ping":80},{"user_id":313,"name":"FooFLit","steam_id":76561198236967080,"connected_time":78000000000,"state":"active","ping":86},{"user_id":298,"name":"just wait until they buff the m","steam_id":76561198091102365,"connected_time":1058000000000,"state":"active","ping":74},{"user_id":304,"name":"feliser","steam_id":76561198084336096,"connected_time":569000000000,"state":"active","ping":53},{"user_id":270,"name":"corik","steam_id":76561198261748842,"connected_time":3068000000000,"state":"active","ping":63},{"user_id":305,"name":"gamerkid413","steam_id":76561198113716047,"connected_time":377000000000,"state":"active","ping":73},{"user_id":291,"name":"Ê≠ª","steam_id":76561198127525888,"connected_time":1146000000000,"state":"active","ping":75},{"user_id":288,"name":"ThatOneKnight","steam_id":76561198388583650,"connected_time":1339000000000,"state":"active","ping":56},{"user_id":246,"name":"picklejuice dealer","steam_id":76561198031675881,"connected_time":5684000000000,"state":"active","ping":46}]},{"server_id":106,"name":"Uncletopia | Chicago | 2 | All Maps","name_short":"chi-2","host":"chi-1.us.uncletopia.com","port":27025,"enabled":true,"region":"us-central","cc":"us","latitude":41.881832,"longitude":-87.62318,"reserved":0,"last_update":"0001-01-01T00:00:00Z","name_a2s":"Uncletopia | Chicago | 2 | All Maps","protocol":17,"map":"koth_highpass","folder":"tf","game":"Team Fortress","app_id":440,"player_count":24,"max_players":24,"Bots":0,"server_type":"Dedicated","server_os":"Linux","password":true,"vac":true,"version":"7882260","steam_id":85568392924469985,"keywords":["cp","nocrits","nodmgspread","uncletopia"],"game_id":440,"stv_port":27026,"stv_name":"Uncletopia | Chicago | 2 | All Maps | STV","players":[{"user_id":326,"name":"SunNc","steam_id":76561198097711843,"connected_time":828000000000,"state":"active","ping":110},{"user_id":340,"name":"LilJonny","steam_id":76561198185250439,"connected_time":488000000000,"state":"active","ping":120},{"user_id":341,"name":"Triples_","steam_id":76561198094249561,"connected_time":444000000000,"state":"active","ping":64},{"user_id":327,"name":"Kheprii","steam_id":76561198095899274,"connected_time":770000000000,"state":"active","ping":60},{"user_id":342,"name":"jstn","steam_id":76561198845283665,"connected_time":434000000000,"state":"active","ping":68},{"user_id":328,"name":"Mikael_01","steam_id":76561199080253129,"connected_time":765000000000,"state":"active","ping":188},{"user_id":323,"name":"bubby626","steam_id":76561198183438069,"connected_time":969000000000,"state":"active","ping":60},{"user_id":329,"name":"ArrSayingPirate","steam_id":76561197997567278,"connected_time":753000000000,"state":"active","ping":58},{"user_id":335,"name":"Smug ¬¨‚Äø¬¨ Smug","steam_id":76561198325526945,"connected_time":694000000000,"state":"active","ping":71},{"user_id":346,"name":"Audiphon","steam_id":76561198051340300,"connected_time":233000000000,"state":"active","ping":137},{"user_id":334,"name":"waltuh","steam_id":76561198363541736,"connected_time":714000000000,"state":"active","ping":86},{"user_id":331,"name":"Foreskin Reattachment service","steam_id":76561198060342804,"connected_time":751000000000,"state":"active","ping":73},{"user_id":343,"name":"PheebsyDeebsy","steam_id":76561198101509436,"connected_time":423000000000,"state":"active","ping":98},{"user_id":344,"name":"The boys","steam_id":76561198248799906,"connected_time":325000000000,"state":"active","ping":100},{"user_id":246,"name":"MankTKO","steam_id":76561198189421005,"connected_time":4536000000000,"state":"active","ping":168},{"user_id":345,"name":"cj da man","steam_id":76561198303575607,"connected_time":304000000000,"state":"active","ping":85},{"user_id":317,"name":"momb","steam_id":76561198142234038,"connected_time":1910000000000,"state":"active","ping":86},{"user_id":256,"name":"STENDO_CLIP","steam_id":76561198059570167,"connected_time":3917000000000,"state":"active","ping":118},{"user_id":332,"name":"AudaCD","steam_id":76561198202775853,"connected_time":740000000000,"state":"active","ping":73},{"user_id":347,"name":"The local hobo","steam_id":76561198289650060,"connected_time":122000000000,"state":"active","ping":80},{"user_id":336,"name":"THEQUIRKA (ALL CAPS ARC)","steam_id":76561198968058652,"connected_time":693000000000,"state":"active","ping":100},{"user_id":160,"name":"hatchetax","steam_id":76561199013337543,"connected_time":6683000000000,"state":"active","ping":75},{"user_id":321,"name":"Bon Gripper","steam_id":76561198090074621,"connected_time":1483000000000,"state":"active","ping":61},{"user_id":337,"name":"Bob Semple Cosplay","steam_id":76561198017704502,"connected_time":691000000000,"state":"active","ping":62}]},{"server_id":402,"name":"Uncletopia | Chicago | 3 | All Maps","name_short":"chi-3","host":"chi-1.us.uncletopia.com","port":27035,"enabled":true,"region":"us-central","cc":"us","latitude":41.881832,"longitude":-87.62318,"reserved":0,"last_update":"0001-01-01T00:00:00Z","name_a2s":"Uncletopia | Chicago | 3 | All Maps","protocol":17,"map":"pl_badwater","folder":"tf","game":"Team Fortress","app_id":440,"player_count":24,"max_players":24,"Bots":0,"server_type":"Dedicated","server_os":"Linux","password":true,"vac":true,"version":"7882260","steam_id":85568392924515191,"keywords":["nocrits","nodmgspread","payload","uncletopia"],"game_id":440,"stv_port":27036,"stv_name":"Uncletopia | Chicago | 3 | All Maps | STV","players":[{"user_id":395,"name":"Recyclops","steam_id":76561198258909388,"connected_time":1933000000000,"state":"active","ping":47},{"user_id":398,"name":"128gb sd card","steam_id":76561198043636749,"connected_time":1755000000000,"state":"active","ping":104},{"user_id":341,"name":"C papi","steam_id":76561198027779564,"connected_time":5479000000000,"state":"active","ping":55},{"user_id":371,"name":"gendermutt","steam_id":76561198152857317,"connected_time":3147000000000,"state":"active","ping":44},{"user_id":427,"name":"chaffy","steam_id":76561198021754567,"connected_time":156000000000,"state":"active","ping":60},{"user_id":386,"name":"KingofNothing","steam_id":76561198269174117,"connected_time":2592000000000,"state":"active","ping":72},{"user_id":408,"name":"hoot.","steam_id":76561198066876703,"connected_time":1296000000000,"state":"active","ping":41},{"user_id":394,"name":"Rornir","steam_id":76561198081829615,"connected_time":1949000000000,"state":"active","ping":33},{"user_id":420,"name":"‚òÜNebula-Belt‚òÜ","steam_id":76561198151250806,"connected_time":497000000000,"state":"active","ping":71},{"user_id":414,"name":"Artgrenadier","steam_id":76561198063305359,"connected_time":803000000000,"state":"active","ping":67},{"user_id":397,"name":"-|FG|- Hamilkar Barca","steam_id":76561198091666474,"connected_time":1781000000000,"state":"active","ping":69},{"user_id":404,"name":"nalezinik","steam_id":76561198030026119,"connected_time":1386000000000,"state":"active","ping":60},{"user_id":423,"name":"Grim","steam_id":76561198158911860,"connected_time":431000000000,"state":"active","ping":107},{"user_id":410,"name":"Zixzs","steam_id":76561198055504126,"connected_time":1021000000000,"state":"active","ping":67},{"user_id":406,"name":"FunkyTortoise06","steam_id":76561198199327225,"connected_time":1325000000000,"state":"active","ping":67},{"user_id":328,"name":"rat","steam_id":76561198313364985,"connected_time":5680000000000,"state":"active","ping":73},{"user_id":416,"name":"motherfucker 2.0","steam_id":76561198141189209,"connected_time":709000000000,"state":"active","ping":68},{"user_id":417,"name":"Danger Daniel","steam_id":76561199085838474,"connected_time":706000000000,"state":"active","ping":87},{"user_id":409,"name":"M4 Sherman","steam_id":76561198126990820,"connected_time":1284000000000,"state":"active","ping":90},{"user_id":424,"name":"CHEEKY EUNUCH","steam_id":76561198990825232,"connected_time":424000000000,"state":"active","ping":57},{"user_id":358,"name":"Carrion Crawler","steam_id":76561198069814977,"connected_time":4309000000000,"state":"active","ping":67},{"user_id":334,"name":"raps","steam_id":76561198188722751,"connected_time":5607000000000,"state":"active","ping":95},{"user_id":425,"name":"FoxyTheFish","steam_id":76561199074190919,"connected_time":396000000000,"state":"active","ping":140},{"user_id":428,"name":"Swedish Crowbar","steam_id":76561199105488936,"connected_time":114000000000,"state":"active","ping":147}]},{"server_id":403,"name":"Uncletopia | Chicago | 4 | All Maps","name_short":"chi-4","host":"chi-1.us.uncletopia.com","port":27045,"enabled":true,"region":"us-central","cc":"us","latitude":41.881832,"longitude":-87.62318,"reserved":0,"last_update":"0001-01-01T00:00:00Z","name_a2s":"Uncletopia | Chicago | 4 | All Maps","protocol":17,"map":"pl_upward","folder":"tf","game":"Team Fortress","app_id":440,"player_count":24,"max_players":24,"Bots":0,"server_type":"Dedicated","server_os":"Linux","password":true,"vac":true,"version":"7882260","steam_id":85568392924515193,"keywords":["nocrits","nodmgspread","payload","uncletopia"],"game_id":440,"stv_port":27046,"stv_name":"Uncletopia | Chicago | 4 | All Maps | STV","players":[{"user_id":318,"name":"Nassu","steam_id":76561198147367577,"connected_time":500000000000,"state":"active","ping":73},{"user_id":312,"name":"lames","steam_id":76561198064262559,"connected_time":888000000000,"state":"active","ping":75},{"user_id":285,"name":"Technic","steam_id":76561198200302281,"connected_time":2264000000000,"state":"active","ping":70},{"user_id":300,"name":"sardine","steam_id":76561198162797626,"connected_time":1899000000000,"state":"active","ping":90},{"user_id":282,"name":"Okpar","steam_id":76561199221067945,"connected_time":2822000000000,"state":"active","ping":97},{"user_id":287,"name":"tiny terry","steam_id":76561198001488041,"connected_time":2220000000000,"state":"active","ping":95},{"user_id":305,"name":"heady_asskill","steam_id":76561197982882284,"connected_time":1520000000000,"state":"active","ping":74},{"user_id":243,"name":"ÔºîÔºê Ôº¶Ôº∞Ôº≥","steam_id":76561198272394965,"connected_time":5045000000000,"state":"active","ping":139},{"user_id":316,"name":"OminousNoises","steam_id":76561198263320321,"connected_time":586000000000,"state":"active","ping":131},{"user_id":319,"name":"Robin","steam_id":76561198121165149,"connected_time":457000000000,"state":"active","ping":42},{"user_id":320,"name":"Walkiing","steam_id":76561198074473413,"connected_time":455000000000,"state":"active","ping":45},{"user_id":306,"name":"ADALEXAD","steam_id":76561198037496891,"connected_time":1515000000000,"state":"active","ping":117},{"user_id":315,"name":"Femboy Girl Porg Wife","steam_id":76561198043350234,"connected_time":610000000000,"state":"active","ping":84},{"user_id":317,"name":"battle clown","steam_id":76561198045788371,"connected_time":568000000000,"state":"active","ping":62},{"user_id":293,"name":"PootZilla","steam_id":76561198073870352,"connected_time":2059000000000,"state":"active","ping":86},{"user_id":323,"name":"Demoman","steam_id":76561198101850500,"connected_time":337000000000,"state":"active","ping":90},{"user_id":294,"name":"Big man real strong","steam_id":76561198173921691,"connected_time":2018000000000,"state":"active","ping":90},{"user_id":326,"name":"Ugly Mick Mars (Plz Duel Me)","steam_id":76561198051504563,"connected_time":162000000000,"state":"active","ping":117},{"user_id":296,"name":".Cassius.","steam_id":76561199181383832,"connected_time":2008000000000,"state":"active","ping":75},{"user_id":297,"name":"Fumpo","steam_id":76561198206873365,"connected_time":1975000000000,"state":"active","ping":65},{"user_id":302,"name":"ultralisk52","steam_id":76561198051666604,"connected_time":1826000000000,"state":"active","ping":60},{"user_id":324,"name":"bladees saddest, realest verse","steam_id":76561198098099826,"connected_time":328000000000,"state":"active","ping":81},{"user_id":325,"name":"Femtofarad","steam_id":76561198308583053,"connected_time":232000000000,"state":"active","ping":85},{"user_id":304,"name":"P. Sebs","steam_id":76561198112354627,"connected_time":1728000000000,"state":"active","ping":59}]},{"server_id":36,"name":"Uncletopia | Chicago | 5 | All Maps","name_short":"chi-5","host":"chi-2.us.uncletopia.com","port":27015,"enabled":true,"region":"us-central","cc":"us","latitude":41.881832,"longitude":-87.62318,"reserved":0,"last_update":"0001-01-01T00:00:00Z","name_a2s":"Uncletopia | Chicago | 5 | All Maps","protocol":17,"map":"cp_powerhouse","folder":"tf","game":"Team Fortress","app_id":440,"player_count":19,"max_players":24,"Bots":0,"server_type":"Dedicated","server_os":"Linux","password":true,"vac":true,"version":"7882260","steam_id":85568392924866362,"keywords":["cp","nocrits","nodmgspread","uncletopia"],"game_id":440,"stv_port":27016,"stv_name":"Uncletopia | Chicago | 5 | All Maps | STV","players":[{"user_id":159,"name":"bicth","steam_id":76561198086314381,"connected_time":2390000000000,"state":"active","ping":76},{"user_id":196,"name":"Dogvan","steam_id":76561198176708643,"connected_time":45000000000,"state":"active","ping":81},{"user_id":191,"name":"Try Gardening","steam_id":76561198120311340,"connected_time":96000000000,"state":"active","ping":46},{"user_id":192,"name":"fancy ghost","steam_id":76561197996926786,"connected_time":64000000000,"state":"active","ping":88},{"user_id":147,"name":"Jump man Mscout","steam_id":76561199467334502,"connected_time":2561000000000,"state":"active","ping":90},{"user_id":193,"name":"Scotch Tape","steam_id":76561199389314894,"connected_time":62000000000,"state":"active","ping":73},{"user_id":195,"name":"Spectre","steam_id":76561198025652246,"connected_time":54000000000,"state":"active","ping":36},{"user_id":179,"name":"Condensed Milk","steam_id":76561199209016136,"connected_time":1095000000000,"state":"active","ping":58},{"user_id":84,"name":"thorn648","steam_id":76561198012565777,"connected_time":5736000000000,"state":"active","ping":65},{"user_id":197,"name":"STONKS (she/they)","steam_id":76561198965475199,"connected_time":33000000000,"state":"active","ping":56},{"user_id":185,"name":"MAXIMUM OVERDRIVE","steam_id":76561198113992547,"connected_time":523000000000,"state":"active","ping":115},{"user_id":155,"name":"FryGuy512","steam_id":76561198131506012,"connected_time":2453000000000,"state":"active","ping":79},{"user_id":132,"name":"98 Koshien","steam_id":76561198883741129,"connected_time":3531000000000,"state":"active","ping":65},{"user_id":173,"name":"BorstchBag","steam_id":76561198155294045,"connected_time":1584000000000,"state":"active","ping":82},{"user_id":142,"name":"Linksaver1","steam_id":76561198096312838,"connected_time":2875000000000,"state":"active","ping":104},{"user_id":103,"name":"CyberZayne","steam_id":76561198002351356,"connected_time":4469000000000,"state":"active","ping":107},{"user_id":94,"name":"Elud4","steam_id":76561198049072796,"connected_time":5086000000000,"state":"active","ping":68},{"user_id":187,"name":"pearly","steam_id":76561198017274978,"connected_time":478000000000,"state":"active","ping":83},{"user_id":188,"name":"gamerlegend47","steam_id":76561198122776598,"connected_time":391000000000,"state":"active","ping":71}]},{"server_id":37,"name":"Uncletopia | Chicago | 6 | All Maps","name_short":"chi-6","host":"chi-2.us.uncletopia.com","port":27025,"enabled":true,"region":"us-central","cc":"us","latitude":41.881832,"longitude":-87.62318,"reserved":0,"last_update":"0001-01-01T00:00:00Z","name_a2s":"Uncletopia | Chicago | 6 | All Maps","protocol":17,"map":"koth_cascade","folder":"tf","game":"Team Fortress","app_id":440,"player_count":0,"max_players":24,"Bots":0,"server_type":"Dedicated","server_os":"Linux","password":true,"vac":true,"version":"7882260","steam_id":85568392924866363,"keywords":["cp","nocrits","nodmgspread","uncletopia"],"game_id":440,"stv_port":27026,"stv_name":"Uncletopia | Chicago | 6 | All Maps | STV","players":null},{"server_id":38,"name":"Uncletopia | Chicago | 7 | Stopwatch Beta","name_short":"chi-7","host":"chi-2.us.uncletopia.com","port":27035,"enabled":true,"region":"us-central","cc":"us","latitude":41.881832,"longitude":-87.62318,"reserved":0,"last_update":"0001-01-01T00:00:00Z","name_a2s":"Uncletopia | Chicago | 7 | Stopwatch Beta","protocol":17,"map":"pl_borneo","folder":"tf","game":"Team Fortress","app_id":440,"player_count":0,"max_players":24,"Bots":0,"server_type":"Dedicated","server_os":"Linux","password":true,"vac":true,"version":"7882260","steam_id":85568392924866364,"keywords":["nocrits","nodmgspread","payload","uncletopia"],"game_id":440,"stv_port":27036,"stv_name":"Uncletopia | Chicago | 7 | Stopwatch Beta | STV","players":null},{"server_id":39,"name":"Uncletopia | Chicago | 8 | Community","name_short":"chi-8","host":"chi-2.us.uncletopia.com","port":27045,"enabled":true,"region":"us-central","cc":"us","latitude":41.881832,"longitude":-87.62318,"reserved":0,"last_update":"0001-01-01T00:00:00Z","name_a2s":"Uncletopia | Chicago | 8 | Community","protocol":17,"map":"workshop/cp_mannbase_rc2a.ugc1900737467","folder":"tf","game":"Team Fortress","app_id":440,"player_count":0,"max_players":24,"Bots":0,"server_type":"Dedicated","server_os":"Linux","password":true,"vac":true,"version":"7882260","steam_id":85568392924866365,"keywords":["cp","nocrits","nodmgspread","uncletopia"],"game_id":440,"stv_port":27046,"stv_name":"Uncletopia | Chicago | 8 | Community | STV","players":null},{"server_id":8,"name":"Uncletopia | Dallas | 1 | All Maps","name_short":"dal-1","host":"dal-1.us.uncletopia.com","port":27015,"enabled":true,"region":"us-central","cc":"us","latitude":32.779167,"longitude":-96.80889,"reserved":0,"last_update":"0001-01-01T00:00:00Z","name_a2s":"Uncletopia | Dallas | 1 | All Maps","protocol":17,"map":"pl_badwater","folder":"tf","game":"Team Fortress","app_id":440,"player_count":24,"max_players":24,"Bots":0,"server_type":"Dedicated","server_os":"Linux","password":true,"vac":true,"version":"7882260","steam_id":85568392924469986,"keywords":["nocrits","nodmgspread","payload","uncletopia"],"game_id":440,"stv_port":27016,"stv_name":"Uncletopia | Dallas | 1 | All Maps | STV","players":[{"user_id":47,"name":"wishihadacoolname","steam_id":76561198239310698,"connected_time":2526000000000,"state":"active","ping":55},{"user_id":89,"name":"Master John Thursday","steam_id":76561197987593154,"connected_time":938000000000,"state":"active","ping":44},{"user_id":97,"name":"the man","steam_id":76561198798992000,"connected_time":749000000000,"state":"active","ping":85},{"user_id":82,"name":"Zenabie","steam_id":76561198088372680,"connected_time":1181000000000,"state":"active","ping":106},{"user_id":99,"name":"pt","steam_id":76561198143023330,"connected_time":706000000000,"state":"active","ping":76},{"user_id":53,"name":"vastrobotmax","steam_id":76561198417110724,"connected_time":1946000000000,"state":"active","ping":109},{"user_id":54,"name":"TheAvigamer","steam_id":76561198068069261,"connected_time":1911000000000,"state":"active","ping":96},{"user_id":102,"name":"·µñ·µÉ·µñ·µÉ Lox","steam_id":76561198069393071,"connected_time":208000000000,"state":"active","ping":39},{"user_id":98,"name":"Kelp Sandwich","steam_id":76561198009127286,"connected_time":746000000000,"state":"active","ping":69},{"user_id":68,"name":"Fightin Cow","steam_id":76561198080941486,"connected_time":1405000000000,"state":"active","ping":57},{"user_id":85,"name":"Lunacy","steam_id":76561199386273760,"connected_time":1147000000000,"state":"active","ping":82},{"user_id":94,"name":"jamalbob33","steam_id":76561198410281331,"connected_time":883000000000,"state":"active","ping":111},{"user_id":87,"name":"Borgir","steam_id":76561198325390265,"connected_time":1121000000000,"state":"active","ping":68},{"user_id":64,"name":"A Drunken Fedora Salesman","steam_id":76561198056238723,"connected_time":1495000000000,"state":"active","ping":97},{"user_id":86,"name":"heimdall","steam_id":76561198069380992,"connected_time":1145000000000,"state":"active","ping":66},{"user_id":100,"name":"ARGON| Soulidity","steam_id":76561198429603550,"connected_time":505000000000,"state":"active","ping":71},{"user_id":101,"name":"Arrluk","steam_id":76561198396679452,"connected_time":237000000000,"state":"active","ping":70},{"user_id":77,"name":"KaleScrooge","steam_id":76561199229442595,"connected_time":1217000000000,"state":"active","ping":134},{"user_id":78,"name":"MINILEGOLAS","steam_id":76561198859362058,"connected_time":1214000000000,"state":"active","ping":81},{"user_id":79,"name":"„Éï„Ç°„É≥„Éú„Éº„Ç§","steam_id":76561198178285259,"connected_time":1201000000000,"state":"active","ping":77},{"user_id":80,"name":"Chunk Stuffer","steam_id":76561198856508573,"connected_time":1190000000000,"state":"active","ping":35},{"user_id":81,"name":"DeceptiConga","steam_id":76561198190323610,"connected_time":1187000000000,"state":"active","ping":112},{"user_id":88,"name":"Sup m8","steam_id":76561198081659121,"connected_time":1117000000000,"state":"active","ping":45},{"user_id":103,"name":"Noisgamer02","steam_id":76561198129665722,"connected_time":208000000000,"state":"active","ping":64}]},{"server_id":108,"name":"Uncletopia | Dallas | 2 | All Maps","name_short":"dal-2","host":"dal-1.us.uncletopia.com","port":27025,"enabled":true,"region":"us-central","cc":"us","latitude":32.779167,"longitude":-96.80889,"reserved":0,"last_update":"0001-01-01T00:00:00Z","name_a2s":"Uncletopia | Dallas | 2 | All Maps","protocol":17,"map":"koth_viaduct","folder":"tf","game":"Team Fortress","app_id":440,"player_count":0,"max_players":24,"Bots":0,"server_type":"Dedicated","server_os":"Linux","password":true,"vac":true,"version":"7882260","steam_id":85568392924469988,"keywords":["cp","nocrits","nodmgspread","uncletopia"],"game_id":440,"stv_port":27026,"stv_name":"Uncletopia | Dallas | 2 | All Maps | STV","players":null},{"server_id":5,"name":"Uncletopia | Frankfurt | 1 | All Maps","name_short":"frk-1","host":"frk-1.de.uncletopia.com","port":27015,"enabled":true,"region":"eu","cc":"de","latitude":50.110924,"longitude":8.682127,"reserved":0,"last_update":"0001-01-01T00:00:00Z","name_a2s":"Uncletopia | Frankfurt | 1 | All Maps","protocol":17,"map":"pl_barnblitz","folder":"tf","game":"Team Fortress","app_id":440,"player_count":24,"max_players":24,"Bots":0,"server_type":"Dedicated","server_os":"Linux","password":true,"vac":true,"version":"7882260","steam_id":85568392924469989,"keywords":["nocrits","nodmgspread","payload","uncletopia"],"game_id":440,"stv_port":27016,"stv_name":"Uncletopia | Frankfurt | 1 | All Maps | STV","players":[{"user_id":226,"name":"–∏–ª–∫–∞ –ø–∞–∞–Ω–∞–Ω–µ–Ω","steam_id":76561199149307190,"connected_time":4156000000000,"state":"active","ping":79},{"user_id":274,"name":"B.batt","steam_id":76561198998684199,"connected_time":1000000000000,"state":"active","ping":115},{"user_id":257,"name":"1ggy","steam_id":76561199051285912,"connected_time":2908000000000,"state":"active","ping":79},{"user_id":205,"name":"BELADIT","steam_id":76561198011911501,"connected_time":5805000000000,"state":"active","ping":75},{"user_id":258,"name":"Znoz","steam_id":76561198012093928,"connected_time":2812000000000,"state":"active","ping":93},{"user_id":276,"name":"kilo","steam_id":76561198015641339,"connected_time":949000000000,"state":"active","ping":74},{"user_id":285,"name":"Lilac","steam_id":76561199483835107,"connected_time":387000000000,"state":"active","ping":81},{"user_id":277,"name":"Captain Scrumpe","steam_id":76561198032206577,"connected_time":928000000000,"state":"active","ping":76},{"user_id":272,"name":"Krzty","steam_id":76561198306160711,"connected_time":1525000000000,"state":"active","ping":51},{"user_id":278,"name":"Extravagator","steam_id":76561198415539125,"connected_time":921000000000,"state":"active","ping":80},{"user_id":282,"name":"cl","steam_id":76561199436640904,"connected_time":585000000000,"state":"active","ping":76},{"user_id":260,"name":"someone","steam_id":76561198377208758,"connected_time":2789000000000,"state":"active","ping":96},{"user_id":266,"name":"Umbro","steam_id":76561198087930438,"connected_time":2104000000000,"state":"active","ping":73},{"user_id":138,"name":"LordTrap.exe","steam_id":76561198318089716,"connected_time":10574000000000,"state":"active","ping":51},{"user_id":222,"name":"gegit08","steam_id":76561199040010283,"connected_time":4334000000000,"state":"active","ping":92},{"user_id":270,"name":"M4R1O","steam_id":76561198050528464,"connected_time":1667000000000,"state":"active","ping":61},{"user_id":267,"name":"Gooby","steam_id":76561198158343951,"connected_time":2001000000000,"state":"active","ping":51},{"user_id":262,"name":"cursedbygod‚ô°","steam_id":76561198318291047,"connected_time":2306000000000,"state":"active","ping":115},{"user_id":275,"name":"ricky pee pee","steam_id":76561198152620745,"connected_time":993000000000,"state":"active","ping":73},{"user_id":263,"name":"Hoff","steam_id":76561198138540938,"connected_time":2273000000000,"state":"active","ping":81},{"user_id":265,"name":"Syd","steam_id":76561198020515027,"connected_time":2255000000000,"state":"active","ping":76},{"user_id":283,"name":"Mr.killer","steam_id":76561198290584189,"connected_time":546000000000,"state":"active","ping":94},{"user_id":269,"name":"DeCypher \u003c3","steam_id":76561198171992619,"connected_time":1834000000000,"state":"active","ping":69},{"user_id":281,"name":"stefanbejenari","steam_id":76561199466718294,"connected_time":864000000000,"state":"active","ping":81}]},{"server_id":110,"name":"Uncletopia | Frankfurt | 2 | All Maps","name_short":"frk-2","host":"frk-1.de.uncletopia.com","port":27025,"enabled":true,"region":"eu","cc":"de","latitude":50.110924,"longitude":8.682127,"reserved":0,"last_update":"0001-01-01T00:00:00Z","name_a2s":"Uncletopia | Frankfurt | 2 | All Maps","protocol":17,"map":"pl_snowycoast","folder":"tf","game":"Team Fortress","app_id":440,"player_count":23,"max_players":24,"Bots":0,"server_type":"Dedicated","server_os":"Linux","password":true,"vac":true,"version":"7882260","steam_id":85568392924469990,"keywords":["nocrits","nodmgspread","payload","uncletopia"],"game_id":440,"stv_port":27026,"stv_name":"Uncletopia | Frankfurt | 2 | All Maps | STV","players":[{"user_id":211,"name":"One Hop Dis Time *BWRAB*","steam_id":76561198146081601,"connected_time":694000000000,"state":"active","ping":43},{"user_id":212,"name":"grzybiarz2022","steam_id":76561199409218561,"connected_time":613000000000,"state":"active","ping":91},{"user_id":164,"name":"pull out method","steam_id":76561199235435358,"connected_time":3589000000000,"state":"active","ping":84},{"user_id":186,"name":"mrmrmrmrmmrrmrmrmrmrmr","steam_id":76561199382535912,"connected_time":2445000000000,"state":"active","ping":72},{"user_id":213,"name":"vurtun","steam_id":76561198857395274,"connected_time":552000000000,"state":"active","ping":53},{"user_id":214,"name":"TrippleMoral","steam_id":76561199202556292,"connected_time":505000000000,"state":"active","ping":65},{"user_id":187,"name":"Hanƒ±mSever23","steam_id":76561198142124751,"connected_time":2437000000000,"state":"active","ping":108},{"user_id":215,"name":"balkanpresident","steam_id":76561199137677645,"connected_time":485000000000,"state":"active","ping":101},{"user_id":216,"name":"nizumi","steam_id":76561198375159043,"connected_time":456000000000,"state":"active","ping":64},{"user_id":217,"name":"TrollFace","steam_id":76561198799317717,"connected_time":429000000000,"state":"active","ping":122},{"user_id":218,"name":"Cars","steam_id":76561198173329977,"connected_time":394000000000,"state":"active","ping":67},{"user_id":180,"name":"Elfie","steam_id":76561198206802255,"connected_time":2694000000000,"state":"active","ping":74},{"user_id":191,"name":"Kati","steam_id":76561198007231088,"connected_time":2365000000000,"state":"active","ping":62},{"user_id":220,"name":"Fridge","steam_id":76561198071665589,"connected_time":387000000000,"state":"active","ping":101},{"user_id":221,"name":"cream gravy","steam_id":76561198973069177,"connected_time":377000000000,"state":"active","ping":47},{"user_id":222,"name":"Volky","steam_id":76561199027614048,"connected_time":376000000000,"state":"active","ping":59},{"user_id":223,"name":"Zygocact","steam_id":76561197990776598,"connected_time":361000000000,"state":"active","ping":132},{"user_id":205,"name":"Gorzel","steam_id":76561198828273330,"connected_time":1475000000000,"state":"active","ping":73},{"user_id":197,"name":"Sensei","steam_id":76561198383582429,"connected_time":2174000000000,"state":"active","ping":94},{"user_id":224,"name":"froglids","steam_id":76561198045466919,"connected_time":361000000000,"state":"active","ping":63},{"user_id":225,"name":"morstaker","steam_id":76561198144143786,"connected_time":313000000000,"state":"active","ping":97},{"user_id":171,"name":"S.V.I.L.A.R","steam_id":76561198828348612,"connected_time":3316000000000,"state":"active","ping":99},{"user_id":229,"name":"KFCrimson","steam_id":76561198397919557,"connected_time":76000000000,"state":"active","ping":75}]},{"server_id":308,"name":"Uncletopia | Frankfurt | 3 | All Maps","name_short":"frk-3","host":"frk-1.de.uncletopia.com","port":27035,"enabled":true,"region":"eu","cc":"de","latitude":50.110924,"longitude":8.682127,"reserved":0,"last_update":"0001-01-01T00:00:00Z","name_a2s":"Uncletopia | Frankfurt | 3 | All Maps","protocol":17,"map":"koth_harvest_final","folder":"tf","game":"Team Fortress","app_id":440,"player_count":19,"max_players":24,"Bots":0,"server_type":"Dedicated","server_os":"Linux","password":true,"vac":true,"version":"7882260","steam_id":85568392924504274,"keywords":["cp","nocrits","nodmgspread","uncletopia"],"game_id":440,"stv_port":27036,"stv_name":"Uncletopia | Frankfurt | 3 | All Maps | STV","players":[{"user_id":53,"name":"EddieTheBear","steam_id":76561197962698753,"connected_time":2821000000000,"state":"active","ping":77},{"user_id":54,"name":"Patrik Stj√§rna","steam_id":76561198044435735,"connected_time":2801000000000,"state":"active","ping":80},{"user_id":55,"name":"DOODL","steam_id":76561198358378176,"connected_time":2800000000000,"state":"active","ping":79},{"user_id":101,"name":"Sockmaster99","steam_id":76561199008494933,"connected_time":75000000000,"state":"active","ping":69},{"user_id":57,"name":"Tortoise01Swe","steam_id":76561198118673227,"connected_time":2733000000000,"state":"active","ping":76},{"user_id":58,"name":"Commander Slem","steam_id":76561198064900840,"connected_time":2732000000000,"state":"active","ping":79},{"user_id":59,"name":"Chromega","steam_id":76561199075307750,"connected_time":2611000000000,"state":"active","ping":54},{"user_id":61,"name":"Spectre","steam_id":76561198163819482,"connected_time":2543000000000,"state":"active","ping":72},{"user_id":62,"name":"Lord xbox","steam_id":76561198093458326,"connected_time":2541000000000,"state":"active","ping":58},{"user_id":64,"name":"Banatical Bean","steam_id":76561198122356617,"connected_time":2483000000000,"state":"active","ping":66},{"user_id":65,"name":"schocky","steam_id":76561197965924454,"connected_time":2477000000000,"state":"active","ping":45},{"user_id":89,"name":"Talkkari","steam_id":76561198025327723,"connected_time":760000000000,"state":"active","ping":62},{"user_id":67,"name":"Xestoch","steam_id":76561197999642906,"connected_time":2340000000000,"state":"active","ping":120},{"user_id":90,"name":"God's Goofiest Goober","steam_id":76561198103175187,"connected_time":749000000000,"state":"active","ping":57},{"user_id":102,"name":"oskar.collins2","steam_id":76561199092232637,"connected_time":48000000000,"state":"active","ping":76},{"user_id":86,"name":"Frozen strawberries enjoyer","steam_id":76561198065854668,"connected_time":1422000000000,"state":"active","ping":54},{"user_id":85,"name":"Issei Hyoudou ÂÖµËó§ ‰∏ÄË™†","steam_id":76561198174088183,"connected_time":1548000000000,"state":"active","ping":75},{"user_id":95,"name":"Tfuj Stary","steam_id":76561198126681452,"connected_time":567000000000,"state":"active","ping":93},{"user_id":78,"name":"strohkopf9","steam_id":76561198059349860,"connected_time":2140000000000,"state":"active","ping":72}]},{"server_id":309,"name":"Uncletopia | Frankfurt | 4 | All Maps","name_short":"frk-4","host":"frk-1.de.uncletopia.com","port":27045,"enabled":true,"region":"eu","cc":"de","latitude":50.110924,"longitude":8.682127,"reserved":0,"last_update":"0001-01-01T00:00:00Z","name_a2s":"Uncletopia | Frankfurt | 4 | All Maps","protocol":17,"map":"pl_barnblitz","folder":"tf","game":"Team Fortress","app_id":440,"player_count":21,"max_players":24,"Bots":0,"server_type":"Dedicated","server_os":"Linux","password":true,"vac":true,"version":"7882260","steam_id":85568392924504275,"keywords":["nocrits","nodmgspread","payload","uncletopia"],"game_id":440,"stv_port":27046,"stv_name":"Uncletopia | Frankfurt | 4 | All Maps | STV","players":[{"user_id":479,"name":"`*¬¥'¬¥¬¥'`'*'`*'''¬®'","steam_id":76561198139303045,"connected_time":23000000000,"state":"active","ping":90},{"user_id":455,"name":"mero","steam_id":76561198293147412,"connected_time":1569000000000,"state":"active","ping":100},{"user_id":480,"name":"jovi_","steam_id":76561198449280552,"connected_time":14000000000,"state":"active","ping":75},{"user_id":448,"name":"dopamine enjoyer","steam_id":76561198140591983,"connected_time":2055000000000,"state":"active","ping":90},{"user_id":473,"name":"Segra blw.tf","steam_id":76561198441974031,"connected_time":243000000000,"state":"active","ping":60},{"user_id":457,"name":"Doctor Mobius","steam_id":76561197971281806,"connected_time":1299000000000,"state":"active","ping":58},{"user_id":459,"name":"Lana Ev√∏l √Öttog","steam_id":76561198066287297,"connected_time":1188000000000,"state":"active","ping":44},{"user_id":453,"name":"Wolframen","steam_id":76561198074103958,"connected_time":1977000000000,"state":"active","ping":70},{"user_id":474,"name":"[P-roc] Cmm Bert","steam_id":76561198016658674,"connected_time":202000000000,"state":"active","ping":68},{"user_id":481,"name":"dumdum","steam_id":76561198069430083,"connected_time":5000000000,"state":"spawning","ping":73},{"user_id":475,"name":"Krefa12","steam_id":76561198268375393,"connected_time":152000000000,"state":"active","ping":87},{"user_id":471,"name":"Kumquat","steam_id":76561198200490386,"connected_time":454000000000,"state":"active","ping":76},{"user_id":482,"name":"clems17","steam_id":76561199420685482,"connected_time":1000000000,"state":"spawning","ping":50},{"user_id":478,"name":"Mike","steam_id":76561198228455736,"connected_time":87000000000,"state":"active","ping":63},{"user_id":437,"name":"Dr Sex","steam_id":76561198029044617,"connected_time":3091000000000,"state":"active","ping":60},{"user_id":476,"name":"svantezch","steam_id":76561198373831657,"connected_time":111000000000,"state":"active","ping":71},{"user_id":462,"name":"Crewmate nero","steam_id":76561198174865237,"connected_time":1117000000000,"state":"active","ping":105},{"user_id":470,"name":"gabehemmelgarn","steam_id":76561199089671432,"connected_time":521000000000,"state":"active","ping":175},{"user_id":467,"name":"gort","steam_id":76561198060339391,"connected_time":809000000000,"state":"active","ping":51},{"user_id":472,"name":"lyudmilakh","steam_id":76561198362779878,"connected_time":308000000000,"state":"active","ping":91},{"user_id":389,"name":"Suomenjuusto","steam_id":76561198991491758,"connected_time":5706000000000,"state":"active","ping":102}]},{"server_id":310,"name":"Uncletopia | Frankfurt | 5 | All Maps","name_short":"frk-5","host":"frk-1.de.uncletopia.com","port":27055,"enabled":true,"region":"eu","cc":"de","latitude":50.110924,"longitude":8.682127,"reserved":0,"last_update":"0001-01-01T00:00:00Z","name_a2s":"Uncletopia | Frankfurt | 5 | All Maps","protocol":17,"map":"cp_process_final","folder":"tf","game":"Team Fortress","app_id":440,"player_count":24,"max_players":24,"Bots":0,"server_type":"Dedicated","server_os":"Linux","password":true,"vac":true,"version":"7882260","steam_id":85568392924504277,"keywords":["cp","nocrits","nodmgspread","uncletopia"],"game_id":440,"stv_port":27056,"stv_name":"Uncletopia | Frankfurt | 5 | All Maps | STV","players":[{"user_id":174,"name":"Rimx","steam_id":76561198053034840,"connected_time":5032000000000,"state":"active","ping":91},{"user_id":200,"name":"0","steam_id":76561199084809092,"connected_time":2949000000000,"state":"active","ping":94},{"user_id":224,"name":"Gh0uL002","steam_id":76561199122099196,"connected_time":144000000000,"state":"active","ping":67},{"user_id":197,"name":"NoobfromHell","steam_id":76561198394221491,"connected_time":3535000000000,"state":"active","ping":59},{"user_id":215,"name":"Soerlssoelss√∂en","steam_id":76561197993060585,"connected_time":2058000000000,"state":"active","ping":74},{"user_id":161,"name":"Pilaarius","steam_id":76561198120273212,"connected_time":5554000000000,"state":"active","ping":88},{"user_id":225,"name":"L1NTHALO","steam_id":76561198171001938,"connected_time":143000000000,"state":"active","ping":46},{"user_id":192,"name":"Vershal Smershal","steam_id":76561198116223995,"connected_time":3900000000000,"state":"active","ping":60},{"user_id":218,"name":"Udinese Dion","steam_id":76561198067931573,"connected_time":1631000000000,"state":"active","ping":59},{"user_id":226,"name":"wee woo","steam_id":76561198147277460,"connected_time":84000000000,"state":"active","ping":53},{"user_id":227,"name":"smella fartois","steam_id":76561198023211417,"connected_time":78000000000,"state":"active","ping":65},{"user_id":228,"name":"hello hi","steam_id":76561198148074472,"connected_time":72000000000,"state":"active","ping":36},{"user_id":229,"name":"miev","steam_id":76561198078278737,"connected_time":68000000000,"state":"active","ping":92},{"user_id":185,"name":"big poo","steam_id":76561199088284199,"connected_time":4589000000000,"state":"active","ping":61},{"user_id":221,"name":"Piss","steam_id":76561199284109054,"connected_time":729000000000,"state":"active","ping":89},{"user_id":230,"name":"Itai","steam_id":76561198804555329,"connected_time":67000000000,"state":"active","ping":99},{"user_id":231,"name":"MPG","steam_id":76561199131610533,"connected_time":51000000000,"state":"active","ping":106},{"user_id":132,"name":"top 10 movement videos","steam_id":76561199195985387,"connected_time":9707000000000,"state":"active","ping":89},{"user_id":232,"name":"MISTERDJD","steam_id":76561198171447254,"connected_time":19000000000,"state":"spawning","ping":98},{"user_id":175,"name":"Toasty5050","steam_id":76561198073540881,"connected_time":4991000000000,"state":"active","ping":44},{"user_id":213,"name":"Sonic","steam_id":76561198081692577,"connected_time":2371000000000,"state":"active","ping":60},{"user_id":188,"name":"agent youppii","steam_id":76561198055264447,"connected_time":4338000000000,"state":"active","ping":68},{"user_id":179,"name":"Solymr ibn Wali Barad","steam_id":76561198044008976,"connected_time":4814000000000,"state":"active","ping":73},{"user_id":223,"name":"ShiningSpider","steam_id":76561199020884035,"connected_time":299000000000,"state":"active","ping":170}]},{"server_id":311,"name":"Uncletopia | Frankfurt | 6 | All Maps","name_short":"frk-6","host":"frk-1.de.uncletopia.com","port":27065,"enabled":true,"region":"eu","cc":"de","latitude":50.110924,"longitude":8.682127,"reserved":0,"last_update":"0001-01-01T00:00:00Z","name_a2s":"Uncletopia | Frankfurt | 6 | All Maps","protocol":17,"map":"cp_steel","folder":"tf","game":"Team Fortress","app_id":440,"player_count":24,"max_players":24,"Bots":0,"server_type":"Dedicated","server_os":"Linux","password":true,"vac":true,"version":"7882260","steam_id":85568392924504278,"keywords":["cp","nocrits","nodmgspread","uncletopia"],"game_id":440,"stv_port":27066,"stv_name":"Uncletopia | Frankfurt | 6 | All Maps | STV","players":[{"user_id":356,"name":"Vidrox #savetf2","steam_id":76561199217854983,"connected_time":261000000000,"state":"active","ping":92},{"user_id":337,"name":"r06u3","steam_id":76561198254099253,"connected_time":2734000000000,"state":"active","ping":168},{"user_id":331,"name":"SpaceCake","steam_id":76561198151394497,"connected_time":3474000000000,"state":"active","ping":79},{"user_id":346,"name":"ti snimaesh kimono","steam_id":76561198012264375,"connected_time":2171000000000,"state":"active","ping":66},{"user_id":335,"name":"Lucky B.üèÜ","steam_id":76561198077571162,"connected_time":2900000000000,"state":"active","ping":55},{"user_id":357,"name":"Dr.Nefario","steam_id":76561198874586020,"connected_time":259000000000,"state":"active","ping":63},{"user_id":358,"name":"Dill Killem","steam_id":76561199071571354,"connected_time":247000000000,"state":"active","ping":68},{"user_id":318,"name":"Benzo Fury","steam_id":76561198025259336,"connected_time":4399000000000,"state":"active","ping":56},{"user_id":332,"name":"Ewelinka Zniszczenia","steam_id":76561198307374456,"connected_time":3385000000000,"state":"active","ping":68},{"user_id":359,"name":"üóªüé¥Hadrian Maloneüé¥üóª","steam_id":76561198036151103,"connected_time":234000000000,"state":"active","ping":55},{"user_id":351,"name":"dagaminking","steam_id":76561198144209072,"connected_time":1069000000000,"state":"active","ping":55},{"user_id":339,"name":"hananamanna","steam_id":76561198006570285,"connected_time":2725000000000,"state":"active","ping":105},{"user_id":319,"name":"DeSepp","steam_id":76561198063149086,"connected_time":4392000000000,"state":"active","ping":54},{"user_id":364,"name":"gundvre","steam_id":76561198009885723,"connected_time":43000000000,"state":"active","ping":103},{"user_id":340,"name":"Kapitan Polska","steam_id":76561197968069413,"connected_time":2678000000000,"state":"active","ping":76},{"user_id":360,"name":"MatesThePlayer","steam_id":76561198066156449,"connected_time":217000000000,"state":"active","ping":55},{"user_id":361,"name":"strideŒî","steam_id":76561199007826093,"connected_time":211000000000,"state":"active","ping":85},{"user_id":320,"name":"Devil","steam_id":76561198129721935,"connected_time":4375000000000,"state":"active","ping":85},{"user_id":362,"name":"xXtentioncableXx","steam_id":76561198082814549,"connected_time":209000000000,"state":"active","ping":61},{"user_id":347,"name":"1couver","steam_id":76561198168553215,"connected_time":1889000000000,"state":"active","ping":102},{"user_id":353,"name":"h","steam_id":76561198273551016,"connected_time":673000000000,"state":"active","ping":70},{"user_id":363,"name":"skindiver376","steam_id":76561198056533071,"connected_time":172000000000,"state":"active","ping":57},{"user_id":343,"name":"Even R√º√ºd","steam_id":76561197981144291,"connected_time":2625000000000,"state":"active","ping":75}]},{"server_id":23,"name":"Uncletopia | Frankfurt | 7 | Stopwatch Beta","name_short":"frk-7","host":"frk-1.de.uncletopia.com","port":27075,"enabled":true,"region":"eu","cc":"de","latitude":50.110924,"longitude":8.682127,"reserved":0,"last_update":"0001-01-01T00:00:00Z","name_a2s":"Uncletopia | Frankfurt | 7 | Stopwatch Beta","protocol":17,"map":"workshop/koth_clearcut_b15.ugc2107050255","folder":"tf","game":"Team Fortress","app_id":440,"player_count":0,"max_players":24,"Bots":0,"server_type":"Dedicated","server_os":"Linux","password":true,"vac":true,"version":"7882260","steam_id":85568392924742827,"keywords":["cp","nocrits","nodmgspread","uncletopia"],"game_id":440,"stv_port":27076,"stv_name":"Uncletopia | Frankfurt | 7 | Stopwatch Beta | STV","players":null},{"server_id":24,"name":"Uncletopia | Frankfurt | 8 | Community","name_short":"frk-8","host":"frk-1.de.uncletopia.com","port":27085,"enabled":true,"region":"eu","cc":"de","latitude":50.110924,"longitude":8.682127,"reserved":0,"last_update":"0001-01-01T00:00:00Z","name_a2s":"Uncletopia | Frankfurt | 8 | Community","protocol":17,"map":"workshop/cp_fulgur_rc2a.ugc2068252300","folder":"tf","game":"Team Fortress","app_id":440,"player_count":21,"max_players":24,"Bots":0,"server_type":"Dedicated","server_os":"Linux","password":true,"vac":true,"version":"7882260","steam_id":85568392924742828,"keywords":["cp","nocrits","nodmgspread","uncletopia"],"game_id":440,"stv_port":27086,"stv_name":"Uncletopia | Frankfurt | 8 | Community | STV","players":[{"user_id":146,"name":"benifis163","steam_id":76561198420973492,"connected_time":496000000000,"state":"active","ping":103},{"user_id":118,"name":"SHFO","steam_id":76561198132104112,"connected_time":1851000000000,"state":"active","ping":70},{"user_id":96,"name":"Stigurna","steam_id":76561198063906822,"connected_time":3750000000000,"state":"active","ping":96},{"user_id":114,"name":"Irbynx","steam_id":76561197980421195,"connected_time":2362000000000,"state":"active","ping":78},{"user_id":117,"name":"duckels","steam_id":76561198127790695,"connected_time":2070000000000,"state":"active","ping":42},{"user_id":141,"name":"Tegnerud","steam_id":76561198214185612,"connected_time":704000000000,"state":"active","ping":70},{"user_id":148,"name":"padillacampos","steam_id":76561198161923970,"connected_time":372000000000,"state":"active","ping":78},{"user_id":149,"name":"–†–∞—Å–∫–æ–ª—å–Ω–∏–∫_–°–ê–í–ö–ê","steam_id":76561198056455006,"connected_time":247000000000,"state":"active","ping":105},{"user_id":102,"name":"hedon/","steam_id":76561198249832770,"connected_time":3446000000000,"state":"active","ping":59},{"user_id":86,"name":"you're wasting your time","steam_id":76561199282911650,"connected_time":4366000000000,"state":"active","ping":65},{"user_id":122,"name":"Actual Goblin","steam_id":76561198118929194,"connected_time":1686000000000,"state":"active","ping":159},{"user_id":109,"name":"Fish 'n' Chips","steam_id":76561198033476886,"connected_time":2774000000000,"state":"active","ping":45},{"user_id":151,"name":"hank","steam_id":76561198861326546,"connected_time":142000000000,"state":"spawning","ping":225},{"user_id":124,"name":"‚òûLaZe‚òú","steam_id":76561198202191400,"connected_time":1639000000000,"state":"active","ping":72},{"user_id":125,"name":"Jonathan","steam_id":76561198087988880,"connected_time":1637000000000,"state":"active","ping":59},{"user_id":126,"name":"Endik (#SaveTF2)","steam_id":76561199114978709,"connected_time":1636000000000,"state":"active","ping":69},{"user_id":127,"name":"Fat Pigeon","steam_id":76561198817940142,"connected_time":1634000000000,"state":"active","ping":59},{"user_id":152,"name":"O4W P1N tf2hard.com","steam_id":76561198382749493,"connected_time":94000000000,"state":"active","ping":87},{"user_id":137,"name":"wicked","steam_id":76561198164376035,"connected_time":1001000000000,"state":"active","ping":72},{"user_id":153,"name":"lore","steam_id":76561198120984188,"connected_time":34000000000,"state":"active","ping":60},{"user_id":100,"name":"rob","steam_id":76561198122211848,"connected_time":3515000000000,"state":"active","ping":92}]},{"server_id":202,"name":"Uncletopia | Hong Kong | 1 | All Maps","name_short":"hgk-1","host":"hgk-1.hk.uncletopia.com","port":27015,"enabled":true,"region":"asia","cc":"hk","latitude":22.302711,"longitude":114.177216,"reserved":0,"last_update":"0001-01-01T00:00:00Z","name_a2s":"Uncletopia | Hong Kong | 1 | All Maps","protocol":17,"map":"pl_pier","folder":"tf","game":"Team Fortress","app_id":440,"player_count":0,"max_players":24,"Bots":0,"server_type":"Dedicated","server_os":"Linux","password":true,"vac":true,"version":"7882260","steam_id":85568392924494504,"keywords":["nocrits","nodmgspread","payload","uncletopia"],"game_id":440,"stv_port":27016,"stv_name":"Uncletopia | Hong Kong | 1 | All Maps | STV","players":null},{"server_id":1,"name":"Uncletopia | Los Angeles | 1 | All Maps","name_short":"lax-1","host":"lax-1.us.uncletopia.com","port":27015,"enabled":true,"region":"us-west","cc":"us","latitude":33.94279,"longitude":-118.41004,"reserved":0,"last_update":"0001-01-01T00:00:00Z","name_a2s":"Uncletopia | Los Angeles | 1 | All Maps","protocol":17,"map":"pl_upward","folder":"tf","game":"Team Fortress","app_id":440,"player_count":2,"max_players":24,"Bots":0,"server_type":"Dedicated","server_os":"Linux","password":true,"vac":true,"version":"7882260","steam_id":85568392924469991,"keywords":["nocrits","nodmgspread","payload","uncletopia"],"game_id":440,"stv_port":27016,"stv_name":"Uncletopia | Los Angeles | 1 | All Maps | STV","players":[{"user_id":10,"name":"InfiniteEl235","steam_id":76561198382579853,"connected_time":823000000000,"state":"active","ping":44},{"user_id":11,"name":"Faucheur51","steam_id":76561198857596658,"connected_time":287000000000,"state":"active","ping":197}]},{"server_id":112,"name":"Uncletopia | Los Angeles | 2 | All Maps","name_short":"lax-2","host":"lax-1.us.uncletopia.com","port":27025,"enabled":true,"region":"us-west","cc":"us","latitude":33.94279,"longitude":-118.41004,"reserved":0,"last_update":"0001-01-01T00:00:00Z","name_a2s":"Uncletopia | Los Angeles | 2 | All Maps","protocol":17,"map":"koth_viaduct","folder":"tf","game":"Team Fortress","app_id":440,"player_count":0,"max_players":24,"Bots":0,"server_type":"Dedicated","server_os":"Linux","password":true,"vac":true,"version":"7882260","steam_id":85568392924469992,"keywords":["cp","nocrits","nodmgspread","uncletopia"],"game_id":440,"stv_port":27026,"stv_name":"Uncletopia | Los Angeles | 2 | All Maps | STV","players":null},{"server_id":324,"name":"Uncletopia | Los Angeles | 3 | All Maps","name_short":"lax-3","host":"lax-1.us.uncletopia.com","port":27035,"enabled":true,"region":"us-west","cc":"us","latitude":33.94279,"longitude":-118.41004,"reserved":0,"last_update":"0001-01-01T00:00:00Z","name_a2s":"Uncletopia | Los Angeles | 3 | All Maps","protocol":17,"map":"cp_snakewater_final1","folder":"tf","game":"Team Fortress","app_id":440,"player_count":0,"max_players":24,"Bots":0,"server_type":"Dedicated","server_os":"Linux","password":true,"vac":true,"version":"7882260","steam_id":85568392924510198,"keywords":["cp","nocrits","nodmgspread","uncletopia"],"game_id":440,"stv_port":27036,"stv_name":"Uncletopia | Los Angeles | 3 | All Maps | STV","players":null},{"server_id":25,"name":"Uncletopia | Los Angeles | 4 | Stopwatch Beta","name_short":"lax-4","host":"lax-1.us.uncletopia.com","port":27045,"enabled":true,"region":"us-west","cc":"us","latitude":33.94279,"longitude":-118.41004,"reserved":0,"last_update":"0001-01-01T00:00:00Z","name_a2s":"Uncletopia | Los Angeles | 4 | Stopwatch Beta","protocol":17,"map":"workshop/koth_ramjam_rc1.ugc459778887","folder":"tf","game":"Team Fortress","app_id":440,"player_count":0,"max_players":24,"Bots":0,"server_type":"Dedicated","server_os":"Linux","password":true,"vac":true,"version":"7882260","steam_id":85568392924510199,"keywords":["cp","nocrits","nodmgspread","uncletopia"],"game_id":440,"stv_port":27046,"stv_name":"Uncletopia | Los Angeles | 4 | Stopwatch Beta | STV","players":null},{"server_id":11,"name":"Uncletopia | London | 1 | All Maps","name_short":"lon-1","host":"lon-1.uk.uncletopia.com","port":27015,"enabled":true,"region":"eu","cc":"gb","latitude":51.509865,"longitude":-0.118092,"reserved":0,"last_update":"0001-01-01T00:00:00Z","name_a2s":"Uncletopia | London | 1 | All Maps","protocol":17,"map":"pl_upward","folder":"tf","game":"Team Fortress","app_id":440,"player_count":24,"max_players":24,"Bots":0,"server_type":"Dedicated","server_os":"Linux","password":true,"vac":true,"version":"7882260","steam_id":85568392924367362,"keywords":["nocrits","nodmgspread","payload","uncletopia"],"game_id":440,"stv_port":27016,"stv_name":"Uncletopia | London | 1 | All Maps | STV","players":[{"user_id":584,"name":"Fwebbie","steam_id":76561199006875621,"connected_time":2740000000000,"state":"active","ping":51},{"user_id":586,"name":"flr","steam_id":76561198249327786,"connected_time":2551000000000,"state":"active","ping":75},{"user_id":589,"name":"Yeets3er","steam_id":76561199137127757,"connected_time":2283000000000,"state":"active","ping":60},{"user_id":616,"name":"jimmy bob","steam_id":76561198319583692,"connected_time":61000000000,"state":"active","ping":62},{"user_id":570,"name":"Mitrev","steam_id":76561198157124880,"connected_time":4120000000000,"state":"active","ping":71},{"user_id":600,"name":"Milk","steam_id":76561198125876588,"connected_time":1102000000000,"state":"active","ping":48},{"user_id":571,"name":"epic gamer moment","steam_id":76561198299515070,"connected_time":4089000000000,"state":"active","ping":98},{"user_id":594,"name":"Cosmetic brain","steam_id":76561198055936410,"connected_time":1597000000000,"state":"active","ping":85},{"user_id":602,"name":"generic alias","steam_id":76561198271607226,"connected_time":921000000000,"state":"active","ping":89},{"user_id":557,"name":"Watermelon","steam_id":76561198078349914,"connected_time":4970000000000,"state":"active","ping":50},{"user_id":610,"name":"Sorky","steam_id":76561198007502339,"connected_time":242000000000,"state":"active","ping":75},{"user_id":605,"name":"Acu1000","steam_id":76561198996751455,"connected_time":275000000000,"state":"active","ping":104},{"user_id":595,"name":"Master Of Noob","steam_id":76561198217926783,"connected_time":1587000000000,"state":"active","ping":81},{"user_id":591,"name":"Hive","steam_id":76561199480966681,"connected_time":2132000000000,"state":"active","ping":75},{"user_id":604,"name":"Lix","steam_id":76561198130779816,"connected_time":542000000000,"state":"active","ping":57},{"user_id":611,"name":"Husk","steam_id":76561198271808519,"connected_time":238000000000,"state":"active","ping":66},{"user_id":603,"name":"blurst of times","steam_id":76561197972325640,"connected_time":798000000000,"state":"active","ping":50},{"user_id":597,"name":"Venenakki","steam_id":76561198311526482,"connected_time":1385000000000,"state":"active","ping":69},{"user_id":614,"name":"Topi","steam_id":76561198165732391,"connected_time":171000000000,"state":"active","ping":89},{"user_id":583,"name":"trite","steam_id":76561197983765323,"connected_time":2768000000000,"state":"active","ping":56},{"user_id":601,"name":"dafydd","steam_id":76561198052200325,"connected_time":1024000000000,"state":"active","ping":96},{"user_id":579,"name":"CottonPicker404","steam_id":76561199485020000,"connected_time":3686000000000,"state":"active","ping":94},{"user_id":612,"name":"lettuce out of stock","steam_id":76561199401283123,"connected_time":222000000000,"state":"active","ping":48},{"user_id":613,"name":"RIFT","steam_id":76561198991622379,"connected_time":203000000000,"state":"active","ping":44}]},{"server_id":114,"name":"Uncletopia | London | 2 | All Maps","name_short":"lon-2","host":"lon-1.uk.uncletopia.com","port":27025,"enabled":true,"region":"eu","cc":"gb","latitude":51.509865,"longitude":-0.118092,"reserved":0,"last_update":"0001-01-01T00:00:00Z","name_a2s":"Uncletopia | London | 2 | All Maps","protocol":17,"map":"pl_badwater","folder":"tf","game":"Team Fortress","app_id":440,"player_count":24,"max_players":24,"Bots":0,"server_type":"Dedicated","server_os":"Linux","password":true,"vac":true,"version":"7882260","steam_id":85568392924470941,"keywords":["nocrits","nodmgspread","payload","uncletopia"],"game_id":440,"stv_port":27026,"stv_name":"Uncletopia | London | 2 | All Maps | STV","players":[{"user_id":596,"name":"lerodai","steam_id":76561199084810384,"connected_time":264000000000,"state":"active","ping":130},{"user_id":569,"name":"Tortes","steam_id":76561199049185884,"connected_time":1401000000000,"state":"active","ping":104},{"user_id":557,"name":"Ran33","steam_id":76561197991474499,"connected_time":2850000000000,"state":"active","ping":87},{"user_id":550,"name":"Yanniki","steam_id":76561197986058110,"connected_time":3308000000000,"state":"active","ping":62},{"user_id":532,"name":"Delta Melta","steam_id":76561198283391403,"connected_time":3663000000000,"state":"active","ping":59},{"user_id":553,"name":"Chromy","steam_id":76561198061947223,"connected_time":3081000000000,"state":"active","ping":89},{"user_id":581,"name":"Scikesr","steam_id":76561198105182357,"connected_time":626000000000,"state":"active","ping":84},{"user_id":591,"name":"gumbo by mf doom","steam_id":76561199181821779,"connected_time":462000000000,"state":"active","ping":73},{"user_id":582,"name":"Ozzak","steam_id":76561198353664262,"connected_time":577000000000,"state":"active","ping":59},{"user_id":527,"name":"night.s","steam_id":76561198326287823,"connected_time":3853000000000,"state":"active","ping":75},{"user_id":579,"name":"Acanda","steam_id":76561198123246537,"connected_time":705000000000,"state":"active","ping":55},{"user_id":511,"name":"Doctor Marijuana","steam_id":76561198288289879,"connected_time":4238000000000,"state":"active","ping":47},{"user_id":552,"name":"SpyCrab  Erik Twice","steam_id":76561198009710309,"connected_time":3176000000000,"state":"active","ping":61},{"user_id":566,"name":"rets","steam_id":76561198061551392,"connected_time":1521000000000,"state":"active","ping":68},{"user_id":585,"name":"Oak","steam_id":76561198067315672,"connected_time":522000000000,"state":"active","ping":49},{"user_id":594,"name":"walluu","steam_id":76561198121830870,"connected_time":337000000000,"state":"active","ping":75},{"user_id":597,"name":"skullhead289","steam_id":76561199086481600,"connected_time":218000000000,"state":"active","ping":87},{"user_id":354,"name":"Lotto","steam_id":76561198012295174,"connected_time":14124000000000,"state":"active","ping":72},{"user_id":567,"name":"Shelly1052","steam_id":76561199043551053,"connected_time":1458000000000,"state":"active","ping":46},{"user_id":588,"name":"Albon","steam_id":76561198060378881,"connected_time":519000000000,"state":"active","ping":65},{"user_id":598,"name":"finbar","steam_id":76561198056812396,"connected_time":212000000000,"state":"active","ping":141},{"user_id":600,"name":"Silent","steam_id":76561198344588858,"connected_time":180000000000,"state":"active","ping":53},{"user_id":517,"name":"dash.","steam_id":76561198084796149,"connected_time":4183000000000,"state":"active","ping":44},{"user_id":549,"name":"AmssoBador Spacelot","steam_id":76561197993444617,"connected_time":3331000000000,"state":"active","ping":75}]},{"server_id":320,"name":"Uncletopia | London | 3 | All Maps","name_short":"lon-3","host":"lon-1.uk.uncletopia.com","port":27035,"enabled":true,"region":"eu","cc":"gb","latitude":51.509865,"longitude":-0.118092,"reserved":0,"last_update":"0001-01-01T00:00:00Z","name_a2s":"Uncletopia | London | 3 | All Maps","protocol":17,"map":"cp_process_final","folder":"tf","game":"Team Fortress","app_id":440,"player_count":23,"max_players":24,"Bots":0,"server_type":"Dedicated","server_os":"Linux","password":true,"vac":true,"version":"7882260","steam_id":85568392924510192,"keywords":["cp","nocrits","nodmgspread","uncletopia"],"game_id":440,"stv_port":27036,"stv_name":"Uncletopia | London | 3 | All Maps | STV","players":[{"user_id":485,"name":"YaUzBeK","steam_id":76561198105121641,"connected_time":852000000000,"state":"active","ping":71},{"user_id":505,"name":"Schwarzschild radius(Rg=2GM/c^2","steam_id":76561198179463343,"connected_time":141000000000,"state":"active","ping":58},{"user_id":468,"name":"Toasted Toby","steam_id":76561198002139581,"connected_time":1394000000000,"state":"active","ping":61},{"user_id":487,"name":"Dumbbell door","steam_id":76561198036824480,"connected_time":844000000000,"state":"active","ping":76},{"user_id":502,"name":"Spich","steam_id":76561199017245962,"connected_time":222000000000,"state":"active","ping":95},{"user_id":470,"name":"TheBeardedM1G","steam_id":76561198040208946,"connected_time":1318000000000,"state":"active","ping":46},{"user_id":488,"name":"Quiet Kid","steam_id":76561199134800446,"connected_time":841000000000,"state":"active","ping":100},{"user_id":499,"name":"Laxslow","steam_id":76561198065361846,"connected_time":405000000000,"state":"active","ping":70},{"user_id":490,"name":"JC","steam_id":76561198029213352,"connected_time":798000000000,"state":"active","ping":30},{"user_id":506,"name":"Breddie Mercury","steam_id":76561198804590384,"connected_time":61000000000,"state":"active","ping":80},{"user_id":473,"name":"sniper","steam_id":76561198405291408,"connected_time":1261000000000,"state":"active","ping":69},{"user_id":491,"name":"Enkloth!","steam_id":76561198115106008,"connected_time":712000000000,"state":"active","ping":56},{"user_id":492,"name":"Mr.O #deletesniper","steam_id":76561198039567498,"connected_time":706000000000,"state":"active","ping":58},{"user_id":447,"name":"RLCrazyCat3","steam_id":76561197983757878,"connected_time":2379000000000,"state":"active","ping":67},{"user_id":496,"name":"Klokov","steam_id":76561198240633534,"connected_time":625000000000,"state":"active","ping":74},{"user_id":497,"name":"MV__81","steam_id":76561198272251814,"connected_time":537000000000,"state":"active","ping":40},{"user_id":498,"name":"Townsend And Sons","steam_id":76561199072698153,"connected_time":442000000000,"state":"active","ping":69},{"user_id":480,"name":"weedda","steam_id":76561198449953655,"connected_time":1097000000000,"state":"active","ping":70},{"user_id":476,"name":"DelT","steam_id":76561198204007537,"connected_time":1221000000000,"state":"active","ping":60},{"user_id":477,"name":"GMsU | AuxiliusM","steam_id":76561198071903356,"connected_time":1205000000000,"state":"active","ping":53},{"user_id":504,"name":"max","steam_id":76561198027033926,"connected_time":204000000000,"state":"active","ping":48},{"user_id":459,"name":"a bullet","steam_id":76561198809248362,"connected_time":1800000000000,"state":"active","ping":92},{"user_id":495,"name":"needa dispensa here","steam_id":76561198011155232,"connected_time":659000000000,"state":"active","ping":60}]},{"server_id":321,"name":"Uncletopia | London | 4 | All Maps","name_short":"lon-4","host":"lon-1.uk.uncletopia.com","port":27045,"enabled":true,"region":"eu","cc":"gb","latitude":51.509865,"longitude":-0.118092,"reserved":0,"last_update":"0001-01-01T00:00:00Z","name_a2s":"Uncletopia | London | 4 | All Maps","protocol":17,"map":"koth_highpass","folder":"tf","game":"Team Fortress","app_id":440,"player_count":15,"max_players":24,"Bots":0,"server_type":"Dedicated","server_os":"Linux","password":true,"vac":true,"version":"7882260","steam_id":85568392924510193,"keywords":["cp","nocrits","nodmgspread","uncletopia"],"game_id":440,"stv_port":27046,"stv_name":"Uncletopia | London | 4 | All Maps | STV","players":[{"user_id":621,"name":"Spunty","steam_id":76561198128779870,"connected_time":1932000000000,"state":"active","ping":42},{"user_id":632,"name":"shakunetsu","steam_id":76561198057859386,"connected_time":1519000000000,"state":"active","ping":74},{"user_id":648,"name":"Bad","steam_id":76561199403752637,"connected_time":100000000000,"state":"active","ping":42},{"user_id":617,"name":"tWx","steam_id":76561198123145824,"connected_time":2797000000000,"state":"active","ping":75},{"user_id":649,"name":"Bits\u0026Peices","steam_id":76561199225453607,"connected_time":95000000000,"state":"active","ping":154},{"user_id":650,"name":"Refre35","steam_id":76561198971840738,"connected_time":30000000000,"state":"active","ping":83},{"user_id":593,"name":"cortex","steam_id":76561198839790230,"connected_time":4228000000000,"state":"active","ping":80},{"user_id":646,"name":"literallyjasonx","steam_id":76561198835895387,"connected_time":189000000000,"state":"active","ping":56},{"user_id":647,"name":"Coyot","steam_id":76561198344502070,"connected_time":167000000000,"state":"active","ping":75},{"user_id":651,"name":"luigi","steam_id":76561198884659731,"connected_time":25000000000,"state":"spawning","ping":113},{"user_id":620,"name":"Pacyfista Feminista Frutarianin","steam_id":76561198435883762,"connected_time":2285000000000,"state":"active","ping":94},{"user_id":652,"name":"RFireRed","steam_id":76561198982078622,"connected_time":18000000000,"state":"spawning","ping":59},{"user_id":631,"name":"Lasauttaja","steam_id":76561198009823148,"connected_time":1541000000000,"state":"active","ping":65},{"user_id":644,"name":"computing asses","steam_id":76561198126401166,"connected_time":286000000000,"state":"active","ping":80},{"user_id":634,"name":"gandalf zaza","steam_id":76561198059787688,"connected_time":1363000000000,"state":"active","ping":144}]},{"server_id":21,"name":"Uncletopia | London | 5 | All Maps","name_short":"lon-5","host":"lon-1.uk.uncletopia.com","port":27055,"enabled":true,"region":"eu","cc":"gb","latitude":51.509865,"longitude":-0.118092,"reserved":0,"last_update":"0001-01-01T00:00:00Z","name_a2s":"Uncletopia | London | 5 | All Maps","protocol":17,"map":"koth_suijin","folder":"tf","game":"Team Fortress","app_id":440,"player_count":24,"max_players":24,"Bots":0,"server_type":"Dedicated","server_os":"Linux","password":true,"vac":true,"version":"7882260","steam_id":85568392924742829,"keywords":["cp","nocrits","nodmgspread","uncletopia"],"game_id":440,"stv_port":27056,"stv_name":"Uncletopia | London | 5 | All Maps | STV","players":[{"user_id":317,"name":"Dr. Funkenstein","steam_id":76561197977816210,"connected_time":995000000000,"state":"active","ping":56},{"user_id":313,"name":"weleenkerk","steam_id":76561198143969491,"connected_time":1493000000000,"state":"active","ping":69},{"user_id":318,"name":"Mr. Oak","steam_id":76561198331315713,"connected_time":994000000000,"state":"active","ping":54},{"user_id":209,"name":"Caliban","steam_id":76561197999696839,"connected_time":7772000000000,"state":"active","ping":118},{"user_id":319,"name":"Endi","steam_id":76561198914938199,"connected_time":987000000000,"state":"active","ping":101},{"user_id":303,"name":"piss man (real)","steam_id":76561198839843428,"connected_time":2023000000000,"state":"active","ping":112},{"user_id":233,"name":"The Subway Scientist","steam_id":76561198193757646,"connected_time":6354000000000,"state":"active","ping":61},{"user_id":291,"name":"pakin157","steam_id":76561198035125667,"connected_time":2898000000000,"state":"active","ping":89},{"user_id":294,"name":"Providence","steam_id":76561198003920270,"connected_time":2681000000000,"state":"active","ping":70},{"user_id":316,"name":"Dr.Sees [F2P]","steam_id":76561199219233587,"connected_time":1013000000000,"state":"active","ping":79},{"user_id":320,"name":"Waiting...","steam_id":76561198984449256,"connected_time":927000000000,"state":"active","ping":62},{"user_id":274,"name":"zsonyik :^D","steam_id":76561198180119047,"connected_time":4264000000000,"state":"active","ping":94},{"user_id":279,"name":"omony","steam_id":76561197983750025,"connected_time":3217000000000,"state":"active","ping":95},{"user_id":323,"name":"Whimsical Gear","steam_id":76561198315957953,"connected_time":494000000000,"state":"active","ping":59},{"user_id":324,"name":"ran is running","steam_id":76561199443185667,"connected_time":241000000000,"state":"active","ping":137},{"user_id":307,"name":"futer","steam_id":76561198059699043,"connected_time":1922000000000,"state":"active","ping":80},{"user_id":305,"name":"I own the penis scooter","steam_id":76561198173218318,"connected_time":1977000000000,"state":"active","ping":45},{"user_id":278,"name":"DENZ3L","steam_id":76561198121892767,"connected_time":3762000000000,"state":"active","ping":78},{"user_id":284,"name":"Heroine Nisa","steam_id":76561198013748040,"connected_time":3120000000000,"state":"active","ping":74},{"user_id":322,"name":"Rat King","steam_id":76561198256783599,"connected_time":803000000000,"state":"active","ping":51},{"user_id":286,"name":"Cheesy","steam_id":76561198016538483,"connected_time":3110000000000,"state":"active","ping":83},{"user_id":308,"name":"Waff00","steam_id":76561198848377100,"connected_time":1897000000000,"state":"active","ping":145},{"user_id":289,"name":"dabuttsniffer","steam_id":76561198369227367,"connected_time":2951000000000,"state":"active","ping":98},{"user_id":315,"name":"SeeYouSpaceRobot","steam_id":76561198454018197,"connected_time":1105000000000,"state":"active","ping":67}]},{"server_id":22,"name":"Uncletopia | London | 6 | All Maps","name_short":"lon-6","host":"lon-1.uk.uncletopia.com","port":27065,"enabled":true,"region":"eu","cc":"gb","latitude":51.509865,"longitude":-0.118092,"reserved":0,"last_update":"0001-01-01T00:00:00Z","name_a2s":"Uncletopia | London | 6 | All Maps","protocol":17,"map":"pl_upward","folder":"tf","game":"Team Fortress","app_id":440,"player_count":24,"max_players":24,"Bots":0,"server_type":"Dedicated","server_os":"Linux","password":true,"vac":true,"version":"7882260","steam_id":85568392924742830,"keywords":["nocrits","nodmgspread","payload","uncletopia"],"game_id":440,"stv_port":27066,"stv_name":"Uncletopia | London | 6 | All Maps | STV","players":[{"user_id":60,"name":"-=Bits=-Dinkleberg","steam_id":76561198080367616,"connected_time":1157000000000,"state":"active","ping":149},{"user_id":58,"name":"hichem","steam_id":76561198056197307,"connected_time":1633000000000,"state":"active","ping":45},{"user_id":59,"name":"„ÄéDorarhim„Äè","steam_id":76561198220232352,"connected_time":1288000000000,"state":"active","ping":40},{"user_id":72,"name":"Truegear","steam_id":76561198059511386,"connected_time":134000000000,"state":"active","ping":75},{"user_id":51,"name":"a rat","steam_id":76561198381491880,"connected_time":2387000000000,"state":"active","ping":102},{"user_id":73,"name":"9TByron","steam_id":76561198086730020,"connected_time":128000000000,"state":"active","ping":32},{"user_id":74,"name":"sbren sbeve","steam_id":76561198025811641,"connected_time":117000000000,"state":"active","ping":72},{"user_id":47,"name":"CiVillain","steam_id":76561198059617732,"connected_time":2964000000000,"state":"active","ping":74},{"user_id":50,"name":"dunduu","steam_id":76561198875240717,"connected_time":2703000000000,"state":"active","ping":77},{"user_id":21,"name":"zebulon","steam_id":76561198384683504,"connected_time":3817000000000,"state":"active","ping":58},{"user_id":67,"name":"Trippy","steam_id":76561198962647544,"connected_time":750000000000,"state":"active","ping":66},{"user_id":65,"name":"jge","steam_id":76561198123186387,"connected_time":820000000000,"state":"active","ping":60},{"user_id":62,"name":"imarko2927","steam_id":76561199467000846,"connected_time":873000000000,"state":"active","ping":96},{"user_id":69,"name":"medick","steam_id":76561199380849468,"connected_time":693000000000,"state":"active","ping":60},{"user_id":75,"name":"hipster_doofus","steam_id":76561197970902697,"connected_time":97000000000,"state":"active","ping":55},{"user_id":71,"name":"congo","steam_id":76561198236836866,"connected_time":269000000000,"state":"active","ping":90},{"user_id":76,"name":"csnipery","steam_id":76561199435280050,"connected_time":86000000000,"state":"active","ping":81},{"user_id":33,"name":"zorze supreme.exe","steam_id":76561198996333022,"connected_time":3387000000000,"state":"active","ping":65},{"user_id":61,"name":"frosty","steam_id":76561198094560834,"connected_time":1151000000000,"state":"active","ping":52},{"user_id":36,"name":"Plep","steam_id":76561198840259819,"connected_time":3349000000000,"state":"active","ping":58},{"user_id":44,"name":" Ä…™·¥ã·¥è·¥ò‚ìΩ","steam_id":76561198101822510,"connected_time":3202000000000,"state":"active","ping":82},{"user_id":70,"name":"Spurt","steam_id":76561198078523852,"connected_time":383000000000,"state":"active","ping":58},{"user_id":56,"name":"FATTY","steam_id":76561198087962709,"connected_time":2073000000000,"state":"active","ping":76},{"user_id":41,"name":"gonad epic","steam_id":76561198217435839,"connected_time":3321000000000,"state":"active","ping":169}]},{"server_id":40,"name":"Uncletopia | London | 7 | No Payload","name_short":"lon-7","host":"lon-1.uk.uncletopia.com","port":27075,"enabled":true,"region":"eu","cc":"gb","latitude":51.509865,"longitude":-0.118092,"reserved":0,"last_update":"0001-01-01T00:00:00Z","name_a2s":"Uncletopia | London | 7 | No Payload","protocol":17,"map":"cp_process_final","folder":"tf","game":"Team Fortress","app_id":440,"player_count":9,"max_players":24,"Bots":0,"server_type":"Dedicated","server_os":"Linux","password":true,"vac":true,"version":"7882260","steam_id":85568392924964314,"keywords":["cp","nocrits","nodmgspread","uncletopia"],"game_id":440,"stv_port":27076,"stv_name":"Uncletopia | London | 7 | No Payload | STV","players":[{"user_id":13,"name":"HERISSON","steam_id":76561199062194778,"connected_time":2006000000000,"state":"active","ping":79},{"user_id":14,"name":"Double_binks","steam_id":76561199438485598,"connected_time":1960000000000,"state":"active","ping":56},{"user_id":15,"name":"Yugoooii","steam_id":76561199426989328,"connected_time":1955000000000,"state":"active","ping":61},{"user_id":23,"name":"David Random","steam_id":76561198144497918,"connected_time":228000000000,"state":"active","ping":69},{"user_id":17,"name":"Fresh Blur - Rinku","steam_id":76561198063255592,"connected_time":1275000000000,"state":"active","ping":92},{"user_id":21,"name":"FliturbiousRex","steam_id":76561199217583334,"connected_time":558000000000,"state":"active","ping":147},{"user_id":20,"name":"Tartin Ninja","steam_id":76561198192605933,"connected_time":695000000000,"state":"active","ping":114},{"user_id":22,"name":"Tx_madmash","steam_id":76561198924656512,"connected_time":449000000000,"state":"active","ping":120},{"user_id":24,"name":"Jugg","steam_id":76561198384417257,"connected_time":66000000000,"state":"active","ping":57}]},{"server_id":41,"name":"Uncletopia | London | 8 | Community","name_short":"lon-8","host":"lon-1.uk.uncletopia.com","port":27085,"enabled":true,"region":"eu","cc":"gb","latitude":51.509865,"longitude":-0.118092,"reserved":0,"last_update":"0001-01-01T00:00:00Z","name_a2s":"Uncletopia | London | 8 | Community","protocol":17,"map":"workshop/koth_synthetic_rc6a.ugc1549817316","folder":"tf","game":"Team Fortress","app_id":440,"player_count":0,"max_players":24,"Bots":0,"server_type":"Dedicated","server_os":"Linux","password":true,"vac":true,"version":"7882260","steam_id":85568392924964315,"keywords":["cp","nocrits","nodmgspread","uncletopia"],"game_id":440,"stv_port":27086,"stv_name":"Uncletopia | London | 8 | Community | STV","players":null},{"server_id":300,"name":"Uncletopia | Montr√©al | 1 | All Maps","name_short":"mtl-1","host":"mtl-1.ca.uncletopia.com","port":27015,"enabled":true,"region":"us-east","cc":"ca","latitude":45.50889,"longitude":-73.56167,"reserved":0,"last_update":"0001-01-01T00:00:00Z","name_a2s":"Uncletopia | Montr√©al | 1 | All Maps","protocol":17,"map":"cp_process_final","folder":"tf","game":"Team Fortress","app_id":440,"player_count":0,"max_players":24,"Bots":0,"server_type":"Dedicated","server_os":"Linux","password":true,"vac":true,"version":"7882260","steam_id":85568392924500087,"keywords":["cp","nocrits","nodmgspread","uncletopia"],"game_id":440,"stv_port":27016,"stv_name":"Uncletopia | Montr√©al | 1 | All Maps | STV","players":null},{"server_id":301,"name":"Uncletopia | Montr√©al | 2 | All Maps","name_short":"mtl-2","host":"mtl-1.ca.uncletopia.com","port":27025,"enabled":true,"region":"us-east","cc":"ca","latitude":45.50889,"longitude":-73.56167,"reserved":0,"last_update":"0001-01-01T00:00:00Z","name_a2s":"Uncletopia | Montr√©al | 2 | All Maps","protocol":17,"map":"pl_swiftwater_final1","folder":"tf","game":"Team Fortress","app_id":440,"player_count":0,"max_players":24,"Bots":0,"server_type":"Dedicated","server_os":"Linux","password":true,"vac":true,"version":"7882260","steam_id":85568392924500088,"keywords":["nocrits","nodmgspread","payload","uncletopia"],"game_id":440,"stv_port":27026,"stv_name":"Uncletopia | Montr√©al | 2 | All Maps | STV","players":null},{"server_id":302,"name":"Uncletopia | Montr√©al | 3 | All Maps","name_short":"mtl-3","host":"mtl-1.ca.uncletopia.com","port":27035,"enabled":true,"region":"us-east","cc":"ca","latitude":45.50889,"longitude":-73.56167,"reserved":0,"last_update":"0001-01-01T00:00:00Z","name_a2s":"Uncletopia | Montr√©al | 3 | All Maps","protocol":17,"map":"pl_borneo","folder":"tf","game":"Team Fortress","app_id":440,"player_count":0,"max_players":24,"Bots":0,"server_type":"Dedicated","server_os":"Linux","password":true,"vac":true,"version":"7882260","steam_id":85568392924500089,"keywords":["nocrits","nodmgspread","payload","uncletopia"],"game_id":440,"stv_port":27036,"stv_name":"Uncletopia | Montr√©al | 3 | All Maps | STV","players":null},{"server_id":303,"name":"Uncletopia | Montr√©al | 4 | No Payload","name_short":"mtl-4","host":"mtl-1.ca.uncletopia.com","port":27045,"enabled":true,"region":"us-east","cc":"ca","latitude":45.50889,"longitude":-73.56167,"reserved":0,"last_update":"0001-01-01T00:00:00Z","name_a2s":"Uncletopia | Montr√©al | 4 | No Payload","protocol":17,"map":"cp_altitude","folder":"tf","game":"Team Fortress","app_id":440,"player_count":0,"max_players":24,"Bots":0,"server_type":"Dedicated","server_os":"Linux","password":true,"vac":true,"version":"7882260","steam_id":85568392924500090,"keywords":["cp","nocrits","nodmgspread","uncletopia"],"game_id":440,"stv_port":27046,"stv_name":"Uncletopia | Montr√©al | 4 | No Payload | STV","players":null},{"server_id":13,"name":"Uncletopia | New York City | 1 | All Maps","name_short":"nyc-1","host":"nyc-1.us.uncletopia.com","port":27015,"enabled":true,"region":"us-east","cc":"us","latitude":40.73061,"longitude":-73.93524,"reserved":0,"last_update":"0001-01-01T00:00:00Z","name_a2s":"Uncletopia | New York City | 1 | All Maps","protocol":17,"map":"pl_thundermountain","folder":"tf","game":"Team Fortress","app_id":440,"player_count":22,"max_players":24,"Bots":0,"server_type":"Dedicated","server_os":"Linux","password":true,"vac":true,"version":"7882260","steam_id":85568392924469993,"keywords":["nocrits","nodmgspread","payload","uncletopia"],"game_id":440,"stv_port":27016,"stv_name":"Uncletopia | New York City | 1 | All Maps | STV","players":[{"user_id":234,"name":"cool safe name","steam_id":76561198237827742,"connected_time":3348000000000,"state":"active","ping":45},{"user_id":254,"name":"Aeris","steam_id":76561198287271028,"connected_time":1167000000000,"state":"active","ping":76},{"user_id":245,"name":"monkey","steam_id":76561198099481645,"connected_time":1999000000000,"state":"active","ping":33},{"user_id":244,"name":"Silly Fella","steam_id":76561198073434502,"connected_time":2146000000000,"state":"active","ping":83},{"user_id":264,"name":"Haliaeetus leucocephalus","steam_id":76561199013299586,"connected_time":27000000000,"state":"active","ping":58},{"user_id":258,"name":"YOUNG UPGRADE","steam_id":76561198035474725,"connected_time":549000000000,"state":"active","ping":63},{"user_id":221,"name":"Bother","steam_id":76561198336750909,"connected_time":3992000000000,"state":"active","ping":46},{"user_id":200,"name":"marisa kirisame","steam_id":76561198337692867,"connected_time":5355000000000,"state":"active","ping":70},{"user_id":146,"name":"xen","steam_id":76561198048568188,"connected_time":8287000000000,"state":"active","ping":49},{"user_id":188,"name":"Kaithepi","steam_id":76561198431664933,"connected_time":6297000000000,"state":"active","ping":115},{"user_id":262,"name":"(Maj) Dr Freak","steam_id":76561198046450332,"connected_time":315000000000,"state":"active","ping":87},{"user_id":259,"name":"Ripley","steam_id":76561198080766916,"connected_time":548000000000,"state":"active","ping":61},{"user_id":120,"name":"Bee_Pirate","steam_id":76561199000599111,"connected_time":10361000000000,"state":"active","ping":71},{"user_id":266,"name":"NOM","steam_id":76561199059006203,"connected_time":24000000000,"state":"active","ping":80},{"user_id":251,"name":"Norman","steam_id":76561198154715990,"connected_time":1378000000000,"state":"active","ping":106},{"user_id":201,"name":"genuine mitosis scout","steam_id":76561198814096380,"connected_time":5339000000000,"state":"active","ping":77},{"user_id":263,"name":"Weather Report","steam_id":76561199109494283,"connected_time":313000000000,"state":"active","ping":58},{"user_id":194,"name":"King Baldski","steam_id":76561198359568400,"connected_time":5829000000000,"state":"active","ping":135},{"user_id":257,"name":"frizzle fried","steam_id":76561198062991744,"connected_time":828000000000,"state":"active","ping":46},{"user_id":231,"name":"Draco6257","steam_id":76561199147322448,"connected_time":3425000000000,"state":"active","ping":36},{"user_id":256,"name":"Goods","steam_id":76561198412316857,"connected_time":849000000000,"state":"active","ping":92},{"user_id":255,"name":"Doruk K√º√ß√ºkduman","steam_id":76561198399815628,"connected_time":895000000000,"state":"active","ping":162}]},{"server_id":14,"name":"Uncletopia | New York City | 2 | All Maps","name_short":"nyc-2","host":"nyc-1.us.uncletopia.com","port":27025,"enabled":true,"region":"us-east","cc":"us","latitude":40.73061,"longitude":-73.93524,"reserved":0,"last_update":"0001-01-01T00:00:00Z","name_a2s":"Uncletopia | New York City | 2 | All Maps","protocol":17,"map":"koth_lakeside_final","folder":"tf","game":"Team Fortress","app_id":440,"player_count":0,"max_players":24,"Bots":0,"server_type":"Dedicated","server_os":"Linux","password":true,"vac":true,"version":"7882260","steam_id":85568392924469994,"keywords":["cp","nocrits","nodmgspread","uncletopia"],"game_id":440,"stv_port":27026,"stv_name":"Uncletopia | New York City | 2 | All Maps | STV","players":null},{"server_id":15,"name":"Uncletopia | New York City | 3 | Stopwatch Beta","name_short":"nyc-3","host":"nyc-1.us.uncletopia.com","port":27035,"enabled":true,"region":"us-east","cc":"us","latitude":40.73061,"longitude":-73.93524,"reserved":0,"last_update":"0001-01-01T00:00:00Z","name_a2s":"Uncletopia | New York City | 3 | Stopwatch Beta","protocol":17,"map":"pl_borneo","folder":"tf","game":"Team Fortress","app_id":440,"player_count":0,"max_players":24,"Bots":0,"server_type":"Dedicated","server_os":"Linux","password":true,"vac":true,"version":"7882260","steam_id":85568392924742820,"keywords":["nocrits","nodmgspread","payload","uncletopia"],"game_id":440,"stv_port":27036,"stv_name":"Uncletopia | New York City | 3 | Stopwatch Beta | STV","players":null},{"server_id":16,"name":"Uncletopia | New York City | 4 | Community","name_short":"nyc-4","host":"nyc-1.us.uncletopia.com","port":27045,"enabled":true,"region":"us-east","cc":"us","latitude":40.73061,"longitude":-73.93524,"reserved":0,"last_update":"0001-01-01T00:00:00Z","name_a2s":"Uncletopia | New York City | 4 | Community","protocol":17,"map":"pl_badwater","folder":"tf","game":"Team Fortress","app_id":440,"player_count":0,"max_players":24,"Bots":0,"server_type":"Dedicated","server_os":"Linux","password":true,"vac":true,"version":"7882260","steam_id":85568392924742821,"keywords":["nocrits","nodmgspread","payload","uncletopia"],"game_id":440,"stv_port":27046,"stv_name":"Uncletopia | New York City | 4 | Community | STV","players":null},{"server_id":142,"name":"Uncletopia | S√£o Paulo | 1 | All Maps","name_short":"sao-1","host":"sao-1.br.uncletopia.com","port":27015,"enabled":true,"region":"sa","cc":"br","latitude":-23.533773,"longitude":-46.62529,"reserved":0,"last_update":"0001-01-01T00:00:00Z","name_a2s":"Uncletopia | S√£o Paulo | 1 | All Maps","protocol":17,"map":"cp_process_final","folder":"tf","game":"Team Fortress","app_id":440,"player_count":0,"max_players":24,"Bots":0,"server_type":"Dedicated","server_os":"Linux","password":true,"vac":true,"version":"7882260","steam_id":85568392924469996,"keywords":["cp","nocrits","nodmgspread","uncletopia"],"game_id":440,"stv_port":27016,"stv_name":"Uncletopia | S√£o Paulo | 1 | All Maps | STV","players":null},{"server_id":143,"name":"Uncletopia | S√£o Paulo | 2 | All Maps","name_short":"sao-2","host":"sao-2.br.uncletopia.com","port":27015,"enabled":true,"region":"sa","cc":"br","latitude":-23.533773,"longitude":-46.62529,"reserved":0,"last_update":"0001-01-01T00:00:00Z","name_a2s":"Uncletopia | S√£o Paulo | 2 | All Maps","protocol":17,"map":"pl_snowycoast","folder":"tf","game":"Team Fortress","app_id":440,"player_count":5,"max_players":24,"Bots":0,"server_type":"Dedicated","server_os":"Linux","password":true,"vac":true,"version":"7882260","steam_id":85568392924485349,"keywords":["nocrits","nodmgspread","payload","uncletopia"],"game_id":440,"stv_port":27016,"stv_name":"Uncletopia | S√£o Paulo | 2 | All Maps | STV","players":[{"user_id":57,"name":"Trigonomancer","steam_id":76561198149081380,"connected_time":1567000000000,"state":"active","ping":89},{"user_id":58,"name":"francotirador","steam_id":76561199177055367,"connected_time":1019000000000,"state":"active","ping":78},{"user_id":59,"name":"agiota interestelar","steam_id":76561199110940098,"connected_time":951000000000,"state":"active","ping":60},{"user_id":62,"name":"mrdanilo671","steam_id":76561199267088479,"connected_time":730000000000,"state":"active","ping":49},{"user_id":63,"name":"vinincius","steam_id":76561198966604314,"connected_time":721000000000,"state":"active","ping":94}]},{"server_id":7,"name":"Uncletopia | Seattle | 1 | All Maps","name_short":"sea-1","host":"sea-1.us.uncletopia.com","port":27015,"enabled":true,"region":"us-west","cc":"us","latitude":47.608013,"longitude":-122.33517,"reserved":0,"last_update":"0001-01-01T00:00:00Z","name_a2s":"Uncletopia | Seattle | 1 | All Maps","protocol":17,"map":"cp_mountainlab","folder":"tf","game":"Team Fortress","app_id":440,"player_count":22,"max_players":24,"Bots":0,"server_type":"Dedicated","server_os":"Linux","password":true,"vac":true,"version":"7882260","steam_id":85568392924469997,"keywords":["cp","nocrits","nodmgspread","uncletopia"],"game_id":440,"stv_port":27016,"stv_name":"Uncletopia | Seattle | 1 | All Maps | STV","players":[{"user_id":287,"name":"jayeskae","steam_id":76561198144220801,"connected_time":141000000000,"state":"active","ping":45},{"user_id":251,"name":"gumcuzzler","steam_id":76561198118644686,"connected_time":2951000000000,"state":"active","ping":75},{"user_id":233,"name":"ghostt·óù","steam_id":76561199214430703,"connected_time":3868000000000,"state":"active","ping":91},{"user_id":286,"name":"Fh","steam_id":76561198000903511,"connected_time":389000000000,"state":"active","ping":62},{"user_id":288,"name":"Pneumo.","steam_id":76561197987911883,"connected_time":66000000000,"state":"active","ping":69},{"user_id":198,"name":"Shivs","steam_id":76561198170708197,"connected_time":6103000000000,"state":"active","ping":79},{"user_id":252,"name":"Shark Sandwich","steam_id":76561198025007938,"connected_time":2941000000000,"state":"active","ping":56},{"user_id":284,"name":"HoarseBard","steam_id":76561198059393099,"connected_time":714000000000,"state":"active","ping":70},{"user_id":270,"name":"The Phantom Shitter","steam_id":76561198060731432,"connected_time":1988000000000,"state":"active","ping":86},{"user_id":275,"name":"Buswolley","steam_id":76561197995205571,"connected_time":1302000000000,"state":"active","ping":57},{"user_id":235,"name":"Franz","steam_id":76561198041929745,"connected_time":3760000000000,"state":"active","ping":74},{"user_id":217,"name":"¬∞Creamy Gilligan","steam_id":76561198001569384,"connected_time":4769000000000,"state":"active","ping":120},{"user_id":238,"name":"BlazedBunny","steam_id":76561198243610560,"connected_time":3595000000000,"state":"active","ping":70},{"user_id":253,"name":"Mr8bittripper","steam_id":76561198133894229,"connected_time":2920000000000,"state":"active","ping":45},{"user_id":281,"name":"„Åµ„Çè„Åµ„ÇèÊØõÂ∏É","steam_id":76561198088403016,"connected_time":923000000000,"state":"active","ping":179},{"user_id":282,"name":"kujo‚òÜ","steam_id":76561199122523218,"connected_time":922000000000,"state":"active","ping":110},{"user_id":285,"name":"Mudkip","steam_id":76561198164192160,"connected_time":407000000000,"state":"active","ping":61},{"user_id":278,"name":"banjobun #savelight_env","steam_id":76561198116814525,"connected_time":1134000000000,"state":"active","ping":52},{"user_id":273,"name":"Jacob Hornberger 2016","steam_id":76561198204549723,"connected_time":1524000000000,"state":"active","ping":116},{"user_id":283,"name":"spiderland","steam_id":76561198335992132,"connected_time":897000000000,"state":"active","ping":50},{"user_id":246,"name":"RadioRave","steam_id":76561198240837534,"connected_time":3157000000000,"state":"active","ping":75},{"user_id":289,"name":"Noxitril_Enjoyer","steam_id":76561198870649125,"connected_time":13000000000,"state":"active","ping":77}]},{"server_id":119,"name":"Uncletopia | Seattle | 2 | All Maps","name_short":"sea-2","host":"sea-1.us.uncletopia.com","port":27025,"enabled":true,"region":"us-west","cc":"us","latitude":47.608013,"longitude":-122.33517,"reserved":0,"last_update":"0001-01-01T00:00:00Z","name_a2s":"Uncletopia | Seattle | 2 | All Maps","protocol":17,"map":"cp_dustbowl","folder":"tf","game":"Team Fortress","app_id":440,"player_count":18,"max_players":24,"Bots":0,"server_type":"Dedicated","server_os":"Linux","password":true,"vac":true,"version":"7882260","steam_id":85568392924469998,"keywords":["cp","nocrits","nodmgspread","uncletopia"],"game_id":440,"stv_port":27026,"stv_name":"Uncletopia | Seattle | 2 | All Maps | STV","players":[{"user_id":93,"name":"Smooky","steam_id":76561198191435451,"connected_time":2897000000000,"state":"active","ping":132},{"user_id":118,"name":"John Smith","steam_id":76561198185776555,"connected_time":803000000000,"state":"active","ping":39},{"user_id":106,"name":"Charles","steam_id":76561199031612530,"connected_time":2117000000000,"state":"active","ping":46},{"user_id":110,"name":"Jpzarde","steam_id":76561197978240364,"connected_time":1625000000000,"state":"active","ping":57},{"user_id":121,"name":"PeesTi2","steam_id":76561199016865192,"connected_time":265000000000,"state":"active","ping":154},{"user_id":107,"name":"monkey squirts","steam_id":76561197983101644,"connected_time":2025000000000,"state":"active","ping":73},{"user_id":70,"name":"Harold","steam_id":76561198057317770,"connected_time":5499000000000,"state":"active","ping":56},{"user_id":114,"name":"Apollo","steam_id":76561198162364702,"connected_time":1085000000000,"state":"active","ping":47},{"user_id":87,"name":"ShredMaan","steam_id":76561198429982138,"connected_time":3616000000000,"state":"active","ping":82},{"user_id":86,"name":"The Collective","steam_id":76561198170423483,"connected_time":3638000000000,"state":"active","ping":128},{"user_id":109,"name":"Cosmic Torgue","steam_id":76561198828724945,"connected_time":1838000000000,"state":"active","ping":122},{"user_id":122,"name":"salad","steam_id":76561198022225618,"connected_time":153000000000,"state":"active","ping":73},{"user_id":116,"name":"goblino","steam_id":76561198068260422,"connected_time":1051000000000,"state":"active","ping":90},{"user_id":123,"name":"NoodleGoose01","steam_id":76561199081634658,"connected_time":81000000000,"state":"spawning","ping":63},{"user_id":85,"name":"Jolly","steam_id":76561198116357972,"connected_time":3657000000000,"state":"active","ping":73},{"user_id":104,"name":"Shadow Wizard Money Gang","steam_id":76561198149634242,"connected_time":2292000000000,"state":"active","ping":95},{"user_id":113,"name":"walterhwhite","steam_id":76561199433675789,"connected_time":1289000000000,"state":"active","ping":88},{"user_id":119,"name":"Pinky","steam_id":76561198084685841,"connected_time":602000000000,"state":"active","ping":49}]},{"server_id":406,"name":"Uncletopia | Seattle | 3 | Stopwatch Beta","name_short":"sea-3","host":"sea-1.us.uncletopia.com","port":27035,"enabled":true,"region":"us-west","cc":"us","latitude":47.608013,"longitude":-122.33517,"reserved":0,"last_update":"0001-01-01T00:00:00Z","name_a2s":"Uncletopia | Seattle | 3 | Stopwatch Beta","protocol":17,"map":"pl_swiftwater_final1","folder":"tf","game":"Team Fortress","app_id":440,"player_count":1,"max_players":24,"Bots":0,"server_type":"Dedicated","server_os":"Linux","password":true,"vac":true,"version":"7882260","steam_id":85568392924515217,"keywords":["nocrits","nodmgspread","payload","uncletopia"],"game_id":440,"stv_port":27036,"stv_name":"Uncletopia | Seattle | 3 | Stopwatch Beta | STV","players":[{"user_id":6,"name":"toastoboi","steam_id":76561199259799042,"connected_time":54000000000,"state":"active","ping":120}]},{"server_id":17,"name":"Uncletopia | San Francisco | 1 | All Maps","name_short":"sfo-1","host":"sfo-1.us.uncletopia.com","port":27015,"enabled":true,"region":"us-west","cc":"us","latitude":37.77397,"longitude":-122.4313,"reserved":0,"last_update":"0001-01-01T00:00:00Z","name_a2s":"Uncletopia | San Francisco | 1 | All Maps","protocol":17,"map":"cp_process_final","folder":"tf","game":"Team Fortress","app_id":440,"player_count":0,"max_players":24,"Bots":0,"server_type":"Dedicated","server_os":"Linux","password":true,"vac":true,"version":"7757534","steam_id":85568392924469999,"keywords":["cp","nocrits","nodmgspread","uncletopia"],"game_id":440,"stv_port":27016,"stv_name":"Uncletopia | San Francisco | 1 | All Maps | STV","players":null},{"server_id":18,"name":"Uncletopia | San Francisco | 2 | All Maps","name_short":"sfo-2","host":"sfo-1.us.uncletopia.com","port":27025,"enabled":true,"region":"us-west","cc":"us","latitude":37.77397,"longitude":-122.4313,"reserved":0,"last_update":"0001-01-01T00:00:00Z","name_a2s":"Uncletopia | San Francisco | 2 | All Maps","protocol":17,"map":"koth_highpass","folder":"tf","game":"Team Fortress","app_id":440,"player_count":0,"max_players":24,"Bots":0,"server_type":"Dedicated","server_os":"Linux","password":true,"vac":true,"version":"7757534","steam_id":85568392924470000,"keywords":["cp","nocrits","nodmgspread","uncletopia"],"game_id":440,"stv_port":27026,"stv_name":"Uncletopia | San Francisco | 2 | All Maps | STV","players":null},{"server_id":19,"name":"Uncletopia | San Francisco | 3 | Stopwatch Beta","name_short":"sfo-3","host":"sfo-1.us.uncletopia.com","port":27035,"enabled":true,"region":"us-west","cc":"us","latitude":37.77397,"longitude":-122.4313,"reserved":0,"last_update":"0001-01-01T00:00:00Z","name_a2s":"Uncletopia | San Francisco | 3 | Stopwatch Beta","protocol":17,"map":"koth_lakeside_final","folder":"tf","game":"Team Fortress","app_id":440,"player_count":0,"max_players":24,"Bots":0,"server_type":"Dedicated","server_os":"Linux","password":true,"vac":true,"version":"7757534","steam_id":85568392924742824,"keywords":["cp","nocrits","nodmgspread","uncletopia"],"game_id":440,"stv_port":27036,"stv_name":"Uncletopia | San Francisco | 3 | Stopwatch Beta | STV","players":null},{"server_id":20,"name":"Uncletopia | San Francisco | 4 | Community","name_short":"sfo-4","host":"sfo-1.us.uncletopia.com","port":27045,"enabled":true,"region":"us-west","cc":"us","latitude":37.77397,"longitude":-122.4313,"reserved":0,"last_update":"0001-01-01T00:00:00Z","name_a2s":"Uncletopia | San Francisco | 4 | Community","protocol":17,"map":"cp_altitude","folder":"tf","game":"Team Fortress","app_id":440,"player_count":0,"max_players":24,"Bots":0,"server_type":"Dedicated","server_os":"Linux","password":true,"vac":true,"version":"7757534","steam_id":85568392924742826,"keywords":["cp","nocrits","nodmgspread","uncletopia"],"game_id":440,"stv_port":27046,"stv_name":"Uncletopia | San Francisco | 4 | Community | STV","players":null},{"server_id":141,"name":"Uncletopia | Sydney | 1 | All Maps","name_short":"syd-1","host":"syd-1.au.uncletopia.com","port":27015,"enabled":true,"region":"au","cc":"au","latitude":-33.865143,"longitude":151.2099,"reserved":0,"last_update":"0001-01-01T00:00:00Z","name_a2s":"Uncletopia | Sydney | 1 | All Maps","protocol":17,"map":"cp_dustbowl","folder":"tf","game":"Team Fortress","app_id":440,"player_count":0,"max_players":24,"Bots":0,"server_type":"Dedicated","server_os":"Linux","password":true,"vac":true,"version":"7882260","steam_id":85568392924470001,"keywords":["cp","nocrits","nodmgspread","uncletopia"],"game_id":440,"stv_port":27016,"stv_name":"Uncletopia | Sydney | 1 | All Maps | STV","players":null},{"server_id":123,"name":"Uncletopia | Sydney | 2 | All Maps","name_short":"syd-2","host":"syd-1.au.uncletopia.com","port":27025,"enabled":true,"region":"au","cc":"au","latitude":-33.865143,"longitude":151.2099,"reserved":0,"last_update":"0001-01-01T00:00:00Z","name_a2s":"Uncletopia | Sydney | 2 | All Maps","protocol":17,"map":"pl_barnblitz","folder":"tf","game":"Team Fortress","app_id":440,"player_count":0,"max_players":24,"Bots":0,"server_type":"Dedicated","server_os":"Linux","password":true,"vac":true,"version":"7882260","steam_id":85568392924470002,"keywords":["nocrits","nodmgspread","payload","uncletopia"],"game_id":440,"stv_port":27026,"stv_name":"Uncletopia | Sydney | 2 | All Maps | STV","players":null},{"server_id":395,"name":"Uncletopia | Sydney | 3 | All Maps","name_short":"syd-3","host":"syd-1.au.uncletopia.com","port":27035,"enabled":true,"region":"au","cc":"au","latitude":-33.865143,"longitude":151.2099,"reserved":0,"last_update":"0001-01-01T00:00:00Z","name_a2s":"Uncletopia | Sydney | 3 | All Maps","protocol":17,"map":"pl_badwater","folder":"tf","game":"Team Fortress","app_id":440,"player_count":0,"max_players":24,"Bots":0,"server_type":"Dedicated","server_os":"Linux","password":true,"vac":true,"version":"7882260","steam_id":85568392925194467,"keywords":["nocrits","nodmgspread","payload","uncletopia"],"game_id":440,"stv_port":27036,"stv_name":"Uncletopia | Sydney | 3 | All Maps | STV","players":null},{"server_id":396,"name":"Uncletopia | Sydney | 4 | All Maps","name_short":"syd-4","host":"syd-1.au.uncletopia.com","port":27045,"enabled":true,"region":"au","cc":"au","latitude":-33.865143,"longitude":151.2099,"reserved":0,"last_update":"0001-01-01T00:00:00Z","name_a2s":"Uncletopia | Sydney | 4 | All Maps","protocol":17,"map":"cp_dustbowl","folder":"tf","game":"Team Fortress","app_id":440,"player_count":0,"max_players":24,"Bots":0,"server_type":"Dedicated","server_os":"Linux","password":true,"vac":true,"version":"7882260","steam_id":85568392925397958,"keywords":["cp","nocrits","nodmgspread","uncletopia"],"game_id":440,"stv_port":27046,"stv_name":"Uncletopia | Sydney | 4 | All Maps | STV","players":null},{"server_id":58,"name":"Uncletopia | Sydney | 5 | Stopwatch Beta","name_short":"syd-5","host":"syd-1.au.uncletopia.com","port":27055,"enabled":true,"region":"au","cc":"au","latitude":-33.865143,"longitude":151.2099,"reserved":0,"last_update":"0001-01-01T00:00:00Z","name_a2s":"Uncletopia | Sydney | 5 | Stopwatch Beta","protocol":17,"map":"cp_snakewater_final1","folder":"tf","game":"Team Fortress","app_id":440,"player_count":0,"max_players":24,"Bots":0,"server_type":"Dedicated","server_os":"Linux","password":true,"vac":true,"version":"7882260","steam_id":85568392925397959,"keywords":["cp","nocrits","nodmgspread","uncletopia"],"game_id":440,"stv_port":27056,"stv_name":"Uncletopia | Sydney | 5 | Stopwatch Beta | STV","players":null},{"server_id":59,"name":"Uncletopia | Sydney | 6 | Community","name_short":"syd-6","host":"syd-1.au.uncletopia.com","port":27065,"enabled":true,"region":"au","cc":"au","latitude":-33.865143,"longitude":151.2099,"reserved":0,"last_update":"0001-01-01T00:00:00Z","name_a2s":"Uncletopia | Sydney | 6 | Community","protocol":17,"map":"pl_snowycoast","folder":"tf","game":"Team Fortress","app_id":440,"player_count":0,"max_players":24,"Bots":0,"server_type":"Dedicated","server_os":"Linux","password":true,"vac":true,"version":"7882260","steam_id":85568392925397960,"keywords":["nocrits","nodmgspread","payload","uncletopia"],"game_id":440,"stv_port":27066,"stv_name":"Uncletopia | Sydney | 6 | Community | STV","players":null},{"server_id":49,"name":"Uncletopia | Warsaw | 1 | All Maps","name_short":"waw-1","host":"waw-1.pl.uncletopia.com","port":27015,"enabled":true,"region":"eu","cc":"pl","latitude":52.2297,"longitude":21.017532,"reserved":0,"last_update":"0001-01-01T00:00:00Z","name_a2s":"","protocol":0,"map":"","folder":"","game":"","app_id":0,"player_count":0,"max_players":0,"Bots":0,"server_type":"","server_os":"","password":false,"vac":false,"version":"","steam_id":0,"keywords":null,"game_id":0,"stv_port":0,"stv_name":"","players":null},{"server_id":50,"name":"Uncletopia | Warsaw | 2 | All Maps","name_short":"waw-2","host":"waw-1.pl.uncletopia.com","port":27025,"enabled":true,"region":"eu","cc":"pl","latitude":52.2297,"longitude":21.017532,"reserved":0,"last_update":"0001-01-01T00:00:00Z","name_a2s":"Uncletopia | Warsaw | 2 | All Maps","protocol":17,"map":"cp_mountainlab","folder":"tf","game":"Team Fortress","app_id":440,"player_count":1,"max_players":24,"Bots":0,"server_type":"Dedicated","server_os":"Linux","password":true,"vac":true,"version":"7882260","steam_id":85568392925397851,"keywords":["cp","nocrits","nodmgspread","uncletopia"],"game_id":440,"stv_port":27026,"stv_name":"Uncletopia | Warsaw | 2 | All Maps | STV","players":[{"user_id":8,"name":"Ketich","steam_id":76561198021772703,"connected_time":156000000000,"state":"active","ping":62}]},{"server_id":51,"name":"Uncletopia | Warsaw | 3 | All Maps","name_short":"waw-3","host":"waw-1.pl.uncletopia.com","port":27035,"enabled":true,"region":"eu","cc":"pl","latitude":52.2297,"longitude":21.017532,"reserved":0,"last_update":"0001-01-01T00:00:00Z","name_a2s":"Uncletopia | Warsaw | 3 | All Maps","protocol":17,"map":"koth_viaduct","folder":"tf","game":"Team Fortress","app_id":440,"player_count":0,"max_players":24,"Bots":0,"server_type":"Dedicated","server_os":"Linux","password":true,"vac":true,"version":"7882260","steam_id":85568392925397852,"keywords":["cp","nocrits","nodmgspread","uncletopia"],"game_id":440,"stv_port":27036,"stv_name":"Uncletopia | Warsaw | 3 | All Maps | STV","players":null},{"server_id":52,"name":"Uncletopia | Warsaw | 4 | All Maps","name_short":"waw-4","host":"waw-1.pl.uncletopia.com","port":27045,"enabled":true,"region":"eu","cc":"pl","latitude":52.2297,"longitude":21.017532,"reserved":0,"last_update":"0001-01-01T00:00:00Z","name_a2s":"Uncletopia | Warsaw | 4 | All Maps","protocol":17,"map":"pl_swiftwater_final1","folder":"tf","game":"Team Fortress","app_id":440,"player_count":0,"max_players":24,"Bots":0,"server_type":"Dedicated","server_os":"Linux","password":true,"vac":true,"version":"7882260","steam_id":85568392925397853,"keywords":["nocrits","nodmgspread","payload","uncletopia"],"game_id":440,"stv_port":27046,"stv_name":"Uncletopia | Warsaw | 4 | All Maps | STV","players":null},{"server_id":53,"name":"Uncletopia | Warsaw | 5 | Stopwatch Beta","name_short":"waw-5","host":"waw-1.pl.uncletopia.com","port":27055,"enabled":true,"region":"eu","cc":"pl","latitude":52.2297,"longitude":21.017532,"reserved":0,"last_update":"0001-01-01T00:00:00Z","name_a2s":"Uncletopia | Warsaw | 5 | Stopwatch Beta","protocol":17,"map":"cp_mountainlab","folder":"tf","game":"Team Fortress","app_id":440,"player_count":0,"max_players":24,"Bots":0,"server_type":"Dedicated","server_os":"Linux","password":true,"vac":true,"version":"7882260","steam_id":85568392925397854,"keywords":["cp","nocrits","nodmgspread","uncletopia"],"game_id":440,"stv_port":27056,"stv_name":"Uncletopia | Warsaw | 5 | Stopwatch Beta | STV","players":null},{"server_id":54,"name":"Uncletopia | Warsaw | 6 | Community","name_short":"waw-6","host":"waw-1.pl.uncletopia.com","port":27065,"enabled":true,"region":"eu","cc":"pl","latitude":52.2297,"longitude":21.017532,"reserved":0,"last_update":"0001-01-01T00:00:00Z","name_a2s":"Uncletopia | Warsaw | 6 | Community","protocol":17,"map":"workshop/cp_sulfur_rc2.ugc619869471","folder":"tf","game":"Team Fortress","app_id":440,"player_count":0,"max_players":24,"Bots":0,"server_type":"Dedicated","server_os":"Linux","password":true,"vac":true,"version":"7882260","steam_id":85568392925397856,"keywords":["cp","nocrits","nodmgspread","uncletopia"],"game_id":440,"stv_port":27066,"stv_name":"Uncletopia | Warsaw | 6 | Community | STV","players":null}]}