{"status":true,"message":"","result":[{"server_id":9,"name":"Uncletopia | Atlanta | 1 | All Maps","name_short":"atl-1","host":"atl-1.us.uncletopia.com","port":27015,"enabled":true,"region":"us-east","cc":"us","latitude":33.753746,"longitude":-84.38633,"reserved":0,"last_update":"0001-01-01T00:00:00Z","name_a2s":"Uncletopia | Atlanta | 1 | All Maps","protocol":17,"map":"pl_snowycoast","folder":"tf","game":"Team Fortress","app_id":440,"player_count":25,"max_players":24,"Bots":0,"server_type":"Dedicated","server_os":"Linux","password":true,"vac":true,"version":"7961495","steam_id":85568392924469982,"keywords":["nocrits","nodmgspread","payload","uncletopia"],"game_id":440,"stv_port":27016,"stv_name":"Uncletopia | Atlanta | 1 | All Maps | STV","players":[{"user_id":740,"name":"BabyGhast4","steam_id":76561198990172561,"connected_time":1085000000000,"state":"active","ping":178},{"user_id":730,"name":"wetto makaveli","steam_id":76561198224811504,"connected_time":2243000000000,"state":"active","ping":47},{"user_id":732,"name":"spiderland","steam_id":76561198335992132,"connected_time":1886000000000,"state":"active","ping":100},{"user_id":686,"name":"why","steam_id":76561199059732212,"connected_time":6054000000000,"state":"active","ping":50},{"user_id":694,"name":"Hobo Shanker","steam_id":76561198001785187,"connected_time":5929000000000,"state":"active","ping":76},{"user_id":735,"name":"RoseaVenefica","steam_id":76561198020660560,"connected_time":1814000000000,"state":"active","ping":74},{"user_id":741,"name":"Rudy","steam_id":76561198013456828,"connected_time":1070000000000,"state":"active","ping":68},{"user_id":729,"name":"C Papi","steam_id":76561198027779564,"connected_time":2333000000000,"state":"active","ping":52},{"user_id":748,"name":"Dark","steam_id":76561198004855334,"connected_time":455000000000,"state":"active","ping":73},{"user_id":742,"name":"pah","steam_id":76561198065040540,"connected_time":1016000000000,"state":"active","ping":62},{"user_id":750,"name":"Artificial Taco Intelligence","steam_id":76561199431280503,"connected_time":292000000000,"state":"active","ping":82},{"user_id":751,"name":"AlmondMilk","steam_id":76561198151229725,"connected_time":217000000000,"state":"active","ping":49},{"user_id":744,"name":"alan","steam_id":76561198172809446,"connected_time":934000000000,"state":"active","ping":74},{"user_id":716,"name":"CONKER","steam_id":76561197986079320,"connected_time":3629000000000,"state":"active","ping":82},{"user_id":728,"name":"Erchius","steam_id":76561198256892300,"connected_time":2679000000000,"state":"active","ping":65},{"user_id":745,"name":"Cthulhu's Malewife","steam_id":76561198085888959,"connected_time":858000000000,"state":"active","ping":48},{"user_id":699,"name":"Achilles","steam_id":76561198086037134,"connected_time":5150000000000,"state":"active","ping":59},{"user_id":697,"name":"RAWRWAIFU","steam_id":76561198032118386,"connected_time":5665000000000,"state":"active","ping":91},{"user_id":727,"name":"Trey The Awesome","steam_id":76561198370718264,"connected_time":2746000000000,"state":"active","ping":62},{"user_id":747,"name":"Pickles","steam_id":76561198010609340,"connected_time":664000000000,"state":"active","ping":62},{"user_id":683,"name":"TÃ–ZI","steam_id":76561198045268695,"connected_time":6513000000000,"state":"active","ping":119},{"user_id":706,"name":"Confused Rock","steam_id":76561198051763034,"connected_time":5021000000000,"state":"active","ping":57},{"user_id":717,"name":"D","steam_id":76561198292908619,"connected_time":3607000000000,"state":"active","ping":73},{"user_id":752,"name":"rose","steam_id":76561198048882285,"connected_time":144000000000,"state":"active","ping":63},{"user_id":753,"name":"tgirl swag","steam_id":76561198128164970,"connected_time":29000000000,"state":"spawning","ping":114}]},{"server_id":104,"name":"Uncletopia | Atlanta | 2 | All Maps","name_short":"atl-2","host":"atl-1.us.uncletopia.com","port":27025,"enabled":true,"region":"us-east","cc":"us","latitude":33.753746,"longitude":-84.38633,"reserved":0,"last_update":"0001-01-01T00:00:00Z","name_a2s":"Uncletopia | Atlanta | 2 | All Maps","protocol":17,"map":"pl_borneo","folder":"tf","game":"Team Fortress","app_id":440,"player_count":24,"max_players":24,"Bots":0,"server_type":"Dedicated","server_os":"Linux","password":true,"vac":true,"version":"7961495","steam_id":85568392924469983,"keywords":["nocrits","nodmgspread","payload","uncletopia"],"game_id":440,"stv_port":27026,"stv_name":"Uncletopia | Atlanta | 2 | All Maps | STV","players":[{"user_id":494,"name":"Alx","steam_id":76561198080854314,"connected_time":701000000000,"state":"active","ping":91},{"user_id":492,"name":"36400","steam_id":76561198128124800,"connected_time":787000000000,"state":"active","ping":63},{"user_id":499,"name":"bored in the house","steam_id":76561199498821080,"connected_time":262000000000,"state":"active","ping":55},{"user_id":489,"name":"GP","steam_id":76561198215438831,"connected_time":855000000000,"state":"active","ping":75},{"user_id":496,"name":"BigBubble42","steam_id":76561198136286123,"connected_time":523000000000,"state":"active","ping":48},{"user_id":471,"name":"Hipster_Giraffe","steam_id":76561198069701092,"connected_time":2772000000000,"state":"active","ping":88},{"user_id":465,"name":"Jordani","steam_id":76561198195772231,"connected_time":3152000000000,"state":"active","ping":115},{"user_id":447,"name":"Noponz","steam_id":76561198176891054,"connected_time":4368000000000,"state":"active","ping":72},{"user_id":443,"name":"Jesse Bear","steam_id":76561198217075305,"connected_time":4714000000000,"state":"active","ping":80},{"user_id":445,"name":"Boomyz","steam_id":76561198023817706,"connected_time":4588000000000,"state":"active","ping":81},{"user_id":497,"name":"Plunderphonic","steam_id":76561198062565784,"connected_time":469000000000,"state":"active","ping":93},{"user_id":479,"name":"Poppet","steam_id":76561198012301951,"connected_time":1979000000000,"state":"active","ping":84},{"user_id":500,"name":"greasy little man","steam_id":76561198043787070,"connected_time":112000000000,"state":"active","ping":85},{"user_id":485,"name":"concrete_car","steam_id":76561198388207363,"connected_time":1108000000000,"state":"active","ping":79},{"user_id":488,"name":"âœ¿ PoutyBun âœ¿","steam_id":76561197965762847,"connected_time":907000000000,"state":"active","ping":104},{"user_id":493,"name":"akahata","steam_id":76561198358896305,"connected_time":736000000000,"state":"active","ping":73},{"user_id":468,"name":"velk.ca Nim","steam_id":76561198053645059,"connected_time":3110000000000,"state":"active","ping":71},{"user_id":466,"name":"The Final Terminus","steam_id":76561197964985183,"connected_time":3143000000000,"state":"active","ping":57},{"user_id":456,"name":"Filthy Hobo","steam_id":76561198174373015,"connected_time":4056000000000,"state":"active","ping":118},{"user_id":495,"name":"gabba gabba","steam_id":76561198031737033,"connected_time":690000000000,"state":"active","ping":86},{"user_id":458,"name":"Owls = Government Drones","steam_id":76561198439793697,"connected_time":3937000000000,"state":"active","ping":72},{"user_id":482,"name":"AzuriousAlex","steam_id":76561198158026405,"connected_time":1414000000000,"state":"active","ping":88},{"user_id":461,"name":"Jake The Snake","steam_id":76561198047722285,"connected_time":3744000000000,"state":"active","ping":71},{"user_id":462,"name":"Pokon","steam_id":76561198053113088,"connected_time":3741000000000,"state":"active","ping":45}]},{"server_id":400,"name":"Uncletopia | Atlanta | 3 | Stopwatch","name_short":"atl-3","host":"atl-1.us.uncletopia.com","port":27035,"enabled":true,"region":"us-east","cc":"us","latitude":33.753746,"longitude":-84.38633,"reserved":0,"last_update":"0001-01-01T00:00:00Z","name_a2s":"Uncletopia | Atlanta | 3 | Stopwatch","protocol":17,"map":"koth_highpass","folder":"tf","game":"Team Fortress","app_id":440,"player_count":0,"max_players":24,"Bots":0,"server_type":"Dedicated","server_os":"Linux","password":true,"vac":true,"version":"7961495","steam_id":85568392924515187,"keywords":["cp","nocrits","nodmgspread","uncletopia"],"game_id":440,"stv_port":27036,"stv_name":"Uncletopia | Atlanta | 3 | Stopwatch | STV","players":null},{"server_id":401,"name":"Uncletopia | Atlanta | 4 | Community","name_short":"atl-4","host":"atl-1.us.uncletopia.com","port":27045,"enabled":true,"region":"us-east","cc":"us","latitude":33.753746,"longitude":-84.38633,"reserved":0,"last_update":"0001-01-01T00:00:00Z","name_a2s":"Uncletopia | Atlanta | 4 | Community","protocol":17,"map":"workshop/cp_indulge.ugc528106646","folder":"tf","game":"Team Fortress","app_id":440,"player_count":0,"max_players":24,"Bots":0,"server_type":"Dedicated","server_os":"Linux","password":true,"vac":true,"version":"7961495","steam_id":85568392924515188,"keywords":["cp","nocrits","nodmgspread","uncletopia"],"game_id":440,"stv_port":27046,"stv_name":"Uncletopia | Atlanta | 4 | Community | STV","players":null},{"server_id":2,"name":"Uncletopia | Chicago | 1 | All Maps","name_short":"chi-1","host":"chi-1.us.uncletopia.com","port":27015,"enabled":true,"region":"us-central","cc":"us","latitude":41.881832,"longitude":-87.62318,"reserved":0,"last_update":"0001-01-01T00:00:00Z","name_a2s":"Uncletopia | Chicago | 1 | All Maps","protocol":17,"map":"koth_harvest_final","folder":"tf","game":"Team Fortress","app_id":440,"player_count":23,"max_players":24,"Bots":0,"server_type":"Dedicated","server_os":"Linux","password":true,"vac":true,"version":"7961495","steam_id":85568392924469984,"keywords":["cp","nocrits","nodmgspread","uncletopia"],"game_id":440,"stv_port":27016,"stv_name":"Uncletopia | Chicago | 1 | All Maps | STV","players":[{"user_id":637,"name":"Admiral Angry","steam_id":76561198058199206,"connected_time":589000000000,"state":"active","ping":53},{"user_id":632,"name":"Flyinglab","steam_id":76561198042161408,"connected_time":1033000000000,"state":"active","ping":72},{"user_id":639,"name":"Naut","steam_id":76561199153498096,"connected_time":462000000000,"state":"active","ping":71},{"user_id":633,"name":"Siah","steam_id":76561197990045774,"connected_time":997000000000,"state":"active","ping":105},{"user_id":593,"name":"SuperSalty","steam_id":76561198297779347,"connected_time":3873000000000,"state":"active","ping":59},{"user_id":636,"name":"chris_","steam_id":76561198867842206,"connected_time":718000000000,"state":"active","ping":47},{"user_id":640,"name":"Axelonemillion15","steam_id":76561198421342282,"connected_time":458000000000,"state":"active","ping":119},{"user_id":624,"name":"TTV/YT hunter","steam_id":76561198115812405,"connected_time":2098000000000,"state":"active","ping":73},{"user_id":590,"name":"Hedene","steam_id":76561198044848271,"connected_time":3904000000000,"state":"active","ping":62},{"user_id":552,"name":"Natsuki the Scunt","steam_id":76561199175922684,"connected_time":5875000000000,"state":"active","ping":115},{"user_id":605,"name":"robot with human hair","steam_id":76561198018691308,"connected_time":3158000000000,"state":"active","ping":76},{"user_id":627,"name":"He rolls his own","steam_id":76561198058162684,"connected_time":2076000000000,"state":"active","ping":79},{"user_id":634,"name":"Zorlovo","steam_id":76561198006443283,"connected_time":879000000000,"state":"active","ping":81},{"user_id":586,"name":"joseph stalin","steam_id":76561199230441293,"connected_time":3992000000000,"state":"active","ping":80},{"user_id":614,"name":"Dzhoshua","steam_id":76561198071915251,"connected_time":2950000000000,"state":"active","ping":65},{"user_id":641,"name":"Bernie Flanders","steam_id":76561198245511850,"connected_time":453000000000,"state":"active","ping":112},{"user_id":644,"name":"idiot cat","steam_id":76561198245602912,"connected_time":274000000000,"state":"active","ping":102},{"user_id":561,"name":"Mr. Luggy","steam_id":76561198072723392,"connected_time":5733000000000,"state":"active","ping":92},{"user_id":638,"name":"frank","steam_id":76561198137777483,"connected_time":563000000000,"state":"active","ping":62},{"user_id":631,"name":"saucy jack","steam_id":76561198307012859,"connected_time":1542000000000,"state":"active","ping":68},{"user_id":607,"name":"J O S HÂ³Â²","steam_id":76561198122603779,"connected_time":3145000000000,"state":"active","ping":100},{"user_id":645,"name":"Bardgan","steam_id":76561198063801837,"connected_time":248000000000,"state":"active","ping":63},{"user_id":617,"name":"Arthur SSJ2","steam_id":76561198043678479,"connected_time":2938000000000,"state":"active","ping":45}]},{"server_id":106,"name":"Uncletopia | Chicago | 2 | All Maps","name_short":"chi-2","host":"chi-1.us.uncletopia.com","port":27025,"enabled":true,"region":"us-central","cc":"us","latitude":41.881832,"longitude":-87.62318,"reserved":0,"last_update":"0001-01-01T00:00:00Z","name_a2s":"Uncletopia | Chicago | 2 | All Maps","protocol":17,"map":"pl_upward","folder":"tf","game":"Team Fortress","app_id":440,"player_count":24,"max_players":24,"Bots":0,"server_type":"Dedicated","server_os":"Linux","password":true,"vac":true,"version":"7961495","steam_id":85568392924469985,"keywords":["nocrits","nodmgspread","payload","uncletopia"],"game_id":440,"stv_port":27026,"stv_name":"Uncletopia | Chicago | 2 | All Maps | STV","players":[{"user_id":334,"name":"44Ejkej77","steam_id":76561198117717593,"connected_time":4350000000000,"state":"active","ping":166},{"user_id":378,"name":"clavin","steam_id":76561198069380992,"connected_time":1558000000000,"state":"active","ping":77},{"user_id":373,"name":"StinkyTofu Palpitating","steam_id":76561198125372241,"connected_time":1798000000000,"state":"active","ping":50},{"user_id":368,"name":"portal robewrtson big fan","steam_id":76561198150428763,"connected_time":2172000000000,"state":"active","ping":94},{"user_id":340,"name":"the stallion","steam_id":76561198212242403,"connected_time":4322000000000,"state":"active","ping":84},{"user_id":393,"name":"Raccoon Wizard","steam_id":76561198072562591,"connected_time":151000000000,"state":"active","ping":79},{"user_id":380,"name":"The Assistant Regional Manager","steam_id":76561199221484936,"connected_time":1553000000000,"state":"active","ping":118},{"user_id":371,"name":"Darth Bane","steam_id":76561198236828096,"connected_time":1932000000000,"state":"active","ping":75},{"user_id":348,"name":"Howard Hamlin","steam_id":76561198881039861,"connected_time":4250000000000,"state":"active","ping":56},{"user_id":381,"name":"Tobo","steam_id":76561198085846393,"connected_time":1547000000000,"state":"active","ping":75},{"user_id":400,"name":"Lemon Soda","steam_id":76561198140208761,"connected_time":14000000000,"state":"active","ping":68},{"user_id":399,"name":"Klynol","steam_id":76561198065856098,"connected_time":53000000000,"state":"active","ping":70},{"user_id":344,"name":"Frank (Live on Twitch)","steam_id":76561198126681511,"connected_time":4313000000000,"state":"active","ping":105},{"user_id":389,"name":"Probably George","steam_id":76561198320099889,"connected_time":473000000000,"state":"active","ping":73},{"user_id":362,"name":"Ripley","steam_id":76561198064478354,"connected_time":2885000000000,"state":"active","ping":144},{"user_id":345,"name":"Honky Bobocop #Cheeba","steam_id":76561198264288798,"connected_time":4303000000000,"state":"active","ping":98},{"user_id":385,"name":"Papa Smoke","steam_id":76561198181348206,"connected_time":1470000000000,"state":"active","ping":56},{"user_id":395,"name":"Oh, Word?","steam_id":76561198152179656,"connected_time":122000000000,"state":"active","ping":48},{"user_id":356,"name":"Bradz","steam_id":76561198175090085,"connected_time":3847000000000,"state":"active","ping":83},{"user_id":390,"name":"Gram Tokers Count Doinkula","steam_id":76561198112811565,"connected_time":468000000000,"state":"active","ping":72},{"user_id":396,"name":"JudeTheDude","steam_id":76561198834387981,"connected_time":114000000000,"state":"active","ping":91},{"user_id":367,"name":"werecat","steam_id":76561198005091213,"connected_time":2767000000000,"state":"active","ping":58},{"user_id":397,"name":"bigman","steam_id":76561199055369923,"connected_time":100000000000,"state":"active","ping":101},{"user_id":398,"name":"PTR","steam_id":76561198237253772,"connected_time":81000000000,"state":"active","ping":63}]},{"server_id":402,"name":"Uncletopia | Chicago | 3 | All Maps","name_short":"chi-3","host":"chi-1.us.uncletopia.com","port":27035,"enabled":true,"region":"us-central","cc":"us","latitude":41.881832,"longitude":-87.62318,"reserved":0,"last_update":"0001-01-01T00:00:00Z","name_a2s":"Uncletopia | Chicago | 3 | All Maps","protocol":17,"map":"pl_borneo","folder":"tf","game":"Team Fortress","app_id":440,"player_count":0,"max_players":24,"Bots":0,"server_type":"Dedicated","server_os":"Linux","password":true,"vac":true,"version":"7961495","steam_id":85568392924515191,"keywords":["nocrits","nodmgspread","payload","uncletopia"],"game_id":440,"stv_port":27036,"stv_name":"Uncletopia | Chicago | 3 | All Maps | STV","players":null},{"server_id":403,"name":"Uncletopia | Chicago | 4 | All Maps","name_short":"chi-4","host":"chi-1.us.uncletopia.com","port":27045,"enabled":true,"region":"us-central","cc":"us","latitude":41.881832,"longitude":-87.62318,"reserved":0,"last_update":"0001-01-01T00:00:00Z","name_a2s":"Uncletopia | Chicago | 4 | All Maps","protocol":17,"map":"pl_swiftwater_final1","folder":"tf","game":"Team Fortress","app_id":440,"player_count":24,"max_players":24,"Bots":0,"server_type":"Dedicated","server_os":"Linux","password":true,"vac":true,"version":"7961495","steam_id":85568392924515193,"keywords":["nocrits","nodmgspread","payload","uncletopia"],"game_id":440,"stv_port":27046,"stv_name":"Uncletopia | Chicago | 4 | All Maps | STV","players":[{"user_id":662,"name":"ARegularJohnDoe","steam_id":76561198015020139,"connected_time":503000000000,"state":"active","ping":65},{"user_id":653,"name":"Amari","steam_id":76561198272446730,"connected_time":1436000000000,"state":"active","ping":64},{"user_id":658,"name":"Femboy C0ckguzzler Soma","steam_id":76561199218760942,"connected_time":985000000000,"state":"active","ping":150},{"user_id":663,"name":"Missing Minus","steam_id":76561198120822928,"connected_time":483000000000,"state":"active","ping":59},{"user_id":616,"name":"1st place love live fan","steam_id":76561198037951506,"connected_time":3791000000000,"state":"active","ping":74},{"user_id":654,"name":"Kantamoe","steam_id":76561198046661611,"connected_time":1387000000000,"state":"active","ping":81},{"user_id":622,"name":"Sooch","steam_id":76561198007043697,"connected_time":3230000000000,"state":"active","ping":83},{"user_id":656,"name":"Ember The Drunk Femboy","steam_id":76561198139630565,"connected_time":1021000000000,"state":"active","ping":141},{"user_id":624,"name":"zpalmtree","steam_id":76561198134307620,"connected_time":3127000000000,"state":"active","ping":54},{"user_id":664,"name":"Austin The Brimstone","steam_id":76561198119811606,"connected_time":462000000000,"state":"active","ping":117},{"user_id":644,"name":"Dwanor","steam_id":76561198039571887,"connected_time":2177000000000,"state":"active","ping":64},{"user_id":649,"name":"9gon Danmar33","steam_id":76561198056453091,"connected_time":1759000000000,"state":"active","ping":47},{"user_id":665,"name":"Travorski","steam_id":76561198072493142,"connected_time":413000000000,"state":"active","ping":88},{"user_id":657,"name":"Femboy Foxi","steam_id":76561198108635769,"connected_time":1004000000000,"state":"active","ping":150},{"user_id":666,"name":"Laventhey","steam_id":76561198977523626,"connected_time":379000000000,"state":"active","ping":76},{"user_id":667,"name":"mark","steam_id":76561198200380143,"connected_time":373000000000,"state":"active","ping":120},{"user_id":659,"name":"Thai","steam_id":76561198302397245,"connected_time":941000000000,"state":"active","ping":63},{"user_id":628,"name":"Phillip Jeffries","steam_id":76561198064052174,"connected_time":2988000000000,"state":"active","ping":62},{"user_id":638,"name":"the12xu","steam_id":76561198197086561,"connected_time":2485000000000,"state":"active","ping":72},{"user_id":651,"name":"Jousty","steam_id":76561199162677853,"connected_time":1631000000000,"state":"active","ping":91},{"user_id":668,"name":"Tarot Warden","steam_id":76561198284383023,"connected_time":372000000000,"state":"active","ping":83},{"user_id":609,"name":"Castroy","steam_id":76561198108160099,"connected_time":4564000000000,"state":"active","ping":45},{"user_id":669,"name":"xjlm","steam_id":76561198043497260,"connected_time":20000000000,"state":"active","ping":129},{"user_id":639,"name":"WiteBord","steam_id":76561198891799301,"connected_time":2425000000000,"state":"active","ping":72}]},{"server_id":36,"name":"Uncletopia | Chicago | 5 | All Maps","name_short":"chi-5","host":"chi-2.us.uncletopia.com","port":27015,"enabled":true,"region":"us-central","cc":"us","latitude":41.881832,"longitude":-87.62318,"reserved":0,"last_update":"0001-01-01T00:00:00Z","name_a2s":"Uncletopia | Chicago | 5 | All Maps","protocol":17,"map":"ctf_turbine","folder":"tf","game":"Team Fortress","app_id":440,"player_count":0,"max_players":24,"Bots":0,"server_type":"Dedicated","server_os":"Linux","password":true,"vac":true,"version":"7961495","steam_id":85568392924866362,"keywords":["ctf","nocrits","nodmgspread","uncletopia"],"game_id":440,"stv_port":27016,"stv_name":"Uncletopia | Chicago | 5 | All Maps | STV","players":null},{"server_id":37,"name":"Uncletopia | Chicago | 6 | All Maps","name_short":"chi-6","host":"chi-2.us.uncletopia.com","port":27025,"enabled":true,"region":"us-central","cc":"us","latitude":41.881832,"longitude":-87.62318,"reserved":0,"last_update":"0001-01-01T00:00:00Z","name_a2s":"Uncletopia | Chicago | 6 | All Maps","protocol":17,"map":"koth_highpass","folder":"tf","game":"Team Fortress","app_id":440,"player_count":0,"max_players":24,"Bots":0,"server_type":"Dedicated","server_os":"Linux","password":true,"vac":true,"version":"7961495","steam_id":85568392924866363,"keywords":["cp","nocrits","nodmgspread","uncletopia"],"game_id":440,"stv_port":27026,"stv_name":"Uncletopia | Chicago | 6 | All Maps | STV","players":null},{"server_id":38,"name":"Uncletopia | Chicago | 7 | Stopwatch","name_short":"chi-7","host":"chi-2.us.uncletopia.com","port":27035,"enabled":true,"region":"us-central","cc":"us","latitude":41.881832,"longitude":-87.62318,"reserved":0,"last_update":"0001-01-01T00:00:00Z","name_a2s":"Uncletopia | Chicago | 7 | Stopwatch","protocol":17,"map":"workshop/koth_bagel_rc6.ugc2514036946","folder":"tf","game":"Team Fortress","app_id":440,"player_count":0,"max_players":24,"Bots":0,"server_type":"Dedicated","server_os":"Linux","password":true,"vac":true,"version":"7961495","steam_id":85568392924866364,"keywords":["cp","nocrits","nodmgspread","uncletopia"],"game_id":440,"stv_port":27036,"stv_name":"Uncletopia | Chicago | 7 | Stopwatch | STV","players":null},{"server_id":39,"name":"Uncletopia | Chicago | 8 | Community","name_short":"chi-8","host":"chi-2.us.uncletopia.com","port":27045,"enabled":true,"region":"us-central","cc":"us","latitude":41.881832,"longitude":-87.62318,"reserved":0,"last_update":"0001-01-01T00:00:00Z","name_a2s":"Uncletopia | Chicago | 8 | Community","protocol":17,"map":"workshop/koth_ashville_final.ugc2130459942","folder":"tf","game":"Team Fortress","app_id":440,"player_count":0,"max_players":24,"Bots":0,"server_type":"Dedicated","server_os":"Linux","password":true,"vac":true,"version":"7961495","steam_id":85568392924866365,"keywords":["cp","nocrits","nodmgspread","uncletopia"],"game_id":440,"stv_port":27046,"stv_name":"Uncletopia | Chicago | 8 | Community | STV","players":null},{"server_id":8,"name":"Uncletopia | Dallas | 1 | All Maps","name_short":"dal-1","host":"dal-1.us.uncletopia.com","port":27015,"enabled":true,"region":"us-central","cc":"us","latitude":32.779167,"longitude":-96.80889,"reserved":0,"last_update":"0001-01-01T00:00:00Z","name_a2s":"Uncletopia | Dallas | 1 | All Maps","protocol":17,"map":"pl_badwater","folder":"tf","game":"Team Fortress","app_id":440,"player_count":22,"max_players":24,"Bots":0,"server_type":"Dedicated","server_os":"Linux","password":true,"vac":true,"version":"7961495","steam_id":85568392924469986,"keywords":["nocrits","nodmgspread","payload","uncletopia"],"game_id":440,"stv_port":27016,"stv_name":"Uncletopia | Dallas | 1 | All Maps | STV","players":[{"user_id":389,"name":"she became a fish","steam_id":76561198062263639,"connected_time":5661000000000,"state":"active","ping":56},{"user_id":466,"name":"Warg","steam_id":76561198040868420,"connected_time":150000000000,"state":"active","ping":81},{"user_id":459,"name":"Green Mario","steam_id":76561198094325997,"connected_time":994000000000,"state":"active","ping":68},{"user_id":468,"name":"vulcan nightclub pon farr night","steam_id":76561197974283797,"connected_time":33000000000,"state":"active","ping":61},{"user_id":467,"name":"Larry Gooseman","steam_id":76561198018696922,"connected_time":61000000000,"state":"active","ping":91},{"user_id":464,"name":"{ST} Oxythemoron","steam_id":76561198060089965,"connected_time":226000000000,"state":"active","ping":48},{"user_id":469,"name":"sithreis","steam_id":76561198000564263,"connected_time":23000000000,"state":"active","ping":65},{"user_id":422,"name":"tsz","steam_id":76561199246231090,"connected_time":3333000000000,"state":"active","ping":81},{"user_id":454,"name":"bottom pride burger","steam_id":76561198322247602,"connected_time":1183000000000,"state":"active","ping":88},{"user_id":440,"name":"Rennsellaer","steam_id":76561198096207580,"connected_time":2445000000000,"state":"active","ping":80},{"user_id":470,"name":"ms. capgras","steam_id":76561199080209996,"connected_time":6000000000,"state":"spawning","ping":57},{"user_id":446,"name":"shin megami tensei nocturne","steam_id":76561198026563351,"connected_time":2225000000000,"state":"active","ping":73},{"user_id":465,"name":"Thunder","steam_id":76561198097721532,"connected_time":192000000000,"state":"active","ping":79},{"user_id":461,"name":"Draven","steam_id":76561198074776388,"connected_time":955000000000,"state":"active","ping":57},{"user_id":453,"name":"Syndra's Futa Balls","steam_id":76561198058671296,"connected_time":1627000000000,"state":"active","ping":81},{"user_id":457,"name":"AlecTheNefarious","steam_id":76561198035291230,"connected_time":1145000000000,"state":"active","ping":51},{"user_id":462,"name":"Cat doin laundry","steam_id":76561198063895852,"connected_time":949000000000,"state":"active","ping":44},{"user_id":444,"name":"Mexican Muselk","steam_id":76561199289676387,"connected_time":2359000000000,"state":"active","ping":58},{"user_id":419,"name":"L to the OG","steam_id":76561199215811448,"connected_time":3430000000000,"state":"active","ping":94},{"user_id":458,"name":"lanoc","steam_id":76561198055415367,"connected_time":1141000000000,"state":"active","ping":64},{"user_id":425,"name":"Mattie43","steam_id":76561198012053433,"connected_time":3288000000000,"state":"active","ping":80},{"user_id":449,"name":"ash","steam_id":76561198127890645,"connected_time":2132000000000,"state":"active","ping":76}]},{"server_id":108,"name":"Uncletopia | Dallas | 2 | All Maps","name_short":"dal-2","host":"dal-1.us.uncletopia.com","port":27025,"enabled":true,"region":"us-central","cc":"us","latitude":32.779167,"longitude":-96.80889,"reserved":0,"last_update":"0001-01-01T00:00:00Z","name_a2s":"Uncletopia | Dallas | 2 | All Maps","protocol":17,"map":"pl_snowycoast","folder":"tf","game":"Team Fortress","app_id":440,"player_count":3,"max_players":24,"Bots":0,"server_type":"Dedicated","server_os":"Linux","password":true,"vac":true,"version":"7961495","steam_id":85568392924469988,"keywords":["nocrits","nodmgspread","payload","uncletopia"],"game_id":440,"stv_port":27026,"stv_name":"Uncletopia | Dallas | 2 | All Maps | STV","players":[{"user_id":533,"name":"bashdzy","steam_id":76561199006087600,"connected_time":290000000000,"state":"active","ping":54},{"user_id":509,"name":"Wick","steam_id":76561198062996360,"connected_time":2642000000000,"state":"active","ping":85},{"user_id":466,"name":"Dragorf2010","steam_id":76561199238402270,"connected_time":5727000000000,"state":"active","ping":71}]},{"server_id":404,"name":"Uncletopia | Dallas | 3 | All Maps","name_short":"dal-3","host":"dal-1.us.uncletopia.com","port":27035,"enabled":true,"region":"us-central","cc":"us","latitude":32.779167,"longitude":-96.80889,"reserved":0,"last_update":"0001-01-01T00:00:00Z","name_a2s":"Uncletopia | Dallas | 3 | All Maps","protocol":17,"map":"pl_upward","folder":"tf","game":"Team Fortress","app_id":440,"player_count":23,"max_players":24,"Bots":0,"server_type":"Dedicated","server_os":"Linux","password":true,"vac":true,"version":"7961495","steam_id":85568392924515219,"keywords":["nocrits","nodmgspread","payload","uncletopia"],"game_id":440,"stv_port":27036,"stv_name":"Uncletopia | Dallas | 3 | All Maps | STV","players":[{"user_id":844,"name":"Fargo","steam_id":76561198044703931,"connected_time":171000000000,"state":"active","ping":72},{"user_id":839,"name":"Crag Walker","steam_id":76561198218882965,"connected_time":540000000000,"state":"active","ping":66},{"user_id":845,"name":"keffers","steam_id":76561198202338796,"connected_time":132000000000,"state":"active","ping":75},{"user_id":843,"name":"basilberry","steam_id":76561198145275937,"connected_time":198000000000,"state":"active","ping":60},{"user_id":826,"name":"Weakest Toe Enjoyer","steam_id":76561198056007990,"connected_time":1344000000000,"state":"active","ping":64},{"user_id":801,"name":"Thequirka","steam_id":76561198968058652,"connected_time":2984000000000,"state":"active","ping":100},{"user_id":831,"name":"onion","steam_id":76561198242311084,"connected_time":1171000000000,"state":"active","ping":77},{"user_id":833,"name":"Anomic","steam_id":76561198044000414,"connected_time":898000000000,"state":"active","ping":82},{"user_id":846,"name":"Burny Sanders","steam_id":76561197961879048,"connected_time":113000000000,"state":"active","ping":44},{"user_id":840,"name":"å¦‚é¡˜","steam_id":76561198038486613,"connected_time":531000000000,"state":"active","ping":89},{"user_id":847,"name":"Kinder Kurtness","steam_id":76561197990436505,"connected_time":59000000000,"state":"active","ping":102},{"user_id":834,"name":"37 septillion tapeworms","steam_id":76561198186128723,"connected_time":834000000000,"state":"active","ping":49},{"user_id":835,"name":"tRiCkStAb","steam_id":76561197984716005,"connected_time":797000000000,"state":"active","ping":72},{"user_id":836,"name":"ItsYaBoiScooter","steam_id":76561199028427897,"connected_time":781000000000,"state":"active","ping":86},{"user_id":777,"name":"Cinnifox","steam_id":76561198068773971,"connected_time":4659000000000,"state":"active","ping":86},{"user_id":841,"name":"markiplier the real","steam_id":76561198156467907,"connected_time":472000000000,"state":"active","ping":55},{"user_id":828,"name":"effy","steam_id":76561198087137066,"connected_time":1299000000000,"state":"active","ping":60},{"user_id":802,"name":"Phoenix","steam_id":76561199465534945,"connected_time":2936000000000,"state":"active","ping":111},{"user_id":830,"name":"Lemonty","steam_id":76561198163812778,"connected_time":1259000000000,"state":"active","ping":98},{"user_id":807,"name":"Tweek Tweak","steam_id":76561198445739792,"connected_time":2491000000000,"state":"active","ping":87},{"user_id":813,"name":"Cheese","steam_id":76561199207081299,"connected_time":2161000000000,"state":"active","ping":110},{"user_id":848,"name":"MortGrim","steam_id":76561198027156235,"connected_time":18000000000,"state":"active","ping":66},{"user_id":815,"name":"Censure","steam_id":76561198850891374,"connected_time":2072000000000,"state":"active","ping":89}]},{"server_id":405,"name":"Uncletopia | Dallas | 4 | Community","name_short":"dal-4","host":"dal-1.us.uncletopia.com","port":27045,"enabled":true,"region":"us-central","cc":"us","latitude":32.779167,"longitude":-96.80889,"reserved":0,"last_update":"0001-01-01T00:00:00Z","name_a2s":"Uncletopia | Dallas | 4 | Community","protocol":17,"map":"workshop/cp_overgrown_rc8.ugc503939302","folder":"tf","game":"Team Fortress","app_id":440,"player_count":1,"max_players":24,"Bots":0,"server_type":"Dedicated","server_os":"Linux","password":true,"vac":true,"version":"7961495","steam_id":85568392924515220,"keywords":["cp","nocrits","nodmgspread","uncletopia"],"game_id":440,"stv_port":27046,"stv_name":"Uncletopia | Dallas | 4 | Community | STV","players":[{"user_id":30,"name":"Lord_Dabbatron","steam_id":76561199058480985,"connected_time":115000000000,"state":"active","ping":35}]},{"server_id":5,"name":"Uncletopia | Frankfurt | 1 | All Maps","name_short":"frk-1","host":"frk-1.de.uncletopia.com","port":27015,"enabled":true,"region":"eu","cc":"de","latitude":50.110924,"longitude":8.682127,"reserved":0,"last_update":"0001-01-01T00:00:00Z","name_a2s":"Uncletopia | Frankfurt | 1 | All Maps","protocol":17,"map":"koth_highpass","folder":"tf","game":"Team Fortress","app_id":440,"player_count":0,"max_players":24,"Bots":0,"server_type":"Dedicated","server_os":"Linux","password":true,"vac":true,"version":"7961495","steam_id":85568392924469989,"keywords":["cp","nocrits","nodmgspread","uncletopia"],"game_id":440,"stv_port":27016,"stv_name":"Uncletopia | Frankfurt | 1 | All Maps | STV","players":null},{"server_id":110,"name":"Uncletopia | Frankfurt | 2 | All Maps","name_short":"frk-2","host":"frk-1.de.uncletopia.com","port":27025,"enabled":true,"region":"eu","cc":"de","latitude":50.110924,"longitude":8.682127,"reserved":0,"last_update":"0001-01-01T00:00:00Z","name_a2s":"Uncletopia | Frankfurt | 2 | All Maps","protocol":17,"map":"cp_dustbowl","folder":"tf","game":"Team Fortress","app_id":440,"player_count":0,"max_players":24,"Bots":0,"server_type":"Dedicated","server_os":"Linux","password":true,"vac":true,"version":"7961495","steam_id":85568392924469990,"keywords":["cp","nocrits","nodmgspread","uncletopia"],"game_id":440,"stv_port":27026,"stv_name":"Uncletopia | Frankfurt | 2 | All Maps | STV","players":null},{"server_id":308,"name":"Uncletopia | Frankfurt | 3 | All Maps","name_short":"frk-3","host":"frk-1.de.uncletopia.com","port":27035,"enabled":true,"region":"eu","cc":"de","latitude":50.110924,"longitude":8.682127,"reserved":0,"last_update":"0001-01-01T00:00:00Z","name_a2s":"Uncletopia | Frankfurt | 3 | All Maps","protocol":17,"map":"pl_swiftwater_final1","folder":"tf","game":"Team Fortress","app_id":440,"player_count":0,"max_players":24,"Bots":0,"server_type":"Dedicated","server_os":"Linux","password":true,"vac":true,"version":"7961495","steam_id":85568392924504274,"keywords":["nocrits","nodmgspread","payload","uncletopia"],"game_id":440,"stv_port":27036,"stv_name":"Uncletopia | Frankfurt | 3 | All Maps | STV","players":null},{"server_id":309,"name":"Uncletopia | Frankfurt | 4 | All Maps","name_short":"frk-4","host":"frk-1.de.uncletopia.com","port":27045,"enabled":true,"region":"eu","cc":"de","latitude":50.110924,"longitude":8.682127,"reserved":0,"last_update":"0001-01-01T00:00:00Z","name_a2s":"Uncletopia | Frankfurt | 4 | All Maps","protocol":17,"map":"koth_highpass","folder":"tf","game":"Team Fortress","app_id":440,"player_count":0,"max_players":24,"Bots":0,"server_type":"Dedicated","server_os":"Linux","password":true,"vac":true,"version":"7961495","steam_id":85568392924504275,"keywords":["cp","nocrits","nodmgspread","uncletopia"],"game_id":440,"stv_port":27046,"stv_name":"Uncletopia | Frankfurt | 4 | All Maps | STV","players":null},{"server_id":310,"name":"Uncletopia | Frankfurt | 5 | All Maps","name_short":"frk-5","host":"frk-1.de.uncletopia.com","port":27055,"enabled":true,"region":"eu","cc":"de","latitude":50.110924,"longitude":8.682127,"reserved":0,"last_update":"0001-01-01T00:00:00Z","name_a2s":"Uncletopia | Frankfurt | 5 | All Maps","protocol":17,"map":"koth_lakeside_final","folder":"tf","game":"Team Fortress","app_id":440,"player_count":0,"max_players":24,"Bots":0,"server_type":"Dedicated","server_os":"Linux","password":true,"vac":true,"version":"7961495","steam_id":85568392924504277,"keywords":["cp","nocrits","nodmgspread","uncletopia"],"game_id":440,"stv_port":27056,"stv_name":"Uncletopia | Frankfurt | 5 | All Maps | STV","players":null},{"server_id":311,"name":"Uncletopia | Frankfurt | 6 | All Maps","name_short":"frk-6","host":"frk-1.de.uncletopia.com","port":27065,"enabled":true,"region":"eu","cc":"de","latitude":50.110924,"longitude":8.682127,"reserved":0,"last_update":"0001-01-01T00:00:00Z","name_a2s":"Uncletopia | Frankfurt | 6 | All Maps","protocol":17,"map":"pl_upward","folder":"tf","game":"Team Fortress","app_id":440,"player_count":0,"max_players":24,"Bots":0,"server_type":"Dedicated","server_os":"Linux","password":true,"vac":true,"version":"7961495","steam_id":85568392924504278,"keywords":["nocrits","nodmgspread","payload","uncletopia"],"game_id":440,"stv_port":27066,"stv_name":"Uncletopia | Frankfurt | 6 | All Maps | STV","players":null},{"server_id":23,"name":"Uncletopia | Frankfurt | 7 | Stopwatch","name_short":"frk-7","host":"frk-1.de.uncletopia.com","port":27075,"enabled":true,"region":"eu","cc":"de","latitude":50.110924,"longitude":8.682127,"reserved":0,"last_update":"0001-01-01T00:00:00Z","name_a2s":"Uncletopia | Frankfurt | 7 | Stopwatch","protocol":17,"map":"pl_frontier_final","folder":"tf","game":"Team Fortress","app_id":440,"player_count":0,"max_players":24,"Bots":0,"server_type":"Dedicated","server_os":"Linux","password":true,"vac":true,"version":"7961495","steam_id":85568392924742827,"keywords":["nocrits","nodmgspread","payload","uncletopia"],"game_id":440,"stv_port":27076,"stv_name":"Uncletopia | Frankfurt | 7 | Stopwatch | STV","players":null},{"server_id":24,"name":"Uncletopia | Frankfurt | 8 | Community","name_short":"frk-8","host":"frk-1.de.uncletopia.com","port":27085,"enabled":true,"region":"eu","cc":"de","latitude":50.110924,"longitude":8.682127,"reserved":0,"last_update":"0001-01-01T00:00:00Z","name_a2s":"Uncletopia | Frankfurt | 8 | Community","protocol":17,"map":"cp_mountainlab","folder":"tf","game":"Team Fortress","app_id":440,"player_count":0,"max_players":24,"Bots":0,"server_type":"Dedicated","server_os":"Linux","password":true,"vac":true,"version":"7961495","steam_id":85568392924742828,"keywords":["cp","nocrits","nodmgspread","uncletopia"],"game_id":440,"stv_port":27086,"stv_name":"Uncletopia | Frankfurt | 8 | Community | STV","players":null},{"server_id":202,"name":"Uncletopia | Hong Kong | 1 | All Maps","name_short":"hgk-1","host":"hgk-1.hk.uncletopia.com","port":27015,"enabled":true,"region":"asia","cc":"hk","latitude":22.302711,"longitude":114.177216,"reserved":0,"last_update":"0001-01-01T00:00:00Z","name_a2s":"Uncletopia | Hong Kong | 1 | All Maps","protocol":17,"map":"pl_borneo","folder":"tf","game":"Team Fortress","app_id":440,"player_count":0,"max_players":24,"Bots":0,"server_type":"Dedicated","server_os":"Linux","password":true,"vac":true,"version":"7961495","steam_id":85568392924494504,"keywords":["nocrits","nodmgspread","payload","uncletopia"],"game_id":440,"stv_port":27016,"stv_name":"Uncletopia | Hong Kong | 1 | All Maps | STV","players":null},{"server_id":1,"name":"Uncletopia | Los Angeles | 1 | All Maps","name_short":"lax-1","host":"lax-1.us.uncletopia.com","port":27015,"enabled":true,"region":"us-west","cc":"us","latitude":33.94279,"longitude":-118.41004,"reserved":0,"last_update":"0001-01-01T00:00:00Z","name_a2s":"Uncletopia | Los Angeles | 1 | All Maps","protocol":17,"map":"pl_badwater","folder":"tf","game":"Team Fortress","app_id":440,"player_count":24,"max_players":24,"Bots":0,"server_type":"Dedicated","server_os":"Linux","password":true,"vac":true,"version":"7961495","steam_id":85568392924469991,"keywords":["nocrits","nodmgspread","payload","uncletopia"],"game_id":440,"stv_port":27016,"stv_name":"Uncletopia | Los Angeles | 1 | All Maps | STV","players":[{"user_id":189,"name":"Zippy","steam_id":76561198279229422,"connected_time":2618000000000,"state":"active","ping":126},{"user_id":158,"name":"PROFILE NAME","steam_id":76561199438851854,"connected_time":5470000000000,"state":"active","ping":88},{"user_id":201,"name":"AlphaBoi","steam_id":76561198995017977,"connected_time":1969000000000,"state":"active","ping":87},{"user_id":202,"name":"Dinosaur","steam_id":76561199079626189,"connected_time":1954000000000,"state":"active","ping":103},{"user_id":113,"name":"Anon","steam_id":76561198109740776,"connected_time":8552000000000,"state":"active","ping":60},{"user_id":203,"name":"MerkyWaters","steam_id":76561197998853063,"connected_time":1946000000000,"state":"active","ping":67},{"user_id":219,"name":"a chicken","steam_id":76561198313121580,"connected_time":332000000000,"state":"active","ping":59},{"user_id":204,"name":"Dunkaccino","steam_id":76561198050228531,"connected_time":1938000000000,"state":"active","ping":63},{"user_id":206,"name":"BLÃ˜RG","steam_id":76561198036126673,"connected_time":1864000000000,"state":"active","ping":89},{"user_id":207,"name":"REPTILIAN HOLOGRAM","steam_id":76561198002819791,"connected_time":1846000000000,"state":"active","ping":90},{"user_id":208,"name":"Octo","steam_id":76561198024056355,"connected_time":1819000000000,"state":"active","ping":48},{"user_id":209,"name":"nanoboosts","steam_id":76561199500861337,"connected_time":1779000000000,"state":"active","ping":58},{"user_id":192,"name":"HAT-WEARINGâ„¢ Maggot Gamer Cat","steam_id":76561197973992705,"connected_time":2404000000000,"state":"active","ping":71},{"user_id":210,"name":"Rotarius","steam_id":76561198109893506,"connected_time":1778000000000,"state":"active","ping":74},{"user_id":211,"name":"Lumberjane37 (She/Her)","steam_id":76561198014841793,"connected_time":1769000000000,"state":"active","ping":63},{"user_id":198,"name":"ThecoolestEmmy","steam_id":76561198999423393,"connected_time":2120000000000,"state":"active","ping":63},{"user_id":220,"name":"dAiLyGrInD","steam_id":76561198163531915,"connected_time":219000000000,"state":"active","ping":99},{"user_id":200,"name":"Nutella","steam_id":76561198147062334,"connected_time":2016000000000,"state":"active","ping":53},{"user_id":212,"name":"ZeroEmpires","steam_id":76561198044112464,"connected_time":1768000000000,"state":"active","ping":69},{"user_id":213,"name":"fish","steam_id":76561198054070811,"connected_time":1755000000000,"state":"active","ping":61},{"user_id":217,"name":"imma let my nuts hang","steam_id":76561198097544038,"connected_time":1599000000000,"state":"active","ping":54},{"user_id":215,"name":"Midnight","steam_id":76561198115714484,"connected_time":1712000000000,"state":"active","ping":103},{"user_id":216,"name":"pigswill","steam_id":76561197999081865,"connected_time":1704000000000,"state":"active","ping":120},{"user_id":161,"name":"rocketspires","steam_id":76561198800386026,"connected_time":4945000000000,"state":"active","ping":69}]},{"server_id":112,"name":"Uncletopia | Los Angeles | 2 | All Maps","name_short":"lax-2","host":"lax-1.us.uncletopia.com","port":27025,"enabled":true,"region":"us-west","cc":"us","latitude":33.94279,"longitude":-118.41004,"reserved":0,"last_update":"0001-01-01T00:00:00Z","name_a2s":"Uncletopia | Los Angeles | 2 | All Maps","protocol":17,"map":"pl_badwater","folder":"tf","game":"Team Fortress","app_id":440,"player_count":23,"max_players":24,"Bots":0,"server_type":"Dedicated","server_os":"Linux","password":true,"vac":true,"version":"7961495","steam_id":85568392924469992,"keywords":["nocrits","nodmgspread","payload","uncletopia"],"game_id":440,"stv_port":27026,"stv_name":"Uncletopia | Los Angeles | 2 | All Maps | STV","players":[{"user_id":195,"name":"smile face","steam_id":76561198334044006,"connected_time":1378000000000,"state":"active","ping":42},{"user_id":194,"name":"filtered by cp_steel","steam_id":76561198031409921,"connected_time":1391000000000,"state":"active","ping":46},{"user_id":205,"name":"buttons","steam_id":76561198066995476,"connected_time":854000000000,"state":"active","ping":61},{"user_id":175,"name":"Secret Tunnel","steam_id":76561198272403112,"connected_time":3088000000000,"state":"active","ping":55},{"user_id":150,"name":"ga-HYUK","steam_id":76561199072745011,"connected_time":4274000000000,"state":"active","ping":58},{"user_id":198,"name":"Wendall555","steam_id":76561198985637603,"connected_time":1354000000000,"state":"active","ping":58},{"user_id":190,"name":"[â˜¯] randomshagz*","steam_id":76561197968666646,"connected_time":2427000000000,"state":"active","ping":73},{"user_id":208,"name":"lordstinkdemon666","steam_id":76561198073914311,"connected_time":373000000000,"state":"active","ping":45},{"user_id":196,"name":"Mr. Noodle","steam_id":76561198025280658,"connected_time":1372000000000,"state":"active","ping":51},{"user_id":197,"name":"lol","steam_id":76561198026491738,"connected_time":1369000000000,"state":"active","ping":74},{"user_id":201,"name":"scringo","steam_id":76561198169969030,"connected_time":1281000000000,"state":"active","ping":61},{"user_id":209,"name":"SanitysEdge","steam_id":76561198130732813,"connected_time":361000000000,"state":"active","ping":51},{"user_id":202,"name":"Skumpfsklub","steam_id":76561198045782334,"connected_time":1241000000000,"state":"active","ping":53},{"user_id":176,"name":"Smoothpolishness","steam_id":76561198029084002,"connected_time":3065000000000,"state":"active","ping":61},{"user_id":186,"name":"Lane","steam_id":76561197965828506,"connected_time":2792000000000,"state":"active","ping":89},{"user_id":212,"name":"Syrup","steam_id":76561198055850531,"connected_time":113000000000,"state":"active","ping":52},{"user_id":211,"name":"Ricochet Pro","steam_id":76561198005328215,"connected_time":346000000000,"state":"active","ping":71},{"user_id":170,"name":"thnx","steam_id":76561198107219183,"connected_time":3374000000000,"state":"active","ping":54},{"user_id":192,"name":"The Gitrog Monster","steam_id":76561198026941076,"connected_time":1592000000000,"state":"active","ping":66},{"user_id":203,"name":"who","steam_id":76561198066091050,"connected_time":1132000000000,"state":"active","ping":83},{"user_id":204,"name":"Wiggs is the Shiggs","steam_id":76561198078379719,"connected_time":1121000000000,"state":"active","ping":73},{"user_id":206,"name":"Beast","steam_id":76561198087571347,"connected_time":852000000000,"state":"active","ping":70},{"user_id":189,"name":"FortniteJimmy2008","steam_id":76561198821567852,"connected_time":2485000000000,"state":"active","ping":47}]},{"server_id":324,"name":"Uncletopia | Los Angeles | 3 | All Maps","name_short":"lax-3","host":"lax-1.us.uncletopia.com","port":27035,"enabled":true,"region":"us-west","cc":"us","latitude":33.94279,"longitude":-118.41004,"reserved":0,"last_update":"0001-01-01T00:00:00Z","name_a2s":"Uncletopia | Los Angeles | 3 | All Maps","protocol":17,"map":"koth_cascade","folder":"tf","game":"Team Fortress","app_id":440,"player_count":0,"max_players":24,"Bots":0,"server_type":"Dedicated","server_os":"Linux","password":true,"vac":true,"version":"7961495","steam_id":85568392924510198,"keywords":["cp","nocrits","nodmgspread","uncletopia"],"game_id":440,"stv_port":27036,"stv_name":"Uncletopia | Los Angeles | 3 | All Maps | STV","players":null},{"server_id":25,"name":"Uncletopia | Los Angeles | 4 | Stopwatch","name_short":"lax-4","host":"lax-1.us.uncletopia.com","port":27045,"enabled":true,"region":"us-west","cc":"us","latitude":33.94279,"longitude":-118.41004,"reserved":0,"last_update":"0001-01-01T00:00:00Z","name_a2s":"Uncletopia | Los Angeles | 4 | Stopwatch","protocol":17,"map":"workshop/koth_ashville_final.ugc2130459942","folder":"tf","game":"Team Fortress","app_id":440,"player_count":0,"max_players":24,"Bots":0,"server_type":"Dedicated","server_os":"Linux","password":true,"vac":true,"version":"7961495","steam_id":85568392924510199,"keywords":["cp","nocrits","nodmgspread","uncletopia"],"game_id":440,"stv_port":27046,"stv_name":"Uncletopia | Los Angeles | 4 | Stopwatch | STV","players":null},{"server_id":11,"name":"Uncletopia | London | 1 | All Maps","name_short":"lon-1","host":"lon-1.uk.uncletopia.com","port":27015,"enabled":true,"region":"eu","cc":"gb","latitude":51.509865,"longitude":-0.118092,"reserved":0,"last_update":"0001-01-01T00:00:00Z","name_a2s":"Uncletopia | London | 1 | All Maps","protocol":17,"map":"pl_upward","folder":"tf","game":"Team Fortress","app_id":440,"player_count":7,"max_players":24,"Bots":0,"server_type":"Dedicated","server_os":"Linux","password":true,"vac":true,"version":"7961495","steam_id":85568392924367362,"keywords":["nocrits","nodmgspread","payload","uncletopia"],"game_id":440,"stv_port":27016,"stv_name":"Uncletopia | London | 1 | All Maps | STV","players":[{"user_id":13,"name":"Shumo","steam_id":76561198256223196,"connected_time":136000000000,"state":"active","ping":89},{"user_id":4,"name":"yuno appreciator","steam_id":76561198083286511,"connected_time":1056000000000,"state":"active","ping":45},{"user_id":14,"name":"Calsim","steam_id":76561198164877219,"connected_time":65000000000,"state":"active","ping":39},{"user_id":6,"name":"geroxe cruo","steam_id":76561199480942903,"connected_time":858000000000,"state":"active","ping":63},{"user_id":7,"name":"K","steam_id":76561198144604444,"connected_time":831000000000,"state":"active","ping":59},{"user_id":12,"name":"ðŸ‡ªðŸ‡¬ Pharaoh","steam_id":76561198974553024,"connected_time":234000000000,"state":"active","ping":103},{"user_id":11,"name":"Immortalyes","steam_id":76561198050800698,"connected_time":429000000000,"state":"active","ping":65}]},{"server_id":114,"name":"Uncletopia | London | 2 | All Maps","name_short":"lon-2","host":"lon-1.uk.uncletopia.com","port":27025,"enabled":true,"region":"eu","cc":"gb","latitude":51.509865,"longitude":-0.118092,"reserved":0,"last_update":"0001-01-01T00:00:00Z","name_a2s":"Uncletopia | London | 2 | All Maps","protocol":17,"map":"koth_lakeside_final","folder":"tf","game":"Team Fortress","app_id":440,"player_count":0,"max_players":24,"Bots":0,"server_type":"Dedicated","server_os":"Linux","password":true,"vac":true,"version":"7961495","steam_id":85568392924470941,"keywords":["cp","nocrits","nodmgspread","uncletopia"],"game_id":440,"stv_port":27026,"stv_name":"Uncletopia | London | 2 | All Maps | STV","players":null},{"server_id":320,"name":"Uncletopia | London | 3 | All Maps","name_short":"lon-3","host":"lon-1.uk.uncletopia.com","port":27035,"enabled":true,"region":"eu","cc":"gb","latitude":51.509865,"longitude":-0.118092,"reserved":0,"last_update":"0001-01-01T00:00:00Z","name_a2s":"Uncletopia | London | 3 | All Maps","protocol":17,"map":"cp_process_final","folder":"tf","game":"Team Fortress","app_id":440,"player_count":0,"max_players":24,"Bots":0,"server_type":"Dedicated","server_os":"Linux","password":true,"vac":true,"version":"7961495","steam_id":85568392924510192,"keywords":["cp","nocrits","nodmgspread","uncletopia"],"game_id":440,"stv_port":27036,"stv_name":"Uncletopia | London | 3 | All Maps | STV","players":null},{"server_id":321,"name":"Uncletopia | London | 4 | All Maps","name_short":"lon-4","host":"lon-1.uk.uncletopia.com","port":27045,"enabled":true,"region":"eu","cc":"gb","latitude":51.509865,"longitude":-0.118092,"reserved":0,"last_update":"0001-01-01T00:00:00Z","name_a2s":"Uncletopia | London | 4 | All Maps","protocol":17,"map":"koth_cascade","folder":"tf","game":"Team Fortress","app_id":440,"player_count":0,"max_players":24,"Bots":0,"server_type":"Dedicated","server_os":"Linux","password":true,"vac":true,"version":"7961495","steam_id":85568392924510193,"keywords":["cp","nocrits","nodmgspread","uncletopia"],"game_id":440,"stv_port":27046,"stv_name":"Uncletopia | London | 4 | All Maps | STV","players":null},{"server_id":21,"name":"Uncletopia | London | 5 | All Maps","name_short":"lon-5","host":"lon-1.uk.uncletopia.com","port":27055,"enabled":true,"region":"eu","cc":"gb","latitude":51.509865,"longitude":-0.118092,"reserved":0,"last_update":"0001-01-01T00:00:00Z","name_a2s":"Uncletopia | London | 5 | All Maps","protocol":17,"map":"koth_lakeside_final","folder":"tf","game":"Team Fortress","app_id":440,"player_count":0,"max_players":24,"Bots":0,"server_type":"Dedicated","server_os":"Linux","password":true,"vac":true,"version":"7961495","steam_id":85568392924742829,"keywords":["cp","nocrits","nodmgspread","uncletopia"],"game_id":440,"stv_port":27056,"stv_name":"Uncletopia | London | 5 | All Maps | STV","players":null},{"server_id":22,"name":"Uncletopia | London | 6 | All Maps","name_short":"lon-6","host":"lon-1.uk.uncletopia.com","port":27065,"enabled":true,"region":"eu","cc":"gb","latitude":51.509865,"longitude":-0.118092,"reserved":0,"last_update":"0001-01-01T00:00:00Z","name_a2s":"Uncletopia | London | 6 | All Maps","protocol":17,"map":"cp_dustbowl","folder":"tf","game":"Team Fortress","app_id":440,"player_count":0,"max_players":24,"Bots":0,"server_type":"Dedicated","server_os":"Linux","password":true,"vac":true,"version":"7961495","steam_id":85568392924742830,"keywords":["cp","nocrits","nodmgspread","uncletopia"],"game_id":440,"stv_port":27066,"stv_name":"Uncletopia | London | 6 | All Maps | STV","players":null},{"server_id":40,"name":"Uncletopia | London | 7 | Stopwatch","name_short":"lon-7","host":"lon-1.uk.uncletopia.com","port":27075,"enabled":true,"region":"eu","cc":"gb","latitude":51.509865,"longitude":-0.118092,"reserved":0,"last_update":"0001-01-01T00:00:00Z","name_a2s":"Uncletopia | London | 7 | Stopwatch","protocol":17,"map":"koth_lakeside_final","folder":"tf","game":"Team Fortress","app_id":440,"player_count":0,"max_players":24,"Bots":0,"server_type":"Dedicated","server_os":"Linux","password":true,"vac":true,"version":"7961495","steam_id":85568392924964314,"keywords":["cp","nocrits","nodmgspread","uncletopia"],"game_id":440,"stv_port":27076,"stv_name":"Uncletopia | London | 7 | Stopwatch | STV","players":null},{"server_id":41,"name":"Uncletopia | London | 8 | Community","name_short":"lon-8","host":"lon-1.uk.uncletopia.com","port":27085,"enabled":true,"region":"eu","cc":"gb","latitude":51.509865,"longitude":-0.118092,"reserved":0,"last_update":"0001-01-01T00:00:00Z","name_a2s":"Uncletopia | London | 8 | Community","protocol":17,"map":"cp_snakewater_final1","folder":"tf","game":"Team Fortress","app_id":440,"player_count":0,"max_players":24,"Bots":0,"server_type":"Dedicated","server_os":"Linux","password":true,"vac":true,"version":"7961495","steam_id":85568392924964315,"keywords":["cp","nocrits","nodmgspread","uncletopia"],"game_id":440,"stv_port":27086,"stv_name":"Uncletopia | London | 8 | Community | STV","players":null},{"server_id":300,"name":"Uncletopia | MontrÃ©al | 1 | One Thousand Uncles","name_short":"mtl-1","host":"mtl-1.ca.uncletopia.com","port":27015,"enabled":true,"region":"us-east","cc":"ca","latitude":45.50889,"longitude":-73.56167,"reserved":0,"last_update":"0001-01-01T00:00:00Z","name_a2s":"","protocol":0,"map":"","folder":"","game":"","app_id":0,"player_count":0,"max_players":0,"Bots":0,"server_type":"","server_os":"","password":false,"vac":false,"version":"","steam_id":0,"keywords":null,"game_id":0,"stv_port":0,"stv_name":"","players":null},{"server_id":301,"name":"Uncletopia | MontrÃ©al | 2 | One Thousand Uncles","name_short":"mtl-2","host":"mtl-1.ca.uncletopia.com","port":27025,"enabled":true,"region":"us-east","cc":"ca","latitude":45.50889,"longitude":-73.56167,"reserved":0,"last_update":"0001-01-01T00:00:00Z","name_a2s":"","protocol":0,"map":"","folder":"","game":"","app_id":0,"player_count":0,"max_players":0,"Bots":0,"server_type":"","server_os":"","password":false,"vac":false,"version":"","steam_id":0,"keywords":null,"game_id":0,"stv_port":0,"stv_name":"","players":null},{"server_id":302,"name":"Uncletopia | MontrÃ©al | 3 | One Thousand Uncles","name_short":"mtl-3","host":"mtl-1.ca.uncletopia.com","port":27035,"enabled":true,"region":"us-east","cc":"ca","latitude":45.50889,"longitude":-73.56167,"reserved":0,"last_update":"0001-01-01T00:00:00Z","name_a2s":"","protocol":0,"map":"","folder":"","game":"","app_id":0,"player_count":0,"max_players":0,"Bots":0,"server_type":"","server_os":"","password":false,"vac":false,"version":"","steam_id":0,"keywords":null,"game_id":0,"stv_port":0,"stv_name":"","players":null},{"server_id":13,"name":"Uncletopia | New York City | 1 | All Maps","name_short":"nyc-1","host":"nyc-1.us.uncletopia.com","port":27015,"enabled":true,"region":"us-east","cc":"us","latitude":40.73061,"longitude":-73.93524,"reserved":0,"last_update":"0001-01-01T00:00:00Z","name_a2s":"Uncletopia | New York City | 1 | All Maps","protocol":17,"map":"pl_pier","folder":"tf","game":"Team Fortress","app_id":440,"player_count":0,"max_players":24,"Bots":0,"server_type":"Dedicated","server_os":"Linux","password":true,"vac":true,"version":"7961495","steam_id":85568392924469993,"keywords":["nocrits","nodmgspread","payload","uncletopia"],"game_id":440,"stv_port":27016,"stv_name":"Uncletopia | New York City | 1 | All Maps | STV","players":null},{"server_id":14,"name":"Uncletopia | New York City | 2 | All Maps","name_short":"nyc-2","host":"nyc-1.us.uncletopia.com","port":27025,"enabled":true,"region":"us-east","cc":"us","latitude":40.73061,"longitude":-73.93524,"reserved":0,"last_update":"0001-01-01T00:00:00Z","name_a2s":"Uncletopia | New York City | 2 | All Maps","protocol":17,"map":"koth_viaduct","folder":"tf","game":"Team Fortress","app_id":440,"player_count":0,"max_players":24,"Bots":0,"server_type":"Dedicated","server_os":"Linux","password":true,"vac":true,"version":"7961495","steam_id":85568392924469994,"keywords":["cp","nocrits","nodmgspread","uncletopia"],"game_id":440,"stv_port":27026,"stv_name":"Uncletopia | New York City | 2 | All Maps | STV","players":null},{"server_id":15,"name":"Uncletopia | New York City | 3 | Stopwatch","name_short":"nyc-3","host":"nyc-1.us.uncletopia.com","port":27035,"enabled":true,"region":"us-east","cc":"us","latitude":40.73061,"longitude":-73.93524,"reserved":0,"last_update":"0001-01-01T00:00:00Z","name_a2s":"Uncletopia | New York City | 3 | Stopwatch","protocol":17,"map":"pl_upward","folder":"tf","game":"Team Fortress","app_id":440,"player_count":0,"max_players":24,"Bots":0,"server_type":"Dedicated","server_os":"Linux","password":true,"vac":true,"version":"7961495","steam_id":85568392924742820,"keywords":["nocrits","nodmgspread","payload","uncletopia"],"game_id":440,"stv_port":27036,"stv_name":"Uncletopia | New York City | 3 | Stopwatch | STV","players":null},{"server_id":16,"name":"Uncletopia | New York City | 4 | Community","name_short":"nyc-4","host":"nyc-1.us.uncletopia.com","port":27045,"enabled":true,"region":"us-east","cc":"us","latitude":40.73061,"longitude":-73.93524,"reserved":0,"last_update":"0001-01-01T00:00:00Z","name_a2s":"Uncletopia | New York City | 4 | Community","protocol":17,"map":"workshop/koth_bagel_rc6.ugc2514036946","folder":"tf","game":"Team Fortress","app_id":440,"player_count":0,"max_players":24,"Bots":0,"server_type":"Dedicated","server_os":"Linux","password":true,"vac":true,"version":"7961495","steam_id":85568392924742821,"keywords":["cp","nocrits","nodmgspread","uncletopia"],"game_id":440,"stv_port":27046,"stv_name":"Uncletopia | New York City | 4 | Community | STV","players":null},{"server_id":142,"name":"Uncletopia | SÃ£o Paulo | 1 | All Maps","name_short":"sao-1","host":"sao-1.br.uncletopia.com","port":27015,"enabled":true,"region":"sa","cc":"br","latitude":-23.533773,"longitude":-46.62529,"reserved":0,"last_update":"0001-01-01T00:00:00Z","name_a2s":"Uncletopia | SÃ£o Paulo | 1 | All Maps","protocol":17,"map":"koth_highpass","folder":"tf","game":"Team Fortress","app_id":440,"player_count":0,"max_players":24,"Bots":0,"server_type":"Dedicated","server_os":"Linux","password":true,"vac":true,"version":"7961495","steam_id":85568392924469996,"keywords":["cp","nocrits","nodmgspread","uncletopia"],"game_id":440,"stv_port":27016,"stv_name":"Uncletopia | SÃ£o Paulo | 1 | All Maps | STV","players":null},{"server_id":143,"name":"Uncletopia | SÃ£o Paulo | 2 | Community","name_short":"sao-2","host":"sao-2.br.uncletopia.com","port":27015,"enabled":true,"region":"sa","cc":"br","latitude":-23.533773,"longitude":-46.62529,"reserved":0,"last_update":"0001-01-01T00:00:00Z","name_a2s":"Uncletopia | SÃ£o Paulo | 2 | Community","protocol":17,"map":"workshop/koth_bagel_rc6.ugc2514036946","folder":"tf","game":"Team Fortress","app_id":440,"player_count":0,"max_players":24,"Bots":0,"server_type":"Dedicated","server_os":"Linux","password":true,"vac":true,"version":"7961495","steam_id":85568392924485349,"keywords":["cp","nocrits","nodmgspread","uncletopia"],"game_id":440,"stv_port":27016,"stv_name":"Uncletopia | SÃ£o Paulo | 2 | Community | STV","players":null},{"server_id":7,"name":"Uncletopia | Seattle | 1 | All Maps","name_short":"sea-1","host":"sea-1.us.uncletopia.com","port":27015,"enabled":true,"region":"us-west","cc":"us","latitude":47.608013,"longitude":-122.33517,"reserved":0,"last_update":"0001-01-01T00:00:00Z","name_a2s":"Uncletopia | Seattle | 1 | All Maps","protocol":17,"map":"pl_badwater","folder":"tf","game":"Team Fortress","app_id":440,"player_count":21,"max_players":24,"Bots":0,"server_type":"Dedicated","server_os":"Linux","password":true,"vac":true,"version":"7961495","steam_id":85568392924469997,"keywords":["nocrits","nodmgspread","payload","uncletopia"],"game_id":440,"stv_port":27016,"stv_name":"Uncletopia | Seattle | 1 | All Maps | STV","players":[{"user_id":984,"name":"fwoov","steam_id":76561198129166260,"connected_time":4756000000000,"state":"active","ping":75},{"user_id":1034,"name":"Dog","steam_id":76561198041841128,"connected_time":105000000000,"state":"active","ping":76},{"user_id":1037,"name":"Truffles","steam_id":76561198095868800,"connected_time":70000000000,"state":"active","ping":100},{"user_id":1038,"name":"Mr. Carfox","steam_id":76561198041664428,"connected_time":26000000000,"state":"active","ping":60},{"user_id":1014,"name":"Mocha Josie","steam_id":76561198066452726,"connected_time":1473000000000,"state":"active","ping":60},{"user_id":1029,"name":"fragadelphia","steam_id":76561198066116363,"connected_time":589000000000,"state":"active","ping":45},{"user_id":1000,"name":"Cheezbeargur","steam_id":76561198164702899,"connected_time":3140000000000,"state":"active","ping":64},{"user_id":988,"name":"bocchi the shlock (real)","steam_id":76561198844648825,"connected_time":4064000000000,"state":"active","ping":52},{"user_id":1010,"name":"Noah1k","steam_id":76561199428633514,"connected_time":1934000000000,"state":"active","ping":45},{"user_id":940,"name":"waggyaggy","steam_id":76561197998241407,"connected_time":8160000000000,"state":"active","ping":75},{"user_id":1026,"name":"you just got dyked on","steam_id":76561198018977723,"connected_time":717000000000,"state":"active","ping":74},{"user_id":1017,"name":"Hog Rider","steam_id":76561198275999294,"connected_time":1202000000000,"state":"active","ping":49},{"user_id":1008,"name":"Melly","steam_id":76561198045867175,"connected_time":2632000000000,"state":"active","ping":62},{"user_id":1031,"name":"Achoo","steam_id":76561198009091066,"connected_time":500000000000,"state":"active","ping":47},{"user_id":996,"name":"trackpad gaming | f2p","steam_id":76561198840414371,"connected_time":3511000000000,"state":"active","ping":50},{"user_id":995,"name":"Daz","steam_id":76561198041431938,"connected_time":3650000000000,"state":"active","ping":51},{"user_id":947,"name":"Nom Skirrett","steam_id":76561198014600788,"connected_time":7791000000000,"state":"active","ping":61},{"user_id":987,"name":"Branta","steam_id":76561199103842843,"connected_time":4278000000000,"state":"active","ping":31},{"user_id":966,"name":"HopeTheNeko","steam_id":76561199159285465,"connected_time":6105000000000,"state":"active","ping":76},{"user_id":1013,"name":"Arkell","steam_id":76561198135884882,"connected_time":1759000000000,"state":"active","ping":47},{"user_id":1036,"name":"sleepy","steam_id":76561198288663776,"connected_time":102000000000,"state":"active","ping":53}]},{"server_id":119,"name":"Uncletopia | Seattle | 2 | All Maps","name_short":"sea-2","host":"sea-1.us.uncletopia.com","port":27025,"enabled":true,"region":"us-west","cc":"us","latitude":47.608013,"longitude":-122.33517,"reserved":0,"last_update":"0001-01-01T00:00:00Z","name_a2s":"Uncletopia | Seattle | 2 | All Maps","protocol":17,"map":"pl_upward","folder":"tf","game":"Team Fortress","app_id":440,"player_count":23,"max_players":24,"Bots":0,"server_type":"Dedicated","server_os":"Linux","password":true,"vac":true,"version":"7961495","steam_id":85568392924469998,"keywords":["nocrits","nodmgspread","payload","uncletopia"],"game_id":440,"stv_port":27026,"stv_name":"Uncletopia | Seattle | 2 | All Maps | STV","players":[{"user_id":318,"name":"Drone #0432 (they/it)\u0026","steam_id":76561198027321950,"connected_time":313000000000,"state":"active","ping":56},{"user_id":301,"name":"NOT FRIENDLY","steam_id":76561198041327231,"connected_time":1441000000000,"state":"active","ping":46},{"user_id":309,"name":"cuckboi","steam_id":76561198343060961,"connected_time":874000000000,"state":"active","ping":53},{"user_id":316,"name":"Lily Thorn","steam_id":76561198305488625,"connected_time":388000000000,"state":"active","ping":52},{"user_id":273,"name":"S Q U I S H E  T H A T  C A T","steam_id":76561198293865429,"connected_time":3316000000000,"state":"active","ping":44},{"user_id":290,"name":"Sefren","steam_id":76561198007657340,"connected_time":2435000000000,"state":"active","ping":48},{"user_id":306,"name":"AUSTIN THEORY","steam_id":76561198288743767,"connected_time":1064000000000,"state":"active","ping":79},{"user_id":275,"name":"Breast Expansion Bertha","steam_id":76561198225766444,"connected_time":3268000000000,"state":"active","ping":52},{"user_id":303,"name":"Persona404","steam_id":76561198109635077,"connected_time":1232000000000,"state":"active","ping":160},{"user_id":319,"name":"2STAR","steam_id":76561198126709382,"connected_time":208000000000,"state":"active","ping":60},{"user_id":312,"name":"luc","steam_id":76561198093883448,"connected_time":611000000000,"state":"active","ping":57},{"user_id":297,"name":"THAT CAT","steam_id":76561198010828625,"connected_time":1652000000000,"state":"active","ping":39},{"user_id":311,"name":"Be Gay, Do Crimes, Smoke Weed!","steam_id":76561198092419868,"connected_time":664000000000,"state":"active","ping":83},{"user_id":307,"name":"Rich Homie Rob","steam_id":76561198046570914,"connected_time":1009000000000,"state":"active","ping":68},{"user_id":288,"name":"Facepalm","steam_id":76561198001935226,"connected_time":2739000000000,"state":"active","ping":60},{"user_id":283,"name":"Keamy","steam_id":76561199471434875,"connected_time":3052000000000,"state":"active","ping":41},{"user_id":274,"name":"vacachimuela","steam_id":76561198297332421,"connected_time":3311000000000,"state":"active","ping":59},{"user_id":271,"name":"Yhimir","steam_id":76561198973439216,"connected_time":3582000000000,"state":"active","ping":94},{"user_id":317,"name":"ElectronX","steam_id":76561198116034988,"connected_time":340000000000,"state":"active","ping":71},{"user_id":296,"name":"moonboy","steam_id":76561198172113657,"connected_time":1936000000000,"state":"active","ping":129},{"user_id":320,"name":"Shang","steam_id":76561198298637817,"connected_time":146000000000,"state":"active","ping":140},{"user_id":304,"name":"dougrocks421","steam_id":76561198165063918,"connected_time":1232000000000,"state":"active","ping":38},{"user_id":315,"name":"O bez","steam_id":76561198841579939,"connected_time":512000000000,"state":"active","ping":84}]},{"server_id":406,"name":"Uncletopia | Seattle | 3 | Stopwatch","name_short":"sea-3","host":"sea-1.us.uncletopia.com","port":27035,"enabled":true,"region":"us-west","cc":"us","latitude":47.608013,"longitude":-122.33517,"reserved":0,"last_update":"0001-01-01T00:00:00Z","name_a2s":"Uncletopia | Seattle | 3 | Stopwatch","protocol":17,"map":"cp_gullywash_final1","folder":"tf","game":"Team Fortress","app_id":440,"player_count":0,"max_players":24,"Bots":0,"server_type":"Dedicated","server_os":"Linux","password":true,"vac":true,"version":"7961495","steam_id":85568392924515217,"keywords":["cp","nocrits","nodmgspread","uncletopia"],"game_id":440,"stv_port":27036,"stv_name":"Uncletopia | Seattle | 3 | Stopwatch | STV","players":null},{"server_id":17,"name":"Uncletopia | San Francisco | 1 | All Maps","name_short":"sfo-1","host":"sfo-1.us.uncletopia.com","port":27015,"enabled":true,"region":"us-west","cc":"us","latitude":37.77397,"longitude":-122.4313,"reserved":0,"last_update":"0001-01-01T00:00:00Z","name_a2s":"Uncletopia | San Francisco | 1 | All Maps","protocol":17,"map":"pl_pier","folder":"tf","game":"Team Fortress","app_id":440,"player_count":24,"max_players":24,"Bots":0,"server_type":"Dedicated","server_os":"Linux","password":true,"vac":true,"version":"7961495","steam_id":85568392924469999,"keywords":["nocrits","nodmgspread","payload","uncletopia"],"game_id":440,"stv_port":27016,"stv_name":"Uncletopia | San Francisco | 1 | All Maps | STV","players":[{"user_id":304,"name":"rach9411","steam_id":76561198256535721,"connected_time":1187000000000,"state":"active","ping":171},{"user_id":321,"name":"Crimson Chin","steam_id":76561198104315166,"connected_time":193000000000,"state":"active","ping":57},{"user_id":303,"name":"Poladroid","steam_id":76561198032005291,"connected_time":1188000000000,"state":"active","ping":66},{"user_id":322,"name":"Cheff cook","steam_id":76561198451203268,"connected_time":183000000000,"state":"active","ping":50},{"user_id":289,"name":"Orange Mann Bad","steam_id":76561198021126964,"connected_time":2810000000000,"state":"active","ping":66},{"user_id":306,"name":"Always Here for You","steam_id":76561198219252313,"connected_time":1147000000000,"state":"active","ping":113},{"user_id":288,"name":"Addy \u003c3","steam_id":76561198045819723,"connected_time":2823000000000,"state":"active","ping":118},{"user_id":274,"name":"The Wind Fucker Lives","steam_id":76561198275362375,"connected_time":4752000000000,"state":"active","ping":52},{"user_id":290,"name":"Gawin Goodman","steam_id":76561198192661585,"connected_time":2785000000000,"state":"active","ping":74},{"user_id":298,"name":"Cave Dweller","steam_id":76561198374825685,"connected_time":2186000000000,"state":"active","ping":57},{"user_id":307,"name":"KaosInfinite","steam_id":76561198009126350,"connected_time":1108000000000,"state":"active","ping":56},{"user_id":302,"name":"The Fairy Love Sniper","steam_id":76561198049358645,"connected_time":1199000000000,"state":"active","ping":104},{"user_id":308,"name":"nerf me","steam_id":76561198310495200,"connected_time":1025000000000,"state":"active","ping":97},{"user_id":320,"name":"Maid 'n' China","steam_id":76561198423392976,"connected_time":362000000000,"state":"active","ping":56},{"user_id":311,"name":"LuckyTF2","steam_id":76561199108883530,"connected_time":828000000000,"state":"active","ping":54},{"user_id":286,"name":"Seshreb","steam_id":76561198846614634,"connected_time":3300000000000,"state":"active","ping":79},{"user_id":312,"name":"1000 Ping","steam_id":76561198098330939,"connected_time":788000000000,"state":"active","ping":89},{"user_id":318,"name":"Teddy Roosebelt","steam_id":76561198045493149,"connected_time":565000000000,"state":"active","ping":69},{"user_id":301,"name":"5oc","steam_id":76561199196300397,"connected_time":1249000000000,"state":"active","ping":74},{"user_id":319,"name":"Mikke","steam_id":76561198170234003,"connected_time":471000000000,"state":"active","ping":75},{"user_id":291,"name":"Cypress [ +/- ] âœ”","steam_id":76561198067164431,"connected_time":2779000000000,"state":"active","ping":48},{"user_id":292,"name":"Quigi","steam_id":76561198144645874,"connected_time":2759000000000,"state":"active","ping":73},{"user_id":315,"name":"darren","steam_id":76561199050155136,"connected_time":743000000000,"state":"active","ping":53},{"user_id":317,"name":"jasus","steam_id":76561198088035919,"connected_time":679000000000,"state":"active","ping":59}]},{"server_id":18,"name":"Uncletopia | San Francisco | 2 | All Maps","name_short":"sfo-2","host":"sfo-1.us.uncletopia.com","port":27025,"enabled":true,"region":"us-west","cc":"us","latitude":37.77397,"longitude":-122.4313,"reserved":0,"last_update":"0001-01-01T00:00:00Z","name_a2s":"Uncletopia | San Francisco | 2 | All Maps","protocol":17,"map":"pl_badwater","folder":"tf","game":"Team Fortress","app_id":440,"player_count":0,"max_players":24,"Bots":0,"server_type":"Dedicated","server_os":"Linux","password":true,"vac":true,"version":"7961495","steam_id":85568392924470000,"keywords":["nocrits","nodmgspread","payload","uncletopia"],"game_id":440,"stv_port":27026,"stv_name":"Uncletopia | San Francisco | 2 | All Maps | STV","players":null},{"server_id":19,"name":"Uncletopia | San Francisco | 3 | Stopwatch","name_short":"sfo-3","host":"sfo-1.us.uncletopia.com","port":27035,"enabled":true,"region":"us-west","cc":"us","latitude":37.77397,"longitude":-122.4313,"reserved":0,"last_update":"0001-01-01T00:00:00Z","name_a2s":"Uncletopia | San Francisco | 3 | Stopwatch","protocol":17,"map":"workshop/koth_ashville_final.ugc2130459942","folder":"tf","game":"Team Fortress","app_id":440,"player_count":0,"max_players":24,"Bots":0,"server_type":"Dedicated","server_os":"Linux","password":true,"vac":true,"version":"7961495","steam_id":85568392924742824,"keywords":["cp","nocrits","nodmgspread","uncletopia"],"game_id":440,"stv_port":27036,"stv_name":"Uncletopia | San Francisco | 3 | Stopwatch | STV","players":null},{"server_id":20,"name":"Uncletopia | San Francisco | 4 | Community","name_short":"sfo-4","host":"sfo-1.us.uncletopia.com","port":27045,"enabled":true,"region":"us-west","cc":"us","latitude":37.77397,"longitude":-122.4313,"reserved":0,"last_update":"0001-01-01T00:00:00Z","name_a2s":"Uncletopia | San Francisco | 4 | Community","protocol":17,"map":"workshop/koth_bagel_rc6.ugc2514036946","folder":"tf","game":"Team Fortress","app_id":440,"player_count":0,"max_players":24,"Bots":0,"server_type":"Dedicated","server_os":"Linux","password":true,"vac":true,"version":"7961495","steam_id":85568392924742826,"keywords":["cp","nocrits","nodmgspread","uncletopia"],"game_id":440,"stv_port":27046,"stv_name":"Uncletopia | San Francisco | 4 | Community | STV","players":null},{"server_id":141,"name":"Uncletopia | Sydney | 1 | All Maps","name_short":"syd-1","host":"syd-1.au.uncletopia.com","port":27015,"enabled":true,"region":"au","cc":"au","latitude":-33.865143,"longitude":151.2099,"reserved":0,"last_update":"0001-01-01T00:00:00Z","name_a2s":"Uncletopia | Sydney | 1 | All Maps","protocol":17,"map":"pl_badwater","folder":"tf","game":"Team Fortress","app_id":440,"player_count":1,"max_players":24,"Bots":0,"server_type":"Dedicated","server_os":"Linux","password":true,"vac":true,"version":"7961495","steam_id":85568392924470001,"keywords":["nocrits","nodmgspread","payload","uncletopia"],"game_id":440,"stv_port":27016,"stv_name":"Uncletopia | Sydney | 1 | All Maps | STV","players":[{"user_id":22,"name":"Matt","steam_id":76561198006791420,"connected_time":274000000000,"state":"active","ping":88}]},{"server_id":123,"name":"Uncletopia | Sydney | 2 | All Maps","name_short":"syd-2","host":"syd-1.au.uncletopia.com","port":27025,"enabled":true,"region":"au","cc":"au","latitude":-33.865143,"longitude":151.2099,"reserved":0,"last_update":"0001-01-01T00:00:00Z","name_a2s":"Uncletopia | Sydney | 2 | All Maps","protocol":17,"map":"koth_lakeside_final","folder":"tf","game":"Team Fortress","app_id":440,"player_count":0,"max_players":24,"Bots":0,"server_type":"Dedicated","server_os":"Linux","password":true,"vac":true,"version":"7961495","steam_id":85568392924470002,"keywords":["cp","nocrits","nodmgspread","uncletopia"],"game_id":440,"stv_port":27026,"stv_name":"Uncletopia | Sydney | 2 | All Maps | STV","players":null},{"server_id":395,"name":"Uncletopia | Sydney | 3 | All Maps","name_short":"syd-3","host":"syd-1.au.uncletopia.com","port":27035,"enabled":true,"region":"au","cc":"au","latitude":-33.865143,"longitude":151.2099,"reserved":0,"last_update":"0001-01-01T00:00:00Z","name_a2s":"Uncletopia | Sydney | 3 | All Maps","protocol":17,"map":"pl_frontier_final","folder":"tf","game":"Team Fortress","app_id":440,"player_count":0,"max_players":24,"Bots":0,"server_type":"Dedicated","server_os":"Linux","password":true,"vac":true,"version":"7961495","steam_id":85568392925194467,"keywords":["nocrits","nodmgspread","payload","uncletopia"],"game_id":440,"stv_port":27036,"stv_name":"Uncletopia | Sydney | 3 | All Maps | STV","players":null},{"server_id":396,"name":"Uncletopia | Sydney | 4 | All Maps","name_short":"syd-4","host":"syd-1.au.uncletopia.com","port":27045,"enabled":true,"region":"au","cc":"au","latitude":-33.865143,"longitude":151.2099,"reserved":0,"last_update":"0001-01-01T00:00:00Z","name_a2s":"Uncletopia | Sydney | 4 | All Maps","protocol":17,"map":"cp_mountainlab","folder":"tf","game":"Team Fortress","app_id":440,"player_count":0,"max_players":24,"Bots":0,"server_type":"Dedicated","server_os":"Linux","password":true,"vac":true,"version":"7961495","steam_id":85568392925397958,"keywords":["cp","nocrits","nodmgspread","uncletopia"],"game_id":440,"stv_port":27046,"stv_name":"Uncletopia | Sydney | 4 | All Maps | STV","players":null},{"server_id":58,"name":"Uncletopia | Sydney | 5 | Stopwatch","name_short":"syd-5","host":"syd-1.au.uncletopia.com","port":27055,"enabled":true,"region":"au","cc":"au","latitude":-33.865143,"longitude":151.2099,"reserved":0,"last_update":"0001-01-01T00:00:00Z","name_a2s":"Uncletopia | Sydney | 5 | Stopwatch","protocol":17,"map":"cp_metalworks","folder":"tf","game":"Team Fortress","app_id":440,"player_count":0,"max_players":24,"Bots":0,"server_type":"Dedicated","server_os":"Linux","password":true,"vac":true,"version":"7961495","steam_id":85568392925397959,"keywords":["cp","nocrits","nodmgspread","uncletopia"],"game_id":440,"stv_port":27056,"stv_name":"Uncletopia | Sydney | 5 | Stopwatch | STV","players":null},{"server_id":59,"name":"Uncletopia | Sydney | 6 | Community","name_short":"syd-6","host":"syd-1.au.uncletopia.com","port":27065,"enabled":true,"region":"au","cc":"au","latitude":-33.865143,"longitude":151.2099,"reserved":0,"last_update":"0001-01-01T00:00:00Z","name_a2s":"Uncletopia | Sydney | 6 | Community","protocol":17,"map":"cp_sunshine","folder":"tf","game":"Team Fortress","app_id":440,"player_count":0,"max_players":24,"Bots":0,"server_type":"Dedicated","server_os":"Linux","password":true,"vac":true,"version":"7961495","steam_id":85568392925397960,"keywords":["cp","nocrits","nodmgspread","uncletopia"],"game_id":440,"stv_port":27066,"stv_name":"Uncletopia | Sydney | 6 | Community | STV","players":null},{"server_id":49,"name":"Uncletopia | Warsaw | 1 | One Thousand Uncles","name_short":"waw-1","host":"waw-1.pl.uncletopia.com","port":27015,"enabled":true,"region":"eu","cc":"pl","latitude":52.2297,"longitude":21.017532,"reserved":0,"last_update":"0001-01-01T00:00:00Z","name_a2s":"Uncletopia | Warsaw | 1 | One Thousand Uncles","protocol":17,"map":"pl_badwater","folder":"tf","game":"Team Fortress","app_id":440,"player_count":17,"max_players":32,"Bots":16,"server_type":"Dedicated","server_os":"Linux","password":true,"vac":true,"version":"7961495","steam_id":85568392925397850,"keywords":["alltalk","bots","danepve","increased_maxplayers","nocrits","norespawntime","payload","uncletopia"],"game_id":440,"stv_port":0,"stv_name":"","players":[{"user_id":65,"name":"freggy2024","steam_id":76561199012231884,"connected_time":1975000000000,"state":"active","ping":75}]},{"server_id":50,"name":"Uncletopia | Warsaw | 2 | One Thousand Uncles","name_short":"waw-2","host":"waw-1.pl.uncletopia.com","port":27025,"enabled":true,"region":"eu","cc":"pl","latitude":52.2297,"longitude":21.017532,"reserved":0,"last_update":"0001-01-01T00:00:00Z","name_a2s":"Uncletopia | Warsaw | 2 | One Thousand Uncles","protocol":17,"map":"pl_goldrush","folder":"tf","game":"Team Fortress","app_id":440,"player_count":0,"max_players":32,"Bots":0,"server_type":"Dedicated","server_os":"Linux","password":true,"vac":true,"version":"7961495","steam_id":85568392925397851,"keywords":["alltalk","danepve","increased_maxplayers","nocrits","norespawntime","payload","uncletopia"],"game_id":440,"stv_port":0,"stv_name":"","players":null},{"server_id":51,"name":"Uncletopia | Warsaw | 3 | All Maps","name_short":"waw-3","host":"waw-1.pl.uncletopia.com","port":27035,"enabled":true,"region":"eu","cc":"pl","latitude":52.2297,"longitude":21.017532,"reserved":0,"last_update":"0001-01-01T00:00:00Z","name_a2s":"Uncletopia | Warsaw | 3 | All Maps","protocol":17,"map":"plr_pipeline","folder":"tf","game":"Team Fortress","app_id":440,"player_count":0,"max_players":24,"Bots":0,"server_type":"Dedicated","server_os":"Linux","password":true,"vac":true,"version":"7961495","steam_id":85568392925397852,"keywords":["nocrits","nodmgspread","payload","uncletopia"],"game_id":440,"stv_port":27036,"stv_name":"Uncletopia | Warsaw | 3 | All Maps | STV","players":null},{"server_id":52,"name":"Uncletopia | Warsaw | 4 | All Maps","name_short":"waw-4","host":"waw-1.pl.uncletopia.com","port":27045,"enabled":true,"region":"eu","cc":"pl","latitude":52.2297,"longitude":21.017532,"reserved":0,"last_update":"0001-01-01T00:00:00Z","name_a2s":"Uncletopia | Warsaw | 4 | All Maps","protocol":17,"map":"cp_coldfront","folder":"tf","game":"Team Fortress","app_id":440,"player_count":0,"max_players":24,"Bots":0,"server_type":"Dedicated","server_os":"Linux","password":true,"vac":true,"version":"7961495","steam_id":85568392925397853,"keywords":["cp","nocrits","nodmgspread","uncletopia"],"game_id":440,"stv_port":27046,"stv_name":"Uncletopia | Warsaw | 4 | All Maps | STV","players":null},{"server_id":53,"name":"Uncletopia | Warsaw | 5 | Stopwatch","name_short":"waw-5","host":"waw-1.pl.uncletopia.com","port":27055,"enabled":true,"region":"eu","cc":"pl","latitude":52.2297,"longitude":21.017532,"reserved":0,"last_update":"0001-01-01T00:00:00Z","name_a2s":"Uncletopia | Warsaw | 5 | Stopwatch","protocol":17,"map":"workshop/koth_bagel_rc6.ugc2514036946","folder":"tf","game":"Team Fortress","app_id":440,"player_count":0,"max_players":24,"Bots":0,"server_type":"Dedicated","server_os":"Linux","password":true,"vac":true,"version":"7961495","steam_id":85568392925397854,"keywords":["cp","nocrits","nodmgspread","uncletopia"],"game_id":440,"stv_port":27056,"stv_name":"Uncletopia | Warsaw | 5 | Stopwatch | STV","players":null},{"server_id":54,"name":"Uncletopia | Warsaw | 6 | Community","name_short":"waw-6","host":"waw-1.pl.uncletopia.com","port":27065,"enabled":true,"region":"eu","cc":"pl","latitude":52.2297,"longitude":21.017532,"reserved":0,"last_update":"0001-01-01T00:00:00Z","name_a2s":"Uncletopia | Warsaw | 6 | Community","protocol":17,"map":"workshop/pl_badwater_pro_v12.ugc2142942074","folder":"tf","game":"Team Fortress","app_id":440,"player_count":0,"max_players":24,"Bots":0,"server_type":"Dedicated","server_os":"Linux","password":true,"vac":true,"version":"7961495","steam_id":85568392925397856,"keywords":["nocrits","nodmgspread","payload","uncletopia"],"game_id":440,"stv_port":27066,"stv_name":"Uncletopia | Warsaw | 6 | Community | STV","players":null}]}