{"status":true,"message":"","result":[{"server_id":9,"name":"Uncletopia | Atlanta | 1 | All Maps","name_short":"atl-1","host":"atl-1.us.uncletopia.com","port":27015,"enabled":true,"region":"us-east","cc":"us","latitude":33.753746,"longitude":-84.38633,"reserved":0,"last_update":"0001-01-01T00:00:00Z","name_a2s":"Uncletopia | Atlanta | 1 | All Maps","protocol":17,"map":"cp_mountainlab","folder":"tf","game":"Team Fortress","app_id":440,"player_count":0,"max_players":24,"Bots":0,"server_type":"Dedicated","server_os":"Linux","password":true,"vac":true,"version":"7961495","steam_id":85568392924469982,"keywords":["cp","nocrits","nodmgspread","uncletopia"],"game_id":440,"stv_port":27016,"stv_name":"Uncletopia | Atlanta | 1 | All Maps | STV","players":null},{"server_id":104,"name":"Uncletopia | Atlanta | 2 | All Maps","name_short":"atl-2","host":"atl-1.us.uncletopia.com","port":27025,"enabled":true,"region":"us-east","cc":"us","latitude":33.753746,"longitude":-84.38633,"reserved":0,"last_update":"0001-01-01T00:00:00Z","name_a2s":"Uncletopia | Atlanta | 2 | All Maps","protocol":17,"map":"koth_nucleus","folder":"tf","game":"Team Fortress","app_id":440,"player_count":0,"max_players":24,"Bots":0,"server_type":"Dedicated","server_os":"Linux","password":true,"vac":true,"version":"7961495","steam_id":85568392924469983,"keywords":["cp","nocrits","nodmgspread","uncletopia"],"game_id":440,"stv_port":27026,"stv_name":"Uncletopia | Atlanta | 2 | All Maps | STV","players":null},{"server_id":400,"name":"Uncletopia | Atlanta | 3 | Stopwatch","name_short":"atl-3","host":"atl-1.us.uncletopia.com","port":27035,"enabled":true,"region":"us-east","cc":"us","latitude":33.753746,"longitude":-84.38633,"reserved":0,"last_update":"0001-01-01T00:00:00Z","name_a2s":"Uncletopia | Atlanta | 3 | Stopwatch","protocol":17,"map":"pl_upward","folder":"tf","game":"Team Fortress","app_id":440,"player_count":0,"max_players":24,"Bots":0,"server_type":"Dedicated","server_os":"Linux","password":true,"vac":true,"version":"7961495","steam_id":85568392924515187,"keywords":["nocrits","nodmgspread","payload","uncletopia"],"game_id":440,"stv_port":27036,"stv_name":"Uncletopia | Atlanta | 3 | Stopwatch | STV","players":null},{"server_id":401,"name":"Uncletopia | Atlanta | 4 | Community","name_short":"atl-4","host":"atl-1.us.uncletopia.com","port":27045,"enabled":true,"region":"us-east","cc":"us","latitude":33.753746,"longitude":-84.38633,"reserved":0,"last_update":"0001-01-01T00:00:00Z","name_a2s":"Uncletopia | Atlanta | 4 | Community","protocol":17,"map":"workshop/koth_product_final.ugc454272353","folder":"tf","game":"Team Fortress","app_id":440,"player_count":0,"max_players":24,"Bots":0,"server_type":"Dedicated","server_os":"Linux","password":true,"vac":true,"version":"7961495","steam_id":85568392924515188,"keywords":["cp","nocrits","nodmgspread","uncletopia"],"game_id":440,"stv_port":27046,"stv_name":"Uncletopia | Atlanta | 4 | Community | STV","players":null},{"server_id":2,"name":"Uncletopia | Chicago | 1 | All Maps","name_short":"chi-1","host":"chi-1.us.uncletopia.com","port":27015,"enabled":true,"region":"us-central","cc":"us","latitude":41.881832,"longitude":-87.62318,"reserved":0,"last_update":"0001-01-01T00:00:00Z","name_a2s":"Uncletopia | Chicago | 1 | All Maps","protocol":17,"map":"pl_pier","folder":"tf","game":"Team Fortress","app_id":440,"player_count":0,"max_players":24,"Bots":0,"server_type":"Dedicated","server_os":"Linux","password":true,"vac":true,"version":"7961495","steam_id":85568392924469984,"keywords":["nocrits","nodmgspread","payload","uncletopia"],"game_id":440,"stv_port":27016,"stv_name":"Uncletopia | Chicago | 1 | All Maps | STV","players":null},{"server_id":106,"name":"Uncletopia | Chicago | 2 | All Maps","name_short":"chi-2","host":"chi-1.us.uncletopia.com","port":27025,"enabled":true,"region":"us-central","cc":"us","latitude":41.881832,"longitude":-87.62318,"reserved":0,"last_update":"0001-01-01T00:00:00Z","name_a2s":"Uncletopia | Chicago | 2 | All Maps","protocol":17,"map":"cp_sunshine","folder":"tf","game":"Team Fortress","app_id":440,"player_count":24,"max_players":24,"Bots":0,"server_type":"Dedicated","server_os":"Linux","password":true,"vac":true,"version":"7961495","steam_id":85568392924469985,"keywords":["cp","nocrits","nodmgspread","uncletopia"],"game_id":440,"stv_port":27026,"stv_name":"Uncletopia | Chicago | 2 | All Maps | STV","players":[{"user_id":714,"name":"Adenosine Triphosphate","steam_id":76561198053908725,"connected_time":1629000000000,"state":"active","ping":84},{"user_id":701,"name":"Plushy Freeman","steam_id":76561198004935560,"connected_time":2882000000000,"state":"active","ping":145},{"user_id":605,"name":"gyat","steam_id":76561198043684960,"connected_time":10358000000000,"state":"active","ping":67},{"user_id":599,"name":"HandsomeBoyCarlito","steam_id":76561199013892337,"connected_time":10658000000000,"state":"active","ping":56},{"user_id":718,"name":"Kantamoe","steam_id":76561198046661611,"connected_time":1421000000000,"state":"active","ping":84},{"user_id":715,"name":"Mud Horse Great Big Loud","steam_id":76561198067247951,"connected_time":1588000000000,"state":"active","ping":62},{"user_id":684,"name":"eish","steam_id":76561198089463603,"connected_time":4330000000000,"state":"active","ping":138},{"user_id":716,"name":"MC_Labs15","steam_id":76561198184017082,"connected_time":1571000000000,"state":"active","ping":54},{"user_id":719,"name":"GMFD! Juustin","steam_id":76561198121922413,"connected_time":1397000000000,"state":"active","ping":99},{"user_id":709,"name":"BIG HOG","steam_id":76561198079923652,"connected_time":2106000000000,"state":"active","ping":76},{"user_id":717,"name":"beautiful princess disorder","steam_id":76561198049258493,"connected_time":1556000000000,"state":"active","ping":130},{"user_id":705,"name":"Mr.Fish","steam_id":76561198369785925,"connected_time":2639000000000,"state":"active","ping":83},{"user_id":691,"name":"yem yem","steam_id":76561198157664566,"connected_time":3567000000000,"state":"active","ping":69},{"user_id":723,"name":"mu","steam_id":76561197997530228,"connected_time":854000000000,"state":"active","ping":107},{"user_id":711,"name":"Adam","steam_id":76561198045660732,"connected_time":1852000000000,"state":"active","ping":154},{"user_id":710,"name":"Bonk Nickeltoon","steam_id":76561198027738883,"connected_time":2102000000000,"state":"active","ping":48},{"user_id":612,"name":"K","steam_id":76561198171446177,"connected_time":9891000000000,"state":"active","ping":96},{"user_id":629,"name":"Nestor","steam_id":76561198070782619,"connected_time":8444000000000,"state":"active","ping":65},{"user_id":707,"name":"dt","steam_id":76561198082295223,"connected_time":2589000000000,"state":"active","ping":98},{"user_id":699,"name":"CynForSin","steam_id":76561198094739849,"connected_time":3105000000000,"state":"active","ping":59},{"user_id":721,"name":"BL√òRG","steam_id":76561198036126673,"connected_time":1363000000000,"state":"active","ping":77},{"user_id":687,"name":"frank","steam_id":76561198137777483,"connected_time":3842000000000,"state":"active","ping":71},{"user_id":696,"name":"Phoysh","steam_id":76561198137111021,"connected_time":3263000000000,"state":"active","ping":99},{"user_id":722,"name":"dax","steam_id":76561198045335319,"connected_time":1347000000000,"state":"active","ping":82}]},{"server_id":402,"name":"Uncletopia | Chicago | 3 | All Maps","name_short":"chi-3","host":"chi-1.us.uncletopia.com","port":27035,"enabled":true,"region":"us-central","cc":"us","latitude":41.881832,"longitude":-87.62318,"reserved":0,"last_update":"0001-01-01T00:00:00Z","name_a2s":"Uncletopia | Chicago | 3 | All Maps","protocol":17,"map":"cp_dustbowl","folder":"tf","game":"Team Fortress","app_id":440,"player_count":4,"max_players":24,"Bots":0,"server_type":"Dedicated","server_os":"Linux","password":true,"vac":true,"version":"7961495","steam_id":85568392924515191,"keywords":["cp","nocrits","nodmgspread","uncletopia"],"game_id":440,"stv_port":27036,"stv_name":"Uncletopia | Chicago | 3 | All Maps | STV","players":[{"user_id":703,"name":"fiar0.2","steam_id":76561198974556515,"connected_time":178000000000,"state":"active","ping":204},{"user_id":704,"name":"yaelvishshor","steam_id":76561199356028432,"connected_time":18000000000,"state":"spawning","ping":207},{"user_id":702,"name":"Drewey","steam_id":76561199258609863,"connected_time":684000000000,"state":"active","ping":51},{"user_id":657,"name":"cajun thotsauce","steam_id":76561198101636066,"connected_time":5045000000000,"state":"active","ping":100}]},{"server_id":403,"name":"Uncletopia | Chicago | 4 | All Maps","name_short":"chi-4","host":"chi-1.us.uncletopia.com","port":27045,"enabled":true,"region":"us-central","cc":"us","latitude":41.881832,"longitude":-87.62318,"reserved":0,"last_update":"0001-01-01T00:00:00Z","name_a2s":"Uncletopia | Chicago | 4 | All Maps","protocol":17,"map":"pl_pier","folder":"tf","game":"Team Fortress","app_id":440,"player_count":0,"max_players":24,"Bots":0,"server_type":"Dedicated","server_os":"Linux","password":true,"vac":true,"version":"7961495","steam_id":85568392924515193,"keywords":["nocrits","nodmgspread","payload","uncletopia"],"game_id":440,"stv_port":27046,"stv_name":"Uncletopia | Chicago | 4 | All Maps | STV","players":null},{"server_id":36,"name":"Uncletopia | Chicago | 5 | All Maps","name_short":"chi-5","host":"chi-2.us.uncletopia.com","port":27015,"enabled":true,"region":"us-central","cc":"us","latitude":41.881832,"longitude":-87.62318,"reserved":0,"last_update":"0001-01-01T00:00:00Z","name_a2s":"Uncletopia | Chicago | 5 | All Maps","protocol":17,"map":"pl_borneo","folder":"tf","game":"Team Fortress","app_id":440,"player_count":24,"max_players":24,"Bots":0,"server_type":"Dedicated","server_os":"Linux","password":true,"vac":true,"version":"7961495","steam_id":85568392924866362,"keywords":["nocrits","nodmgspread","payload","uncletopia"],"game_id":440,"stv_port":27016,"stv_name":"Uncletopia | Chicago | 5 | All Maps | STV","players":[{"user_id":615,"name":"Female Gamer","steam_id":76561199366482682,"connected_time":4261000000000,"state":"active","ping":105},{"user_id":649,"name":"TR1dent02","steam_id":76561198199276830,"connected_time":1049000000000,"state":"active","ping":142},{"user_id":628,"name":"Lucil3 on Bandcamp","steam_id":76561198149063013,"connected_time":3524000000000,"state":"active","ping":60},{"user_id":614,"name":"who ate the cheese","steam_id":76561198275408467,"connected_time":4306000000000,"state":"active","ping":48},{"user_id":654,"name":"ShadesMcKenzie","steam_id":76561198007051107,"connected_time":635000000000,"state":"active","ping":59},{"user_id":648,"name":"njk","steam_id":76561199061380038,"connected_time":1133000000000,"state":"active","ping":60},{"user_id":486,"name":"Birch","steam_id":76561198316231704,"connected_time":12853000000000,"state":"active","ping":55},{"user_id":475,"name":"Meskoozy","steam_id":76561198102394479,"connected_time":14230000000000,"state":"active","ping":70},{"user_id":645,"name":"Dzhoshua","steam_id":76561198071915251,"connected_time":1515000000000,"state":"active","ping":66},{"user_id":647,"name":"Gargathor the Entity Catcher","steam_id":76561198189429665,"connected_time":1282000000000,"state":"active","ping":75},{"user_id":659,"name":"michael","steam_id":76561198268355253,"connected_time":235000000000,"state":"active","ping":48},{"user_id":524,"name":"RAD ‚òÜ","steam_id":76561198321905478,"connected_time":10200000000000,"state":"active","ping":59},{"user_id":525,"name":"Outlander","steam_id":76561199032887232,"connected_time":10191000000000,"state":"active","ping":79},{"user_id":646,"name":"Psycho","steam_id":76561197995745637,"connected_time":1514000000000,"state":"active","ping":113},{"user_id":657,"name":"2STAR","steam_id":76561198126709382,"connected_time":445000000000,"state":"active","ping":79},{"user_id":450,"name":"The Professor","steam_id":76561198113760863,"connected_time":16446000000000,"state":"active","ping":60},{"user_id":651,"name":"Villenova","steam_id":76561198073606416,"connected_time":1007000000000,"state":"active","ping":92},{"user_id":655,"name":"CupFruit","steam_id":76561198983993193,"connected_time":634000000000,"state":"active","ping":74},{"user_id":633,"name":"what a fukkin","steam_id":76561198298442983,"connected_time":3055000000000,"state":"active","ping":99},{"user_id":656,"name":"Tommy Pickles (Very Cool)","steam_id":76561198391261463,"connected_time":553000000000,"state":"active","ping":71},{"user_id":658,"name":"Ham","steam_id":76561198300865208,"connected_time":430000000000,"state":"active","ping":62},{"user_id":635,"name":"chicken pot pie gaming","steam_id":76561198104800182,"connected_time":2938000000000,"state":"active","ping":45},{"user_id":652,"name":"Reznika","steam_id":76561198116144377,"connected_time":1006000000000,"state":"active","ping":72},{"user_id":625,"name":"tgirl swag","steam_id":76561198128164970,"connected_time":3878000000000,"state":"active","ping":105}]},{"server_id":37,"name":"Uncletopia | Chicago | 6 | All Maps","name_short":"chi-6","host":"chi-2.us.uncletopia.com","port":27025,"enabled":true,"region":"us-central","cc":"us","latitude":41.881832,"longitude":-87.62318,"reserved":0,"last_update":"0001-01-01T00:00:00Z","name_a2s":"Uncletopia | Chicago | 6 | All Maps","protocol":17,"map":"koth_suijin","folder":"tf","game":"Team Fortress","app_id":440,"player_count":0,"max_players":24,"Bots":0,"server_type":"Dedicated","server_os":"Linux","password":true,"vac":true,"version":"7961495","steam_id":85568392924866363,"keywords":["cp","nocrits","nodmgspread","uncletopia"],"game_id":440,"stv_port":27026,"stv_name":"Uncletopia | Chicago | 6 | All Maps | STV","players":null},{"server_id":38,"name":"Uncletopia | Chicago | 7 | Stopwatch","name_short":"chi-7","host":"chi-2.us.uncletopia.com","port":27035,"enabled":true,"region":"us-central","cc":"us","latitude":41.881832,"longitude":-87.62318,"reserved":0,"last_update":"0001-01-01T00:00:00Z","name_a2s":"Uncletopia | Chicago | 7 | Stopwatch","protocol":17,"map":"pl_swiftwater_final1","folder":"tf","game":"Team Fortress","app_id":440,"player_count":0,"max_players":24,"Bots":0,"server_type":"Dedicated","server_os":"Linux","password":true,"vac":true,"version":"7961495","steam_id":85568392924866364,"keywords":["nocrits","nodmgspread","payload","uncletopia"],"game_id":440,"stv_port":27036,"stv_name":"Uncletopia | Chicago | 7 | Stopwatch | STV","players":null},{"server_id":39,"name":"Uncletopia | Chicago | 8 | Community","name_short":"chi-8","host":"chi-2.us.uncletopia.com","port":27045,"enabled":true,"region":"us-central","cc":"us","latitude":41.881832,"longitude":-87.62318,"reserved":0,"last_update":"0001-01-01T00:00:00Z","name_a2s":"Uncletopia | Chicago | 8 | Community","protocol":17,"map":"workshop/koth_ramjam_rc1.ugc459778887","folder":"tf","game":"Team Fortress","app_id":440,"player_count":0,"max_players":24,"Bots":0,"server_type":"Dedicated","server_os":"Linux","password":true,"vac":true,"version":"7961495","steam_id":85568392924866365,"keywords":["cp","nocrits","nodmgspread","uncletopia"],"game_id":440,"stv_port":27046,"stv_name":"Uncletopia | Chicago | 8 | Community | STV","players":null},{"server_id":8,"name":"Uncletopia | Dallas | 1 | All Maps","name_short":"dal-1","host":"dal-1.us.uncletopia.com","port":27015,"enabled":true,"region":"us-central","cc":"us","latitude":32.779167,"longitude":-96.80889,"reserved":0,"last_update":"0001-01-01T00:00:00Z","name_a2s":"Uncletopia | Dallas | 1 | All Maps","protocol":17,"map":"ctf_2fort","folder":"tf","game":"Team Fortress","app_id":440,"player_count":0,"max_players":24,"Bots":0,"server_type":"Dedicated","server_os":"Linux","password":true,"vac":true,"version":"7961495","steam_id":85568392924469986,"keywords":["ctf","nocrits","nodmgspread","uncletopia"],"game_id":440,"stv_port":27016,"stv_name":"Uncletopia | Dallas | 1 | All Maps | STV","players":null},{"server_id":108,"name":"Uncletopia | Dallas | 2 | All Maps","name_short":"dal-2","host":"dal-1.us.uncletopia.com","port":27025,"enabled":true,"region":"us-central","cc":"us","latitude":32.779167,"longitude":-96.80889,"reserved":0,"last_update":"0001-01-01T00:00:00Z","name_a2s":"Uncletopia | Dallas | 2 | All Maps","protocol":17,"map":"pl_upward","folder":"tf","game":"Team Fortress","app_id":440,"player_count":24,"max_players":24,"Bots":0,"server_type":"Dedicated","server_os":"Linux","password":true,"vac":true,"version":"7961495","steam_id":85568392924469988,"keywords":["nocrits","nodmgspread","payload","uncletopia"],"game_id":440,"stv_port":27026,"stv_name":"Uncletopia | Dallas | 2 | All Maps | STV","players":[{"user_id":948,"name":"Kamin","steam_id":76561198255299559,"connected_time":891000000000,"state":"active","ping":65},{"user_id":941,"name":"Coolcat","steam_id":76561198180933957,"connected_time":1577000000000,"state":"active","ping":60},{"user_id":904,"name":"dave :3","steam_id":76561198135961731,"connected_time":5269000000000,"state":"active","ping":63},{"user_id":947,"name":"KevilPo","steam_id":76561199244507267,"connected_time":945000000000,"state":"active","ping":94},{"user_id":949,"name":"AnnieM","steam_id":76561199435467297,"connected_time":877000000000,"state":"active","ping":72},{"user_id":950,"name":"Balaka Tonka","steam_id":76561198386395778,"connected_time":875000000000,"state":"active","ping":89},{"user_id":923,"name":"CeLeb144","steam_id":76561199089907740,"connected_time":4260000000000,"state":"active","ping":59},{"user_id":955,"name":"Nurew","steam_id":76561198052589498,"connected_time":628000000000,"state":"active","ping":90},{"user_id":942,"name":"rexelfhcir","steam_id":76561199018207049,"connected_time":1550000000000,"state":"active","ping":78},{"user_id":886,"name":"MaybeMars","steam_id":76561198084736804,"connected_time":6725000000000,"state":"active","ping":84},{"user_id":943,"name":"GangstaPuddin","steam_id":76561198045414782,"connected_time":1397000000000,"state":"active","ping":69},{"user_id":944,"name":"The Senate","steam_id":76561198143882626,"connected_time":1397000000000,"state":"active","ping":118},{"user_id":927,"name":"Kataklysm","steam_id":76561198403653602,"connected_time":3850000000000,"state":"active","ping":88},{"user_id":956,"name":"Kirbothebrony","steam_id":76561198971911330,"connected_time":400000000000,"state":"active","ping":63},{"user_id":952,"name":"\u003e:J","steam_id":76561198353456379,"connected_time":853000000000,"state":"active","ping":61},{"user_id":896,"name":"Vorpas Jabwak","steam_id":76561198112186064,"connected_time":5873000000000,"state":"active","ping":74},{"user_id":901,"name":"Barress","steam_id":76561198011728743,"connected_time":5544000000000,"state":"active","ping":74},{"user_id":953,"name":"Pixelated Pussy","steam_id":76561198002511088,"connected_time":780000000000,"state":"active","ping":86},{"user_id":938,"name":"Kenku","steam_id":76561199086762926,"connected_time":2331000000000,"state":"active","ping":62},{"user_id":928,"name":"Generator","steam_id":76561198011762257,"connected_time":3837000000000,"state":"active","ping":118},{"user_id":957,"name":"Loopless","steam_id":76561199000798818,"connected_time":399000000000,"state":"active","ping":105},{"user_id":958,"name":"Spy has a gun","steam_id":76561198061610985,"connected_time":390000000000,"state":"active","ping":115},{"user_id":959,"name":"Pixel","steam_id":76561198076564393,"connected_time":384000000000,"state":"active","ping":90},{"user_id":936,"name":"Milk T34","steam_id":76561198116115227,"connected_time":3319000000000,"state":"active","ping":82}]},{"server_id":404,"name":"Uncletopia | Dallas | 3 | All Maps","name_short":"dal-3","host":"dal-1.us.uncletopia.com","port":27035,"enabled":true,"region":"us-central","cc":"us","latitude":32.779167,"longitude":-96.80889,"reserved":0,"last_update":"0001-01-01T00:00:00Z","name_a2s":"Uncletopia | Dallas | 3 | All Maps","protocol":17,"map":"pl_frontier_final","folder":"tf","game":"Team Fortress","app_id":440,"player_count":0,"max_players":24,"Bots":0,"server_type":"Dedicated","server_os":"Linux","password":true,"vac":true,"version":"7961495","steam_id":85568392924515219,"keywords":["nocrits","nodmgspread","payload","uncletopia"],"game_id":440,"stv_port":27036,"stv_name":"Uncletopia | Dallas | 3 | All Maps | STV","players":null},{"server_id":405,"name":"Uncletopia | Dallas | 4 | Community","name_short":"dal-4","host":"dal-1.us.uncletopia.com","port":27045,"enabled":true,"region":"us-central","cc":"us","latitude":32.779167,"longitude":-96.80889,"reserved":0,"last_update":"0001-01-01T00:00:00Z","name_a2s":"Uncletopia | Dallas | 4 | Community","protocol":17,"map":"workshop/cp_hazyfort_rc6.ugc1365963729","folder":"tf","game":"Team Fortress","app_id":440,"player_count":0,"max_players":24,"Bots":0,"server_type":"Dedicated","server_os":"Linux","password":true,"vac":true,"version":"7961495","steam_id":85568392924515220,"keywords":["cp","nocrits","nodmgspread","uncletopia"],"game_id":440,"stv_port":27046,"stv_name":"Uncletopia | Dallas | 4 | Community | STV","players":null},{"server_id":5,"name":"Uncletopia | Frankfurt | 1 | All Maps","name_short":"frk-1","host":"frk-1.de.uncletopia.com","port":27015,"enabled":true,"region":"eu","cc":"de","latitude":50.110924,"longitude":8.682127,"reserved":0,"last_update":"0001-01-01T00:00:00Z","name_a2s":"Uncletopia | Frankfurt | 1 | All Maps","protocol":17,"map":"pl_badwater","folder":"tf","game":"Team Fortress","app_id":440,"player_count":24,"max_players":24,"Bots":0,"server_type":"Dedicated","server_os":"Linux","password":true,"vac":true,"version":"7961495","steam_id":85568392924469989,"keywords":["nocrits","nodmgspread","payload","uncletopia"],"game_id":440,"stv_port":27016,"stv_name":"Uncletopia | Frankfurt | 1 | All Maps | STV","players":[{"user_id":70,"name":"joey claire","steam_id":76561198846486775,"connected_time":1995000000000,"state":"active","ping":47},{"user_id":83,"name":"Amandus","steam_id":76561198036281079,"connected_time":1235000000000,"state":"active","ping":59},{"user_id":60,"name":"ramedlaV^^","steam_id":76561198074352339,"connected_time":3585000000000,"state":"active","ping":69},{"user_id":75,"name":"DOME","steam_id":76561198085155381,"connected_time":1953000000000,"state":"active","ping":65},{"user_id":100,"name":"Ixion","steam_id":76561198041660675,"connected_time":171000000000,"state":"active","ping":75},{"user_id":98,"name":"BITCH!!!!!!!!! :3 ^_^","steam_id":76561198311044984,"connected_time":260000000000,"state":"active","ping":62},{"user_id":81,"name":"PANAANI","steam_id":76561198322322739,"connected_time":1680000000000,"state":"active","ping":87},{"user_id":76,"name":"Darim","steam_id":76561198097062529,"connected_time":1933000000000,"state":"active","ping":131},{"user_id":82,"name":"MIGHTY PISS","steam_id":76561198226378616,"connected_time":1627000000000,"state":"active","ping":83},{"user_id":77,"name":"M7MD3BD0","steam_id":76561199072750769,"connected_time":1929000000000,"state":"active","ping":159},{"user_id":97,"name":"rubn","steam_id":76561198119586410,"connected_time":343000000000,"state":"active","ping":64},{"user_id":88,"name":"grawioli","steam_id":76561198255779964,"connected_time":1082000000000,"state":"active","ping":67},{"user_id":79,"name":"GMsU | Rebikas","steam_id":76561198077053764,"connected_time":1909000000000,"state":"active","ping":40},{"user_id":80,"name":"‚òÅ Laz","steam_id":76561197978099948,"connected_time":1722000000000,"state":"active","ping":59},{"user_id":94,"name":"Jouppi","steam_id":76561198063725468,"connected_time":433000000000,"state":"active","ping":100},{"user_id":93,"name":"insanitY","steam_id":76561198055666742,"connected_time":708000000000,"state":"active","ping":91},{"user_id":96,"name":"Soulman25 (FIN)","steam_id":76561198103611974,"connected_time":404000000000,"state":"active","ping":79},{"user_id":68,"name":"FNF","steam_id":76561199151422826,"connected_time":2335000000000,"state":"active","ping":129},{"user_id":99,"name":"Largo","steam_id":76561198844368927,"connected_time":254000000000,"state":"active","ping":65},{"user_id":87,"name":"monocle chicken","steam_id":76561199020106029,"connected_time":1094000000000,"state":"active","ping":113},{"user_id":86,"name":"Bill Clinton","steam_id":76561198060011032,"connected_time":1107000000000,"state":"active","ping":63},{"user_id":89,"name":"Joo ‚ô¶","steam_id":76561197987609203,"connected_time":1077000000000,"state":"active","ping":74},{"user_id":73,"name":"Laki","steam_id":76561198126078953,"connected_time":1992000000000,"state":"active","ping":83},{"user_id":74,"name":"Sunbro_·õâ","steam_id":76561197997453676,"connected_time":1991000000000,"state":"active","ping":87}]},{"server_id":110,"name":"Uncletopia | Frankfurt | 2 | All Maps","name_short":"frk-2","host":"frk-1.de.uncletopia.com","port":27025,"enabled":true,"region":"eu","cc":"de","latitude":50.110924,"longitude":8.682127,"reserved":0,"last_update":"0001-01-01T00:00:00Z","name_a2s":"Uncletopia | Frankfurt | 2 | All Maps","protocol":17,"map":"koth_highpass","folder":"tf","game":"Team Fortress","app_id":440,"player_count":0,"max_players":24,"Bots":0,"server_type":"Dedicated","server_os":"Linux","password":true,"vac":true,"version":"7961495","steam_id":85568392924469990,"keywords":["cp","nocrits","nodmgspread","uncletopia"],"game_id":440,"stv_port":27026,"stv_name":"Uncletopia | Frankfurt | 2 | All Maps | STV","players":null},{"server_id":308,"name":"Uncletopia | Frankfurt | 3 | All Maps","name_short":"frk-3","host":"frk-1.de.uncletopia.com","port":27035,"enabled":true,"region":"eu","cc":"de","latitude":50.110924,"longitude":8.682127,"reserved":0,"last_update":"0001-01-01T00:00:00Z","name_a2s":"Uncletopia | Frankfurt | 3 | All Maps","protocol":17,"map":"pl_frontier_final","folder":"tf","game":"Team Fortress","app_id":440,"player_count":0,"max_players":24,"Bots":0,"server_type":"Dedicated","server_os":"Linux","password":true,"vac":true,"version":"7961495","steam_id":85568392924504274,"keywords":["nocrits","nodmgspread","payload","uncletopia"],"game_id":440,"stv_port":27036,"stv_name":"Uncletopia | Frankfurt | 3 | All Maps | STV","players":null},{"server_id":309,"name":"Uncletopia | Frankfurt | 4 | All Maps","name_short":"frk-4","host":"frk-1.de.uncletopia.com","port":27045,"enabled":true,"region":"eu","cc":"de","latitude":50.110924,"longitude":8.682127,"reserved":0,"last_update":"0001-01-01T00:00:00Z","name_a2s":"Uncletopia | Frankfurt | 4 | All Maps","protocol":17,"map":"koth_highpass","folder":"tf","game":"Team Fortress","app_id":440,"player_count":0,"max_players":24,"Bots":0,"server_type":"Dedicated","server_os":"Linux","password":true,"vac":true,"version":"7961495","steam_id":85568392924504275,"keywords":["cp","nocrits","nodmgspread","uncletopia"],"game_id":440,"stv_port":27046,"stv_name":"Uncletopia | Frankfurt | 4 | All Maps | STV","players":null},{"server_id":310,"name":"Uncletopia | Frankfurt | 5 | All Maps","name_short":"frk-5","host":"frk-1.de.uncletopia.com","port":27055,"enabled":true,"region":"eu","cc":"de","latitude":50.110924,"longitude":8.682127,"reserved":0,"last_update":"0001-01-01T00:00:00Z","name_a2s":"Uncletopia | Frankfurt | 5 | All Maps","protocol":17,"map":"pl_badwater","folder":"tf","game":"Team Fortress","app_id":440,"player_count":0,"max_players":24,"Bots":0,"server_type":"Dedicated","server_os":"Linux","password":true,"vac":true,"version":"7961495","steam_id":85568392924504277,"keywords":["nocrits","nodmgspread","payload","uncletopia"],"game_id":440,"stv_port":27056,"stv_name":"Uncletopia | Frankfurt | 5 | All Maps | STV","players":null},{"server_id":311,"name":"Uncletopia | Frankfurt | 6 | All Maps","name_short":"frk-6","host":"frk-1.de.uncletopia.com","port":27065,"enabled":true,"region":"eu","cc":"de","latitude":50.110924,"longitude":8.682127,"reserved":0,"last_update":"0001-01-01T00:00:00Z","name_a2s":"Uncletopia | Frankfurt | 6 | All Maps","protocol":17,"map":"cp_altitude","folder":"tf","game":"Team Fortress","app_id":440,"player_count":0,"max_players":24,"Bots":0,"server_type":"Dedicated","server_os":"Linux","password":true,"vac":true,"version":"7961495","steam_id":85568392924504278,"keywords":["cp","nocrits","nodmgspread","uncletopia"],"game_id":440,"stv_port":27066,"stv_name":"Uncletopia | Frankfurt | 6 | All Maps | STV","players":null},{"server_id":23,"name":"Uncletopia | Frankfurt | 7 | Stopwatch","name_short":"frk-7","host":"frk-1.de.uncletopia.com","port":27075,"enabled":true,"region":"eu","cc":"de","latitude":50.110924,"longitude":8.682127,"reserved":0,"last_update":"0001-01-01T00:00:00Z","name_a2s":"Uncletopia | Frankfurt | 7 | Stopwatch","protocol":17,"map":"pl_frontier_final","folder":"tf","game":"Team Fortress","app_id":440,"player_count":0,"max_players":24,"Bots":0,"server_type":"Dedicated","server_os":"Linux","password":true,"vac":true,"version":"7961495","steam_id":85568392924742827,"keywords":["nocrits","nodmgspread","payload","uncletopia"],"game_id":440,"stv_port":27076,"stv_name":"Uncletopia | Frankfurt | 7 | Stopwatch | STV","players":null},{"server_id":24,"name":"Uncletopia | Frankfurt | 8 | Community","name_short":"frk-8","host":"frk-1.de.uncletopia.com","port":27085,"enabled":true,"region":"eu","cc":"de","latitude":50.110924,"longitude":8.682127,"reserved":0,"last_update":"0001-01-01T00:00:00Z","name_a2s":"Uncletopia | Frankfurt | 8 | Community","protocol":17,"map":"cp_mountainlab","folder":"tf","game":"Team Fortress","app_id":440,"player_count":0,"max_players":24,"Bots":0,"server_type":"Dedicated","server_os":"Linux","password":true,"vac":true,"version":"7961495","steam_id":85568392924742828,"keywords":["cp","nocrits","nodmgspread","uncletopia"],"game_id":440,"stv_port":27086,"stv_name":"Uncletopia | Frankfurt | 8 | Community | STV","players":null},{"server_id":202,"name":"Uncletopia | Hong Kong | 1 | All Maps","name_short":"hgk-1","host":"hgk-1.hk.uncletopia.com","port":27015,"enabled":true,"region":"asia","cc":"hk","latitude":22.302711,"longitude":114.177216,"reserved":0,"last_update":"0001-01-01T00:00:00Z","name_a2s":"Uncletopia | Hong Kong | 1 | All Maps","protocol":17,"map":"pl_frontier_final","folder":"tf","game":"Team Fortress","app_id":440,"player_count":24,"max_players":24,"Bots":0,"server_type":"Dedicated","server_os":"Linux","password":true,"vac":true,"version":"7961495","steam_id":85568392924494504,"keywords":["nocrits","nodmgspread","payload","uncletopia"],"game_id":440,"stv_port":27016,"stv_name":"Uncletopia | Hong Kong | 1 | All Maps | STV","players":[{"user_id":82,"name":"mari","steam_id":76561198991275263,"connected_time":210000000000,"state":"active","ping":88},{"user_id":18,"name":"ÍπÄÍ¥ëÎßå","steam_id":76561198295279503,"connected_time":7437000000000,"state":"active","ping":83},{"user_id":79,"name":"piston","steam_id":76561198992723983,"connected_time":895000000000,"state":"active","ping":98},{"user_id":86,"name":"SPAHS Kun San Chan Senpai Sama","steam_id":76561198283390109,"connected_time":28000000000,"state":"spawning","ping":44},{"user_id":65,"name":"marisaloses","steam_id":76561199033032870,"connected_time":2880000000000,"state":"active","ping":119},{"user_id":81,"name":"killman47","steam_id":76561198348487408,"connected_time":222000000000,"state":"active","ping":41},{"user_id":57,"name":"xPhid","steam_id":76561199080808930,"connected_time":4474000000000,"state":"active","ping":87},{"user_id":80,"name":"corpse_cadaver","steam_id":76561199225360457,"connected_time":868000000000,"state":"active","ping":80},{"user_id":66,"name":"Mystery cheese üßÄ","steam_id":76561198304002409,"connected_time":2842000000000,"state":"active","ping":81},{"user_id":31,"name":"brizzard","steam_id":76561198048438653,"connected_time":5908000000000,"state":"active","ping":53},{"user_id":54,"name":"Hanta","steam_id":76561199031390218,"connected_time":4909000000000,"state":"active","ping":112},{"user_id":34,"name":"MS PowerPoint","steam_id":76561198369523192,"connected_time":5823000000000,"state":"active","ping":66},{"user_id":85,"name":"Dell Conagher","steam_id":76561198853001370,"connected_time":191000000000,"state":"active","ping":61},{"user_id":58,"name":"water tastes good","steam_id":76561199375947670,"connected_time":4309000000000,"state":"active","ping":62},{"user_id":39,"name":"Ivy","steam_id":76561198400698408,"connected_time":5717000000000,"state":"active","ping":92},{"user_id":60,"name":"Lu","steam_id":76561198320532821,"connected_time":3479000000000,"state":"active","ping":67},{"user_id":61,"name":"Â∏ï","steam_id":76561198439343999,"connected_time":3443000000000,"state":"active","ping":86},{"user_id":59,"name":"i am a F2P and my aim is shit","steam_id":76561199475974790,"connected_time":4027000000000,"state":"active","ping":89},{"user_id":43,"name":"quasarlords","steam_id":76561199076224451,"connected_time":5514000000000,"state":"active","ping":101},{"user_id":48,"name":"bad player","steam_id":76561198113401862,"connected_time":5336000000000,"state":"active","ping":94},{"user_id":77,"name":"„ÄåÂÜ∞Ê∑áÊ∑ã„ÄçDashinix","steam_id":76561198129263849,"connected_time":1570000000000,"state":"active","ping":84},{"user_id":50,"name":"noob pyro of all time","steam_id":76561198074339034,"connected_time":5238000000000,"state":"active","ping":79},{"user_id":71,"name":"screaming sniper","steam_id":76561199085568674,"connected_time":1782000000000,"state":"active","ping":73},{"user_id":83,"name":"Samoyed","steam_id":76561198299150410,"connected_time":210000000000,"state":"active","ping":77}]},{"server_id":1,"name":"Uncletopia | Los Angeles | 1 | All Maps","name_short":"lax-1","host":"lax-1.us.uncletopia.com","port":27015,"enabled":true,"region":"us-west","cc":"us","latitude":33.94279,"longitude":-118.41004,"reserved":0,"last_update":"0001-01-01T00:00:00Z","name_a2s":"Uncletopia | Los Angeles | 1 | All Maps","protocol":17,"map":"pl_badwater","folder":"tf","game":"Team Fortress","app_id":440,"player_count":24,"max_players":24,"Bots":0,"server_type":"Dedicated","server_os":"Linux","password":true,"vac":true,"version":"7961495","steam_id":85568392924469991,"keywords":["nocrits","nodmgspread","payload","uncletopia"],"game_id":440,"stv_port":27016,"stv_name":"Uncletopia | Los Angeles | 1 | All Maps | STV","players":[{"user_id":319,"name":"Cat on the Moon","steam_id":76561198272661627,"connected_time":5478000000000,"state":"active","ping":46},{"user_id":378,"name":"phoonwax","steam_id":76561198433114405,"connected_time":763000000000,"state":"active","ping":59},{"user_id":306,"name":"Drone #0432 (they/it)","steam_id":76561198027321950,"connected_time":6379000000000,"state":"active","ping":97},{"user_id":369,"name":"broge","steam_id":76561198110002068,"connected_time":1007000000000,"state":"active","ping":45},{"user_id":385,"name":"KrylonHeretic","steam_id":76561198139811459,"connected_time":241000000000,"state":"active","ping":71},{"user_id":353,"name":"Turr√≥n","steam_id":76561198272381217,"connected_time":2247000000000,"state":"active","ping":51},{"user_id":347,"name":"Puskinti","steam_id":76561198032120688,"connected_time":2521000000000,"state":"active","ping":90},{"user_id":356,"name":"Faber","steam_id":76561198156982075,"connected_time":2074000000000,"state":"active","ping":69},{"user_id":386,"name":"RC","steam_id":76561198048127881,"connected_time":220000000000,"state":"active","ping":45},{"user_id":380,"name":"times table","steam_id":76561198341452558,"connected_time":598000000000,"state":"active","ping":66},{"user_id":357,"name":"Ice","steam_id":76561198045076794,"connected_time":2064000000000,"state":"active","ping":96},{"user_id":372,"name":"Meiji","steam_id":76561198971753591,"connected_time":947000000000,"state":"active","ping":112},{"user_id":391,"name":"FI LO","steam_id":76561198976530881,"connected_time":60000000000,"state":"active","ping":30},{"user_id":387,"name":"Composite","steam_id":76561198142219153,"connected_time":219000000000,"state":"active","ping":71},{"user_id":375,"name":"Beavis","steam_id":76561197970619638,"connected_time":914000000000,"state":"active","ping":49},{"user_id":376,"name":"Creature","steam_id":76561198194585781,"connected_time":910000000000,"state":"active","ping":54},{"user_id":382,"name":"ManOfChicken","steam_id":76561198085705161,"connected_time":587000000000,"state":"active","ping":56},{"user_id":362,"name":"jfrizzle420","steam_id":76561198105544691,"connected_time":1673000000000,"state":"active","ping":116},{"user_id":363,"name":"baedeker","steam_id":76561199081837220,"connected_time":1600000000000,"state":"active","ping":98},{"user_id":392,"name":"Scrambled Eggs","steam_id":76561198169915227,"connected_time":12000000000,"state":"spawning","ping":66},{"user_id":383,"name":"The Code","steam_id":76561198031117015,"connected_time":582000000000,"state":"active","ping":66},{"user_id":388,"name":"Sweater-Fan","steam_id":76561199389567214,"connected_time":204000000000,"state":"active","ping":107},{"user_id":389,"name":"THIRDPIERCE","steam_id":76561198405366314,"connected_time":123000000000,"state":"active","ping":91},{"user_id":390,"name":"phoon","steam_id":76561198047111528,"connected_time":122000000000,"state":"active","ping":49}]},{"server_id":112,"name":"Uncletopia | Los Angeles | 2 | All Maps","name_short":"lax-2","host":"lax-1.us.uncletopia.com","port":27025,"enabled":true,"region":"us-west","cc":"us","latitude":33.94279,"longitude":-118.41004,"reserved":0,"last_update":"0001-01-01T00:00:00Z","name_a2s":"Uncletopia | Los Angeles | 2 | All Maps","protocol":17,"map":"pl_hoodoo_final","folder":"tf","game":"Team Fortress","app_id":440,"player_count":4,"max_players":24,"Bots":0,"server_type":"Dedicated","server_os":"Linux","password":true,"vac":true,"version":"7961495","steam_id":85568392924469992,"keywords":["nocrits","nodmgspread","payload","uncletopia"],"game_id":440,"stv_port":27026,"stv_name":"Uncletopia | Los Angeles | 2 | All Maps | STV","players":[{"user_id":680,"name":"A_Un1t_0","steam_id":76561197966223353,"connected_time":8656000000000,"state":"active","ping":37},{"user_id":766,"name":"Luna Crying","steam_id":76561198152593322,"connected_time":64000000000,"state":"active","ping":37},{"user_id":759,"name":"Psycho Raptor","steam_id":76561198325853767,"connected_time":1364000000000,"state":"active","ping":80},{"user_id":761,"name":"Super Saiyan Bear","steam_id":76561198063118280,"connected_time":1261000000000,"state":"active","ping":57}]},{"server_id":324,"name":"Uncletopia | Los Angeles | 3 | All Maps","name_short":"lax-3","host":"lax-1.us.uncletopia.com","port":27035,"enabled":true,"region":"us-west","cc":"us","latitude":33.94279,"longitude":-118.41004,"reserved":0,"last_update":"0001-01-01T00:00:00Z","name_a2s":"Uncletopia | Los Angeles | 3 | All Maps","protocol":17,"map":"koth_cascade","folder":"tf","game":"Team Fortress","app_id":440,"player_count":0,"max_players":24,"Bots":0,"server_type":"Dedicated","server_os":"Linux","password":true,"vac":true,"version":"7961495","steam_id":85568392924510198,"keywords":["cp","nocrits","nodmgspread","uncletopia"],"game_id":440,"stv_port":27036,"stv_name":"Uncletopia | Los Angeles | 3 | All Maps | STV","players":null},{"server_id":25,"name":"Uncletopia | Los Angeles | 4 | Stopwatch","name_short":"lax-4","host":"lax-1.us.uncletopia.com","port":27045,"enabled":true,"region":"us-west","cc":"us","latitude":33.94279,"longitude":-118.41004,"reserved":0,"last_update":"0001-01-01T00:00:00Z","name_a2s":"Uncletopia | Los Angeles | 4 | Stopwatch","protocol":17,"map":"koth_lakeside_final","folder":"tf","game":"Team Fortress","app_id":440,"player_count":0,"max_players":24,"Bots":0,"server_type":"Dedicated","server_os":"Linux","password":true,"vac":true,"version":"7961495","steam_id":85568392924510199,"keywords":["cp","nocrits","nodmgspread","uncletopia"],"game_id":440,"stv_port":27046,"stv_name":"Uncletopia | Los Angeles | 4 | Stopwatch | STV","players":null},{"server_id":11,"name":"Uncletopia | London | 1 | All Maps","name_short":"lon-1","host":"lon-1.uk.uncletopia.com","port":27015,"enabled":true,"region":"eu","cc":"gb","latitude":51.509865,"longitude":-0.118092,"reserved":0,"last_update":"0001-01-01T00:00:00Z","name_a2s":"Uncletopia | London | 1 | All Maps","protocol":17,"map":"cp_altitude","folder":"tf","game":"Team Fortress","app_id":440,"player_count":12,"max_players":24,"Bots":0,"server_type":"Dedicated","server_os":"Linux","password":true,"vac":true,"version":"7961495","steam_id":85568392924367362,"keywords":["cp","nocrits","nodmgspread","uncletopia"],"game_id":440,"stv_port":27016,"stv_name":"Uncletopia | London | 1 | All Maps | STV","players":[{"user_id":8,"name":"MrXtr","steam_id":76561198966247397,"connected_time":1835000000000,"state":"active","ping":78},{"user_id":12,"name":"SaSSolino","steam_id":76561198011308018,"connected_time":1197000000000,"state":"active","ping":67},{"user_id":13,"name":"dumbest spy main alive","steam_id":76561199195985387,"connected_time":1116000000000,"state":"active","ping":95},{"user_id":14,"name":"milo","steam_id":76561198119016918,"connected_time":1109000000000,"state":"active","ping":60},{"user_id":15,"name":"Mabert","steam_id":76561198436058407,"connected_time":935000000000,"state":"active","ping":83},{"user_id":19,"name":"Well","steam_id":76561198411337640,"connected_time":388000000000,"state":"active","ping":97},{"user_id":17,"name":"Janfors","steam_id":76561198874152503,"connected_time":775000000000,"state":"active","ping":89},{"user_id":18,"name":"Œπ‚Ñì—ÉŒ±—è—ï‚ÑìŒ±ŒΩ","steam_id":76561198352696821,"connected_time":759000000000,"state":"active","ping":71},{"user_id":23,"name":"Luke SpyWalker","steam_id":76561198008643276,"connected_time":91000000000,"state":"active","ping":71},{"user_id":21,"name":"idk(new sens i suck)","steam_id":76561198445042523,"connected_time":372000000000,"state":"active","ping":103},{"user_id":22,"name":"Goliac","steam_id":76561198165205268,"connected_time":277000000000,"state":"active","ping":96},{"user_id":24,"name":"Praskaton1905","steam_id":76561199086026716,"connected_time":71000000000,"state":"active","ping":87}]},{"server_id":114,"name":"Uncletopia | London | 2 | All Maps","name_short":"lon-2","host":"lon-1.uk.uncletopia.com","port":27025,"enabled":true,"region":"eu","cc":"gb","latitude":51.509865,"longitude":-0.118092,"reserved":0,"last_update":"0001-01-01T00:00:00Z","name_a2s":"Uncletopia | London | 2 | All Maps","protocol":17,"map":"koth_lakeside_final","folder":"tf","game":"Team Fortress","app_id":440,"player_count":0,"max_players":24,"Bots":0,"server_type":"Dedicated","server_os":"Linux","password":true,"vac":true,"version":"7961495","steam_id":85568392924470941,"keywords":["cp","nocrits","nodmgspread","uncletopia"],"game_id":440,"stv_port":27026,"stv_name":"Uncletopia | London | 2 | All Maps | STV","players":null},{"server_id":320,"name":"Uncletopia | London | 3 | All Maps","name_short":"lon-3","host":"lon-1.uk.uncletopia.com","port":27035,"enabled":true,"region":"eu","cc":"gb","latitude":51.509865,"longitude":-0.118092,"reserved":0,"last_update":"0001-01-01T00:00:00Z","name_a2s":"Uncletopia | London | 3 | All Maps","protocol":17,"map":"cp_process_final","folder":"tf","game":"Team Fortress","app_id":440,"player_count":0,"max_players":24,"Bots":0,"server_type":"Dedicated","server_os":"Linux","password":true,"vac":true,"version":"7961495","steam_id":85568392924510192,"keywords":["cp","nocrits","nodmgspread","uncletopia"],"game_id":440,"stv_port":27036,"stv_name":"Uncletopia | London | 3 | All Maps | STV","players":null},{"server_id":321,"name":"Uncletopia | London | 4 | All Maps","name_short":"lon-4","host":"lon-1.uk.uncletopia.com","port":27045,"enabled":true,"region":"eu","cc":"gb","latitude":51.509865,"longitude":-0.118092,"reserved":0,"last_update":"0001-01-01T00:00:00Z","name_a2s":"Uncletopia | London | 4 | All Maps","protocol":17,"map":"koth_cascade","folder":"tf","game":"Team Fortress","app_id":440,"player_count":0,"max_players":24,"Bots":0,"server_type":"Dedicated","server_os":"Linux","password":true,"vac":true,"version":"7961495","steam_id":85568392924510193,"keywords":["cp","nocrits","nodmgspread","uncletopia"],"game_id":440,"stv_port":27046,"stv_name":"Uncletopia | London | 4 | All Maps | STV","players":null},{"server_id":21,"name":"Uncletopia | London | 5 | All Maps","name_short":"lon-5","host":"lon-1.uk.uncletopia.com","port":27055,"enabled":true,"region":"eu","cc":"gb","latitude":51.509865,"longitude":-0.118092,"reserved":0,"last_update":"0001-01-01T00:00:00Z","name_a2s":"Uncletopia | London | 5 | All Maps","protocol":17,"map":"koth_lakeside_final","folder":"tf","game":"Team Fortress","app_id":440,"player_count":0,"max_players":24,"Bots":0,"server_type":"Dedicated","server_os":"Linux","password":true,"vac":true,"version":"7961495","steam_id":85568392924742829,"keywords":["cp","nocrits","nodmgspread","uncletopia"],"game_id":440,"stv_port":27056,"stv_name":"Uncletopia | London | 5 | All Maps | STV","players":null},{"server_id":22,"name":"Uncletopia | London | 6 | All Maps","name_short":"lon-6","host":"lon-1.uk.uncletopia.com","port":27065,"enabled":true,"region":"eu","cc":"gb","latitude":51.509865,"longitude":-0.118092,"reserved":0,"last_update":"0001-01-01T00:00:00Z","name_a2s":"Uncletopia | London | 6 | All Maps","protocol":17,"map":"pl_upward","folder":"tf","game":"Team Fortress","app_id":440,"player_count":0,"max_players":24,"Bots":0,"server_type":"Dedicated","server_os":"Linux","password":true,"vac":true,"version":"7961495","steam_id":85568392924742830,"keywords":["nocrits","nodmgspread","payload","uncletopia"],"game_id":440,"stv_port":27066,"stv_name":"Uncletopia | London | 6 | All Maps | STV","players":null},{"server_id":40,"name":"Uncletopia | London | 7 | Stopwatch","name_short":"lon-7","host":"lon-1.uk.uncletopia.com","port":27075,"enabled":true,"region":"eu","cc":"gb","latitude":51.509865,"longitude":-0.118092,"reserved":0,"last_update":"0001-01-01T00:00:00Z","name_a2s":"Uncletopia | London | 7 | Stopwatch","protocol":17,"map":"koth_highpass","folder":"tf","game":"Team Fortress","app_id":440,"player_count":0,"max_players":24,"Bots":0,"server_type":"Dedicated","server_os":"Linux","password":true,"vac":true,"version":"7961495","steam_id":85568392924964314,"keywords":["cp","nocrits","nodmgspread","uncletopia"],"game_id":440,"stv_port":27076,"stv_name":"Uncletopia | London | 7 | Stopwatch | STV","players":null},{"server_id":41,"name":"Uncletopia | London | 8 | Community","name_short":"lon-8","host":"lon-1.uk.uncletopia.com","port":27085,"enabled":true,"region":"eu","cc":"gb","latitude":51.509865,"longitude":-0.118092,"reserved":0,"last_update":"0001-01-01T00:00:00Z","name_a2s":"Uncletopia | London | 8 | Community","protocol":17,"map":"workshop/cp_indulge.ugc528106646","folder":"tf","game":"Team Fortress","app_id":440,"player_count":0,"max_players":24,"Bots":0,"server_type":"Dedicated","server_os":"Linux","password":true,"vac":true,"version":"7961495","steam_id":85568392924964315,"keywords":["cp","nocrits","nodmgspread","uncletopia"],"game_id":440,"stv_port":27086,"stv_name":"Uncletopia | London | 8 | Community | STV","players":null},{"server_id":300,"name":"Uncletopia | Montr√©al | 1 | One Thousand Uncles","name_short":"mtl-1","host":"mtl-1.ca.uncletopia.com","port":27015,"enabled":true,"region":"us-east","cc":"ca","latitude":45.50889,"longitude":-73.56167,"reserved":0,"last_update":"0001-01-01T00:00:00Z","name_a2s":"","protocol":0,"map":"","folder":"","game":"","app_id":0,"player_count":6,"max_players":0,"Bots":0,"server_type":"","server_os":"","password":false,"vac":false,"version":"","steam_id":0,"keywords":null,"game_id":0,"stv_port":0,"stv_name":"","players":[{"user_id":161,"name":"Gloom Boi","steam_id":76561198812747709,"connected_time":274000000000,"state":"active","ping":156},{"user_id":152,"name":"Bren20225","steam_id":76561198174421550,"connected_time":4027000000000,"state":"active","ping":77},{"user_id":154,"name":"eepy kitty uwu","steam_id":76561198106313563,"connected_time":3408000000000,"state":"active","ping":75},{"user_id":155,"name":"JustANormalOlive-ia","steam_id":76561198809645656,"connected_time":2350000000000,"state":"active","ping":95},{"user_id":156,"name":"monade","steam_id":76561198101539983,"connected_time":2215000000000,"state":"active","ping":179},{"user_id":157,"name":"Dj_Bear","steam_id":76561198149865187,"connected_time":1990000000000,"state":"active","ping":139}]},{"server_id":301,"name":"Uncletopia | Montr√©al | 2 | One Thousand Uncles","name_short":"mtl-2","host":"mtl-1.ca.uncletopia.com","port":27025,"enabled":true,"region":"us-east","cc":"ca","latitude":45.50889,"longitude":-73.56167,"reserved":0,"last_update":"0001-01-01T00:00:00Z","name_a2s":"","protocol":0,"map":"","folder":"","game":"","app_id":0,"player_count":0,"max_players":0,"Bots":0,"server_type":"","server_os":"","password":false,"vac":false,"version":"","steam_id":0,"keywords":null,"game_id":0,"stv_port":0,"stv_name":"","players":null},{"server_id":302,"name":"Uncletopia | Montr√©al | 3 | One Thousand Uncles","name_short":"mtl-3","host":"mtl-1.ca.uncletopia.com","port":27035,"enabled":true,"region":"us-east","cc":"ca","latitude":45.50889,"longitude":-73.56167,"reserved":0,"last_update":"0001-01-01T00:00:00Z","name_a2s":"","protocol":0,"map":"","folder":"","game":"","app_id":0,"player_count":0,"max_players":0,"Bots":0,"server_type":"","server_os":"","password":false,"vac":false,"version":"","steam_id":0,"keywords":null,"game_id":0,"stv_port":0,"stv_name":"","players":null},{"server_id":13,"name":"Uncletopia | New York City | 1 | All Maps","name_short":"nyc-1","host":"nyc-1.us.uncletopia.com","port":27015,"enabled":true,"region":"us-east","cc":"us","latitude":40.73061,"longitude":-73.93524,"reserved":0,"last_update":"0001-01-01T00:00:00Z","name_a2s":"Uncletopia | New York City | 1 | All Maps","protocol":17,"map":"plr_hightower","folder":"tf","game":"Team Fortress","app_id":440,"player_count":4,"max_players":24,"Bots":0,"server_type":"Dedicated","server_os":"Linux","password":true,"vac":true,"version":"7961495","steam_id":85568392924469993,"keywords":["nocrits","nodmgspread","payload","uncletopia"],"game_id":440,"stv_port":27016,"stv_name":"Uncletopia | New York City | 1 | All Maps | STV","players":[{"user_id":623,"name":"SpaceSanctum","steam_id":76561198805242305,"connected_time":3935000000000,"state":"active","ping":44},{"user_id":624,"name":"googa","steam_id":76561198133130452,"connected_time":3922000000000,"state":"active","ping":34},{"user_id":625,"name":"mraow","steam_id":76561199200969139,"connected_time":3662000000000,"state":"active","ping":115},{"user_id":627,"name":"Zahar Muhummad Al-Abadi","steam_id":76561198044536529,"connected_time":607000000000,"state":"active","ping":106}]},{"server_id":14,"name":"Uncletopia | New York City | 2 | All Maps","name_short":"nyc-2","host":"nyc-1.us.uncletopia.com","port":27025,"enabled":true,"region":"us-east","cc":"us","latitude":40.73061,"longitude":-73.93524,"reserved":0,"last_update":"0001-01-01T00:00:00Z","name_a2s":"Uncletopia | New York City | 2 | All Maps","protocol":17,"map":"koth_harvest_final","folder":"tf","game":"Team Fortress","app_id":440,"player_count":20,"max_players":24,"Bots":0,"server_type":"Dedicated","server_os":"Linux","password":true,"vac":true,"version":"7961495","steam_id":85568392924469994,"keywords":["cp","nocrits","nodmgspread","uncletopia"],"game_id":440,"stv_port":27026,"stv_name":"Uncletopia | New York City | 2 | All Maps | STV","players":[{"user_id":653,"name":"Team Fartpiss Poo","steam_id":76561199163591880,"connected_time":946000000000,"state":"active","ping":94},{"user_id":659,"name":"Zero","steam_id":76561198179227078,"connected_time":74000000000,"state":"active","ping":117},{"user_id":649,"name":"Krabby","steam_id":76561198038002264,"connected_time":1254000000000,"state":"active","ping":63},{"user_id":646,"name":"Zanartan","steam_id":76561198050528902,"connected_time":1516000000000,"state":"active","ping":173},{"user_id":619,"name":"Therapy Goth","steam_id":76561198048448497,"connected_time":4388000000000,"state":"active","ping":48},{"user_id":610,"name":"Lemoncurry","steam_id":76561198045356414,"connected_time":5849000000000,"state":"active","ping":79},{"user_id":648,"name":"Yummy Kabobz","steam_id":76561198067661705,"connected_time":1302000000000,"state":"active","ping":55},{"user_id":650,"name":"Mafia Boss","steam_id":76561198390343708,"connected_time":1188000000000,"state":"active","ping":80},{"user_id":643,"name":"Asfedia","steam_id":76561199386836351,"connected_time":1886000000000,"state":"active","ping":133},{"user_id":641,"name":"NecroHash","steam_id":76561198158007618,"connected_time":3095000000000,"state":"active","ping":56},{"user_id":651,"name":"Random","steam_id":76561199116602799,"connected_time":1152000000000,"state":"active","ping":116},{"user_id":654,"name":"sparkyzZ \u003c3","steam_id":76561198120107112,"connected_time":732000000000,"state":"active","ping":135},{"user_id":657,"name":"Auberon","steam_id":76561198097324300,"connected_time":96000000000,"state":"active","ping":45},{"user_id":658,"name":"Always Here for You","steam_id":76561198219252313,"connected_time":86000000000,"state":"active","ping":49},{"user_id":629,"name":"dark108","steam_id":76561198030052475,"connected_time":4039000000000,"state":"active","ping":92},{"user_id":626,"name":"TTVPlumSmug","steam_id":76561198103960265,"connected_time":4194000000000,"state":"active","ping":71},{"user_id":627,"name":"Violet The Derg","steam_id":76561198002525691,"connected_time":4159000000000,"state":"active","ping":115},{"user_id":631,"name":"gretchling","steam_id":76561198046111695,"connected_time":3816000000000,"state":"active","ping":76},{"user_id":562,"name":"cure","steam_id":76561199174450788,"connected_time":10583000000000,"state":"active","ping":93},{"user_id":638,"name":"euph","steam_id":76561199092936721,"connected_time":3367000000000,"state":"active","ping":81}]},{"server_id":15,"name":"Uncletopia | New York City | 3 | Stopwatch","name_short":"nyc-3","host":"nyc-1.us.uncletopia.com","port":27035,"enabled":true,"region":"us-east","cc":"us","latitude":40.73061,"longitude":-73.93524,"reserved":0,"last_update":"0001-01-01T00:00:00Z","name_a2s":"Uncletopia | New York City | 3 | Stopwatch","protocol":17,"map":"workshop/koth_ashville_final.ugc2130459942","folder":"tf","game":"Team Fortress","app_id":440,"player_count":0,"max_players":24,"Bots":0,"server_type":"Dedicated","server_os":"Linux","password":true,"vac":true,"version":"7961495","steam_id":85568392924742820,"keywords":["cp","nocrits","nodmgspread","uncletopia"],"game_id":440,"stv_port":27036,"stv_name":"Uncletopia | New York City | 3 | Stopwatch | STV","players":null},{"server_id":16,"name":"Uncletopia | New York City | 4 | Community","name_short":"nyc-4","host":"nyc-1.us.uncletopia.com","port":27045,"enabled":true,"region":"us-east","cc":"us","latitude":40.73061,"longitude":-73.93524,"reserved":0,"last_update":"0001-01-01T00:00:00Z","name_a2s":"Uncletopia | New York City | 4 | Community","protocol":17,"map":"workshop/rd_asteroid_redux_b1.ugc2154902912","folder":"tf","game":"Team Fortress","app_id":440,"player_count":0,"max_players":24,"Bots":0,"server_type":"Dedicated","server_os":"Linux","password":true,"vac":true,"version":"7961495","steam_id":85568392924742821,"keywords":["beta","nocrits","nodmgspread","rd","uncletopia"],"game_id":440,"stv_port":27046,"stv_name":"Uncletopia | New York City | 4 | Community | STV","players":null},{"server_id":142,"name":"Uncletopia | S√£o Paulo | 1 | All Maps","name_short":"sao-1","host":"sao-1.br.uncletopia.com","port":27015,"enabled":true,"region":"sa","cc":"br","latitude":-23.533773,"longitude":-46.62529,"reserved":0,"last_update":"0001-01-01T00:00:00Z","name_a2s":"Uncletopia | S√£o Paulo | 1 | All Maps","protocol":17,"map":"koth_highpass","folder":"tf","game":"Team Fortress","app_id":440,"player_count":0,"max_players":24,"Bots":0,"server_type":"Dedicated","server_os":"Linux","password":true,"vac":true,"version":"7961495","steam_id":85568392924469996,"keywords":["cp","nocrits","nodmgspread","uncletopia"],"game_id":440,"stv_port":27016,"stv_name":"Uncletopia | S√£o Paulo | 1 | All Maps | STV","players":null},{"server_id":143,"name":"Uncletopia | S√£o Paulo | 2 | Community","name_short":"sao-2","host":"sao-2.br.uncletopia.com","port":27015,"enabled":true,"region":"sa","cc":"br","latitude":-23.533773,"longitude":-46.62529,"reserved":0,"last_update":"0001-01-01T00:00:00Z","name_a2s":"Uncletopia | S√£o Paulo | 2 | Community","protocol":17,"map":"workshop/pl_boundary_final1.ugc456799153","folder":"tf","game":"Team Fortress","app_id":440,"player_count":0,"max_players":24,"Bots":0,"server_type":"Dedicated","server_os":"Linux","password":true,"vac":true,"version":"7961495","steam_id":85568392924485349,"keywords":["nocrits","nodmgspread","payload","uncletopia"],"game_id":440,"stv_port":27016,"stv_name":"Uncletopia | S√£o Paulo | 2 | Community | STV","players":null},{"server_id":7,"name":"Uncletopia | Seattle | 1 | All Maps","name_short":"sea-1","host":"sea-1.us.uncletopia.com","port":27015,"enabled":true,"region":"us-west","cc":"us","latitude":47.608013,"longitude":-122.33517,"reserved":0,"last_update":"0001-01-01T00:00:00Z","name_a2s":"Uncletopia | Seattle | 1 | All Maps","protocol":17,"map":"pl_goldrush","folder":"tf","game":"Team Fortress","app_id":440,"player_count":24,"max_players":24,"Bots":0,"server_type":"Dedicated","server_os":"Linux","password":true,"vac":true,"version":"7961495","steam_id":85568392924469997,"keywords":["nocrits","nodmgspread","payload","uncletopia"],"game_id":440,"stv_port":27016,"stv_name":"Uncletopia | Seattle | 1 | All Maps | STV","players":[{"user_id":376,"name":"Sweets","steam_id":76561198998446307,"connected_time":20905000000000,"state":"active","ping":60},{"user_id":869,"name":"Noah1k","steam_id":76561199428633514,"connected_time":5346000000000,"state":"active","ping":53},{"user_id":877,"name":"[CTC] Dapper","steam_id":76561198103189993,"connected_time":4620000000000,"state":"active","ping":74},{"user_id":879,"name":"ArjayTheWeenie","steam_id":76561198275999294,"connected_time":4608000000000,"state":"active","ping":57},{"user_id":893,"name":"gorlab","steam_id":76561198025089694,"connected_time":2555000000000,"state":"active","ping":66},{"user_id":900,"name":"[CTC] kooldan","steam_id":76561198136593625,"connected_time":1208000000000,"state":"active","ping":146},{"user_id":889,"name":"Nom Skirrett","steam_id":76561198014600788,"connected_time":2574000000000,"state":"active","ping":61},{"user_id":903,"name":"Grandpa Baozhai","steam_id":76561198086667725,"connected_time":1117000000000,"state":"active","ping":47},{"user_id":894,"name":"kill me","steam_id":76561198032625036,"connected_time":2555000000000,"state":"active","ping":59},{"user_id":639,"name":"Lord Hater","steam_id":76561199158148782,"connected_time":16015000000000,"state":"active","ping":59},{"user_id":906,"name":"ThiccJimby","steam_id":76561199122405479,"connected_time":170000000000,"state":"active","ping":46},{"user_id":830,"name":"Zee‚úû","steam_id":76561198274550638,"connected_time":11379000000000,"state":"active","ping":116},{"user_id":809,"name":"NEBULA","steam_id":76561198086878595,"connected_time":13918000000000,"state":"active","ping":74},{"user_id":899,"name":"Uzkad","steam_id":76561198072892937,"connected_time":1220000000000,"state":"active","ping":88},{"user_id":885,"name":"peachy","steam_id":76561198028721790,"connected_time":3481000000000,"state":"active","ping":61},{"user_id":883,"name":"Petey0712","steam_id":76561199401008981,"connected_time":3504000000000,"state":"active","ping":47},{"user_id":910,"name":"Octopus","steam_id":76561198114639980,"connected_time":46000000000,"state":"active","ping":77},{"user_id":897,"name":"Noscope","steam_id":76561198092017151,"connected_time":2116000000000,"state":"active","ping":55},{"user_id":891,"name":"Sploonbabagoosecooties","steam_id":76561198139972201,"connected_time":2569000000000,"state":"active","ping":46},{"user_id":892,"name":"AceSea","steam_id":76561198851176490,"connected_time":2568000000000,"state":"active","ping":57},{"user_id":908,"name":"Grand","steam_id":76561198290143399,"connected_time":137000000000,"state":"active","ping":75},{"user_id":895,"name":"Donny Q","steam_id":76561198020901703,"connected_time":2398000000000,"state":"active","ping":35},{"user_id":898,"name":"gn jorts","steam_id":76561199041179985,"connected_time":1935000000000,"state":"active","ping":57},{"user_id":905,"name":"rushy :))","steam_id":76561198065825165,"connected_time":800000000000,"state":"active","ping":121}]},{"server_id":119,"name":"Uncletopia | Seattle | 2 | All Maps","name_short":"sea-2","host":"sea-1.us.uncletopia.com","port":27025,"enabled":true,"region":"us-west","cc":"us","latitude":47.608013,"longitude":-122.33517,"reserved":0,"last_update":"0001-01-01T00:00:00Z","name_a2s":"Uncletopia | Seattle | 2 | All Maps","protocol":17,"map":"cp_dustbowl","folder":"tf","game":"Team Fortress","app_id":440,"player_count":0,"max_players":24,"Bots":0,"server_type":"Dedicated","server_os":"Linux","password":true,"vac":true,"version":"7961495","steam_id":85568392924469998,"keywords":["cp","nocrits","nodmgspread","uncletopia"],"game_id":440,"stv_port":27026,"stv_name":"Uncletopia | Seattle | 2 | All Maps | STV","players":null},{"server_id":406,"name":"Uncletopia | Seattle | 3 | Stopwatch","name_short":"sea-3","host":"sea-1.us.uncletopia.com","port":27035,"enabled":true,"region":"us-west","cc":"us","latitude":47.608013,"longitude":-122.33517,"reserved":0,"last_update":"0001-01-01T00:00:00Z","name_a2s":"Uncletopia | Seattle | 3 | Stopwatch","protocol":17,"map":"workshop/koth_ashville_final.ugc2130459942","folder":"tf","game":"Team Fortress","app_id":440,"player_count":0,"max_players":24,"Bots":0,"server_type":"Dedicated","server_os":"Linux","password":true,"vac":true,"version":"7961495","steam_id":85568392924515217,"keywords":["cp","nocrits","nodmgspread","uncletopia"],"game_id":440,"stv_port":27036,"stv_name":"Uncletopia | Seattle | 3 | Stopwatch | STV","players":null},{"server_id":17,"name":"Uncletopia | San Francisco | 1 | All Maps","name_short":"sfo-1","host":"sfo-1.us.uncletopia.com","port":27015,"enabled":true,"region":"us-west","cc":"us","latitude":37.77397,"longitude":-122.4313,"reserved":0,"last_update":"0001-01-01T00:00:00Z","name_a2s":"Uncletopia | San Francisco | 1 | All Maps","protocol":17,"map":"koth_brazil","folder":"tf","game":"Team Fortress","app_id":440,"player_count":0,"max_players":24,"Bots":0,"server_type":"Dedicated","server_os":"Linux","password":true,"vac":true,"version":"7961495","steam_id":85568392924469999,"keywords":["cp","nocrits","nodmgspread","uncletopia"],"game_id":440,"stv_port":27016,"stv_name":"Uncletopia | San Francisco | 1 | All Maps | STV","players":null},{"server_id":18,"name":"Uncletopia | San Francisco | 2 | All Maps","name_short":"sfo-2","host":"sfo-1.us.uncletopia.com","port":27025,"enabled":true,"region":"us-west","cc":"us","latitude":37.77397,"longitude":-122.4313,"reserved":0,"last_update":"0001-01-01T00:00:00Z","name_a2s":"Uncletopia | San Francisco | 2 | All Maps","protocol":17,"map":"cp_process_final","folder":"tf","game":"Team Fortress","app_id":440,"player_count":0,"max_players":24,"Bots":0,"server_type":"Dedicated","server_os":"Linux","password":true,"vac":true,"version":"7961495","steam_id":85568392924470000,"keywords":["cp","nocrits","nodmgspread","uncletopia"],"game_id":440,"stv_port":27026,"stv_name":"Uncletopia | San Francisco | 2 | All Maps | STV","players":null},{"server_id":19,"name":"Uncletopia | San Francisco | 3 | Stopwatch","name_short":"sfo-3","host":"sfo-1.us.uncletopia.com","port":27035,"enabled":true,"region":"us-west","cc":"us","latitude":37.77397,"longitude":-122.4313,"reserved":0,"last_update":"0001-01-01T00:00:00Z","name_a2s":"Uncletopia | San Francisco | 3 | Stopwatch","protocol":17,"map":"pl_pier","folder":"tf","game":"Team Fortress","app_id":440,"player_count":0,"max_players":24,"Bots":0,"server_type":"Dedicated","server_os":"Linux","password":true,"vac":true,"version":"7961495","steam_id":85568392924742824,"keywords":["nocrits","nodmgspread","payload","uncletopia"],"game_id":440,"stv_port":27036,"stv_name":"Uncletopia | San Francisco | 3 | Stopwatch | STV","players":null},{"server_id":20,"name":"Uncletopia | San Francisco | 4 | Community","name_short":"sfo-4","host":"sfo-1.us.uncletopia.com","port":27045,"enabled":true,"region":"us-west","cc":"us","latitude":37.77397,"longitude":-122.4313,"reserved":0,"last_update":"0001-01-01T00:00:00Z","name_a2s":"Uncletopia | San Francisco | 4 | Community","protocol":17,"map":"workshop/koth_trenchfoot_ab1.ugc731436616","folder":"tf","game":"Team Fortress","app_id":440,"player_count":0,"max_players":24,"Bots":0,"server_type":"Dedicated","server_os":"Linux","password":true,"vac":true,"version":"7961495","steam_id":85568392924742826,"keywords":["cp","nocrits","nodmgspread","uncletopia"],"game_id":440,"stv_port":27046,"stv_name":"Uncletopia | San Francisco | 4 | Community | STV","players":null},{"server_id":141,"name":"Uncletopia | Sydney | 1 | All Maps","name_short":"syd-1","host":"syd-1.au.uncletopia.com","port":27015,"enabled":true,"region":"au","cc":"au","latitude":-33.865143,"longitude":151.2099,"reserved":0,"last_update":"0001-01-01T00:00:00Z","name_a2s":"Uncletopia | Sydney | 1 | All Maps","protocol":17,"map":"pl_frontier_final","folder":"tf","game":"Team Fortress","app_id":440,"player_count":0,"max_players":24,"Bots":0,"server_type":"Dedicated","server_os":"Linux","password":true,"vac":true,"version":"7961495","steam_id":85568392924470001,"keywords":["nocrits","nodmgspread","payload","uncletopia"],"game_id":440,"stv_port":27016,"stv_name":"Uncletopia | Sydney | 1 | All Maps | STV","players":null},{"server_id":123,"name":"Uncletopia | Sydney | 2 | All Maps","name_short":"syd-2","host":"syd-1.au.uncletopia.com","port":27025,"enabled":true,"region":"au","cc":"au","latitude":-33.865143,"longitude":151.2099,"reserved":0,"last_update":"0001-01-01T00:00:00Z","name_a2s":"Uncletopia | Sydney | 2 | All Maps","protocol":17,"map":"pl_barnblitz","folder":"tf","game":"Team Fortress","app_id":440,"player_count":24,"max_players":24,"Bots":0,"server_type":"Dedicated","server_os":"Linux","password":true,"vac":true,"version":"7961495","steam_id":85568392924470002,"keywords":["nocrits","nodmgspread","payload","uncletopia"],"game_id":440,"stv_port":27026,"stv_name":"Uncletopia | Sydney | 2 | All Maps | STV","players":[{"user_id":206,"name":"saturation","steam_id":76561199457046392,"connected_time":2301000000000,"state":"active","ping":80},{"user_id":221,"name":"HYPER","steam_id":76561198302487295,"connected_time":1081000000000,"state":"active","ping":50},{"user_id":228,"name":"Finios","steam_id":76561198209013071,"connected_time":345000000000,"state":"active","ping":54},{"user_id":224,"name":"Lesser Panda","steam_id":76561198071562881,"connected_time":1041000000000,"state":"active","ping":57},{"user_id":194,"name":"cunning chris","steam_id":76561197972510204,"connected_time":2729000000000,"state":"active","ping":65},{"user_id":213,"name":"Gaunern","steam_id":76561198075411902,"connected_time":1974000000000,"state":"active","ping":60},{"user_id":222,"name":"lavanderpumpernickle","steam_id":76561199093611800,"connected_time":1081000000000,"state":"active","ping":50},{"user_id":196,"name":"Tomboslinger","steam_id":76561199216201591,"connected_time":2687000000000,"state":"active","ping":41},{"user_id":207,"name":"Chrisy","steam_id":76561198092382473,"connected_time":2225000000000,"state":"active","ping":82},{"user_id":181,"name":"Penguinator5000","steam_id":76561198038183553,"connected_time":3585000000000,"state":"active","ping":56},{"user_id":229,"name":"Naturesshadow","steam_id":76561198011837590,"connected_time":65000000000,"state":"active","ping":66},{"user_id":223,"name":"Robotrannic","steam_id":76561198166465998,"connected_time":1079000000000,"state":"active","ping":85},{"user_id":217,"name":"CypressFluff (she/her)","steam_id":76561198174667818,"connected_time":1666000000000,"state":"active","ping":58},{"user_id":151,"name":"sam_tf2_2007","steam_id":76561198069626429,"connected_time":5065000000000,"state":"active","ping":90},{"user_id":187,"name":"adammagee","steam_id":76561197972653972,"connected_time":3068000000000,"state":"active","ping":53},{"user_id":219,"name":"sheytoon","steam_id":76561198060824434,"connected_time":1196000000000,"state":"active","ping":49},{"user_id":230,"name":"Vicci","steam_id":76561198045723808,"connected_time":65000000000,"state":"active","ping":44},{"user_id":227,"name":"Sentry Gun (EpicGuy4227)","steam_id":76561198094132328,"connected_time":725000000000,"state":"active","ping":53},{"user_id":210,"name":"T-10a","steam_id":76561198054765522,"connected_time":2149000000000,"state":"active","ping":56},{"user_id":179,"name":"True God","steam_id":76561198047632259,"connected_time":3723000000000,"state":"active","ping":73},{"user_id":139,"name":"diamond","steam_id":76561198206754736,"connected_time":5683000000000,"state":"active","ping":212},{"user_id":180,"name":"Snowy","steam_id":76561198255720598,"connected_time":3656000000000,"state":"active","ping":58},{"user_id":212,"name":"Dr. Hoppity","steam_id":76561197999715646,"connected_time":2047000000000,"state":"active","ping":62},{"user_id":226,"name":"duckZ","steam_id":76561197997600639,"connected_time":1008000000000,"state":"active","ping":45}]},{"server_id":395,"name":"Uncletopia | Sydney | 3 | All Maps","name_short":"syd-3","host":"syd-1.au.uncletopia.com","port":27035,"enabled":true,"region":"au","cc":"au","latitude":-33.865143,"longitude":151.2099,"reserved":0,"last_update":"0001-01-01T00:00:00Z","name_a2s":"Uncletopia | Sydney | 3 | All Maps","protocol":17,"map":"pl_frontier_final","folder":"tf","game":"Team Fortress","app_id":440,"player_count":0,"max_players":24,"Bots":0,"server_type":"Dedicated","server_os":"Linux","password":true,"vac":true,"version":"7961495","steam_id":85568392925194467,"keywords":["nocrits","nodmgspread","payload","uncletopia"],"game_id":440,"stv_port":27036,"stv_name":"Uncletopia | Sydney | 3 | All Maps | STV","players":null},{"server_id":396,"name":"Uncletopia | Sydney | 4 | All Maps","name_short":"syd-4","host":"syd-1.au.uncletopia.com","port":27045,"enabled":true,"region":"au","cc":"au","latitude":-33.865143,"longitude":151.2099,"reserved":0,"last_update":"0001-01-01T00:00:00Z","name_a2s":"Uncletopia | Sydney | 4 | All Maps","protocol":17,"map":"koth_lakeside_final","folder":"tf","game":"Team Fortress","app_id":440,"player_count":0,"max_players":24,"Bots":0,"server_type":"Dedicated","server_os":"Linux","password":true,"vac":true,"version":"7961495","steam_id":85568392925397958,"keywords":["cp","nocrits","nodmgspread","uncletopia"],"game_id":440,"stv_port":27046,"stv_name":"Uncletopia | Sydney | 4 | All Maps | STV","players":null},{"server_id":58,"name":"Uncletopia | Sydney | 5 | Stopwatch","name_short":"syd-5","host":"syd-1.au.uncletopia.com","port":27055,"enabled":true,"region":"au","cc":"au","latitude":-33.865143,"longitude":151.2099,"reserved":0,"last_update":"0001-01-01T00:00:00Z","name_a2s":"Uncletopia | Sydney | 5 | Stopwatch","protocol":17,"map":"pl_frontier_final","folder":"tf","game":"Team Fortress","app_id":440,"player_count":0,"max_players":24,"Bots":0,"server_type":"Dedicated","server_os":"Linux","password":true,"vac":true,"version":"7961495","steam_id":85568392925397959,"keywords":["nocrits","nodmgspread","payload","uncletopia"],"game_id":440,"stv_port":27056,"stv_name":"Uncletopia | Sydney | 5 | Stopwatch | STV","players":null},{"server_id":59,"name":"Uncletopia | Sydney | 6 | Community","name_short":"syd-6","host":"syd-1.au.uncletopia.com","port":27065,"enabled":true,"region":"au","cc":"au","latitude":-33.865143,"longitude":151.2099,"reserved":0,"last_update":"0001-01-01T00:00:00Z","name_a2s":"Uncletopia | Sydney | 6 | Community","protocol":17,"map":"cp_sunshine","folder":"tf","game":"Team Fortress","app_id":440,"player_count":0,"max_players":24,"Bots":0,"server_type":"Dedicated","server_os":"Linux","password":true,"vac":true,"version":"7961495","steam_id":85568392925397960,"keywords":["cp","nocrits","nodmgspread","uncletopia"],"game_id":440,"stv_port":27066,"stv_name":"Uncletopia | Sydney | 6 | Community | STV","players":null},{"server_id":49,"name":"Uncletopia | Warsaw | 1 | One Thousand Uncles","name_short":"waw-1","host":"waw-1.pl.uncletopia.com","port":27015,"enabled":true,"region":"eu","cc":"pl","latitude":52.2297,"longitude":21.017532,"reserved":0,"last_update":"0001-01-01T00:00:00Z","name_a2s":"Uncletopia | Warsaw | 1 | One Thousand Uncles","protocol":17,"map":"pl_thundermountain","folder":"tf","game":"Team Fortress","app_id":440,"player_count":27,"max_players":32,"Bots":16,"server_type":"Dedicated","server_os":"Linux","password":true,"vac":true,"version":"7961495","steam_id":85568392925397850,"keywords":["alltalk","bots","danepve","increased_maxplayers","nocrits","norespawntime","payload","uncletopia"],"game_id":440,"stv_port":0,"stv_name":"","players":[{"user_id":113,"name":"Wiliam275","steam_id":76561198875274691,"connected_time":4197000000000,"state":"active","ping":96},{"user_id":120,"name":"WomenBeardLike","steam_id":76561198390184314,"connected_time":1641000000000,"state":"active","ping":81},{"user_id":116,"name":"Truegr","steam_id":76561198811912339,"connected_time":2884000000000,"state":"active","ping":66},{"user_id":118,"name":"TekuSP","steam_id":76561198072367754,"connected_time":2634000000000,"state":"active","ping":45},{"user_id":121,"name":"gpogfsd","steam_id":76561198798782026,"connected_time":1542000000000,"state":"active","ping":50},{"user_id":132,"name":"Tispy","steam_id":76561199207410049,"connected_time":309000000000,"state":"active","ping":240},{"user_id":125,"name":"capybara","steam_id":76561199028136749,"connected_time":1310000000000,"state":"active","ping":60},{"user_id":128,"name":"kakash","steam_id":76561199420637314,"connected_time":745000000000,"state":"active","ping":78},{"user_id":127,"name":"Frying Pan gaming","steam_id":76561199230315253,"connected_time":1104000000000,"state":"active","ping":38},{"user_id":129,"name":"120 KG Goth Mommy ‚ô°","steam_id":76561197977688915,"connected_time":681000000000,"state":"active","ping":64},{"user_id":133,"name":"medicinal man","steam_id":76561198202668788,"connected_time":175000000000,"state":"active","ping":29}]},{"server_id":50,"name":"Uncletopia | Warsaw | 2 | One Thousand Uncles","name_short":"waw-2","host":"waw-1.pl.uncletopia.com","port":27025,"enabled":true,"region":"eu","cc":"pl","latitude":52.2297,"longitude":21.017532,"reserved":0,"last_update":"0001-01-01T00:00:00Z","name_a2s":"Uncletopia | Warsaw | 2 | One Thousand Uncles","protocol":17,"map":"pl_goldrush","folder":"tf","game":"Team Fortress","app_id":440,"player_count":0,"max_players":32,"Bots":0,"server_type":"Dedicated","server_os":"Linux","password":true,"vac":true,"version":"7961495","steam_id":85568392925397851,"keywords":["alltalk","danepve","increased_maxplayers","nocrits","norespawntime","payload","uncletopia"],"game_id":440,"stv_port":0,"stv_name":"","players":null},{"server_id":51,"name":"Uncletopia | Warsaw | 3 | All Maps","name_short":"waw-3","host":"waw-1.pl.uncletopia.com","port":27035,"enabled":true,"region":"eu","cc":"pl","latitude":52.2297,"longitude":21.017532,"reserved":0,"last_update":"0001-01-01T00:00:00Z","name_a2s":"Uncletopia | Warsaw | 3 | All Maps","protocol":17,"map":"plr_pipeline","folder":"tf","game":"Team Fortress","app_id":440,"player_count":0,"max_players":24,"Bots":0,"server_type":"Dedicated","server_os":"Linux","password":true,"vac":true,"version":"7961495","steam_id":85568392925397852,"keywords":["nocrits","nodmgspread","payload","uncletopia"],"game_id":440,"stv_port":27036,"stv_name":"Uncletopia | Warsaw | 3 | All Maps | STV","players":null},{"server_id":52,"name":"Uncletopia | Warsaw | 4 | All Maps","name_short":"waw-4","host":"waw-1.pl.uncletopia.com","port":27045,"enabled":true,"region":"eu","cc":"pl","latitude":52.2297,"longitude":21.017532,"reserved":0,"last_update":"0001-01-01T00:00:00Z","name_a2s":"Uncletopia | Warsaw | 4 | All Maps","protocol":17,"map":"cp_coldfront","folder":"tf","game":"Team Fortress","app_id":440,"player_count":0,"max_players":24,"Bots":0,"server_type":"Dedicated","server_os":"Linux","password":true,"vac":true,"version":"7961495","steam_id":85568392925397853,"keywords":["cp","nocrits","nodmgspread","uncletopia"],"game_id":440,"stv_port":27046,"stv_name":"Uncletopia | Warsaw | 4 | All Maps | STV","players":null},{"server_id":53,"name":"Uncletopia | Warsaw | 5 | Stopwatch","name_short":"waw-5","host":"waw-1.pl.uncletopia.com","port":27055,"enabled":true,"region":"eu","cc":"pl","latitude":52.2297,"longitude":21.017532,"reserved":0,"last_update":"0001-01-01T00:00:00Z","name_a2s":"Uncletopia | Warsaw | 5 | Stopwatch","protocol":17,"map":"workshop/koth_bagel_rc6.ugc2514036946","folder":"tf","game":"Team Fortress","app_id":440,"player_count":0,"max_players":24,"Bots":0,"server_type":"Dedicated","server_os":"Linux","password":true,"vac":true,"version":"7961495","steam_id":85568392925397854,"keywords":["cp","nocrits","nodmgspread","uncletopia"],"game_id":440,"stv_port":27056,"stv_name":"Uncletopia | Warsaw | 5 | Stopwatch | STV","players":null},{"server_id":54,"name":"Uncletopia | Warsaw | 6 | Community","name_short":"waw-6","host":"waw-1.pl.uncletopia.com","port":27065,"enabled":true,"region":"eu","cc":"pl","latitude":52.2297,"longitude":21.017532,"reserved":0,"last_update":"0001-01-01T00:00:00Z","name_a2s":"Uncletopia | Warsaw | 6 | Community","protocol":17,"map":"workshop/cp_caldera_rc3.ugc2834196889","folder":"tf","game":"Team Fortress","app_id":440,"player_count":0,"max_players":24,"Bots":0,"server_type":"Dedicated","server_os":"Linux","password":true,"vac":true,"version":"7961495","steam_id":85568392925397856,"keywords":["cp","nocrits","nodmgspread","uncletopia"],"game_id":440,"stv_port":27066,"stv_name":"Uncletopia | Warsaw | 6 | Community | STV","players":null}]}