{"status":true,"message":"","result":[{"server_id":9,"name":"Uncletopia | Atlanta | 1 | All Maps","name_short":"atl-1","host":"atl-1.us.uncletopia.com","port":27015,"enabled":true,"region":"us-east","cc":"us","latitude":33.753746,"longitude":-84.38633,"reserved":0,"last_update":"0001-01-01T00:00:00Z","name_a2s":"Uncletopia | Atlanta | 1 | All Maps","protocol":17,"map":"pl_swiftwater_final1","folder":"tf","game":"Team Fortress","app_id":440,"player_count":24,"max_players":24,"Bots":0,"server_type":"Dedicated","server_os":"Linux","password":true,"vac":true,"version":"7882260","steam_id":85568392924469982,"keywords":["nocrits","nodmgspread","payload","uncletopia"],"game_id":440,"stv_port":27016,"stv_name":"Uncletopia | Atlanta | 1 | All Maps | STV","players":[{"user_id":469,"name":"Crystron","steam_id":76561198880437428,"connected_time":6892000000000,"state":"active","ping":81},{"user_id":493,"name":"theres a heaven keep it a secre","steam_id":76561198079416036,"connected_time":5082000000000,"state":"active","ping":79},{"user_id":608,"name":"SleepyT","steam_id":76561198042272576,"connected_time":1358000000000,"state":"active","ping":59},{"user_id":583,"name":"Shock","steam_id":76561199221742390,"connected_time":2982000000000,"state":"active","ping":97},{"user_id":611,"name":"Onyx","steam_id":76561198275349640,"connected_time":852000000000,"state":"active","ping":72},{"user_id":615,"name":"monkey goblin ass","steam_id":76561198317510961,"connected_time":189000000000,"state":"active","ping":68},{"user_id":459,"name":"SparkStorm","steam_id":76561198095817025,"connected_time":7969000000000,"state":"active","ping":40},{"user_id":616,"name":"lynt","steam_id":76561198988333976,"connected_time":188000000000,"state":"active","ping":44},{"user_id":479,"name":"p4ka","steam_id":76561198315291317,"connected_time":6154000000000,"state":"active","ping":76},{"user_id":590,"name":"puerto rican terrorist","steam_id":76561199046766295,"connected_time":2568000000000,"state":"active","ping":80},{"user_id":581,"name":"realhedgehog2082","steam_id":76561198168931330,"connected_time":3150000000000,"state":"active","ping":59},{"user_id":602,"name":"Sableye","steam_id":76561198061247147,"connected_time":2020000000000,"state":"active","ping":72},{"user_id":614,"name":"Dreszerg","steam_id":76561198838757422,"connected_time":231000000000,"state":"active","ping":83},{"user_id":596,"name":"too funky ᗜˬᗜ","steam_id":76561199120399776,"connected_time":2350000000000,"state":"active","ping":86},{"user_id":609,"name":"Secret Derg","steam_id":76561198065005979,"connected_time":1250000000000,"state":"active","ping":92},{"user_id":507,"name":"fortnite.jimmy.2014","steam_id":76561199177672325,"connected_time":4468000000000,"state":"active","ping":44},{"user_id":612,"name":"Galaxy_42","steam_id":76561198845514831,"connected_time":717000000000,"state":"active","ping":56},{"user_id":613,"name":"Horse","steam_id":76561198004583631,"connected_time":250000000000,"state":"active","ping":92},{"user_id":610,"name":"TheSaltRobot","steam_id":76561198839739497,"connected_time":910000000000,"state":"active","ping":66},{"user_id":600,"name":"Chernov","steam_id":76561198014463424,"connected_time":2126000000000,"state":"active","ping":60},{"user_id":506,"name":"J O V A","steam_id":76561198090333536,"connected_time":4807000000000,"state":"active","ping":71},{"user_id":571,"name":"i devour pen15","steam_id":76561198249206656,"connected_time":3884000000000,"state":"active","ping":86},{"user_id":598,"name":"By the Time I Get to Phoenix","steam_id":76561198397009880,"connected_time":2323000000000,"state":"active","ping":53},{"user_id":601,"name":"HATEWORK.","steam_id":76561198286792807,"connected_time":2126000000000,"state":"active","ping":106}]},{"server_id":104,"name":"Uncletopia | Atlanta | 2 | All Maps","name_short":"atl-2","host":"atl-1.us.uncletopia.com","port":27025,"enabled":true,"region":"us-east","cc":"us","latitude":33.753746,"longitude":-84.38633,"reserved":0,"last_update":"0001-01-01T00:00:00Z","name_a2s":"Uncletopia | Atlanta | 2 | All Maps","protocol":17,"map":"pl_frontier_final","folder":"tf","game":"Team Fortress","app_id":440,"player_count":24,"max_players":24,"Bots":0,"server_type":"Dedicated","server_os":"Linux","password":true,"vac":true,"version":"7882260","steam_id":85568392924469983,"keywords":["nocrits","nodmgspread","payload","uncletopia"],"game_id":440,"stv_port":27026,"stv_name":"Uncletopia | Atlanta | 2 | All Maps | STV","players":[{"user_id":441,"name":"LiquidTheGamer","steam_id":76561199073670714,"connected_time":307000000000,"state":"active","ping":96},{"user_id":404,"name":"notLoona (She/Her)","steam_id":76561198861851215,"connected_time":1750000000000,"state":"active","ping":91},{"user_id":410,"name":"josie","steam_id":76561198170848553,"connected_time":1556000000000,"state":"active","ping":105},{"user_id":426,"name":"CR4YCR4Y","steam_id":76561198009310297,"connected_time":914000000000,"state":"active","ping":72},{"user_id":412,"name":"markbrdn","steam_id":76561199212387434,"connected_time":1413000000000,"state":"active","ping":113},{"user_id":414,"name":"IWCBSTE la cucaracha","steam_id":76561198138109149,"connected_time":1148000000000,"state":"active","ping":75},{"user_id":438,"name":"Serenue","steam_id":76561199040361250,"connected_time":423000000000,"state":"active","ping":88},{"user_id":436,"name":"Kave_in","steam_id":76561198032713622,"connected_time":637000000000,"state":"active","ping":105},{"user_id":421,"name":"maxiswax","steam_id":76561198997803573,"connected_time":1000000000000,"state":"active","ping":100},{"user_id":427,"name":"clownriot","steam_id":76561198071146442,"connected_time":851000000000,"state":"active","ping":61},{"user_id":385,"name":"|WS| Don't_Taze_Me_Bro","steam_id":76561198043289495,"connected_time":4348000000000,"state":"active","ping":58},{"user_id":422,"name":"Sauz","steam_id":76561198008621919,"connected_time":988000000000,"state":"active","ping":91},{"user_id":418,"name":"TheLegend27","steam_id":76561198875683122,"connected_time":1035000000000,"state":"active","ping":86},{"user_id":434,"name":"Treewut","steam_id":76561198210026715,"connected_time":710000000000,"state":"active","ping":90},{"user_id":420,"name":"2002 Pontiac Grand Am","steam_id":76561198288803035,"connected_time":1020000000000,"state":"active","ping":80},{"user_id":423,"name":"❤ pavizi ❤","steam_id":76561198064828655,"connected_time":940000000000,"state":"active","ping":70},{"user_id":424,"name":"pineapplelover23","steam_id":76561198452079378,"connected_time":935000000000,"state":"active","ping":88},{"user_id":437,"name":"K.O. Stradivarius","steam_id":76561198974913245,"connected_time":610000000000,"state":"active","ping":114},{"user_id":428,"name":"adami","steam_id":76561198800334731,"connected_time":849000000000,"state":"active","ping":62},{"user_id":429,"name":"whimsical little creature","steam_id":76561198271710504,"connected_time":848000000000,"state":"active","ping":70},{"user_id":439,"name":"Caoticaos","steam_id":76561198114800227,"connected_time":370000000000,"state":"active","ping":132},{"user_id":431,"name":"Toasty","steam_id":76561198176700097,"connected_time":829000000000,"state":"active","ping":84},{"user_id":432,"name":"B'jo","steam_id":76561199204728099,"connected_time":821000000000,"state":"active","ping":62},{"user_id":433,"name":"mari_","steam_id":76561198137855741,"connected_time":811000000000,"state":"active","ping":64}]},{"server_id":400,"name":"Uncletopia | Atlanta | 3 | Community","name_short":"atl-3","host":"atl-1.us.uncletopia.com","port":27035,"enabled":true,"region":"us-east","cc":"us","latitude":33.753746,"longitude":-84.38633,"reserved":0,"last_update":"0001-01-01T00:00:00Z","name_a2s":"Uncletopia | Atlanta | 3 | Community","protocol":17,"map":"workshop/pl_cashworks_final1.ugc2904065412","folder":"tf","game":"Team Fortress","app_id":440,"player_count":24,"max_players":24,"Bots":0,"server_type":"Dedicated","server_os":"Linux","password":true,"vac":true,"version":"7882260","steam_id":85568392924515187,"keywords":["nocrits","nodmgspread","payload","uncletopia"],"game_id":440,"stv_port":27036,"stv_name":"Uncletopia | Atlanta | 3 | Community | STV","players":[{"user_id":110,"name":"helmut","steam_id":76561197987025017,"connected_time":1245000000000,"state":"active","ping":84},{"user_id":122,"name":"CORONA™ and friends","steam_id":76561198342011115,"connected_time":975000000000,"state":"active","ping":48},{"user_id":100,"name":"BoX_hEaD101","steam_id":76561198200875467,"connected_time":2407000000000,"state":"active","ping":128},{"user_id":115,"name":"Zelumie","steam_id":76561198147335801,"connected_time":1118000000000,"state":"active","ping":67},{"user_id":101,"name":"westward (was/were)","steam_id":76561198805512350,"connected_time":2337000000000,"state":"active","ping":130},{"user_id":77,"name":"MayaBon","steam_id":76561198797968261,"connected_time":4706000000000,"state":"active","ping":125},{"user_id":114,"name":"bingus","steam_id":76561198283992686,"connected_time":1153000000000,"state":"active","ping":76},{"user_id":89,"name":"El Texicano","steam_id":76561198053207411,"connected_time":3612000000000,"state":"active","ping":80},{"user_id":130,"name":"baconandx","steam_id":76561198355074004,"connected_time":419000000000,"state":"active","ping":84},{"user_id":124,"name":"WASTEDTALENT247","steam_id":76561199444251416,"connected_time":868000000000,"state":"active","ping":66},{"user_id":76,"name":"portal2trollin","steam_id":76561198046869828,"connected_time":4773000000000,"state":"active","ping":90},{"user_id":112,"name":"Mr. Sun","steam_id":76561198081338822,"connected_time":1186000000000,"state":"active","ping":45},{"user_id":98,"name":"UNIT 220","steam_id":76561198042243497,"connected_time":2448000000000,"state":"active","ping":69},{"user_id":126,"name":"Peepster","steam_id":76561198297854733,"connected_time":814000000000,"state":"active","ping":86},{"user_id":56,"name":"r0zemary (she/her)","steam_id":76561198128494897,"connected_time":5840000000000,"state":"active","ping":88},{"user_id":127,"name":"Wengatang","steam_id":76561198021747059,"connected_time":764000000000,"state":"active","ping":62},{"user_id":55,"name":"Skipz","steam_id":76561198425244550,"connected_time":5880000000000,"state":"active","ping":60},{"user_id":106,"name":"Aegis","steam_id":76561198272052750,"connected_time":2000000000000,"state":"active","ping":72},{"user_id":129,"name":"Sputnix","steam_id":76561198236857310,"connected_time":446000000000,"state":"active","ping":58},{"user_id":116,"name":"who is sandy loam???","steam_id":76561198033073709,"connected_time":1084000000000,"state":"active","ping":73},{"user_id":123,"name":"bought this cart for 15 dollars","steam_id":76561198253731826,"connected_time":938000000000,"state":"active","ping":101},{"user_id":121,"name":"crouton","steam_id":76561198828709358,"connected_time":1014000000000,"state":"active","ping":64},{"user_id":125,"name":"Antwan","steam_id":76561198246200638,"connected_time":856000000000,"state":"active","ping":61},{"user_id":132,"name":"Me at 3am","steam_id":76561198170381402,"connected_time":17000000000,"state":"spawning","ping":126}]},{"server_id":401,"name":"Uncletopia | Atlanta | 4 | No Payload","name_short":"atl-4","host":"atl-1.us.uncletopia.com","port":27045,"enabled":true,"region":"us-east","cc":"us","latitude":33.753746,"longitude":-84.38633,"reserved":0,"last_update":"0001-01-01T00:00:00Z","name_a2s":"","protocol":0,"map":"","folder":"","game":"","app_id":0,"player_count":0,"max_players":0,"Bots":0,"server_type":"","server_os":"","password":false,"vac":false,"version":"","steam_id":0,"keywords":null,"game_id":0,"stv_port":0,"stv_name":"","players":null},{"server_id":2,"name":"Uncletopia | Chicago | 1 | All Maps","name_short":"chi-1","host":"chi-1.us.uncletopia.com","port":27015,"enabled":true,"region":"us-central","cc":"us","latitude":41.881832,"longitude":-87.62318,"reserved":0,"last_update":"0001-01-01T00:00:00Z","name_a2s":"Uncletopia | Chicago | 1 | All Maps","protocol":17,"map":"pl_swiftwater_final1","folder":"tf","game":"Team Fortress","app_id":440,"player_count":24,"max_players":24,"Bots":0,"server_type":"Dedicated","server_os":"Linux","password":true,"vac":true,"version":"7882260","steam_id":85568392924469984,"keywords":["nocrits","nodmgspread","payload","uncletopia"],"game_id":440,"stv_port":27016,"stv_name":"Uncletopia | Chicago | 1 | All Maps | STV","players":[{"user_id":374,"name":"swag in ohio","steam_id":76561198031675881,"connected_time":1298000000000,"state":"active","ping":45},{"user_id":382,"name":"Bronze Age Furvert","steam_id":76561198859118263,"connected_time":488000000000,"state":"active","ping":67},{"user_id":381,"name":"Low DROOPing Fruit","steam_id":76561198856700517,"connected_time":510000000000,"state":"active","ping":100},{"user_id":385,"name":"Chadwick Strongpants","steam_id":76561198160522777,"connected_time":176000000000,"state":"active","ping":85},{"user_id":340,"name":"MEATBALL","steam_id":76561198028499312,"connected_time":3685000000000,"state":"active","ping":60},{"user_id":357,"name":"Brian","steam_id":76561198077756206,"connected_time":2878000000000,"state":"active","ping":130},{"user_id":378,"name":"Qball","steam_id":76561198179016466,"connected_time":1012000000000,"state":"active","ping":57},{"user_id":358,"name":"LinkFromDaPast","steam_id":76561198211437197,"connected_time":2704000000000,"state":"active","ping":105},{"user_id":338,"name":"phone","steam_id":76561198029268743,"connected_time":3747000000000,"state":"active","ping":60},{"user_id":386,"name":"Extinct","steam_id":76561199013696367,"connected_time":100000000000,"state":"active","ping":70},{"user_id":346,"name":"OwObigbro","steam_id":76561199029465491,"connected_time":3473000000000,"state":"active","ping":89},{"user_id":359,"name":"Locked in the bathroom","steam_id":76561198206394503,"connected_time":2686000000000,"state":"active","ping":54},{"user_id":309,"name":"Hindmost","steam_id":76561199081837220,"connected_time":5839000000000,"state":"active","ping":92},{"user_id":347,"name":"Gay Weed \u003c3","steam_id":76561198158240142,"connected_time":3240000000000,"state":"active","ping":65},{"user_id":361,"name":"forevererver","steam_id":76561198160335315,"connected_time":2026000000000,"state":"active","ping":45},{"user_id":379,"name":"spy (real)","steam_id":76561198057374871,"connected_time":917000000000,"state":"active","ping":54},{"user_id":343,"name":"Carl","steam_id":76561198085391027,"connected_time":3644000000000,"state":"active","ping":75},{"user_id":364,"name":"Mkwhackertracker","steam_id":76561198128343704,"connected_time":1944000000000,"state":"active","ping":65},{"user_id":375,"name":"boof","steam_id":76561198053901968,"connected_time":1295000000000,"state":"active","ping":79},{"user_id":323,"name":"Filthy Acts at Reasonable Price","steam_id":76561198354615890,"connected_time":4893000000000,"state":"active","ping":55},{"user_id":362,"name":"Silico","steam_id":76561197993814144,"connected_time":2026000000000,"state":"active","ping":59},{"user_id":373,"name":"Crustacean Daddy","steam_id":76561198993807061,"connected_time":1326000000000,"state":"active","ping":90},{"user_id":371,"name":"Loops","steam_id":76561198139814686,"connected_time":1451000000000,"state":"active","ping":43},{"user_id":356,"name":"steven","steam_id":76561198173047169,"connected_time":2927000000000,"state":"active","ping":57}]},{"server_id":106,"name":"Uncletopia | Chicago | 2 | All Maps","name_short":"chi-2","host":"chi-1.us.uncletopia.com","port":27025,"enabled":true,"region":"us-central","cc":"us","latitude":41.881832,"longitude":-87.62318,"reserved":0,"last_update":"0001-01-01T00:00:00Z","name_a2s":"Uncletopia | Chicago | 2 | All Maps","protocol":17,"map":"cp_process_final","folder":"tf","game":"Team Fortress","app_id":440,"player_count":23,"max_players":24,"Bots":0,"server_type":"Dedicated","server_os":"Linux","password":true,"vac":true,"version":"7882260","steam_id":85568392924469985,"keywords":["cp","nocrits","nodmgspread","uncletopia"],"game_id":440,"stv_port":27026,"stv_name":"Uncletopia | Chicago | 2 | All Maps | STV","players":[{"user_id":518,"name":"Ibrahim","steam_id":76561198028320625,"connected_time":2407000000000,"state":"active","ping":66},{"user_id":494,"name":"Voyager","steam_id":76561199128786637,"connected_time":3864000000000,"state":"active","ping":99},{"user_id":546,"name":"Alice in Rubberland","steam_id":76561198087328346,"connected_time":734000000000,"state":"active","ping":43},{"user_id":547,"name":"Teleporter  (Entrance, Level 3)","steam_id":76561198316927664,"connected_time":703000000000,"state":"active","ping":74},{"user_id":521,"name":"Psycho Crusher","steam_id":76561198987125856,"connected_time":1996000000000,"state":"active","ping":82},{"user_id":510,"name":"4oh4","steam_id":76561198388047861,"connected_time":2959000000000,"state":"active","ping":75},{"user_id":549,"name":"DoubleX2000","steam_id":76561198164134387,"connected_time":492000000000,"state":"active","ping":103},{"user_id":460,"name":"Baby gaming","steam_id":76561198867319323,"connected_time":5376000000000,"state":"active","ping":62},{"user_id":548,"name":"Mason","steam_id":76561199057309626,"connected_time":528000000000,"state":"active","ping":83},{"user_id":530,"name":"Rukh","steam_id":76561197999361315,"connected_time":1448000000000,"state":"active","ping":98},{"user_id":542,"name":"IPlayGamez","steam_id":76561198041387508,"connected_time":784000000000,"state":"active","ping":68},{"user_id":551,"name":"TheGrassMan (He/Him)","steam_id":76561198118984048,"connected_time":391000000000,"state":"active","ping":70},{"user_id":533,"name":"BuncusBeffer","steam_id":76561198285936616,"connected_time":1122000000000,"state":"active","ping":105},{"user_id":550,"name":"evnobev","steam_id":76561198038966462,"connected_time":439000000000,"state":"active","ping":54},{"user_id":470,"name":"spherewithahat","steam_id":76561199122192660,"connected_time":4939000000000,"state":"active","ping":73},{"user_id":539,"name":"Idk","steam_id":76561198971629959,"connected_time":910000000000,"state":"active","ping":137},{"user_id":535,"name":"wroh2801","steam_id":76561199103292218,"connected_time":1120000000000,"state":"active","ping":64},{"user_id":544,"name":"OneLess","steam_id":76561198150870338,"connected_time":777000000000,"state":"active","ping":84},{"user_id":537,"name":"playstation portable UMD movies","steam_id":76561198097678514,"connected_time":1108000000000,"state":"active","ping":81},{"user_id":554,"name":"vanilla gorilla","steam_id":76561197989019617,"connected_time":8000000000,"state":"active","ping":66},{"user_id":487,"name":"Erebus","steam_id":76561199061956673,"connected_time":4396000000000,"state":"active","ping":68},{"user_id":538,"name":"Dark_","steam_id":76561198391453250,"connected_time":1098000000000,"state":"active","ping":94},{"user_id":527,"name":"peakmeta","steam_id":76561199053600691,"connected_time":1719000000000,"state":"active","ping":51}]},{"server_id":402,"name":"Uncletopia | Chicago | 3 | All Maps","name_short":"chi-3","host":"chi-1.us.uncletopia.com","port":27035,"enabled":true,"region":"us-central","cc":"us","latitude":41.881832,"longitude":-87.62318,"reserved":0,"last_update":"0001-01-01T00:00:00Z","name_a2s":"Uncletopia | Chicago | 3 | All Maps","protocol":17,"map":"pl_upward","folder":"tf","game":"Team Fortress","app_id":440,"player_count":24,"max_players":24,"Bots":0,"server_type":"Dedicated","server_os":"Linux","password":true,"vac":true,"version":"7882260","steam_id":85568392924515191,"keywords":["nocrits","nodmgspread","payload","uncletopia"],"game_id":440,"stv_port":27036,"stv_name":"Uncletopia | Chicago | 3 | All Maps | STV","players":[{"user_id":432,"name":"Vapeinhand","steam_id":76561198134439943,"connected_time":426000000000,"state":"active","ping":64},{"user_id":413,"name":"bobby baccalieri gaming","steam_id":76561198059535856,"connected_time":1718000000000,"state":"active","ping":100},{"user_id":411,"name":"Krillin","steam_id":76561198102009232,"connected_time":1744000000000,"state":"active","ping":90},{"user_id":421,"name":"Crasson","steam_id":76561198034967708,"connected_time":657000000000,"state":"active","ping":74},{"user_id":403,"name":"Sheev Palpatine","steam_id":76561198252332430,"connected_time":2206000000000,"state":"active","ping":75},{"user_id":390,"name":"Rasmosis","steam_id":76561198118914598,"connected_time":2877000000000,"state":"active","ping":64},{"user_id":409,"name":"Nappa","steam_id":76561198142406272,"connected_time":1938000000000,"state":"active","ping":74},{"user_id":420,"name":"PIKAMEE IS GONE!!!!","steam_id":76561198116821551,"connected_time":786000000000,"state":"active","ping":59},{"user_id":396,"name":"Robin","steam_id":76561198121165149,"connected_time":2692000000000,"state":"active","ping":43},{"user_id":405,"name":"emotional Suport engi :)","steam_id":76561198882404753,"connected_time":2068000000000,"state":"active","ping":72},{"user_id":414,"name":"Mattron1","steam_id":76561198012270524,"connected_time":1589000000000,"state":"active","ping":80},{"user_id":433,"name":"B o o g","steam_id":76561199267535506,"connected_time":392000000000,"state":"active","ping":68},{"user_id":418,"name":"Smiles","steam_id":76561198107197973,"connected_time":1277000000000,"state":"active","ping":57},{"user_id":417,"name":"Ghandi","steam_id":76561198046702733,"connected_time":1439000000000,"state":"active","ping":61},{"user_id":392,"name":"Chaos","steam_id":76561199068325065,"connected_time":2847000000000,"state":"active","ping":94},{"user_id":430,"name":"Xx_PR3TTY_R4VE_G!R1_xX","steam_id":76561199059016425,"connected_time":535000000000,"state":"active","ping":57},{"user_id":423,"name":"-W3E- ILikeLuna","steam_id":76561198140003332,"connected_time":653000000000,"state":"active","ping":42},{"user_id":384,"name":"IanTheAwsm","steam_id":76561198093031738,"connected_time":3149000000000,"state":"active","ping":65},{"user_id":428,"name":"dvnncl","steam_id":76561198337115759,"connected_time":558000000000,"state":"active","ping":74},{"user_id":431,"name":"Griddy","steam_id":76561199100342013,"connected_time":525000000000,"state":"active","ping":99},{"user_id":412,"name":"L0b5terlick","steam_id":76561198134990930,"connected_time":1744000000000,"state":"active","ping":108},{"user_id":416,"name":"TV12Lime","steam_id":76561199036195384,"connected_time":1452000000000,"state":"active","ping":75},{"user_id":399,"name":"Joelly","steam_id":76561198056682956,"connected_time":2632000000000,"state":"active","ping":90},{"user_id":407,"name":"Walkiing","steam_id":76561198074473413,"connected_time":2032000000000,"state":"active","ping":38}]},{"server_id":403,"name":"Uncletopia | Chicago | 4 | All Maps","name_short":"chi-4","host":"chi-1.us.uncletopia.com","port":27045,"enabled":true,"region":"us-central","cc":"us","latitude":41.881832,"longitude":-87.62318,"reserved":0,"last_update":"0001-01-01T00:00:00Z","name_a2s":"Uncletopia | Chicago | 4 | All Maps","protocol":17,"map":"pl_frontier_final","folder":"tf","game":"Team Fortress","app_id":440,"player_count":23,"max_players":24,"Bots":0,"server_type":"Dedicated","server_os":"Linux","password":true,"vac":true,"version":"7882260","steam_id":85568392924515193,"keywords":["nocrits","nodmgspread","payload","uncletopia"],"game_id":440,"stv_port":27046,"stv_name":"Uncletopia | Chicago | 4 | All Maps | STV","players":[{"user_id":167,"name":"sardien","steam_id":76561198256184467,"connected_time":616000000000,"state":"active","ping":42},{"user_id":83,"name":"mylomalopi","steam_id":76561198354990729,"connected_time":5425000000000,"state":"active","ping":79},{"user_id":153,"name":"Icaras","steam_id":76561198416724843,"connected_time":1310000000000,"state":"active","ping":119},{"user_id":171,"name":"Sneakinsed","steam_id":76561199102075970,"connected_time":503000000000,"state":"active","ping":92},{"user_id":140,"name":"Also Known As Assteeth","steam_id":76561198049837377,"connected_time":1839000000000,"state":"active","ping":47},{"user_id":169,"name":"Ejaculation Zach","steam_id":76561198203765200,"connected_time":554000000000,"state":"active","ping":57},{"user_id":108,"name":"Mae","steam_id":76561198085815757,"connected_time":3836000000000,"state":"active","ping":64},{"user_id":158,"name":"Qwerty","steam_id":76561198023525894,"connected_time":1159000000000,"state":"active","ping":163},{"user_id":122,"name":"fr tho","steam_id":76561198098781227,"connected_time":2853000000000,"state":"active","ping":84},{"user_id":134,"name":"roygbiv","steam_id":76561198354473513,"connected_time":2147000000000,"state":"active","ping":48},{"user_id":112,"name":"creeeeeee","steam_id":76561198392539722,"connected_time":3294000000000,"state":"active","ping":83},{"user_id":177,"name":"Bames Jond","steam_id":76561198037252756,"connected_time":94000000000,"state":"active","ping":72},{"user_id":145,"name":"Kretim","steam_id":76561199204273483,"connected_time":1508000000000,"state":"active","ping":68},{"user_id":173,"name":"Victor Skull","steam_id":76561198352212864,"connected_time":178000000000,"state":"active","ping":60},{"user_id":161,"name":"❤Medi❤","steam_id":76561198412393688,"connected_time":872000000000,"state":"active","ping":100},{"user_id":178,"name":"Stew Eater","steam_id":76561198978307159,"connected_time":50000000000,"state":"spawning","ping":91},{"user_id":164,"name":"Happy Yaoi Friday","steam_id":76561198111290441,"connected_time":803000000000,"state":"active","ping":57},{"user_id":157,"name":"Yakts","steam_id":76561198115044159,"connected_time":1178000000000,"state":"active","ping":90},{"user_id":152,"name":"Dolphin","steam_id":76561199132214008,"connected_time":1350000000000,"state":"active","ping":91},{"user_id":170,"name":"Dog Deodorant","steam_id":76561199225832228,"connected_time":546000000000,"state":"active","ping":99},{"user_id":168,"name":"plushie","steam_id":76561198088103572,"connected_time":574000000000,"state":"active","ping":93},{"user_id":154,"name":"Miner2495","steam_id":76561198445904523,"connected_time":1301000000000,"state":"active","ping":66},{"user_id":180,"name":"raspberye","steam_id":76561198149124090,"connected_time":31000000000,"state":"active","ping":68}]},{"server_id":36,"name":"Uncletopia | Chicago | 5 | All Maps","name_short":"chi-5","host":"chi-2.us.uncletopia.com","port":27015,"enabled":true,"region":"us-central","cc":"us","latitude":41.881832,"longitude":-87.62318,"reserved":0,"last_update":"0001-01-01T00:00:00Z","name_a2s":"Uncletopia | Chicago | 5 | All Maps","protocol":17,"map":"cp_sunshine","folder":"tf","game":"Team Fortress","app_id":440,"player_count":24,"max_players":24,"Bots":0,"server_type":"Dedicated","server_os":"Linux","password":true,"vac":true,"version":"7882260","steam_id":85568392924866362,"keywords":["cp","nocrits","nodmgspread","uncletopia"],"game_id":440,"stv_port":27016,"stv_name":"Uncletopia | Chicago | 5 | All Maps | STV","players":[{"user_id":699,"name":"ATastyDonut","steam_id":76561198984819894,"connected_time":616000000000,"state":"active","ping":67},{"user_id":488,"name":"leonardo doujinshi","steam_id":76561198025810326,"connected_time":12213000000000,"state":"active","ping":75},{"user_id":707,"name":"tyg","steam_id":76561198056246867,"connected_time":129000000000,"state":"active","ping":69},{"user_id":677,"name":"Hirochi","steam_id":76561198850339384,"connected_time":1670000000000,"state":"active","ping":73},{"user_id":701,"name":"twin","steam_id":76561198055626638,"connected_time":566000000000,"state":"active","ping":92},{"user_id":658,"name":"el autism","steam_id":76561198292814336,"connected_time":1984000000000,"state":"active","ping":52},{"user_id":636,"name":"Armoreddude","steam_id":76561198058739073,"connected_time":2806000000000,"state":"active","ping":55},{"user_id":704,"name":"briggs","steam_id":76561198045655893,"connected_time":300000000000,"state":"active","ping":58},{"user_id":695,"name":"jimmyfnaf172198yay","steam_id":76561198311446636,"connected_time":1040000000000,"state":"active","ping":60},{"user_id":702,"name":"lpk","steam_id":76561198025478698,"connected_time":563000000000,"state":"active","ping":43},{"user_id":678,"name":"Tako","steam_id":76561199264073138,"connected_time":1652000000000,"state":"active","ping":104},{"user_id":692,"name":"Oh no","steam_id":76561198123441203,"connected_time":1134000000000,"state":"active","ping":76},{"user_id":706,"name":"Voodo133","steam_id":76561198042670351,"connected_time":261000000000,"state":"active","ping":93},{"user_id":634,"name":"DrunkDuckwit","steam_id":76561198355829109,"connected_time":2814000000000,"state":"active","ping":63},{"user_id":562,"name":"ly","steam_id":76561198062922146,"connected_time":7453000000000,"state":"active","ping":73},{"user_id":687,"name":"Honeybunch","steam_id":76561198014850580,"connected_time":1433000000000,"state":"active","ping":80},{"user_id":644,"name":"hellstar","steam_id":76561198065877269,"connected_time":2555000000000,"state":"active","ping":66},{"user_id":688,"name":"Ginger Jesus","steam_id":76561198052386458,"connected_time":1378000000000,"state":"active","ping":60},{"user_id":681,"name":"docil meatsack gamer","steam_id":76561198043602407,"connected_time":1598000000000,"state":"active","ping":76},{"user_id":705,"name":"Srattinee","steam_id":76561198199840395,"connected_time":292000000000,"state":"active","ping":59},{"user_id":703,"name":"SunNc","steam_id":76561198097711843,"connected_time":331000000000,"state":"active","ping":112},{"user_id":660,"name":"Spookskeppnook","steam_id":76561199216336545,"connected_time":1951000000000,"state":"active","ping":88},{"user_id":696,"name":"k3nny11","steam_id":76561198182533757,"connected_time":953000000000,"state":"active","ping":69},{"user_id":561,"name":"YellowCellPhone","steam_id":76561198015070315,"connected_time":7470000000000,"state":"active","ping":57}]},{"server_id":37,"name":"Uncletopia | Chicago | 6 | All Maps","name_short":"chi-6","host":"chi-2.us.uncletopia.com","port":27025,"enabled":true,"region":"us-central","cc":"us","latitude":41.881832,"longitude":-87.62318,"reserved":0,"last_update":"0001-01-01T00:00:00Z","name_a2s":"Uncletopia | Chicago | 6 | All Maps","protocol":17,"map":"koth_suijin","folder":"tf","game":"Team Fortress","app_id":440,"player_count":24,"max_players":24,"Bots":0,"server_type":"Dedicated","server_os":"Linux","password":true,"vac":true,"version":"7882260","steam_id":85568392924866363,"keywords":["cp","nocrits","nodmgspread","uncletopia"],"game_id":440,"stv_port":27026,"stv_name":"Uncletopia | Chicago | 6 | All Maps | STV","players":[{"user_id":247,"name":"Speed Weed","steam_id":76561198007512620,"connected_time":11000000000,"state":"spawning","ping":68},{"user_id":192,"name":"oomper","steam_id":76561199189982701,"connected_time":2781000000000,"state":"active","ping":64},{"user_id":234,"name":"General Genitalia","steam_id":76561198136433414,"connected_time":879000000000,"state":"active","ping":84},{"user_id":208,"name":"EL Matador","steam_id":76561197971206879,"connected_time":2374000000000,"state":"active","ping":82},{"user_id":188,"name":"A Puppy","steam_id":76561198828184456,"connected_time":3240000000000,"state":"active","ping":60},{"user_id":181,"name":"Oh No! It's Twister!","steam_id":76561198016791916,"connected_time":3434000000000,"state":"active","ping":90},{"user_id":246,"name":"GrapeGoodra","steam_id":76561198042141579,"connected_time":295000000000,"state":"active","ping":57},{"user_id":168,"name":"Hank.","steam_id":76561198119344745,"connected_time":4579000000000,"state":"active","ping":104},{"user_id":241,"name":"Queen Frau the Round","steam_id":76561197999942134,"connected_time":469000000000,"state":"active","ping":45},{"user_id":156,"name":"ewp","steam_id":76561199148289271,"connected_time":4995000000000,"state":"active","ping":116},{"user_id":242,"name":"Cedric","steam_id":76561198072090580,"connected_time":463000000000,"state":"active","ping":94},{"user_id":212,"name":"geeWIZ","steam_id":76561198067909242,"connected_time":2269000000000,"state":"active","ping":75},{"user_id":245,"name":"decent_grubs","steam_id":76561198976784967,"connected_time":377000000000,"state":"active","ping":62},{"user_id":190,"name":"WhoIsFrosty","steam_id":76561198880588117,"connected_time":2970000000000,"state":"active","ping":55},{"user_id":165,"name":"Savvy","steam_id":76561198299713804,"connected_time":4654000000000,"state":"active","ping":86},{"user_id":229,"name":"he drove a series ten cadillac","steam_id":76561198142756572,"connected_time":1172000000000,"state":"active","ping":66},{"user_id":233,"name":"pastel","steam_id":76561198117895911,"connected_time":942000000000,"state":"active","ping":55},{"user_id":128,"name":"pel","steam_id":76561198021224745,"connected_time":7969000000000,"state":"active","ping":58},{"user_id":238,"name":"The Horny","steam_id":76561198863639459,"connected_time":725000000000,"state":"active","ping":110},{"user_id":191,"name":"Musica Universalis","steam_id":76561198184794174,"connected_time":2901000000000,"state":"active","ping":84},{"user_id":220,"name":"ilady","steam_id":76561198139802458,"connected_time":1945000000000,"state":"active","ping":68},{"user_id":236,"name":"Vixy","steam_id":76561198120912607,"connected_time":771000000000,"state":"active","ping":127},{"user_id":174,"name":"larguu","steam_id":76561197994336210,"connected_time":4415000000000,"state":"active","ping":51},{"user_id":244,"name":"motherfucker 2.0","steam_id":76561198141189209,"connected_time":452000000000,"state":"active","ping":62}]},{"server_id":38,"name":"Uncletopia | Chicago | 7 | Stopwatch Beta","name_short":"chi-7","host":"chi-2.us.uncletopia.com","port":27035,"enabled":true,"region":"us-central","cc":"us","latitude":41.881832,"longitude":-87.62318,"reserved":0,"last_update":"0001-01-01T00:00:00Z","name_a2s":"Uncletopia | Chicago | 7 | Stopwatch Beta","protocol":17,"map":"workshop/cp_process_f12.ugc2302948105","folder":"tf","game":"Team Fortress","app_id":440,"player_count":24,"max_players":24,"Bots":0,"server_type":"Dedicated","server_os":"Linux","password":true,"vac":true,"version":"7882260","steam_id":85568392924866364,"keywords":["cp","nocrits","nodmgspread","uncletopia"],"game_id":440,"stv_port":27036,"stv_name":"Uncletopia | Chicago | 7 | Stopwatch Beta | STV","players":[{"user_id":142,"name":"catfish from toontown","steam_id":76561198060070002,"connected_time":1306000000000,"state":"active","ping":73},{"user_id":169,"name":"themadlad67","steam_id":76561199309554436,"connected_time":114000000000,"state":"active","ping":103},{"user_id":151,"name":"The Pope \u003c3","steam_id":76561198149592814,"connected_time":983000000000,"state":"active","ping":96},{"user_id":143,"name":"Grand Piano Tuna","steam_id":76561198135137213,"connected_time":1278000000000,"state":"active","ping":55},{"user_id":144,"name":"Banana Patrick","steam_id":76561198258067237,"connected_time":1270000000000,"state":"active","ping":69},{"user_id":137,"name":"pee man","steam_id":76561199134435413,"connected_time":1527000000000,"state":"active","ping":108},{"user_id":127,"name":"the goobmeister","steam_id":76561198137440781,"connected_time":2756000000000,"state":"active","ping":63},{"user_id":170,"name":"dirty dank","steam_id":76561198360904432,"connected_time":30000000000,"state":"spawning","ping":162},{"user_id":116,"name":"ulackhate","steam_id":76561198869437637,"connected_time":3775000000000,"state":"active","ping":125},{"user_id":153,"name":"Nukeboy","steam_id":76561198147058560,"connected_time":922000000000,"state":"active","ping":103},{"user_id":133,"name":"Mr. Soupninja","steam_id":76561198164856963,"connected_time":1851000000000,"state":"active","ping":68},{"user_id":120,"name":"Dexio","steam_id":76561198116175760,"connected_time":3586000000000,"state":"active","ping":65},{"user_id":150,"name":"moint pan","steam_id":76561198968773067,"connected_time":1026000000000,"state":"active","ping":90},{"user_id":145,"name":"Crostil","steam_id":76561198070621489,"connected_time":1263000000000,"state":"active","ping":78},{"user_id":158,"name":"musashi","steam_id":76561198315003787,"connected_time":811000000000,"state":"active","ping":174},{"user_id":139,"name":"Smoky Haus","steam_id":76561199040586542,"connected_time":1480000000000,"state":"active","ping":78},{"user_id":166,"name":"Bottom Ramen","steam_id":76561197970450546,"connected_time":359000000000,"state":"active","ping":112},{"user_id":159,"name":"Mαrco","steam_id":76561198302919370,"connected_time":802000000000,"state":"active","ping":161},{"user_id":162,"name":"pool shark","steam_id":76561198130191179,"connected_time":490000000000,"state":"active","ping":89},{"user_id":167,"name":"Fl4mingo","steam_id":76561198025601344,"connected_time":344000000000,"state":"active","ping":58},{"user_id":155,"name":"vinylleopard","steam_id":76561198838611573,"connected_time":863000000000,"state":"active","ping":99},{"user_id":156,"name":"Roomba","steam_id":76561198994448305,"connected_time":858000000000,"state":"active","ping":146},{"user_id":115,"name":"strangedeath","steam_id":76561198154159297,"connected_time":3837000000000,"state":"active","ping":77},{"user_id":157,"name":"The MilkMann","steam_id":76561199006503777,"connected_time":850000000000,"state":"active","ping":57}]},{"server_id":39,"name":"Uncletopia | Chicago | 8 | Community","name_short":"chi-8","host":"chi-2.us.uncletopia.com","port":27045,"enabled":true,"region":"us-central","cc":"us","latitude":41.881832,"longitude":-87.62318,"reserved":0,"last_update":"0001-01-01T00:00:00Z","name_a2s":"Uncletopia | Chicago | 8 | Community","protocol":17,"map":"cp_snakewater_final1","folder":"tf","game":"Team Fortress","app_id":440,"player_count":0,"max_players":24,"Bots":0,"server_type":"Dedicated","server_os":"Linux","password":true,"vac":true,"version":"7882260","steam_id":85568392924866365,"keywords":["cp","nocrits","nodmgspread","uncletopia"],"game_id":440,"stv_port":27046,"stv_name":"Uncletopia | Chicago | 8 | Community | STV","players":null},{"server_id":8,"name":"Uncletopia | Dallas | 1 | All Maps","name_short":"dal-1","host":"dal-1.us.uncletopia.com","port":27015,"enabled":true,"region":"us-central","cc":"us","latitude":32.779167,"longitude":-96.80889,"reserved":0,"last_update":"0001-01-01T00:00:00Z","name_a2s":"Uncletopia | Dallas | 1 | All Maps","protocol":17,"map":"pl_barnblitz","folder":"tf","game":"Team Fortress","app_id":440,"player_count":24,"max_players":24,"Bots":0,"server_type":"Dedicated","server_os":"Linux","password":true,"vac":true,"version":"7882260","steam_id":85568392924469986,"keywords":["nocrits","nodmgspread","payload","uncletopia"],"game_id":440,"stv_port":27016,"stv_name":"Uncletopia | Dallas | 1 | All Maps | STV","players":[{"user_id":270,"name":"Captain Bug","steam_id":76561198137763878,"connected_time":5073000000000,"state":"active","ping":96},{"user_id":337,"name":"Darling","steam_id":76561198127525888,"connected_time":433000000000,"state":"active","ping":58},{"user_id":282,"name":"Merekitten","steam_id":76561198066307477,"connected_time":3933000000000,"state":"active","ping":98},{"user_id":336,"name":"girl smell","steam_id":76561198118962168,"connected_time":479000000000,"state":"active","ping":75},{"user_id":264,"name":"weewa","steam_id":76561198064876090,"connected_time":5178000000000,"state":"active","ping":81},{"user_id":320,"name":"TechnoBear2099","steam_id":76561198238863596,"connected_time":1777000000000,"state":"active","ping":45},{"user_id":334,"name":"LerN","steam_id":76561198083463877,"connected_time":495000000000,"state":"active","ping":76},{"user_id":305,"name":"PerliousFalcon","steam_id":76561198124801907,"connected_time":2822000000000,"state":"active","ping":130},{"user_id":332,"name":"A Straw","steam_id":76561199367935846,"connected_time":508000000000,"state":"active","ping":76},{"user_id":324,"name":"Notation","steam_id":76561198119509319,"connected_time":1679000000000,"state":"active","ping":61},{"user_id":326,"name":"Konical","steam_id":76561198056711430,"connected_time":1547000000000,"state":"active","ping":83},{"user_id":308,"name":"Navysealdemoman","steam_id":76561199048625312,"connected_time":2295000000000,"state":"active","ping":86},{"user_id":171,"name":"iaPK","steam_id":76561198056618642,"connected_time":11824000000000,"state":"active","ping":59},{"user_id":333,"name":"EquinoxFox","steam_id":76561198011459492,"connected_time":506000000000,"state":"active","ping":84},{"user_id":325,"name":"under the tree","steam_id":76561198396414319,"connected_time":1674000000000,"state":"active","ping":81},{"user_id":328,"name":"The Caretaker","steam_id":76561198125241411,"connected_time":1031000000000,"state":"active","ping":105},{"user_id":278,"name":"Bolder","steam_id":76561199061754867,"connected_time":4375000000000,"state":"active","ping":112},{"user_id":276,"name":"Apollo","steam_id":76561198162364702,"connected_time":4499000000000,"state":"active","ping":92},{"user_id":329,"name":"Drapph","steam_id":76561199384213314,"connected_time":1028000000000,"state":"active","ping":86},{"user_id":330,"name":"RagingBagon","steam_id":76561198255453127,"connected_time":1008000000000,"state":"active","ping":73},{"user_id":235,"name":"HollowMan","steam_id":76561198967266827,"connected_time":7092000000000,"state":"active","ping":100},{"user_id":303,"name":"bingus","steam_id":76561198132870504,"connected_time":3162000000000,"state":"active","ping":90},{"user_id":335,"name":"Skellacat","steam_id":76561199090786845,"connected_time":495000000000,"state":"active","ping":50},{"user_id":340,"name":"Frog","steam_id":76561198093257083,"connected_time":24000000000,"state":"spawning","ping":99}]},{"server_id":108,"name":"Uncletopia | Dallas | 2 | All Maps","name_short":"dal-2","host":"dal-1.us.uncletopia.com","port":27025,"enabled":true,"region":"us-central","cc":"us","latitude":32.779167,"longitude":-96.80889,"reserved":0,"last_update":"0001-01-01T00:00:00Z","name_a2s":"Uncletopia | Dallas | 2 | All Maps","protocol":17,"map":"cp_snakewater_final1","folder":"tf","game":"Team Fortress","app_id":440,"player_count":24,"max_players":24,"Bots":0,"server_type":"Dedicated","server_os":"Linux","password":true,"vac":true,"version":"7882260","steam_id":85568392924469988,"keywords":["cp","nocrits","nodmgspread","uncletopia"],"game_id":440,"stv_port":27026,"stv_name":"Uncletopia | Dallas | 2 | All Maps | STV","players":[{"user_id":367,"name":"slowdance","steam_id":76561198097427947,"connected_time":2735000000000,"state":"active","ping":95},{"user_id":370,"name":"diarrhea swirly","steam_id":76561197997194325,"connected_time":2649000000000,"state":"active","ping":102},{"user_id":371,"name":"Red","steam_id":76561198082958231,"connected_time":2624000000000,"state":"active","ping":76},{"user_id":355,"name":"cosmic","steam_id":76561198201496826,"connected_time":3275000000000,"state":"active","ping":84},{"user_id":393,"name":"BimmyBohns","steam_id":76561198175895250,"connected_time":481000000000,"state":"active","ping":32},{"user_id":391,"name":"austintacious","steam_id":76561198054118061,"connected_time":489000000000,"state":"active","ping":73},{"user_id":354,"name":"Arnelcardis","steam_id":76561198018063858,"connected_time":3290000000000,"state":"active","ping":88},{"user_id":380,"name":"ShapedSilver","steam_id":76561199073305310,"connected_time":1511000000000,"state":"active","ping":45},{"user_id":369,"name":"bing","steam_id":76561198005160560,"connected_time":2662000000000,"state":"active","ping":101},{"user_id":357,"name":"whackswilson","steam_id":76561199031785207,"connected_time":3256000000000,"state":"active","ping":74},{"user_id":389,"name":"Dumb Queer (she/her)","steam_id":76561198121468734,"connected_time":520000000000,"state":"active","ping":105},{"user_id":381,"name":"webaline","steam_id":76561199052450127,"connected_time":1447000000000,"state":"active","ping":77},{"user_id":366,"name":"Magitrex","steam_id":76561199088811754,"connected_time":2900000000000,"state":"active","ping":60},{"user_id":316,"name":"1 cel","steam_id":76561198950243192,"connected_time":4734000000000,"state":"active","ping":86},{"user_id":392,"name":".Sizzle","steam_id":76561198163266519,"connected_time":485000000000,"state":"active","ping":154},{"user_id":386,"name":"minyun","steam_id":76561199007250598,"connected_time":564000000000,"state":"active","ping":37},{"user_id":364,"name":"InsertNameHere","steam_id":76561199237340935,"connected_time":3140000000000,"state":"active","ping":84},{"user_id":372,"name":"Vince Murderslam","steam_id":76561197991111804,"connected_time":2608000000000,"state":"active","ping":113},{"user_id":394,"name":"blue","steam_id":76561198342449098,"connected_time":476000000000,"state":"active","ping":53},{"user_id":383,"name":"Emperor Dankatine","steam_id":76561198044741086,"connected_time":1320000000000,"state":"active","ping":85},{"user_id":395,"name":"Doomagedden","steam_id":76561198272589475,"connected_time":467000000000,"state":"active","ping":59},{"user_id":387,"name":"THE PACK","steam_id":76561198822069026,"connected_time":564000000000,"state":"active","ping":115},{"user_id":374,"name":"2020EXE","steam_id":76561198009893905,"connected_time":2602000000000,"state":"active","ping":98},{"user_id":343,"name":"whittlo","steam_id":76561198056793479,"connected_time":3858000000000,"state":"active","ping":93}]},{"server_id":5,"name":"Uncletopia | Frankfurt | 1 | All Maps","name_short":"frk-1","host":"frk-1.de.uncletopia.com","port":27015,"enabled":true,"region":"eu","cc":"de","latitude":50.110924,"longitude":8.682127,"reserved":0,"last_update":"0001-01-01T00:00:00Z","name_a2s":"Uncletopia | Frankfurt | 1 | All Maps","protocol":17,"map":"pl_upward","folder":"tf","game":"Team Fortress","app_id":440,"player_count":0,"max_players":24,"Bots":0,"server_type":"Dedicated","server_os":"Linux","password":true,"vac":true,"version":"7882260","steam_id":85568392924469989,"keywords":["nocrits","nodmgspread","payload","uncletopia"],"game_id":440,"stv_port":27016,"stv_name":"Uncletopia | Frankfurt | 1 | All Maps | STV","players":null},{"server_id":110,"name":"Uncletopia | Frankfurt | 2 | All Maps","name_short":"frk-2","host":"frk-1.de.uncletopia.com","port":27025,"enabled":true,"region":"eu","cc":"de","latitude":50.110924,"longitude":8.682127,"reserved":0,"last_update":"0001-01-01T00:00:00Z","name_a2s":"Uncletopia | Frankfurt | 2 | All Maps","protocol":17,"map":"koth_cascade","folder":"tf","game":"Team Fortress","app_id":440,"player_count":0,"max_players":24,"Bots":0,"server_type":"Dedicated","server_os":"Linux","password":true,"vac":true,"version":"7882260","steam_id":85568392924469990,"keywords":["cp","nocrits","nodmgspread","uncletopia"],"game_id":440,"stv_port":27026,"stv_name":"Uncletopia | Frankfurt | 2 | All Maps | STV","players":null},{"server_id":308,"name":"Uncletopia | Frankfurt | 3 | All Maps","name_short":"frk-3","host":"frk-1.de.uncletopia.com","port":27035,"enabled":true,"region":"eu","cc":"de","latitude":50.110924,"longitude":8.682127,"reserved":0,"last_update":"0001-01-01T00:00:00Z","name_a2s":"Uncletopia | Frankfurt | 3 | All Maps","protocol":17,"map":"cp_sunshine","folder":"tf","game":"Team Fortress","app_id":440,"player_count":0,"max_players":24,"Bots":0,"server_type":"Dedicated","server_os":"Linux","password":true,"vac":true,"version":"7882260","steam_id":85568392924504274,"keywords":["cp","nocrits","nodmgspread","uncletopia"],"game_id":440,"stv_port":27036,"stv_name":"Uncletopia | Frankfurt | 3 | All Maps | STV","players":null},{"server_id":309,"name":"Uncletopia | Frankfurt | 4 | All Maps","name_short":"frk-4","host":"frk-1.de.uncletopia.com","port":27045,"enabled":true,"region":"eu","cc":"de","latitude":50.110924,"longitude":8.682127,"reserved":0,"last_update":"0001-01-01T00:00:00Z","name_a2s":"Uncletopia | Frankfurt | 4 | All Maps","protocol":17,"map":"koth_lakeside_final","folder":"tf","game":"Team Fortress","app_id":440,"player_count":0,"max_players":24,"Bots":0,"server_type":"Dedicated","server_os":"Linux","password":true,"vac":true,"version":"7882260","steam_id":85568392924504275,"keywords":["cp","nocrits","nodmgspread","uncletopia"],"game_id":440,"stv_port":27046,"stv_name":"Uncletopia | Frankfurt | 4 | All Maps | STV","players":null},{"server_id":310,"name":"Uncletopia | Frankfurt | 5 | All Maps","name_short":"frk-5","host":"frk-1.de.uncletopia.com","port":27055,"enabled":true,"region":"eu","cc":"de","latitude":50.110924,"longitude":8.682127,"reserved":0,"last_update":"0001-01-01T00:00:00Z","name_a2s":"Uncletopia | Frankfurt | 5 | All Maps","protocol":17,"map":"pl_badwater","folder":"tf","game":"Team Fortress","app_id":440,"player_count":0,"max_players":24,"Bots":0,"server_type":"Dedicated","server_os":"Linux","password":true,"vac":true,"version":"7882260","steam_id":85568392924504277,"keywords":["nocrits","nodmgspread","payload","uncletopia"],"game_id":440,"stv_port":27056,"stv_name":"Uncletopia | Frankfurt | 5 | All Maps | STV","players":null},{"server_id":311,"name":"Uncletopia | Frankfurt | 6 | All Maps","name_short":"frk-6","host":"frk-1.de.uncletopia.com","port":27065,"enabled":true,"region":"eu","cc":"de","latitude":50.110924,"longitude":8.682127,"reserved":0,"last_update":"0001-01-01T00:00:00Z","name_a2s":"Uncletopia | Frankfurt | 6 | All Maps","protocol":17,"map":"cp_process_final","folder":"tf","game":"Team Fortress","app_id":440,"player_count":0,"max_players":24,"Bots":0,"server_type":"Dedicated","server_os":"Linux","password":true,"vac":true,"version":"7882260","steam_id":85568392924504278,"keywords":["cp","nocrits","nodmgspread","uncletopia"],"game_id":440,"stv_port":27066,"stv_name":"Uncletopia | Frankfurt | 6 | All Maps | STV","players":null},{"server_id":23,"name":"Uncletopia | Frankfurt | 7 | Stopwatch Beta","name_short":"frk-7","host":"frk-1.de.uncletopia.com","port":27075,"enabled":true,"region":"eu","cc":"de","latitude":50.110924,"longitude":8.682127,"reserved":0,"last_update":"0001-01-01T00:00:00Z","name_a2s":"Uncletopia | Frankfurt | 7 | Stopwatch Beta","protocol":17,"map":"workshop/koth_ramjam_rc1.ugc459778887","folder":"tf","game":"Team Fortress","app_id":440,"player_count":0,"max_players":24,"Bots":0,"server_type":"Dedicated","server_os":"Linux","password":true,"vac":true,"version":"7882260","steam_id":85568392924742827,"keywords":["cp","nocrits","nodmgspread","uncletopia"],"game_id":440,"stv_port":27076,"stv_name":"Uncletopia | Frankfurt | 7 | Stopwatch Beta | STV","players":null},{"server_id":24,"name":"Uncletopia | Frankfurt | 8 | Community","name_short":"frk-8","host":"frk-1.de.uncletopia.com","port":27085,"enabled":true,"region":"eu","cc":"de","latitude":50.110924,"longitude":8.682127,"reserved":0,"last_update":"0001-01-01T00:00:00Z","name_a2s":"Uncletopia | Frankfurt | 8 | Community","protocol":17,"map":"koth_cascade","folder":"tf","game":"Team Fortress","app_id":440,"player_count":0,"max_players":24,"Bots":0,"server_type":"Dedicated","server_os":"Linux","password":true,"vac":true,"version":"7882260","steam_id":85568392924742828,"keywords":["cp","nocrits","nodmgspread","uncletopia"],"game_id":440,"stv_port":27086,"stv_name":"Uncletopia | Frankfurt | 8 | Community | STV","players":null},{"server_id":202,"name":"Uncletopia | Hong Kong | 1 | All Maps","name_short":"hgk-1","host":"hgk-1.hk.uncletopia.com","port":27015,"enabled":true,"region":"asia","cc":"hk","latitude":22.302711,"longitude":114.177216,"reserved":0,"last_update":"0001-01-01T00:00:00Z","name_a2s":"Uncletopia | Hong Kong | 1 | All Maps","protocol":17,"map":"koth_cascade","folder":"tf","game":"Team Fortress","app_id":440,"player_count":0,"max_players":24,"Bots":0,"server_type":"Dedicated","server_os":"Linux","password":true,"vac":true,"version":"7882260","steam_id":85568392924494504,"keywords":["cp","nocrits","nodmgspread","uncletopia"],"game_id":440,"stv_port":27016,"stv_name":"Uncletopia | Hong Kong | 1 | All Maps | STV","players":null},{"server_id":1,"name":"Uncletopia | Los Angeles | 1 | All Maps","name_short":"lax-1","host":"lax-1.us.uncletopia.com","port":27015,"enabled":true,"region":"us-west","cc":"us","latitude":33.94279,"longitude":-118.41004,"reserved":0,"last_update":"0001-01-01T00:00:00Z","name_a2s":"Uncletopia | Los Angeles | 1 | All Maps","protocol":17,"map":"pl_snowycoast","folder":"tf","game":"Team Fortress","app_id":440,"player_count":24,"max_players":24,"Bots":0,"server_type":"Dedicated","server_os":"Linux","password":true,"vac":true,"version":"7882260","steam_id":85568392924469991,"keywords":["nocrits","nodmgspread","payload","uncletopia"],"game_id":440,"stv_port":27016,"stv_name":"Uncletopia | Los Angeles | 1 | All Maps | STV","players":[{"user_id":233,"name":"BlazedBunny","steam_id":76561198243610560,"connected_time":1342000000000,"state":"active","ping":93},{"user_id":172,"name":"Drakon","steam_id":76561198078210822,"connected_time":7833000000000,"state":"active","ping":62},{"user_id":213,"name":"Tmiracle","steam_id":76561198052375275,"connected_time":3173000000000,"state":"active","ping":46},{"user_id":170,"name":"Drive-By-Fish-Guy","steam_id":76561198105513652,"connected_time":7921000000000,"state":"active","ping":61},{"user_id":218,"name":"Smitty Werbenjagermanjensen","steam_id":76561198065782439,"connected_time":2833000000000,"state":"active","ping":99},{"user_id":224,"name":"DOPEam1ne","steam_id":76561198112204774,"connected_time":2695000000000,"state":"active","ping":56},{"user_id":225,"name":"Crowvette","steam_id":76561198000457496,"connected_time":2510000000000,"state":"active","ping":45},{"user_id":216,"name":"g0nk","steam_id":76561198838309024,"connected_time":2902000000000,"state":"active","ping":95},{"user_id":246,"name":"SAD MOSCOVIA","steam_id":76561198101081520,"connected_time":224000000000,"state":"active","ping":88},{"user_id":228,"name":"pylot","steam_id":76561198119460618,"connected_time":1782000000000,"state":"active","ping":58},{"user_id":240,"name":"Apprentice Pybro","steam_id":76561197996353534,"connected_time":427000000000,"state":"active","ping":51},{"user_id":242,"name":"silver","steam_id":76561199020503397,"connected_time":411000000000,"state":"active","ping":45},{"user_id":232,"name":"R5-D4","steam_id":76561198025196439,"connected_time":1566000000000,"state":"active","ping":76},{"user_id":219,"name":"video game","steam_id":76561198067035501,"connected_time":2779000000000,"state":"active","ping":67},{"user_id":236,"name":"Pangolin","steam_id":76561198318126190,"connected_time":1173000000000,"state":"active","ping":145},{"user_id":229,"name":"Bombat","steam_id":76561198083096946,"connected_time":1778000000000,"state":"active","ping":75},{"user_id":235,"name":"Shamrock Shake Oct.10.2020 @8pm","steam_id":76561198833313201,"connected_time":1194000000000,"state":"active","ping":65},{"user_id":249,"name":"DaddyMulk","steam_id":76561198056335707,"connected_time":31000000000,"state":"active","ping":115},{"user_id":215,"name":"Bastee1021","steam_id":76561199456141163,"connected_time":3022000000000,"state":"active","ping":73},{"user_id":247,"name":"Alex_Awesome_H","steam_id":76561197986261245,"connected_time":208000000000,"state":"active","ping":85},{"user_id":243,"name":"cielael","steam_id":76561198043971956,"connected_time":346000000000,"state":"active","ping":46},{"user_id":222,"name":"Turtimos","steam_id":76561198093519137,"connected_time":2747000000000,"state":"active","ping":68},{"user_id":237,"name":"demo gaming!","steam_id":76561198397708640,"connected_time":794000000000,"state":"active","ping":31},{"user_id":231,"name":"GLXy","steam_id":76561198207551544,"connected_time":1638000000000,"state":"active","ping":90}]},{"server_id":112,"name":"Uncletopia | Los Angeles | 2 | All Maps","name_short":"lax-2","host":"lax-1.us.uncletopia.com","port":27025,"enabled":true,"region":"us-west","cc":"us","latitude":33.94279,"longitude":-118.41004,"reserved":0,"last_update":"0001-01-01T00:00:00Z","name_a2s":"Uncletopia | Los Angeles | 2 | All Maps","protocol":17,"map":"cp_dustbowl","folder":"tf","game":"Team Fortress","app_id":440,"player_count":0,"max_players":24,"Bots":0,"server_type":"Dedicated","server_os":"Linux","password":true,"vac":true,"version":"7882260","steam_id":85568392924469992,"keywords":["cp","nocrits","nodmgspread","uncletopia"],"game_id":440,"stv_port":27026,"stv_name":"Uncletopia | Los Angeles | 2 | All Maps | STV","players":null},{"server_id":324,"name":"Uncletopia | Los Angeles | 3 | All Maps","name_short":"lax-3","host":"lax-1.us.uncletopia.com","port":27035,"enabled":true,"region":"us-west","cc":"us","latitude":33.94279,"longitude":-118.41004,"reserved":0,"last_update":"0001-01-01T00:00:00Z","name_a2s":"Uncletopia | Los Angeles | 3 | All Maps","protocol":17,"map":"koth_lakeside_final","folder":"tf","game":"Team Fortress","app_id":440,"player_count":0,"max_players":24,"Bots":0,"server_type":"Dedicated","server_os":"Linux","password":true,"vac":true,"version":"7882260","steam_id":85568392924510198,"keywords":["cp","nocrits","nodmgspread","uncletopia"],"game_id":440,"stv_port":27036,"stv_name":"Uncletopia | Los Angeles | 3 | All Maps | STV","players":null},{"server_id":25,"name":"Uncletopia | Los Angeles | 4 | Stopwatch Beta","name_short":"lax-4","host":"lax-1.us.uncletopia.com","port":27045,"enabled":true,"region":"us-west","cc":"us","latitude":33.94279,"longitude":-118.41004,"reserved":0,"last_update":"0001-01-01T00:00:00Z","name_a2s":"Uncletopia | Los Angeles | 4 | Stopwatch Beta","protocol":17,"map":"cp_snakewater_final1","folder":"tf","game":"Team Fortress","app_id":440,"player_count":0,"max_players":24,"Bots":0,"server_type":"Dedicated","server_os":"Linux","password":true,"vac":true,"version":"7882260","steam_id":85568392924510199,"keywords":["cp","nocrits","nodmgspread","uncletopia"],"game_id":440,"stv_port":27046,"stv_name":"Uncletopia | Los Angeles | 4 | Stopwatch Beta | STV","players":null},{"server_id":11,"name":"Uncletopia | London | 1 | All Maps","name_short":"lon-1","host":"lon-1.uk.uncletopia.com","port":27015,"enabled":true,"region":"eu","cc":"gb","latitude":51.509865,"longitude":-0.118092,"reserved":0,"last_update":"0001-01-01T00:00:00Z","name_a2s":"Uncletopia | London | 1 | All Maps","protocol":17,"map":"ctf_turbine","folder":"tf","game":"Team Fortress","app_id":440,"player_count":23,"max_players":24,"Bots":0,"server_type":"Dedicated","server_os":"Linux","password":true,"vac":true,"version":"7882260","steam_id":85568392924367362,"keywords":["ctf","nocrits","nodmgspread","uncletopia"],"game_id":440,"stv_port":27016,"stv_name":"Uncletopia | London | 1 | All Maps | STV","players":[{"user_id":491,"name":"regimiro","steam_id":76561198120457008,"connected_time":3006000000000,"state":"active","ping":55},{"user_id":536,"name":"dungeon daddy","steam_id":76561197981815844,"connected_time":688000000000,"state":"active","ping":60},{"user_id":499,"name":"HattiestGuy","steam_id":76561198073173057,"connected_time":2471000000000,"state":"active","ping":50},{"user_id":522,"name":"Hive","steam_id":76561199480966681,"connected_time":1712000000000,"state":"active","ping":64},{"user_id":548,"name":"Lux","steam_id":76561198060417740,"connected_time":151000000000,"state":"active","ping":45},{"user_id":492,"name":"Dave","steam_id":76561198295272309,"connected_time":2992000000000,"state":"active","ping":40},{"user_id":468,"name":"BreadBubbles","steam_id":76561198174332826,"connected_time":4221000000000,"state":"active","ping":54},{"user_id":484,"name":"REN","steam_id":76561198000596385,"connected_time":3509000000000,"state":"active","ping":81},{"user_id":493,"name":"profi248","steam_id":76561198144795505,"connected_time":2981000000000,"state":"active","ping":60},{"user_id":549,"name":"🃔 Nugg1t(she/they)","steam_id":76561198065652251,"connected_time":88000000000,"state":"active","ping":45},{"user_id":545,"name":"Founder","steam_id":76561198193763778,"connected_time":244000000000,"state":"active","ping":64},{"user_id":446,"name":"Stańczyk","steam_id":76561197998906563,"connected_time":6576000000000,"state":"active","ping":42},{"user_id":551,"name":"Lordware","steam_id":76561198022011299,"connected_time":13000000000,"state":"spawning","ping":96},{"user_id":483,"name":"Jånuary","steam_id":76561198272259060,"connected_time":3838000000000,"state":"active","ping":57},{"user_id":538,"name":"minn","steam_id":76561198099101232,"connected_time":620000000000,"state":"active","ping":53},{"user_id":532,"name":"ZOOTANDASTELLA","steam_id":76561198123238801,"connected_time":848000000000,"state":"active","ping":53},{"user_id":519,"name":"xcvbwravdloiy56qw","steam_id":76561198448551449,"connected_time":1829000000000,"state":"active","ping":35},{"user_id":547,"name":"tuna","steam_id":76561198121590248,"connected_time":191000000000,"state":"active","ping":46},{"user_id":550,"name":"AsuX","steam_id":76561197990333289,"connected_time":52000000000,"state":"active","ping":63},{"user_id":540,"name":"Explosive Poptart","steam_id":76561198023918830,"connected_time":605000000000,"state":"active","ping":44},{"user_id":512,"name":"The.Real.Genesis","steam_id":76561198999652040,"connected_time":2012000000000,"state":"active","ping":45},{"user_id":542,"name":"Brother Purification Of Hoods","steam_id":76561198044766151,"connected_time":504000000000,"state":"active","ping":93}]},{"server_id":114,"name":"Uncletopia | London | 2 | All Maps","name_short":"lon-2","host":"lon-1.uk.uncletopia.com","port":27025,"enabled":true,"region":"eu","cc":"gb","latitude":51.509865,"longitude":-0.118092,"reserved":0,"last_update":"0001-01-01T00:00:00Z","name_a2s":"Uncletopia | London | 2 | All Maps","protocol":17,"map":"pl_borneo","folder":"tf","game":"Team Fortress","app_id":440,"player_count":24,"max_players":24,"Bots":0,"server_type":"Dedicated","server_os":"Linux","password":true,"vac":true,"version":"7882260","steam_id":85568392924470941,"keywords":["nocrits","nodmgspread","payload","uncletopia"],"game_id":440,"stv_port":27026,"stv_name":"Uncletopia | London | 2 | All Maps | STV","players":[{"user_id":482,"name":"dd","steam_id":76561198257836694,"connected_time":3222000000000,"state":"active","ping":44},{"user_id":484,"name":"Lee Harvey Oswald","steam_id":76561198014180531,"connected_time":3190000000000,"state":"active","ping":75},{"user_id":495,"name":"Alf","steam_id":76561198869666452,"connected_time":2489000000000,"state":"active","ping":62},{"user_id":469,"name":"Volcyy","steam_id":76561198063979124,"connected_time":5174000000000,"state":"active","ping":59},{"user_id":470,"name":"vani","steam_id":76561197991778291,"connected_time":5169000000000,"state":"active","ping":75},{"user_id":511,"name":"Olvustin","steam_id":76561198272011453,"connected_time":485000000000,"state":"active","ping":104},{"user_id":497,"name":"Lau","steam_id":76561197993573576,"connected_time":2411000000000,"state":"active","ping":95},{"user_id":517,"name":"RBV","steam_id":76561198370445644,"connected_time":102000000000,"state":"active","ping":72},{"user_id":487,"name":"JSX #savetf2","steam_id":76561198039097662,"connected_time":3021000000000,"state":"active","ping":75},{"user_id":488,"name":"GGabe","steam_id":76561198117199068,"connected_time":2977000000000,"state":"active","ping":79},{"user_id":496,"name":"Krocon","steam_id":76561198084906316,"connected_time":2464000000000,"state":"active","ping":92},{"user_id":498,"name":"Pride_","steam_id":76561198046446797,"connected_time":2309000000000,"state":"active","ping":120},{"user_id":499,"name":"XL54M15Y","steam_id":76561198048250715,"connected_time":2293000000000,"state":"active","ping":71},{"user_id":406,"name":"Doctor Marijuana","steam_id":76561198288289879,"connected_time":8324000000000,"state":"active","ping":46},{"user_id":518,"name":"Dragonsofdra","steam_id":76561198253369292,"connected_time":74000000000,"state":"active","ping":195},{"user_id":512,"name":"wood fired","steam_id":76561198100590571,"connected_time":463000000000,"state":"active","ping":56},{"user_id":493,"name":"Raine","steam_id":76561198098860903,"connected_time":2782000000000,"state":"active","ping":66},{"user_id":401,"name":"Proto-arc","steam_id":76561198012776747,"connected_time":8503000000000,"state":"active","ping":55},{"user_id":519,"name":"ChPerette","steam_id":76561198060004887,"connected_time":57000000000,"state":"active","ping":45},{"user_id":466,"name":"Keira","steam_id":76561198330870400,"connected_time":5533000000000,"state":"active","ping":67},{"user_id":468,"name":"cinny","steam_id":76561198832112629,"connected_time":5302000000000,"state":"active","ping":89},{"user_id":503,"name":"\u003cCH\u003e λ T T O S Z","steam_id":76561198043438734,"connected_time":1932000000000,"state":"active","ping":71},{"user_id":368,"name":"Mr_Pulse_","steam_id":76561198095001602,"connected_time":11082000000000,"state":"active","ping":106},{"user_id":410,"name":"Johan","steam_id":76561199380849468,"connected_time":8192000000000,"state":"active","ping":64}]},{"server_id":320,"name":"Uncletopia | London | 3 | All Maps","name_short":"lon-3","host":"lon-1.uk.uncletopia.com","port":27035,"enabled":true,"region":"eu","cc":"gb","latitude":51.509865,"longitude":-0.118092,"reserved":0,"last_update":"0001-01-01T00:00:00Z","name_a2s":"Uncletopia | London | 3 | All Maps","protocol":17,"map":"cp_mountainlab","folder":"tf","game":"Team Fortress","app_id":440,"player_count":16,"max_players":24,"Bots":0,"server_type":"Dedicated","server_os":"Linux","password":true,"vac":true,"version":"7882260","steam_id":85568392924510192,"keywords":["cp","nocrits","nodmgspread","uncletopia"],"game_id":440,"stv_port":27036,"stv_name":"Uncletopia | London | 3 | All Maps | STV","players":[{"user_id":781,"name":"NitPig","steam_id":76561198212991935,"connected_time":554000000000,"state":"active","ping":106},{"user_id":744,"name":"Mabert","steam_id":76561198436058407,"connected_time":2580000000000,"state":"active","ping":75},{"user_id":785,"name":"Miss Take","steam_id":76561198329913999,"connected_time":164000000000,"state":"active","ping":49},{"user_id":768,"name":"killbind irl","steam_id":76561198180637374,"connected_time":1183000000000,"state":"active","ping":97},{"user_id":753,"name":"Cyberknight","steam_id":76561199384165711,"connected_time":2048000000000,"state":"active","ping":144},{"user_id":789,"name":"☁ Lou1smeister ☁","steam_id":76561198004032968,"connected_time":69000000000,"state":"active","ping":60},{"user_id":775,"name":"DaviK","steam_id":76561198246990590,"connected_time":747000000000,"state":"active","ping":55},{"user_id":742,"name":"yobelle","steam_id":76561198109598697,"connected_time":2699000000000,"state":"active","ping":64},{"user_id":663,"name":"based tryhard","steam_id":76561198084470380,"connected_time":9346000000000,"state":"active","ping":59},{"user_id":784,"name":"The Funtime Crew","steam_id":76561198022599010,"connected_time":225000000000,"state":"active","ping":59},{"user_id":776,"name":"THVG","steam_id":76561199156685368,"connected_time":721000000000,"state":"active","ping":62},{"user_id":777,"name":"Blu_Blaze","steam_id":76561198094030891,"connected_time":677000000000,"state":"active","ping":96},{"user_id":758,"name":"smile","steam_id":76561198365841841,"connected_time":1742000000000,"state":"active","ping":70},{"user_id":787,"name":"AlexGUI.tar.xz","steam_id":76561198025583102,"connected_time":121000000000,"state":"spawning","ping":72},{"user_id":774,"name":"Engineer","steam_id":76561198079444743,"connected_time":759000000000,"state":"active","ping":81},{"user_id":770,"name":"Gnarville","steam_id":76561198006373329,"connected_time":956000000000,"state":"active","ping":47}]},{"server_id":321,"name":"Uncletopia | London | 4 | All Maps","name_short":"lon-4","host":"lon-1.uk.uncletopia.com","port":27045,"enabled":true,"region":"eu","cc":"gb","latitude":51.509865,"longitude":-0.118092,"reserved":0,"last_update":"0001-01-01T00:00:00Z","name_a2s":"Uncletopia | London | 4 | All Maps","protocol":17,"map":"pl_snowycoast","folder":"tf","game":"Team Fortress","app_id":440,"player_count":24,"max_players":24,"Bots":0,"server_type":"Dedicated","server_os":"Linux","password":true,"vac":true,"version":"7882260","steam_id":85568392924510193,"keywords":["nocrits","nodmgspread","payload","uncletopia"],"game_id":440,"stv_port":27046,"stv_name":"Uncletopia | London | 4 | All Maps | STV","players":[{"user_id":443,"name":"NoomTsap","steam_id":76561199114184638,"connected_time":499000000000,"state":"active","ping":77},{"user_id":421,"name":"ikeaworst","steam_id":76561198936990378,"connected_time":2412000000000,"state":"active","ping":60},{"user_id":449,"name":"etc","steam_id":76561197998394797,"connected_time":349000000000,"state":"active","ping":57},{"user_id":432,"name":"Penis Contortionist","steam_id":76561198073663784,"connected_time":1577000000000,"state":"active","ping":36},{"user_id":444,"name":"Mobster Tortoise","steam_id":76561199036837091,"connected_time":495000000000,"state":"active","ping":91},{"user_id":445,"name":"CEO of Monkey Business","steam_id":76561197970114051,"connected_time":494000000000,"state":"active","ping":44},{"user_id":440,"name":"Undertaker","steam_id":76561198364121077,"connected_time":656000000000,"state":"active","ping":100},{"user_id":415,"name":"glyph","steam_id":76561197980736364,"connected_time":2639000000000,"state":"active","ping":81},{"user_id":433,"name":"lettuce out of stock","steam_id":76561199401283123,"connected_time":1575000000000,"state":"active","ping":51},{"user_id":450,"name":"kHz`","steam_id":76561198152368271,"connected_time":320000000000,"state":"active","ping":77},{"user_id":431,"name":"Hyppy ja liipasin pohjaan :D","steam_id":76561198080669698,"connected_time":1664000000000,"state":"active","ping":97},{"user_id":374,"name":"Chucky.","steam_id":76561197969361063,"connected_time":6245000000000,"state":"active","ping":78},{"user_id":434,"name":"tm`","steam_id":76561197993580412,"connected_time":1557000000000,"state":"active","ping":67},{"user_id":423,"name":"jones","steam_id":76561198044434971,"connected_time":2270000000000,"state":"active","ping":65},{"user_id":379,"name":"b ull","steam_id":76561199233979726,"connected_time":6163000000000,"state":"active","ping":91},{"user_id":438,"name":"♥ trixy ♥","steam_id":76561199474154775,"connected_time":1269000000000,"state":"active","ping":53},{"user_id":368,"name":"Sentry Man","steam_id":76561198088417596,"connected_time":6710000000000,"state":"active","ping":73},{"user_id":451,"name":"Devil","steam_id":76561198129721935,"connected_time":120000000000,"state":"active","ping":87},{"user_id":447,"name":"Conquestador","steam_id":76561198167749131,"connected_time":479000000000,"state":"active","ping":61},{"user_id":448,"name":"Superiumentarius","steam_id":76561198081642249,"connected_time":478000000000,"state":"active","ping":60},{"user_id":439,"name":"Milk","steam_id":76561198125876588,"connected_time":1050000000000,"state":"active","ping":42},{"user_id":436,"name":"Valen","steam_id":76561198049614521,"connected_time":1400000000000,"state":"active","ping":73},{"user_id":437,"name":"Not A Fake Uncletopia Server","steam_id":76561198152871288,"connected_time":1278000000000,"state":"active","ping":61},{"user_id":428,"name":"mom, grab the shotty","steam_id":76561198815271970,"connected_time":1940000000000,"state":"active","ping":69}]},{"server_id":21,"name":"Uncletopia | London | 5 | All Maps","name_short":"lon-5","host":"lon-1.uk.uncletopia.com","port":27055,"enabled":true,"region":"eu","cc":"gb","latitude":51.509865,"longitude":-0.118092,"reserved":0,"last_update":"0001-01-01T00:00:00Z","name_a2s":"Uncletopia | London | 5 | All Maps","protocol":17,"map":"cp_mountainlab","folder":"tf","game":"Team Fortress","app_id":440,"player_count":0,"max_players":24,"Bots":0,"server_type":"Dedicated","server_os":"Linux","password":true,"vac":true,"version":"7882260","steam_id":85568392924742829,"keywords":["cp","nocrits","nodmgspread","uncletopia"],"game_id":440,"stv_port":27056,"stv_name":"Uncletopia | London | 5 | All Maps | STV","players":null},{"server_id":22,"name":"Uncletopia | London | 6 | All Maps","name_short":"lon-6","host":"lon-1.uk.uncletopia.com","port":27065,"enabled":true,"region":"eu","cc":"gb","latitude":51.509865,"longitude":-0.118092,"reserved":0,"last_update":"0001-01-01T00:00:00Z","name_a2s":"Uncletopia | London | 6 | All Maps","protocol":17,"map":"koth_lakeside_final","folder":"tf","game":"Team Fortress","app_id":440,"player_count":2,"max_players":24,"Bots":0,"server_type":"Dedicated","server_os":"Linux","password":true,"vac":true,"version":"7882260","steam_id":85568392924742830,"keywords":["cp","nocrits","nodmgspread","uncletopia"],"game_id":440,"stv_port":27066,"stv_name":"Uncletopia | London | 6 | All Maps | STV","players":[{"user_id":274,"name":"ᛀᚩᛏ ᛖᛞᚷᚤ","steam_id":76561198842950723,"connected_time":1228000000000,"state":"active","ping":72},{"user_id":229,"name":"disabled.chimp007","steam_id":76561198132062857,"connected_time":5175000000000,"state":"active","ping":74}]},{"server_id":40,"name":"Uncletopia | London | 7 | No Payload","name_short":"lon-7","host":"lon-1.uk.uncletopia.com","port":27075,"enabled":true,"region":"eu","cc":"gb","latitude":51.509865,"longitude":-0.118092,"reserved":0,"last_update":"0001-01-01T00:00:00Z","name_a2s":"Uncletopia | London | 7 | No Payload","protocol":17,"map":"koth_sawmill","folder":"tf","game":"Team Fortress","app_id":440,"player_count":0,"max_players":24,"Bots":0,"server_type":"Dedicated","server_os":"Linux","password":true,"vac":true,"version":"7882260","steam_id":85568392924964314,"keywords":["cp","nocrits","nodmgspread","uncletopia"],"game_id":440,"stv_port":27076,"stv_name":"Uncletopia | London | 7 | No Payload | STV","players":null},{"server_id":41,"name":"Uncletopia | London | 8 | Community","name_short":"lon-8","host":"lon-1.uk.uncletopia.com","port":27085,"enabled":true,"region":"eu","cc":"gb","latitude":51.509865,"longitude":-0.118092,"reserved":0,"last_update":"0001-01-01T00:00:00Z","name_a2s":"Uncletopia | London | 8 | Community","protocol":17,"map":"pl_swiftwater_final1","folder":"tf","game":"Team Fortress","app_id":440,"player_count":0,"max_players":24,"Bots":0,"server_type":"Dedicated","server_os":"Linux","password":true,"vac":true,"version":"7882260","steam_id":85568392924964315,"keywords":["nocrits","nodmgspread","payload","uncletopia"],"game_id":440,"stv_port":27086,"stv_name":"Uncletopia | London | 8 | Community | STV","players":null},{"server_id":300,"name":"Uncletopia | Montréal | 1 | All Maps","name_short":"mtl-1","host":"mtl-1.ca.uncletopia.com","port":27015,"enabled":true,"region":"us-east","cc":"ca","latitude":45.50889,"longitude":-73.56167,"reserved":0,"last_update":"0001-01-01T00:00:00Z","name_a2s":"Uncletopia | Montréal | 1 | All Maps","protocol":17,"map":"koth_cascade","folder":"tf","game":"Team Fortress","app_id":440,"player_count":13,"max_players":24,"Bots":0,"server_type":"Dedicated","server_os":"Linux","password":true,"vac":true,"version":"7882260","steam_id":85568392924500087,"keywords":["cp","nocrits","nodmgspread","uncletopia"],"game_id":440,"stv_port":27016,"stv_name":"Uncletopia | Montréal | 1 | All Maps | STV","players":[{"user_id":11,"name":"The goober killer","steam_id":76561198052535342,"connected_time":542000000000,"state":"active","ping":59},{"user_id":10,"name":"Fish Bait","steam_id":76561198196406966,"connected_time":654000000000,"state":"active","ping":163},{"user_id":12,"name":"WHY DID YOU DO THAT???","steam_id":76561198084467765,"connected_time":331000000000,"state":"active","ping":64},{"user_id":13,"name":"HundchenTanque","steam_id":76561198122692754,"connected_time":272000000000,"state":"active","ping":43},{"user_id":14,"name":"twonkers","steam_id":76561198055206580,"connected_time":248000000000,"state":"active","ping":70},{"user_id":15,"name":"boner","steam_id":76561198327988403,"connected_time":226000000000,"state":"active","ping":84},{"user_id":16,"name":"chth_shortstop","steam_id":76561198210956659,"connected_time":196000000000,"state":"active","ping":128},{"user_id":17,"name":"FS Jorda (She/Her)","steam_id":76561198071421459,"connected_time":117000000000,"state":"active","ping":38},{"user_id":18,"name":"✪Xavier","steam_id":76561198195968638,"connected_time":75000000000,"state":"active","ping":50},{"user_id":19,"name":"sam LFT","steam_id":76561198080951077,"connected_time":27000000000,"state":"active","ping":102},{"user_id":20,"name":"rfed","steam_id":76561198194789617,"connected_time":26000000000,"state":"spawning","ping":74},{"user_id":21,"name":"Tobin","steam_id":76561198072977470,"connected_time":26000000000,"state":"spawning","ping":106},{"user_id":22,"name":"0vii","steam_id":76561198117084598,"connected_time":26000000000,"state":"active","ping":61}]},{"server_id":301,"name":"Uncletopia | Montréal | 2 | All Maps","name_short":"mtl-2","host":"mtl-1.ca.uncletopia.com","port":27025,"enabled":true,"region":"us-east","cc":"ca","latitude":45.50889,"longitude":-73.56167,"reserved":0,"last_update":"0001-01-01T00:00:00Z","name_a2s":"Uncletopia | Montréal | 2 | All Maps","protocol":17,"map":"koth_viaduct","folder":"tf","game":"Team Fortress","app_id":440,"player_count":1,"max_players":24,"Bots":0,"server_type":"Dedicated","server_os":"Linux","password":true,"vac":true,"version":"7882260","steam_id":85568392924500088,"keywords":["cp","nocrits","nodmgspread","uncletopia"],"game_id":440,"stv_port":27026,"stv_name":"Uncletopia | Montréal | 2 | All Maps | STV","players":[{"user_id":11,"name":"Corn Dog","steam_id":76561198014276989,"connected_time":128000000000,"state":"active","ping":95}]},{"server_id":302,"name":"Uncletopia | Montréal | 3 | All Maps","name_short":"mtl-3","host":"mtl-1.ca.uncletopia.com","port":27035,"enabled":true,"region":"us-east","cc":"ca","latitude":45.50889,"longitude":-73.56167,"reserved":0,"last_update":"0001-01-01T00:00:00Z","name_a2s":"Uncletopia | Montréal | 3 | All Maps","protocol":17,"map":"koth_lakeside_final","folder":"tf","game":"Team Fortress","app_id":440,"player_count":0,"max_players":24,"Bots":0,"server_type":"Dedicated","server_os":"Linux","password":true,"vac":true,"version":"7882260","steam_id":85568392924500089,"keywords":["cp","nocrits","nodmgspread","uncletopia"],"game_id":440,"stv_port":27036,"stv_name":"Uncletopia | Montréal | 3 | All Maps | STV","players":null},{"server_id":303,"name":"Uncletopia | Montréal | 4 | No Payload","name_short":"mtl-4","host":"mtl-1.ca.uncletopia.com","port":27045,"enabled":true,"region":"us-east","cc":"ca","latitude":45.50889,"longitude":-73.56167,"reserved":0,"last_update":"0001-01-01T00:00:00Z","name_a2s":"Uncletopia | Montréal | 4 | No Payload","protocol":17,"map":"cp_altitude","folder":"tf","game":"Team Fortress","app_id":440,"player_count":1,"max_players":24,"Bots":0,"server_type":"Dedicated","server_os":"Linux","password":true,"vac":true,"version":"7882260","steam_id":85568392924500090,"keywords":["cp","nocrits","nodmgspread","uncletopia"],"game_id":440,"stv_port":27046,"stv_name":"Uncletopia | Montréal | 4 | No Payload | STV","players":[{"user_id":6,"name":"Rue","steam_id":76561198013135993,"connected_time":76000000000,"state":"active","ping":42}]},{"server_id":13,"name":"Uncletopia | New York City | 1 | All Maps","name_short":"nyc-1","host":"nyc-1.us.uncletopia.com","port":27015,"enabled":true,"region":"us-east","cc":"us","latitude":40.73061,"longitude":-73.93524,"reserved":0,"last_update":"0001-01-01T00:00:00Z","name_a2s":"Uncletopia | New York City | 1 | All Maps","protocol":17,"map":"pl_pier","folder":"tf","game":"Team Fortress","app_id":440,"player_count":23,"max_players":24,"Bots":0,"server_type":"Dedicated","server_os":"Linux","password":true,"vac":true,"version":"7882260","steam_id":85568392924469993,"keywords":["nocrits","nodmgspread","payload","uncletopia"],"game_id":440,"stv_port":27016,"stv_name":"Uncletopia | New York City | 1 | All Maps | STV","players":[{"user_id":408,"name":"HorseCooker","steam_id":76561198076588370,"connected_time":1068000000000,"state":"active","ping":125},{"user_id":345,"name":"Unikson","steam_id":76561198351504294,"connected_time":6181000000000,"state":"active","ping":78},{"user_id":404,"name":"MoonMan","steam_id":76561198196754081,"connected_time":1747000000000,"state":"active","ping":50},{"user_id":392,"name":"Poi","steam_id":76561198176914898,"connected_time":2417000000000,"state":"active","ping":89},{"user_id":420,"name":"happs (God is good)","steam_id":76561198364093418,"connected_time":38000000000,"state":"spawning","ping":137},{"user_id":413,"name":"TLG, Certified Gamer Mom","steam_id":76561198076669951,"connected_time":195000000000,"state":"active","ping":58},{"user_id":421,"name":"trustmeiknow","steam_id":76561198141700569,"connected_time":28000000000,"state":"spawning","ping":58},{"user_id":422,"name":"Seico Bass","steam_id":76561198123498500,"connected_time":25000000000,"state":"connecting","ping":90},{"user_id":407,"name":"d(^_^)z","steam_id":76561198088909286,"connected_time":1515000000000,"state":"active","ping":152},{"user_id":399,"name":"Ghost Modern Warfare 2 (2022)","steam_id":76561198116295334,"connected_time":2175000000000,"state":"active","ping":50},{"user_id":388,"name":"Riandox","steam_id":76561198130577326,"connected_time":3139000000000,"state":"active","ping":63},{"user_id":418,"name":"JackThePerson","steam_id":76561198306350827,"connected_time":47000000000,"state":"spawning","ping":76},{"user_id":412,"name":"Yesu","steam_id":76561198026522528,"connected_time":749000000000,"state":"active","ping":48},{"user_id":424,"name":"Fluff Butt","steam_id":76561199008334604,"connected_time":13000000000,"state":"active","ping":108},{"user_id":410,"name":"smuffy","steam_id":76561198091459506,"connected_time":919000000000,"state":"active","ping":49},{"user_id":415,"name":"Ramalho","steam_id":76561198909009076,"connected_time":51000000000,"state":"active","ping":184},{"user_id":376,"name":"cool safe name","steam_id":76561198237827742,"connected_time":4504000000000,"state":"active","ping":50},{"user_id":377,"name":"Osama Jr.","steam_id":76561199062155197,"connected_time":4479000000000,"state":"active","ping":60},{"user_id":395,"name":"10KO!","steam_id":76561199134895220,"connected_time":2310000000000,"state":"active","ping":58},{"user_id":411,"name":"peytonsviolet","steam_id":76561198858342011,"connected_time":906000000000,"state":"active","ping":56},{"user_id":417,"name":"BigBubble42","steam_id":76561198136286123,"connected_time":49000000000,"state":"spawning","ping":117},{"user_id":349,"name":"Agent Nibbles","steam_id":76561198465061146,"connected_time":5958000000000,"state":"active","ping":73},{"user_id":419,"name":"Toygar","steam_id":76561198023679830,"connected_time":47000000000,"state":"active","ping":58}]},{"server_id":14,"name":"Uncletopia | New York City | 2 | All Maps","name_short":"nyc-2","host":"nyc-1.us.uncletopia.com","port":27025,"enabled":true,"region":"us-east","cc":"us","latitude":40.73061,"longitude":-73.93524,"reserved":0,"last_update":"0001-01-01T00:00:00Z","name_a2s":"Uncletopia | New York City | 2 | All Maps","protocol":17,"map":"pl_pier","folder":"tf","game":"Team Fortress","app_id":440,"player_count":24,"max_players":24,"Bots":0,"server_type":"Dedicated","server_os":"Linux","password":true,"vac":true,"version":"7882260","steam_id":85568392924469994,"keywords":["nocrits","nodmgspread","payload","uncletopia"],"game_id":440,"stv_port":27026,"stv_name":"Uncletopia | New York City | 2 | All Maps | STV","players":[{"user_id":588,"name":"HOOPLA","steam_id":76561198993451858,"connected_time":1792000000000,"state":"active","ping":65},{"user_id":601,"name":"Somerandomperson","steam_id":76561198420764336,"connected_time":1157000000000,"state":"active","ping":42},{"user_id":457,"name":"Penis but it rhymes with Venice","steam_id":76561197986420836,"connected_time":6500000000000,"state":"active","ping":47},{"user_id":600,"name":"Strangelove","steam_id":76561198353773611,"connected_time":1278000000000,"state":"active","ping":124},{"user_id":603,"name":"Jew_Kike","steam_id":76561198438019601,"connected_time":338000000000,"state":"active","ping":68},{"user_id":587,"name":"SnareString","steam_id":76561199082119457,"connected_time":2150000000000,"state":"active","ping":123},{"user_id":575,"name":"Cat in Your Backyard","steam_id":76561197979078330,"connected_time":2740000000000,"state":"active","ping":62},{"user_id":568,"name":"FX","steam_id":76561198096889040,"connected_time":3150000000000,"state":"active","ping":50},{"user_id":550,"name":"Isaac","steam_id":76561199061379353,"connected_time":3660000000000,"state":"active","ping":83},{"user_id":530,"name":"dw","steam_id":76561198418306144,"connected_time":3939000000000,"state":"active","ping":69},{"user_id":594,"name":"big pancake","steam_id":76561198068580322,"connected_time":1460000000000,"state":"active","ping":35},{"user_id":595,"name":"sir_chandestroy","steam_id":76561198035851163,"connected_time":1455000000000,"state":"active","ping":65},{"user_id":576,"name":"Potato Zilla","steam_id":76561199220230400,"connected_time":2716000000000,"state":"active","ping":83},{"user_id":577,"name":"TabbyCat","steam_id":76561198414125672,"connected_time":2694000000000,"state":"active","ping":100},{"user_id":586,"name":"AwesomeAEA","steam_id":76561198303978260,"connected_time":2240000000000,"state":"active","ping":79},{"user_id":552,"name":"the cum wizard","steam_id":76561198046098856,"connected_time":3624000000000,"state":"active","ping":58},{"user_id":556,"name":"Toaster Strudel Enjoyer","steam_id":76561199048699541,"connected_time":3576000000000,"state":"active","ping":73},{"user_id":578,"name":"Jim bob","steam_id":76561197984933370,"connected_time":2680000000000,"state":"active","ping":66},{"user_id":602,"name":"Crab Shack #savetf2","steam_id":76561198187973071,"connected_time":1156000000000,"state":"active","ping":82},{"user_id":554,"name":"Syfun","steam_id":76561198042734428,"connected_time":3612000000000,"state":"active","ping":53},{"user_id":592,"name":"capeeKo","steam_id":76561197970346623,"connected_time":1482000000000,"state":"active","ping":67},{"user_id":555,"name":"Dipdoof","steam_id":76561198077634776,"connected_time":3597000000000,"state":"active","ping":118},{"user_id":583,"name":"wheresgeorge","steam_id":76561198986281248,"connected_time":2593000000000,"state":"active","ping":73},{"user_id":558,"name":"[GUT] RiDiK®","steam_id":76561197969756446,"connected_time":3478000000000,"state":"active","ping":79}]},{"server_id":15,"name":"Uncletopia | New York City | 3 | Stopwatch Beta","name_short":"nyc-3","host":"nyc-1.us.uncletopia.com","port":27035,"enabled":true,"region":"us-east","cc":"us","latitude":40.73061,"longitude":-73.93524,"reserved":0,"last_update":"0001-01-01T00:00:00Z","name_a2s":"Uncletopia | New York City | 3 | Stopwatch Beta","protocol":17,"map":"pl_borneo","folder":"tf","game":"Team Fortress","app_id":440,"player_count":0,"max_players":24,"Bots":0,"server_type":"Dedicated","server_os":"Linux","password":true,"vac":true,"version":"7882260","steam_id":85568392924742820,"keywords":["nocrits","nodmgspread","payload","uncletopia"],"game_id":440,"stv_port":27036,"stv_name":"Uncletopia | New York City | 3 | Stopwatch Beta | STV","players":null},{"server_id":16,"name":"Uncletopia | New York City | 4 | Community","name_short":"nyc-4","host":"nyc-1.us.uncletopia.com","port":27045,"enabled":true,"region":"us-east","cc":"us","latitude":40.73061,"longitude":-73.93524,"reserved":0,"last_update":"0001-01-01T00:00:00Z","name_a2s":"Uncletopia | New York City | 4 | Community","protocol":17,"map":"pl_badwater","folder":"tf","game":"Team Fortress","app_id":440,"player_count":0,"max_players":24,"Bots":0,"server_type":"Dedicated","server_os":"Linux","password":true,"vac":true,"version":"7882260","steam_id":85568392924742821,"keywords":["nocrits","nodmgspread","payload","uncletopia"],"game_id":440,"stv_port":27046,"stv_name":"Uncletopia | New York City | 4 | Community | STV","players":null},{"server_id":142,"name":"Uncletopia | São Paulo | 1 | All Maps","name_short":"sao-1","host":"sao-1.br.uncletopia.com","port":27015,"enabled":true,"region":"sa","cc":"br","latitude":-23.533773,"longitude":-46.62529,"reserved":0,"last_update":"0001-01-01T00:00:00Z","name_a2s":"Uncletopia | São Paulo | 1 | All Maps","protocol":17,"map":"cp_dustbowl","folder":"tf","game":"Team Fortress","app_id":440,"player_count":4,"max_players":24,"Bots":0,"server_type":"Dedicated","server_os":"Linux","password":true,"vac":true,"version":"7882260","steam_id":85568392924469996,"keywords":["cp","nocrits","nodmgspread","uncletopia"],"game_id":440,"stv_port":27016,"stv_name":"Uncletopia | São Paulo | 1 | All Maps | STV","players":[{"user_id":29,"name":"Homero chino","steam_id":76561199066605566,"connected_time":531000000000,"state":"active","ping":99},{"user_id":30,"name":"probrinecrack","steam_id":76561199081029120,"connected_time":514000000000,"state":"active","ping":100},{"user_id":31,"name":"CatalanMadridista","steam_id":76561199182150779,"connected_time":500000000000,"state":"active","ping":109},{"user_id":32,"name":"TuVieja_777_","steam_id":76561199289101211,"connected_time":432000000000,"state":"active","ping":101}]},{"server_id":143,"name":"Uncletopia | São Paulo | 2 | All Maps","name_short":"sao-2","host":"sao-2.br.uncletopia.com","port":27015,"enabled":true,"region":"sa","cc":"br","latitude":-23.533773,"longitude":-46.62529,"reserved":0,"last_update":"0001-01-01T00:00:00Z","name_a2s":"Uncletopia | São Paulo | 2 | All Maps","protocol":17,"map":"pl_borneo","folder":"tf","game":"Team Fortress","app_id":440,"player_count":0,"max_players":24,"Bots":0,"server_type":"Dedicated","server_os":"Linux","password":true,"vac":true,"version":"7882260","steam_id":85568392924485349,"keywords":["nocrits","nodmgspread","payload","uncletopia"],"game_id":440,"stv_port":27016,"stv_name":"Uncletopia | São Paulo | 2 | All Maps | STV","players":null},{"server_id":7,"name":"Uncletopia | Seattle | 1 | All Maps","name_short":"sea-1","host":"sea-1.us.uncletopia.com","port":27015,"enabled":true,"region":"us-west","cc":"us","latitude":47.608013,"longitude":-122.33517,"reserved":0,"last_update":"0001-01-01T00:00:00Z","name_a2s":"Uncletopia | Seattle | 1 | All Maps","protocol":17,"map":"cp_dustbowl","folder":"tf","game":"Team Fortress","app_id":440,"player_count":24,"max_players":24,"Bots":0,"server_type":"Dedicated","server_os":"Linux","password":true,"vac":true,"version":"7882260","steam_id":85568392924469997,"keywords":["cp","nocrits","nodmgspread","uncletopia"],"game_id":440,"stv_port":27016,"stv_name":"Uncletopia | Seattle | 1 | All Maps | STV","players":[{"user_id":383,"name":"toes","steam_id":76561198221151676,"connected_time":9058000000000,"state":"active","ping":57},{"user_id":489,"name":"Tazzz","steam_id":76561198280897107,"connected_time":570000000000,"state":"active","ping":41},{"user_id":373,"name":"Fox Milk","steam_id":76561198004652591,"connected_time":9922000000000,"state":"active","ping":45},{"user_id":465,"name":"Jacobzeba01","steam_id":76561198131808718,"connected_time":3566000000000,"state":"active","ping":67},{"user_id":478,"name":"BolognaWithOlives","steam_id":76561198101262668,"connected_time":2074000000000,"state":"active","ping":89},{"user_id":415,"name":"Peppy","steam_id":76561198866629645,"connected_time":6689000000000,"state":"active","ping":68},{"user_id":491,"name":"Lepa Radić","steam_id":76561198014698593,"connected_time":339000000000,"state":"active","ping":49},{"user_id":494,"name":"Why am I the only person who","steam_id":76561198139634916,"connected_time":316000000000,"state":"active","ping":40},{"user_id":498,"name":"Ata","steam_id":76561198349085545,"connected_time":255000000000,"state":"active","ping":128},{"user_id":499,"name":"dust | she/it","steam_id":76561198045218909,"connected_time":137000000000,"state":"active","ping":44},{"user_id":456,"name":"Cave Dweller","steam_id":76561198374825685,"connected_time":4555000000000,"state":"active","ping":80},{"user_id":496,"name":"MCman","steam_id":76561198412110305,"connected_time":284000000000,"state":"active","ping":72},{"user_id":463,"name":"MacchuPeachu","steam_id":76561199093242587,"connected_time":3843000000000,"state":"active","ping":60},{"user_id":467,"name":"FIRETROOP277","steam_id":76561198418201110,"connected_time":3260000000000,"state":"active","ping":102},{"user_id":486,"name":"swiggityswoogity","steam_id":76561198086032928,"connected_time":1197000000000,"state":"active","ping":104},{"user_id":495,"name":"SKINGRAPH","steam_id":76561198082933650,"connected_time":312000000000,"state":"active","ping":129},{"user_id":492,"name":"Hoxton","steam_id":76561199059733640,"connected_time":336000000000,"state":"active","ping":86},{"user_id":454,"name":"teeth","steam_id":76561198103189993,"connected_time":4934000000000,"state":"active","ping":151},{"user_id":481,"name":"Kc","steam_id":76561198210734407,"connected_time":1821000000000,"state":"active","ping":119},{"user_id":488,"name":"emissions_master","steam_id":76561198870649125,"connected_time":606000000000,"state":"active","ping":85},{"user_id":497,"name":"DrD","steam_id":76561198067266383,"connected_time":283000000000,"state":"active","ping":36},{"user_id":493,"name":"yin","steam_id":76561198450003554,"connected_time":331000000000,"state":"active","ping":111},{"user_id":490,"name":"Willy Wonker","steam_id":76561198082944789,"connected_time":351000000000,"state":"active","ping":74},{"user_id":485,"name":"Jarcube","steam_id":76561198228317184,"connected_time":1230000000000,"state":"active","ping":118}]},{"server_id":119,"name":"Uncletopia | Seattle | 2 | All Maps","name_short":"sea-2","host":"sea-1.us.uncletopia.com","port":27025,"enabled":true,"region":"us-west","cc":"us","latitude":47.608013,"longitude":-122.33517,"reserved":0,"last_update":"0001-01-01T00:00:00Z","name_a2s":"Uncletopia | Seattle | 2 | All Maps","protocol":17,"map":"pl_upward","folder":"tf","game":"Team Fortress","app_id":440,"player_count":24,"max_players":24,"Bots":0,"server_type":"Dedicated","server_os":"Linux","password":true,"vac":true,"version":"7882260","steam_id":85568392924469998,"keywords":["nocrits","nodmgspread","payload","uncletopia"],"game_id":440,"stv_port":27026,"stv_name":"Uncletopia | Seattle | 2 | All Maps | STV","players":[{"user_id":190,"name":"io_est","steam_id":76561198079538952,"connected_time":1364000000000,"state":"active","ping":50},{"user_id":187,"name":"SunkerMacgunker","steam_id":76561199081868742,"connected_time":1794000000000,"state":"active","ping":65},{"user_id":191,"name":"MisterManne","steam_id":76561198106598600,"connected_time":1362000000000,"state":"active","ping":61},{"user_id":184,"name":"SolarusD","steam_id":76561198029279861,"connected_time":1865000000000,"state":"active","ping":63},{"user_id":196,"name":"Algibruh","steam_id":76561199221599415,"connected_time":758000000000,"state":"active","ping":48},{"user_id":133,"name":"Dunkle","steam_id":76561198041903573,"connected_time":8188000000000,"state":"active","ping":44},{"user_id":193,"name":"white obama","steam_id":76561199465040669,"connected_time":1284000000000,"state":"active","ping":108},{"user_id":155,"name":"O","steam_id":76561198450073779,"connected_time":4978000000000,"state":"active","ping":45},{"user_id":198,"name":"You dad","steam_id":76561198044013623,"connected_time":746000000000,"state":"active","ping":124},{"user_id":207,"name":"Kuvorious","steam_id":76561198153729934,"connected_time":86000000000,"state":"active","ping":117},{"user_id":172,"name":"Saint Laurent Don","steam_id":76561198116820706,"connected_time":3895000000000,"state":"active","ping":70},{"user_id":206,"name":"Grape","steam_id":76561198123477772,"connected_time":107000000000,"state":"active","ping":69},{"user_id":116,"name":"That Guy There","steam_id":76561198452050139,"connected_time":8962000000000,"state":"active","ping":71},{"user_id":189,"name":"Luke","steam_id":76561198253533632,"connected_time":1597000000000,"state":"active","ping":119},{"user_id":157,"name":"Mapachito Lindo","steam_id":76561198031359995,"connected_time":4858000000000,"state":"active","ping":46},{"user_id":183,"name":"WalkinMan","steam_id":76561198047941142,"connected_time":1997000000000,"state":"active","ping":56},{"user_id":188,"name":"FI LO","steam_id":76561198976530881,"connected_time":1651000000000,"state":"active","ping":62},{"user_id":192,"name":"wlfgng","steam_id":76561198316639499,"connected_time":1310000000000,"state":"active","ping":58},{"user_id":159,"name":"Vincent Van Bro","steam_id":76561197966919802,"connected_time":4585000000000,"state":"active","ping":60},{"user_id":194,"name":"Grandpa Baozhai","steam_id":76561198086667725,"connected_time":1271000000000,"state":"active","ping":60},{"user_id":205,"name":"MR MODE","steam_id":76561198046775352,"connected_time":389000000000,"state":"active","ping":62},{"user_id":186,"name":"BOMB (POWER) (NUKE) (HUGE)","steam_id":76561198207881077,"connected_time":1843000000000,"state":"active","ping":96},{"user_id":195,"name":"Lambchop","steam_id":76561198043900363,"connected_time":789000000000,"state":"active","ping":75},{"user_id":197,"name":"dearender","steam_id":76561199427644498,"connected_time":758000000000,"state":"active","ping":74}]},{"server_id":406,"name":"Uncletopia | Seattle | 3 | Stopwatch Beta","name_short":"sea-3","host":"sea-1.us.uncletopia.com","port":27035,"enabled":true,"region":"us-west","cc":"us","latitude":47.608013,"longitude":-122.33517,"reserved":0,"last_update":"0001-01-01T00:00:00Z","name_a2s":"Uncletopia | Seattle | 3 | Stopwatch Beta","protocol":17,"map":"workshop/koth_bagel_rc6.ugc2514036946","folder":"tf","game":"Team Fortress","app_id":440,"player_count":24,"max_players":24,"Bots":0,"server_type":"Dedicated","server_os":"Linux","password":true,"vac":true,"version":"7882260","steam_id":85568392924515217,"keywords":["cp","nocrits","nodmgspread","uncletopia"],"game_id":440,"stv_port":27036,"stv_name":"Uncletopia | Seattle | 3 | Stopwatch Beta | STV","players":[{"user_id":74,"name":"chicken","steam_id":76561198196998007,"connected_time":997000000000,"state":"active","ping":86},{"user_id":77,"name":"Alex Jones","steam_id":76561198272738226,"connected_time":907000000000,"state":"active","ping":145},{"user_id":69,"name":"CashGordon","steam_id":76561197975594096,"connected_time":1648000000000,"state":"active","ping":40},{"user_id":67,"name":"Drake from State Farm","steam_id":76561199069029812,"connected_time":1831000000000,"state":"active","ping":73},{"user_id":50,"name":"Shochu Fiend","steam_id":76561198055193376,"connected_time":2816000000000,"state":"active","ping":74},{"user_id":71,"name":"FMJay","steam_id":76561198124221469,"connected_time":1088000000000,"state":"active","ping":81},{"user_id":81,"name":"BANGARANG","steam_id":76561198816597453,"connected_time":474000000000,"state":"active","ping":99},{"user_id":54,"name":"800Lbs 9 Year Old","steam_id":76561198856102017,"connected_time":2764000000000,"state":"active","ping":84},{"user_id":24,"name":"Kaldor Draigo","steam_id":76561198317662346,"connected_time":4023000000000,"state":"active","ping":128},{"user_id":63,"name":"Beino","steam_id":76561198107120351,"connected_time":1995000000000,"state":"active","ping":83},{"user_id":40,"name":"Toaster","steam_id":76561199142625380,"connected_time":3175000000000,"state":"active","ping":74},{"user_id":73,"name":"JoeJoeJoeBob","steam_id":76561198067236683,"connected_time":1014000000000,"state":"active","ping":59},{"user_id":39,"name":"greens beans","steam_id":76561198153611491,"connected_time":3198000000000,"state":"active","ping":50},{"user_id":64,"name":"Mom","steam_id":76561198207936000,"connected_time":1962000000000,"state":"active","ping":61},{"user_id":33,"name":"farfalle","steam_id":76561198882758067,"connected_time":3470000000000,"state":"active","ping":96},{"user_id":65,"name":"Aryze #SaveTF2","steam_id":76561198119561581,"connected_time":1961000000000,"state":"active","ping":63},{"user_id":75,"name":"Legofever13","steam_id":76561198396832255,"connected_time":971000000000,"state":"active","ping":74},{"user_id":66,"name":"Sudsen","steam_id":76561198370603787,"connected_time":1927000000000,"state":"active","ping":74},{"user_id":76,"name":"The Gremlin","steam_id":76561198419066993,"connected_time":965000000000,"state":"active","ping":63},{"user_id":55,"name":"F2P gamer","steam_id":76561199285688642,"connected_time":2561000000000,"state":"active","ping":47},{"user_id":78,"name":"bug","steam_id":76561198354432361,"connected_time":898000000000,"state":"active","ping":82},{"user_id":80,"name":"vioaoemdgsa","steam_id":76561198025295263,"connected_time":573000000000,"state":"active","ping":114},{"user_id":83,"name":"Mint Widget","steam_id":76561198036875245,"connected_time":325000000000,"state":"active","ping":69},{"user_id":61,"name":"kimchiking82","steam_id":76561198008423339,"connected_time":2383000000000,"state":"active","ping":115}]},{"server_id":17,"name":"Uncletopia | San Francisco | 1 | All Maps","name_short":"sfo-1","host":"sfo-1.us.uncletopia.com","port":27015,"enabled":true,"region":"us-west","cc":"us","latitude":37.77397,"longitude":-122.4313,"reserved":0,"last_update":"0001-01-01T00:00:00Z","name_a2s":"Uncletopia | San Francisco | 1 | All Maps","protocol":17,"map":"cp_process_final","folder":"tf","game":"Team Fortress","app_id":440,"player_count":0,"max_players":24,"Bots":0,"server_type":"Dedicated","server_os":"Linux","password":true,"vac":true,"version":"7757534","steam_id":85568392924469999,"keywords":["cp","nocrits","nodmgspread","uncletopia"],"game_id":440,"stv_port":27016,"stv_name":"Uncletopia | San Francisco | 1 | All Maps | STV","players":null},{"server_id":18,"name":"Uncletopia | San Francisco | 2 | All Maps","name_short":"sfo-2","host":"sfo-1.us.uncletopia.com","port":27025,"enabled":true,"region":"us-west","cc":"us","latitude":37.77397,"longitude":-122.4313,"reserved":0,"last_update":"0001-01-01T00:00:00Z","name_a2s":"Uncletopia | San Francisco | 2 | All Maps","protocol":17,"map":"koth_highpass","folder":"tf","game":"Team Fortress","app_id":440,"player_count":0,"max_players":24,"Bots":0,"server_type":"Dedicated","server_os":"Linux","password":true,"vac":true,"version":"7757534","steam_id":85568392924470000,"keywords":["cp","nocrits","nodmgspread","uncletopia"],"game_id":440,"stv_port":27026,"stv_name":"Uncletopia | San Francisco | 2 | All Maps | STV","players":null},{"server_id":19,"name":"Uncletopia | San Francisco | 3 | Stopwatch Beta","name_short":"sfo-3","host":"sfo-1.us.uncletopia.com","port":27035,"enabled":true,"region":"us-west","cc":"us","latitude":37.77397,"longitude":-122.4313,"reserved":0,"last_update":"0001-01-01T00:00:00Z","name_a2s":"Uncletopia | San Francisco | 3 | Stopwatch Beta","protocol":17,"map":"koth_lakeside_final","folder":"tf","game":"Team Fortress","app_id":440,"player_count":0,"max_players":24,"Bots":0,"server_type":"Dedicated","server_os":"Linux","password":true,"vac":true,"version":"7757534","steam_id":85568392924742824,"keywords":["cp","nocrits","nodmgspread","uncletopia"],"game_id":440,"stv_port":27036,"stv_name":"Uncletopia | San Francisco | 3 | Stopwatch Beta | STV","players":null},{"server_id":20,"name":"Uncletopia | San Francisco | 4 | Community","name_short":"sfo-4","host":"sfo-1.us.uncletopia.com","port":27045,"enabled":true,"region":"us-west","cc":"us","latitude":37.77397,"longitude":-122.4313,"reserved":0,"last_update":"0001-01-01T00:00:00Z","name_a2s":"Uncletopia | San Francisco | 4 | Community","protocol":17,"map":"cp_altitude","folder":"tf","game":"Team Fortress","app_id":440,"player_count":0,"max_players":24,"Bots":0,"server_type":"Dedicated","server_os":"Linux","password":true,"vac":true,"version":"7757534","steam_id":85568392924742826,"keywords":["cp","nocrits","nodmgspread","uncletopia"],"game_id":440,"stv_port":27046,"stv_name":"Uncletopia | San Francisco | 4 | Community | STV","players":null},{"server_id":141,"name":"Uncletopia | Sydney | 1 | All Maps","name_short":"syd-1","host":"syd-1.au.uncletopia.com","port":27015,"enabled":true,"region":"au","cc":"au","latitude":-33.865143,"longitude":151.2099,"reserved":0,"last_update":"0001-01-01T00:00:00Z","name_a2s":"Uncletopia | Sydney | 1 | All Maps","protocol":17,"map":"pl_barnblitz","folder":"tf","game":"Team Fortress","app_id":440,"player_count":23,"max_players":24,"Bots":0,"server_type":"Dedicated","server_os":"Linux","password":true,"vac":true,"version":"7882260","steam_id":85568392924470001,"keywords":["nocrits","nodmgspread","payload","uncletopia"],"game_id":440,"stv_port":27016,"stv_name":"Uncletopia | Sydney | 1 | All Maps | STV","players":[{"user_id":18,"name":"macbub2003","steam_id":76561198323240603,"connected_time":3456000000000,"state":"active","ping":53},{"user_id":65,"name":"Johnny Fairplay","steam_id":76561198121757287,"connected_time":254000000000,"state":"active","ping":45},{"user_id":13,"name":"Shadow Puppeteer","steam_id":76561198151121997,"connected_time":3792000000000,"state":"active","ping":71},{"user_id":55,"name":"Corn O' Cob","steam_id":76561198066033339,"connected_time":843000000000,"state":"active","ping":55},{"user_id":63,"name":"weezer","steam_id":76561199439508788,"connected_time":540000000000,"state":"active","ping":62},{"user_id":41,"name":"Creamy Gusset","steam_id":76561198001544539,"connected_time":1918000000000,"state":"active","ping":52},{"user_id":17,"name":"smite","steam_id":76561198845304189,"connected_time":3545000000000,"state":"active","ping":84},{"user_id":50,"name":"Muffin","steam_id":76561198075391119,"connected_time":1249000000000,"state":"active","ping":52},{"user_id":69,"name":"Jesus","steam_id":76561198018890911,"connected_time":64000000000,"state":"active","ping":252},{"user_id":49,"name":"Phillip Cookium Jr","steam_id":76561198081187571,"connected_time":1376000000000,"state":"active","ping":48},{"user_id":45,"name":"ScEshay","steam_id":76561197992222723,"connected_time":1557000000000,"state":"active","ping":51},{"user_id":24,"name":"Alphandiscobean","steam_id":76561198025845937,"connected_time":2937000000000,"state":"active","ping":57},{"user_id":28,"name":"Vaconcovat","steam_id":76561198024284041,"connected_time":2492000000000,"state":"active","ping":58},{"user_id":33,"name":"Bigrichard","steam_id":76561198032092945,"connected_time":2343000000000,"state":"active","ping":89},{"user_id":58,"name":"\u003e:FrozenDragon:\u003c","steam_id":76561198227960928,"connected_time":659000000000,"state":"active","ping":99},{"user_id":39,"name":"wlfgrl","steam_id":76561199082845518,"connected_time":2081000000000,"state":"active","ping":58},{"user_id":32,"name":"tarzan","steam_id":76561199141724031,"connected_time":2441000000000,"state":"active","ping":70},{"user_id":43,"name":"Flash","steam_id":76561198116748729,"connected_time":1804000000000,"state":"active","ping":98},{"user_id":53,"name":"youre a boy kisser","steam_id":76561198132937542,"connected_time":1114000000000,"state":"active","ping":56},{"user_id":54,"name":"now","steam_id":76561198310131715,"connected_time":1025000000000,"state":"active","ping":63},{"user_id":59,"name":"kitkat","steam_id":76561198442601104,"connected_time":647000000000,"state":"active","ping":58},{"user_id":67,"name":"Spudpotato98","steam_id":76561199481619597,"connected_time":205000000000,"state":"active","ping":92}]},{"server_id":123,"name":"Uncletopia | Sydney | 2 | All Maps","name_short":"syd-2","host":"syd-1.au.uncletopia.com","port":27025,"enabled":true,"region":"au","cc":"au","latitude":-33.865143,"longitude":151.2099,"reserved":0,"last_update":"0001-01-01T00:00:00Z","name_a2s":"Uncletopia | Sydney | 2 | All Maps","protocol":17,"map":"pl_frontier_final","folder":"tf","game":"Team Fortress","app_id":440,"player_count":0,"max_players":24,"Bots":0,"server_type":"Dedicated","server_os":"Linux","password":true,"vac":true,"version":"7882260","steam_id":85568392924470002,"keywords":["nocrits","nodmgspread","payload","uncletopia"],"game_id":440,"stv_port":27026,"stv_name":"Uncletopia | Sydney | 2 | All Maps | STV","players":null},{"server_id":395,"name":"Uncletopia | Sydney | 3 | All Maps","name_short":"syd-3","host":"syd-1.au.uncletopia.com","port":27035,"enabled":true,"region":"au","cc":"au","latitude":-33.865143,"longitude":151.2099,"reserved":0,"last_update":"0001-01-01T00:00:00Z","name_a2s":"Uncletopia | Sydney | 3 | All Maps","protocol":17,"map":"pl_badwater","folder":"tf","game":"Team Fortress","app_id":440,"player_count":0,"max_players":24,"Bots":0,"server_type":"Dedicated","server_os":"Linux","password":true,"vac":true,"version":"7882260","steam_id":85568392925194467,"keywords":["nocrits","nodmgspread","payload","uncletopia"],"game_id":440,"stv_port":27036,"stv_name":"Uncletopia | Sydney | 3 | All Maps | STV","players":null},{"server_id":396,"name":"Uncletopia | Sydney | 4 | All Maps","name_short":"syd-4","host":"syd-1.au.uncletopia.com","port":27045,"enabled":true,"region":"au","cc":"au","latitude":-33.865143,"longitude":151.2099,"reserved":0,"last_update":"0001-01-01T00:00:00Z","name_a2s":"Uncletopia | Sydney | 4 | All Maps","protocol":17,"map":"cp_sunshine","folder":"tf","game":"Team Fortress","app_id":440,"player_count":0,"max_players":24,"Bots":0,"server_type":"Dedicated","server_os":"Linux","password":true,"vac":true,"version":"7882260","steam_id":85568392925397958,"keywords":["cp","nocrits","nodmgspread","uncletopia"],"game_id":440,"stv_port":27046,"stv_name":"Uncletopia | Sydney | 4 | All Maps | STV","players":null},{"server_id":58,"name":"Uncletopia | Sydney | 5 | Stopwatch Beta","name_short":"syd-5","host":"syd-1.au.uncletopia.com","port":27055,"enabled":true,"region":"au","cc":"au","latitude":-33.865143,"longitude":151.2099,"reserved":0,"last_update":"0001-01-01T00:00:00Z","name_a2s":"Uncletopia | Sydney | 5 | Stopwatch Beta","protocol":17,"map":"cp_snakewater_final1","folder":"tf","game":"Team Fortress","app_id":440,"player_count":0,"max_players":24,"Bots":0,"server_type":"Dedicated","server_os":"Linux","password":true,"vac":true,"version":"7882260","steam_id":85568392925397959,"keywords":["cp","nocrits","nodmgspread","uncletopia"],"game_id":440,"stv_port":27056,"stv_name":"Uncletopia | Sydney | 5 | Stopwatch Beta | STV","players":null},{"server_id":59,"name":"Uncletopia | Sydney | 6 | Community","name_short":"syd-6","host":"syd-1.au.uncletopia.com","port":27065,"enabled":true,"region":"au","cc":"au","latitude":-33.865143,"longitude":151.2099,"reserved":0,"last_update":"0001-01-01T00:00:00Z","name_a2s":"Uncletopia | Sydney | 6 | Community","protocol":17,"map":"pl_snowycoast","folder":"tf","game":"Team Fortress","app_id":440,"player_count":0,"max_players":24,"Bots":0,"server_type":"Dedicated","server_os":"Linux","password":true,"vac":true,"version":"7882260","steam_id":85568392925397960,"keywords":["nocrits","nodmgspread","payload","uncletopia"],"game_id":440,"stv_port":27066,"stv_name":"Uncletopia | Sydney | 6 | Community | STV","players":null},{"server_id":49,"name":"Uncletopia | Warsaw | 1 | All Maps","name_short":"waw-1","host":"waw-1.pl.uncletopia.com","port":27015,"enabled":true,"region":"eu","cc":"pl","latitude":52.2297,"longitude":21.017532,"reserved":0,"last_update":"0001-01-01T00:00:00Z","name_a2s":"","protocol":0,"map":"","folder":"","game":"","app_id":0,"player_count":0,"max_players":0,"Bots":0,"server_type":"","server_os":"","password":false,"vac":false,"version":"","steam_id":0,"keywords":null,"game_id":0,"stv_port":0,"stv_name":"","players":null},{"server_id":50,"name":"Uncletopia | Warsaw | 2 | All Maps","name_short":"waw-2","host":"waw-1.pl.uncletopia.com","port":27025,"enabled":true,"region":"eu","cc":"pl","latitude":52.2297,"longitude":21.017532,"reserved":0,"last_update":"0001-01-01T00:00:00Z","name_a2s":"Uncletopia | Warsaw | 2 | All Maps","protocol":17,"map":"cp_dustbowl","folder":"tf","game":"Team Fortress","app_id":440,"player_count":0,"max_players":24,"Bots":0,"server_type":"Dedicated","server_os":"Linux","password":true,"vac":true,"version":"7882260","steam_id":85568392925397851,"keywords":["cp","nocrits","nodmgspread","uncletopia"],"game_id":440,"stv_port":27026,"stv_name":"Uncletopia | Warsaw | 2 | All Maps | STV","players":null},{"server_id":51,"name":"Uncletopia | Warsaw | 3 | All Maps","name_short":"waw-3","host":"waw-1.pl.uncletopia.com","port":27035,"enabled":true,"region":"eu","cc":"pl","latitude":52.2297,"longitude":21.017532,"reserved":0,"last_update":"0001-01-01T00:00:00Z","name_a2s":"Uncletopia | Warsaw | 3 | All Maps","protocol":17,"map":"pl_frontier_final","folder":"tf","game":"Team Fortress","app_id":440,"player_count":0,"max_players":24,"Bots":0,"server_type":"Dedicated","server_os":"Linux","password":true,"vac":true,"version":"7882260","steam_id":85568392925397852,"keywords":["nocrits","nodmgspread","payload","uncletopia"],"game_id":440,"stv_port":27036,"stv_name":"Uncletopia | Warsaw | 3 | All Maps | STV","players":null},{"server_id":52,"name":"Uncletopia | Warsaw | 4 | All Maps","name_short":"waw-4","host":"waw-1.pl.uncletopia.com","port":27045,"enabled":true,"region":"eu","cc":"pl","latitude":52.2297,"longitude":21.017532,"reserved":0,"last_update":"0001-01-01T00:00:00Z","name_a2s":"Uncletopia | Warsaw | 4 | All Maps","protocol":17,"map":"koth_highpass","folder":"tf","game":"Team Fortress","app_id":440,"player_count":0,"max_players":24,"Bots":0,"server_type":"Dedicated","server_os":"Linux","password":true,"vac":true,"version":"7882260","steam_id":85568392925397853,"keywords":["cp","nocrits","nodmgspread","uncletopia"],"game_id":440,"stv_port":27046,"stv_name":"Uncletopia | Warsaw | 4 | All Maps | STV","players":null},{"server_id":53,"name":"Uncletopia | Warsaw | 5 | Stopwatch Beta","name_short":"waw-5","host":"waw-1.pl.uncletopia.com","port":27055,"enabled":true,"region":"eu","cc":"pl","latitude":52.2297,"longitude":21.017532,"reserved":0,"last_update":"0001-01-01T00:00:00Z","name_a2s":"Uncletopia | Warsaw | 5 | Stopwatch Beta","protocol":17,"map":"cp_mountainlab","folder":"tf","game":"Team Fortress","app_id":440,"player_count":0,"max_players":24,"Bots":0,"server_type":"Dedicated","server_os":"Linux","password":true,"vac":true,"version":"7882260","steam_id":85568392925397854,"keywords":["cp","nocrits","nodmgspread","uncletopia"],"game_id":440,"stv_port":27056,"stv_name":"Uncletopia | Warsaw | 5 | Stopwatch Beta | STV","players":null},{"server_id":54,"name":"Uncletopia | Warsaw | 6 | Community","name_short":"waw-6","host":"waw-1.pl.uncletopia.com","port":27065,"enabled":true,"region":"eu","cc":"pl","latitude":52.2297,"longitude":21.017532,"reserved":0,"last_update":"0001-01-01T00:00:00Z","name_a2s":"Uncletopia | Warsaw | 6 | Community","protocol":17,"map":"koth_viaduct","folder":"tf","game":"Team Fortress","app_id":440,"player_count":0,"max_players":24,"Bots":0,"server_type":"Dedicated","server_os":"Linux","password":true,"vac":true,"version":"7882260","steam_id":85568392925397856,"keywords":["cp","nocrits","nodmgspread","uncletopia"],"game_id":440,"stv_port":27066,"stv_name":"Uncletopia | Warsaw | 6 | Community | STV","players":null}]}