{"status":true,"message":"","result":[{"server_id":9,"name":"Uncletopia | Atlanta | 1 | All Maps","name_short":"atl-1","host":"atl-1.us.uncletopia.com","port":27015,"enabled":true,"region":"us-east","cc":"us","latitude":33.753746,"longitude":-84.38633,"reserved":0,"last_update":"0001-01-01T00:00:00Z","name_a2s":"Uncletopia | Atlanta | 1 | All Maps","protocol":17,"map":"koth_harvest_final","folder":"tf","game":"Team Fortress","app_id":440,"player_count":0,"max_players":24,"Bots":0,"server_type":"Dedicated","server_os":"Linux","password":true,"vac":true,"version":"7757534","steam_id":85568392924469982,"keywords":["cp","nocrits","nodmgspread","uncletopia"],"game_id":440,"stv_port":27016,"stv_name":"Uncletopia | Atlanta | 1 | All Maps | STV","players":null},{"server_id":400,"name":"Uncletopia | Atlanta | 3 | Community","name_short":"atl-3","host":"atl-1.us.uncletopia.com","port":27035,"enabled":true,"region":"us-east","cc":"us","latitude":33.753746,"longitude":-84.38633,"reserved":0,"last_update":"0001-01-01T00:00:00Z","name_a2s":"Uncletopia | Atlanta | 3 | Community","protocol":17,"map":"workshop/koth_slaughter_rc1.ugc1712845210","folder":"tf","game":"Team Fortress","app_id":440,"player_count":0,"max_players":32,"Bots":0,"server_type":"Dedicated","server_os":"Linux","password":true,"vac":true,"version":"7757534","steam_id":85568392924515187,"keywords":["cp","increased_maxplayers","nocrits","nodmgspread","uncletopia"],"game_id":440,"stv_port":27036,"stv_name":"Uncletopia | Atlanta | 3 | Community | STV","players":null},{"server_id":401,"name":"Uncletopia | Atlanta | 4 | No Payload","name_short":"atl-4","host":"atl-1.us.uncletopia.com","port":27045,"enabled":true,"region":"us-east","cc":"us","latitude":33.753746,"longitude":-84.38633,"reserved":0,"last_update":"0001-01-01T00:00:00Z","name_a2s":"","protocol":0,"map":"","folder":"","game":"","app_id":0,"player_count":0,"max_players":0,"Bots":0,"server_type":"","server_os":"","password":false,"vac":false,"version":"","steam_id":0,"keywords":null,"game_id":0,"stv_port":0,"stv_name":"","players":null},{"server_id":2,"name":"Uncletopia | Chicago | 1 | All Maps","name_short":"chi-1","host":"chi-1.us.uncletopia.com","port":27015,"enabled":true,"region":"us-central","cc":"us","latitude":41.881832,"longitude":-87.62318,"reserved":0,"last_update":"0001-01-01T00:00:00Z","name_a2s":"Uncletopia | Chicago | 1 | All Maps","protocol":17,"map":"ctf_2fort","folder":"tf","game":"Team Fortress","app_id":440,"player_count":2,"max_players":24,"Bots":0,"server_type":"Dedicated","server_os":"Linux","password":true,"vac":true,"version":"7757534","steam_id":85568392924469984,"keywords":["ctf","nocrits","nodmgspread","uncletopia"],"game_id":440,"stv_port":27016,"stv_name":"Uncletopia | Chicago | 1 | All Maps | STV","players":[{"user_id":1039,"name":"Ediot","steam_id":76561199349494096,"connected_time":1262000000000,"state":"active","ping":93},{"user_id":1006,"name":"ChuChu","steam_id":76561199443647976,"connected_time":7691000000000,"state":"active","ping":143}]},{"server_id":106,"name":"Uncletopia | Chicago | 2 | All Maps","name_short":"chi-2","host":"chi-1.us.uncletopia.com","port":27025,"enabled":true,"region":"us-central","cc":"us","latitude":41.881832,"longitude":-87.62318,"reserved":0,"last_update":"0001-01-01T00:00:00Z","name_a2s":"Uncletopia | Chicago | 2 | All Maps","protocol":17,"map":"cp_dustbowl","folder":"tf","game":"Team Fortress","app_id":440,"player_count":23,"max_players":24,"Bots":0,"server_type":"Dedicated","server_os":"Linux","password":true,"vac":true,"version":"7757534","steam_id":85568392924469985,"keywords":["cp","nocrits","nodmgspread","uncletopia"],"game_id":440,"stv_port":27026,"stv_name":"Uncletopia | Chicago | 2 | All Maps | STV","players":[{"user_id":539,"name":"kermitcreeper(ZAZA)","steam_id":76561199222829972,"connected_time":313000000000,"state":"active","ping":46},{"user_id":517,"name":"Lucy","steam_id":76561198032590343,"connected_time":2587000000000,"state":"active","ping":87},{"user_id":426,"name":"daemon","steam_id":76561198001541433,"connected_time":12200000000000,"state":"active","ping":49},{"user_id":541,"name":"Raizen","steam_id":76561199092445367,"connected_time":285000000000,"state":"active","ping":58},{"user_id":532,"name":"ඞ⁧⁧OͭnͪeͤTrueDev","steam_id":76561198107400823,"connected_time":708000000000,"state":"active","ping":53},{"user_id":528,"name":"aim trainer","steam_id":76561198117375532,"connected_time":1360000000000,"state":"active","ping":60},{"user_id":466,"name":"jamalsmallzz","steam_id":76561199120206913,"connected_time":6593000000000,"state":"active","ping":63},{"user_id":489,"name":"ඞ Papi","steam_id":76561198027779564,"connected_time":4409000000000,"state":"active","ping":49},{"user_id":540,"name":"BeyondInsanity","steam_id":76561198043856409,"connected_time":301000000000,"state":"active","ping":76},{"user_id":521,"name":"shadowjango","steam_id":76561198001475833,"connected_time":1717000000000,"state":"active","ping":61},{"user_id":542,"name":"Rubles","steam_id":76561198070156875,"connected_time":268000000000,"state":"active","ping":45},{"user_id":533,"name":"One Horned Bitch Destroyer","steam_id":76561198045810191,"connected_time":656000000000,"state":"active","ping":91},{"user_id":543,"name":"Chrono","steam_id":76561198238868010,"connected_time":262000000000,"state":"active","ping":118},{"user_id":534,"name":"Lilac","steam_id":76561198977523626,"connected_time":650000000000,"state":"active","ping":70},{"user_id":544,"name":"Internet n-word","steam_id":76561198064509117,"connected_time":256000000000,"state":"active","ping":64},{"user_id":535,"name":"Cobalt Courier","steam_id":76561198077359444,"connected_time":628000000000,"state":"active","ping":114},{"user_id":526,"name":"basilberry","steam_id":76561198145275937,"connected_time":1588000000000,"state":"active","ping":87},{"user_id":531,"name":"Petey","steam_id":76561198007339151,"connected_time":825000000000,"state":"active","ping":91},{"user_id":546,"name":"[DG] JoJo","steam_id":76561199015032787,"connected_time":117000000000,"state":"active","ping":68},{"user_id":412,"name":"trappy (showered)","steam_id":76561198402801140,"connected_time":13381000000000,"state":"active","ping":60},{"user_id":538,"name":"frosty2K","steam_id":76561197970137536,"connected_time":453000000000,"state":"active","ping":70},{"user_id":519,"name":"Rusted Cake","steam_id":76561198209755931,"connected_time":2275000000000,"state":"active","ping":110},{"user_id":547,"name":"mu","steam_id":76561197997530228,"connected_time":20000000000,"state":"active","ping":316}]},{"server_id":402,"name":"Uncletopia | Chicago | 3 | All Maps","name_short":"chi-3","host":"chi-1.us.uncletopia.com","port":27035,"enabled":true,"region":"us-central","cc":"us","latitude":41.881832,"longitude":-87.62318,"reserved":0,"last_update":"0001-01-01T00:00:00Z","name_a2s":"Uncletopia | Chicago | 3 | All Maps","protocol":17,"map":"pl_snowycoast","folder":"tf","game":"Team Fortress","app_id":440,"player_count":18,"max_players":24,"Bots":0,"server_type":"Dedicated","server_os":"Linux","password":true,"vac":true,"version":"7757534","steam_id":85568392924515191,"keywords":["nocrits","nodmgspread","payload","uncletopia"],"game_id":440,"stv_port":27036,"stv_name":"Uncletopia | Chicago | 3 | All Maps | STV","players":[{"user_id":641,"name":"xFactr","steam_id":76561198129007422,"connected_time":52000000000,"state":"active","ping":69},{"user_id":619,"name":"shephard","steam_id":76561198043367011,"connected_time":1609000000000,"state":"active","ping":57},{"user_id":638,"name":"onsceler","steam_id":76561198183663605,"connected_time":131000000000,"state":"active","ping":80},{"user_id":608,"name":"Green Icicle","steam_id":76561198069624529,"connected_time":2534000000000,"state":"active","ping":81},{"user_id":609,"name":"Quaker Oats","steam_id":76561197992800293,"connected_time":2526000000000,"state":"active","ping":90},{"user_id":639,"name":"rustyorion","steam_id":76561198439186347,"connected_time":129000000000,"state":"active","ping":100},{"user_id":640,"name":"Smittywerbenjager-manjenson","steam_id":76561198067060742,"connected_time":88000000000,"state":"active","ping":60},{"user_id":637,"name":"kritz enjoyer","steam_id":76561197979056451,"connected_time":183000000000,"state":"active","ping":90},{"user_id":593,"name":"noot","steam_id":76561198063946502,"connected_time":3579000000000,"state":"active","ping":96},{"user_id":594,"name":"Clud","steam_id":76561198258058762,"connected_time":3578000000000,"state":"active","ping":84},{"user_id":556,"name":"Lore","steam_id":76561198098407538,"connected_time":6756000000000,"state":"active","ping":58},{"user_id":642,"name":"chicken wit dah eggrow","steam_id":76561198115458307,"connected_time":49000000000,"state":"active","ping":98},{"user_id":633,"name":"mechiimi ★","steam_id":76561198321627268,"connected_time":576000000000,"state":"active","ping":118},{"user_id":631,"name":"yourfbiagnent","steam_id":76561199171973045,"connected_time":718000000000,"state":"active","ping":162},{"user_id":618,"name":"honk","steam_id":76561198050398028,"connected_time":1798000000000,"state":"active","ping":47},{"user_id":634,"name":"High Medic","steam_id":76561198082405984,"connected_time":576000000000,"state":"active","ping":62},{"user_id":627,"name":"12 rats in a trench coat","steam_id":76561198966817492,"connected_time":1279000000000,"state":"active","ping":94},{"user_id":635,"name":"FusionChimp","steam_id":76561197988965716,"connected_time":227000000000,"state":"active","ping":63}]},{"server_id":403,"name":"Uncletopia | Chicago | 4 | All Maps","name_short":"chi-4","host":"chi-1.us.uncletopia.com","port":27045,"enabled":true,"region":"us-central","cc":"us","latitude":41.881832,"longitude":-87.62318,"reserved":0,"last_update":"0001-01-01T00:00:00Z","name_a2s":"Uncletopia | Chicago | 4 | All Maps","protocol":17,"map":"pl_swiftwater_final1","folder":"tf","game":"Team Fortress","app_id":440,"player_count":0,"max_players":24,"Bots":0,"server_type":"Dedicated","server_os":"Linux","password":true,"vac":true,"version":"7757534","steam_id":85568392924515193,"keywords":["nocrits","nodmgspread","payload","uncletopia"],"game_id":440,"stv_port":27046,"stv_name":"Uncletopia | Chicago | 4 | All Maps | STV","players":null},{"server_id":36,"name":"Uncletopia | Chicago | 5 | All Maps","name_short":"chi-5","host":"chi-2.us.uncletopia.com","port":27015,"enabled":true,"region":"us-central","cc":"us","latitude":41.881832,"longitude":-87.62318,"reserved":0,"last_update":"0001-01-01T00:00:00Z","name_a2s":"Uncletopia | Chicago | 5 | All Maps","protocol":17,"map":"koth_viaduct","folder":"tf","game":"Team Fortress","app_id":440,"player_count":0,"max_players":24,"Bots":0,"server_type":"Dedicated","server_os":"Linux","password":true,"vac":true,"version":"7757534","steam_id":85568392924866362,"keywords":["cp","nocrits","nodmgspread","uncletopia"],"game_id":440,"stv_port":27016,"stv_name":"Uncletopia | Chicago | 5 | All Maps | STV","players":null},{"server_id":37,"name":"Uncletopia | Chicago | 6 | All Maps","name_short":"chi-6","host":"chi-2.us.uncletopia.com","port":27025,"enabled":true,"region":"us-central","cc":"us","latitude":41.881832,"longitude":-87.62318,"reserved":0,"last_update":"0001-01-01T00:00:00Z","name_a2s":"Uncletopia | Chicago | 6 | All Maps","protocol":17,"map":"cp_altitude","folder":"tf","game":"Team Fortress","app_id":440,"player_count":0,"max_players":24,"Bots":0,"server_type":"Dedicated","server_os":"Linux","password":true,"vac":true,"version":"7757534","steam_id":85568392924866363,"keywords":["cp","nocrits","nodmgspread","uncletopia"],"game_id":440,"stv_port":27026,"stv_name":"Uncletopia | Chicago | 6 | All Maps | STV","players":null},{"server_id":38,"name":"Uncletopia | Chicago | 7 | Stopwatch Beta","name_short":"chi-7","host":"chi-2.us.uncletopia.com","port":27035,"enabled":true,"region":"us-central","cc":"us","latitude":41.881832,"longitude":-87.62318,"reserved":0,"last_update":"0001-01-01T00:00:00Z","name_a2s":"Uncletopia | Chicago | 7 | Stopwatch Beta","protocol":17,"map":"pl_upward","folder":"tf","game":"Team Fortress","app_id":440,"player_count":0,"max_players":24,"Bots":0,"server_type":"Dedicated","server_os":"Linux","password":true,"vac":true,"version":"7757534","steam_id":85568392924866364,"keywords":["nocrits","nodmgspread","payload","uncletopia"],"game_id":440,"stv_port":27036,"stv_name":"Uncletopia | Chicago | 7 | Stopwatch Beta | STV","players":null},{"server_id":39,"name":"Uncletopia | Chicago | 8 | Community","name_short":"chi-8","host":"chi-2.us.uncletopia.com","port":27045,"enabled":true,"region":"us-central","cc":"us","latitude":41.881832,"longitude":-87.62318,"reserved":0,"last_update":"0001-01-01T00:00:00Z","name_a2s":"Uncletopia | Chicago | 8 | Community","protocol":17,"map":"workshop/pl_fifthcurve_rc1.ugc648227046","folder":"tf","game":"Team Fortress","app_id":440,"player_count":0,"max_players":24,"Bots":0,"server_type":"Dedicated","server_os":"Linux","password":true,"vac":true,"version":"7757534","steam_id":85568392924866365,"keywords":["nocrits","nodmgspread","payload","uncletopia"],"game_id":440,"stv_port":27046,"stv_name":"Uncletopia | Chicago | 8 | Community | STV","players":null},{"server_id":8,"name":"Uncletopia | Dallas | 1 | All Maps","name_short":"dal-1","host":"dal-1.us.uncletopia.com","port":27015,"enabled":true,"region":"us-central","cc":"us","latitude":32.779167,"longitude":-96.80889,"reserved":0,"last_update":"0001-01-01T00:00:00Z","name_a2s":"Uncletopia | Dallas | 1 | All Maps","protocol":17,"map":"cp_dustbowl","folder":"tf","game":"Team Fortress","app_id":440,"player_count":22,"max_players":24,"Bots":0,"server_type":"Dedicated","server_os":"Linux","password":true,"vac":true,"version":"7757534","steam_id":85568392924469986,"keywords":["cp","nocrits","nodmgspread","uncletopia"],"game_id":440,"stv_port":27016,"stv_name":"Uncletopia | Dallas | 1 | All Maps | STV","players":[{"user_id":752,"name":"J O S H³²","steam_id":76561198122603779,"connected_time":1349000000000,"state":"spawning","ping":139},{"user_id":773,"name":"Umm.... what?","steam_id":76561198037914020,"connected_time":609000000000,"state":"spawning","ping":77},{"user_id":785,"name":"Sly Marbo","steam_id":76561198056476987,"connected_time":3000000000,"state":"spawning","ping":59},{"user_id":764,"name":"chikin.sauce","steam_id":76561198042464635,"connected_time":902000000000,"state":"spawning","ping":57},{"user_id":784,"name":"bobbyreinman2009","steam_id":76561198804763186,"connected_time":8000000000,"state":"spawning","ping":130},{"user_id":774,"name":"REALLINUSJEWTIP.","steam_id":76561198056647983,"connected_time":567000000000,"state":"spawning","ping":94},{"user_id":718,"name":"robot with human hair","steam_id":76561198018691308,"connected_time":4122000000000,"state":"spawning","ping":91},{"user_id":775,"name":"El pandora","steam_id":76561198075490385,"connected_time":561000000000,"state":"spawning","ping":70},{"user_id":696,"name":"saucy jack","steam_id":76561198307012859,"connected_time":6015000000000,"state":"spawning","ping":81},{"user_id":766,"name":"Merci?","steam_id":76561198096823118,"connected_time":857000000000,"state":"spawning","ping":73},{"user_id":767,"name":"i am clinically insane","steam_id":76561199013323529,"connected_time":844000000000,"state":"spawning","ping":77},{"user_id":777,"name":"[ØWQJØ]chubacaalatake","steam_id":76561198136201697,"connected_time":460000000000,"state":"spawning","ping":127},{"user_id":746,"name":"Painkiller","steam_id":76561198049787400,"connected_time":2909000000000,"state":"spawning","ping":67},{"user_id":768,"name":"Goobigan","steam_id":76561198072790366,"connected_time":837000000000,"state":"spawning","ping":107},{"user_id":723,"name":"Kink Daddy Tex","steam_id":76561198040700875,"connected_time":3911000000000,"state":"spawning","ping":22},{"user_id":724,"name":"BHSPitMonkey","steam_id":76561198022150506,"connected_time":3883000000000,"state":"spawning","ping":86},{"user_id":783,"name":"worker","steam_id":76561198039608940,"connected_time":18000000000,"state":"connecting","ping":91},{"user_id":741,"name":"Twixtwolf | HM |","steam_id":76561198873746991,"connected_time":3171000000000,"state":"spawning","ping":62},{"user_id":771,"name":"Pyyr","steam_id":76561198123491005,"connected_time":767000000000,"state":"spawning","ping":62},{"user_id":779,"name":"Blue 2001 Subaru Forester","steam_id":76561198161200131,"connected_time":426000000000,"state":"spawning","ping":136},{"user_id":780,"name":"Green 2003 Honda Civic","steam_id":76561198119032676,"connected_time":395000000000,"state":"spawning","ping":149},{"user_id":781,"name":"KnightOfGames","steam_id":76561198080460659,"connected_time":345000000000,"state":"spawning","ping":64}]},{"server_id":108,"name":"Uncletopia | Dallas | 2 | All Maps","name_short":"dal-2","host":"dal-1.us.uncletopia.com","port":27025,"enabled":true,"region":"us-central","cc":"us","latitude":32.779167,"longitude":-96.80889,"reserved":0,"last_update":"0001-01-01T00:00:00Z","name_a2s":"Uncletopia | Dallas | 2 | All Maps","protocol":17,"map":"koth_highpass","folder":"tf","game":"Team Fortress","app_id":440,"player_count":0,"max_players":24,"Bots":0,"server_type":"Dedicated","server_os":"Linux","password":true,"vac":true,"version":"7757534","steam_id":85568392924469988,"keywords":["cp","nocrits","nodmgspread","uncletopia"],"game_id":440,"stv_port":27026,"stv_name":"Uncletopia | Dallas | 2 | All Maps | STV","players":null},{"server_id":5,"name":"Uncletopia | Frankfurt | 1 | All Maps","name_short":"frk-1","host":"frk-1.de.uncletopia.com","port":27015,"enabled":true,"region":"eu","cc":"de","latitude":50.110924,"longitude":8.682127,"reserved":0,"last_update":"0001-01-01T00:00:00Z","name_a2s":"Uncletopia | Frankfurt | 1 | All Maps","protocol":17,"map":"pl_swiftwater_final1","folder":"tf","game":"Team Fortress","app_id":440,"player_count":0,"max_players":24,"Bots":0,"server_type":"Dedicated","server_os":"Linux","password":true,"vac":true,"version":"7757534","steam_id":85568392924469989,"keywords":["nocrits","nodmgspread","payload","uncletopia"],"game_id":440,"stv_port":27016,"stv_name":"Uncletopia | Frankfurt | 1 | All Maps | STV","players":null},{"server_id":110,"name":"Uncletopia | Frankfurt | 2 | All Maps","name_short":"frk-2","host":"frk-1.de.uncletopia.com","port":27025,"enabled":true,"region":"eu","cc":"de","latitude":50.110924,"longitude":8.682127,"reserved":0,"last_update":"0001-01-01T00:00:00Z","name_a2s":"Uncletopia | Frankfurt | 2 | All Maps","protocol":17,"map":"pl_snowycoast","folder":"tf","game":"Team Fortress","app_id":440,"player_count":0,"max_players":24,"Bots":0,"server_type":"Dedicated","server_os":"Linux","password":true,"vac":true,"version":"7757534","steam_id":85568392924469990,"keywords":["nocrits","nodmgspread","payload","uncletopia"],"game_id":440,"stv_port":27026,"stv_name":"Uncletopia | Frankfurt | 2 | All Maps | STV","players":null},{"server_id":308,"name":"Uncletopia | Frankfurt | 3 | All Maps","name_short":"frk-3","host":"frk-1.de.uncletopia.com","port":27035,"enabled":true,"region":"eu","cc":"de","latitude":50.110924,"longitude":8.682127,"reserved":0,"last_update":"0001-01-01T00:00:00Z","name_a2s":"Uncletopia | Frankfurt | 3 | All Maps","protocol":17,"map":"pl_frontier_final","folder":"tf","game":"Team Fortress","app_id":440,"player_count":24,"max_players":24,"Bots":0,"server_type":"Dedicated","server_os":"Linux","password":true,"vac":true,"version":"7757534","steam_id":85568392924504274,"keywords":["nocrits","nodmgspread","payload","uncletopia"],"game_id":440,"stv_port":27036,"stv_name":"Uncletopia | Frankfurt | 3 | All Maps | STV","players":[{"user_id":41,"name":"kravun","steam_id":76561198280995954,"connected_time":53000000000,"state":"active","ping":71},{"user_id":8,"name":"dRumata","steam_id":76561198022150210,"connected_time":2139000000000,"state":"active","ping":112},{"user_id":35,"name":"Senator Armstrong","steam_id":76561198984346408,"connected_time":321000000000,"state":"active","ping":71},{"user_id":40,"name":"axl #pizdaaim","steam_id":76561198991661832,"connected_time":143000000000,"state":"active","ping":69},{"user_id":11,"name":"Deacon Dracul","steam_id":76561198046880663,"connected_time":2044000000000,"state":"active","ping":98},{"user_id":13,"name":"Pan Pan","steam_id":76561199074670515,"connected_time":1716000000000,"state":"active","ping":78},{"user_id":14,"name":"...","steam_id":76561198969234594,"connected_time":1700000000000,"state":"active","ping":67},{"user_id":15,"name":"Osmo","steam_id":76561199286764992,"connected_time":1658000000000,"state":"active","ping":75},{"user_id":16,"name":"ala7mari","steam_id":76561199260819748,"connected_time":1604000000000,"state":"active","ping":155},{"user_id":37,"name":"deVychu","steam_id":76561198078032019,"connected_time":313000000000,"state":"active","ping":75},{"user_id":18,"name":"Clamor_","steam_id":76561198104368295,"connected_time":1553000000000,"state":"active","ping":88},{"user_id":19,"name":"El Presidente #savetf2","steam_id":76561198302711029,"connected_time":1485000000000,"state":"active","ping":78},{"user_id":20,"name":"Arvi","steam_id":76561199147793578,"connected_time":1463000000000,"state":"active","ping":84},{"user_id":22,"name":"(wm) Das Fleisch","steam_id":76561198001250715,"connected_time":1429000000000,"state":"active","ping":55},{"user_id":23,"name":"Guy with squares as username","steam_id":76561198269524918,"connected_time":1425000000000,"state":"active","ping":62},{"user_id":27,"name":"fmdi","steam_id":76561199433879329,"connected_time":1378000000000,"state":"active","ping":61},{"user_id":33,"name":"Churaq Cyril","steam_id":76561198125381319,"connected_time":957000000000,"state":"active","ping":79},{"user_id":26,"name":"galaxy","steam_id":76561198164819022,"connected_time":1395000000000,"state":"active","ping":68},{"user_id":28,"name":"ikeaworst","steam_id":76561198936990378,"connected_time":1330000000000,"state":"active","ping":70},{"user_id":29,"name":"I LOVE THE HIGH GROUND","steam_id":76561198989449047,"connected_time":1320000000000,"state":"active","ping":132},{"user_id":30,"name":".::[SerafeTTiN]::.","steam_id":76561198009471724,"connected_time":1223000000000,"state":"active","ping":92},{"user_id":36,"name":"twitch.tv/vision515","steam_id":76561198065293729,"connected_time":319000000000,"state":"active","ping":166},{"user_id":34,"name":"Mark Knopfler","steam_id":76561198090736766,"connected_time":447000000000,"state":"active","ping":101},{"user_id":39,"name":"dafydd","steam_id":76561198052200325,"connected_time":283000000000,"state":"active","ping":75}]},{"server_id":309,"name":"Uncletopia | Frankfurt | 4 | All Maps","name_short":"frk-4","host":"frk-1.de.uncletopia.com","port":27045,"enabled":true,"region":"eu","cc":"de","latitude":50.110924,"longitude":8.682127,"reserved":0,"last_update":"0001-01-01T00:00:00Z","name_a2s":"Uncletopia | Frankfurt | 4 | All Maps","protocol":17,"map":"cp_altitude","folder":"tf","game":"Team Fortress","app_id":440,"player_count":0,"max_players":24,"Bots":0,"server_type":"Dedicated","server_os":"Linux","password":true,"vac":true,"version":"7757534","steam_id":85568392924504275,"keywords":["cp","nocrits","nodmgspread","uncletopia"],"game_id":440,"stv_port":27046,"stv_name":"Uncletopia | Frankfurt | 4 | All Maps | STV","players":null},{"server_id":310,"name":"Uncletopia | Frankfurt | 5 | All Maps","name_short":"frk-5","host":"frk-1.de.uncletopia.com","port":27055,"enabled":true,"region":"eu","cc":"de","latitude":50.110924,"longitude":8.682127,"reserved":0,"last_update":"0001-01-01T00:00:00Z","name_a2s":"Uncletopia | Frankfurt | 5 | All Maps","protocol":17,"map":"cp_altitude","folder":"tf","game":"Team Fortress","app_id":440,"player_count":0,"max_players":24,"Bots":0,"server_type":"Dedicated","server_os":"Linux","password":true,"vac":true,"version":"7757534","steam_id":85568392924504277,"keywords":["cp","nocrits","nodmgspread","uncletopia"],"game_id":440,"stv_port":27056,"stv_name":"Uncletopia | Frankfurt | 5 | All Maps | STV","players":null},{"server_id":311,"name":"Uncletopia | Frankfurt | 6 | All Maps","name_short":"frk-6","host":"frk-1.de.uncletopia.com","port":27065,"enabled":true,"region":"eu","cc":"de","latitude":50.110924,"longitude":8.682127,"reserved":0,"last_update":"0001-01-01T00:00:00Z","name_a2s":"Uncletopia | Frankfurt | 6 | All Maps","protocol":17,"map":"koth_highpass","folder":"tf","game":"Team Fortress","app_id":440,"player_count":0,"max_players":24,"Bots":0,"server_type":"Dedicated","server_os":"Linux","password":true,"vac":true,"version":"7757534","steam_id":85568392924504278,"keywords":["cp","nocrits","nodmgspread","uncletopia"],"game_id":440,"stv_port":27066,"stv_name":"Uncletopia | Frankfurt | 6 | All Maps | STV","players":null},{"server_id":23,"name":"Uncletopia | Frankfurt | 7 | Stopwatch Beta","name_short":"frk-7","host":"frk-1.de.uncletopia.com","port":27075,"enabled":true,"region":"eu","cc":"de","latitude":50.110924,"longitude":8.682127,"reserved":0,"last_update":"0001-01-01T00:00:00Z","name_a2s":"Uncletopia | Frankfurt | 7 | Stopwatch Beta","protocol":17,"map":"pl_frontier_final","folder":"tf","game":"Team Fortress","app_id":440,"player_count":0,"max_players":24,"Bots":0,"server_type":"Dedicated","server_os":"Linux","password":true,"vac":true,"version":"7757534","steam_id":85568392924742827,"keywords":["nocrits","nodmgspread","payload","uncletopia"],"game_id":440,"stv_port":27076,"stv_name":"Uncletopia | Frankfurt | 7 | Stopwatch Beta | STV","players":null},{"server_id":24,"name":"Uncletopia | Frankfurt | 8 | Community","name_short":"frk-8","host":"frk-1.de.uncletopia.com","port":27085,"enabled":true,"region":"eu","cc":"de","latitude":50.110924,"longitude":8.682127,"reserved":0,"last_update":"0001-01-01T00:00:00Z","name_a2s":"Uncletopia | Frankfurt | 8 | Community","protocol":17,"map":"pl_badwater","folder":"tf","game":"Team Fortress","app_id":440,"player_count":5,"max_players":24,"Bots":0,"server_type":"Dedicated","server_os":"Linux","password":true,"vac":true,"version":"7757534","steam_id":85568392924742828,"keywords":["nocrits","nodmgspread","payload","uncletopia"],"game_id":440,"stv_port":27086,"stv_name":"Uncletopia | Frankfurt | 8 | Community | STV","players":[{"user_id":11,"name":"bog","steam_id":76561198118412910,"connected_time":208000000000,"state":"active","ping":112},{"user_id":12,"name":"Whitewoods","steam_id":76561198359993388,"connected_time":103000000000,"state":"active","ping":203},{"user_id":13,"name":"Green Banana","steam_id":76561198055480280,"connected_time":48000000000,"state":"active","ping":84},{"user_id":8,"name":"Kwizine","steam_id":76561198147999400,"connected_time":418000000000,"state":"active","ping":60},{"user_id":10,"name":"Loyde","steam_id":76561198029919524,"connected_time":374000000000,"state":"active","ping":97}]},{"server_id":202,"name":"Uncletopia | Hong Kong | 1 | All Maps","name_short":"hgk-1","host":"hgk-1.hk.uncletopia.com","port":27015,"enabled":true,"region":"asia","cc":"hk","latitude":22.302711,"longitude":114.177216,"reserved":0,"last_update":"0001-01-01T00:00:00Z","name_a2s":"Uncletopia | Hong Kong | 1 | All Maps","protocol":17,"map":"cp_sunshine","folder":"tf","game":"Team Fortress","app_id":440,"player_count":22,"max_players":24,"Bots":0,"server_type":"Dedicated","server_os":"Linux","password":true,"vac":true,"version":"7757534","steam_id":85568392924494504,"keywords":["cp","nocrits","nodmgspread","uncletopia"],"game_id":440,"stv_port":27016,"stv_name":"Uncletopia | Hong Kong | 1 | All Maps | STV","players":[{"user_id":886,"name":"qb","steam_id":76561198412329672,"connected_time":12000000000,"state":"active","ping":79},{"user_id":724,"name":"screaming sniper","steam_id":76561199085568674,"connected_time":1443000000000,"state":"active","ping":56},{"user_id":611,"name":"Paragon","steam_id":76561197983816430,"connected_time":2175000000000,"state":"active","ping":127},{"user_id":117,"name":"✧BaKa BAzooKA✧(◕▿◕ )","steam_id":76561198061628689,"connected_time":10201000000000,"state":"active","ping":52},{"user_id":883,"name":"bangerlop","steam_id":76561199349993627,"connected_time":19000000000,"state":"active","ping":97},{"user_id":658,"name":"brizzard","steam_id":76561198048438653,"connected_time":1872000000000,"state":"active","ping":43},{"user_id":451,"name":"moguizhong","steam_id":76561198152588681,"connected_time":3269000000000,"state":"active","ping":80},{"user_id":885,"name":"Urotsuki","steam_id":76561198074339034,"connected_time":17000000000,"state":"active","ping":75},{"user_id":284,"name":":)","steam_id":76561198437941450,"connected_time":5410000000000,"state":"active","ping":82},{"user_id":134,"name":"silverhouse7","steam_id":76561198349634906,"connected_time":8515000000000,"state":"active","ping":89},{"user_id":713,"name":"happyman","steam_id":76561198045585030,"connected_time":1648000000000,"state":"active","ping":55},{"user_id":154,"name":"Socello123","steam_id":76561198400838979,"connected_time":7458000000000,"state":"active","ping":102},{"user_id":667,"name":"sloth of the fragment clan","steam_id":76561198214192048,"connected_time":1854000000000,"state":"active","ping":91},{"user_id":291,"name":"Nasi Lemak Gaming","steam_id":76561198082921407,"connected_time":5123000000000,"state":"active","ping":75},{"user_id":381,"name":"Pillboi","steam_id":76561198011172886,"connected_time":3829000000000,"state":"active","ping":36},{"user_id":772,"name":"huy","steam_id":76561199180187189,"connected_time":905000000000,"state":"active","ping":144},{"user_id":672,"name":"turd","steam_id":76561199006212966,"connected_time":1847000000000,"state":"active","ping":85},{"user_id":884,"name":"p1st0n","steam_id":76561198992723983,"connected_time":17000000000,"state":"active","ping":157},{"user_id":195,"name":"linne","steam_id":76561198230213828,"connected_time":6881000000000,"state":"active","ping":60},{"user_id":798,"name":"AmaiToxic","steam_id":76561199122491157,"connected_time":644000000000,"state":"active","ping":113},{"user_id":129,"name":"let cook","steam_id":76561198055553140,"connected_time":8564000000000,"state":"active","ping":75},{"user_id":654,"name":"Wx","steam_id":76561199217780897,"connected_time":1895000000000,"state":"active","ping":90}]},{"server_id":1,"name":"Uncletopia | Los Angeles | 1 | All Maps","name_short":"lax-1","host":"lax-1.us.uncletopia.com","port":27015,"enabled":true,"region":"us-west","cc":"us","latitude":33.94279,"longitude":-118.41004,"reserved":0,"last_update":"0001-01-01T00:00:00Z","name_a2s":"Uncletopia | Los Angeles | 1 | All Maps","protocol":17,"map":"pl_snowycoast","folder":"tf","game":"Team Fortress","app_id":440,"player_count":0,"max_players":24,"Bots":0,"server_type":"Dedicated","server_os":"Linux","password":true,"vac":true,"version":"7757534","steam_id":85568392924469991,"keywords":["nocrits","nodmgspread","payload","uncletopia"],"game_id":440,"stv_port":27016,"stv_name":"Uncletopia | Los Angeles | 1 | All Maps | STV","players":null},{"server_id":112,"name":"Uncletopia | Los Angeles | 2 | All Maps","name_short":"lax-2","host":"lax-1.us.uncletopia.com","port":27025,"enabled":true,"region":"us-west","cc":"us","latitude":33.94279,"longitude":-118.41004,"reserved":0,"last_update":"0001-01-01T00:00:00Z","name_a2s":"Uncletopia | Los Angeles | 2 | All Maps","protocol":17,"map":"cp_process_final","folder":"tf","game":"Team Fortress","app_id":440,"player_count":0,"max_players":24,"Bots":0,"server_type":"Dedicated","server_os":"Linux","password":true,"vac":true,"version":"7757534","steam_id":85568392924469992,"keywords":["cp","nocrits","nodmgspread","uncletopia"],"game_id":440,"stv_port":27026,"stv_name":"Uncletopia | Los Angeles | 2 | All Maps | STV","players":null},{"server_id":324,"name":"Uncletopia | Los Angeles | 3 | All Maps","name_short":"lax-3","host":"lax-1.us.uncletopia.com","port":27035,"enabled":true,"region":"us-west","cc":"us","latitude":33.94279,"longitude":-118.41004,"reserved":0,"last_update":"0001-01-01T00:00:00Z","name_a2s":"Uncletopia | Los Angeles | 3 | All Maps","protocol":17,"map":"pl_snowycoast","folder":"tf","game":"Team Fortress","app_id":440,"player_count":0,"max_players":24,"Bots":0,"server_type":"Dedicated","server_os":"Linux","password":true,"vac":true,"version":"7757534","steam_id":85568392924510198,"keywords":["nocrits","nodmgspread","payload","uncletopia"],"game_id":440,"stv_port":27036,"stv_name":"Uncletopia | Los Angeles | 3 | All Maps | STV","players":null},{"server_id":25,"name":"Uncletopia | Los Angeles | 4 | Stopwatch Beta","name_short":"lax-4","host":"lax-1.us.uncletopia.com","port":27045,"enabled":true,"region":"us-west","cc":"us","latitude":33.94279,"longitude":-118.41004,"reserved":0,"last_update":"0001-01-01T00:00:00Z","name_a2s":"Uncletopia | Los Angeles | 4 | Stopwatch Beta","protocol":17,"map":"pl_frontier_final","folder":"tf","game":"Team Fortress","app_id":440,"player_count":0,"max_players":24,"Bots":0,"server_type":"Dedicated","server_os":"Linux","password":true,"vac":true,"version":"7757534","steam_id":85568392924510199,"keywords":["nocrits","nodmgspread","payload","uncletopia"],"game_id":440,"stv_port":27046,"stv_name":"Uncletopia | Los Angeles | 4 | Stopwatch Beta | STV","players":null},{"server_id":11,"name":"Uncletopia | London | 1 | All Maps","name_short":"lon-1","host":"lon-1.uk.uncletopia.com","port":27015,"enabled":true,"region":"eu","cc":"gb","latitude":51.509865,"longitude":-0.118092,"reserved":0,"last_update":"0001-01-01T00:00:00Z","name_a2s":"Uncletopia | London | 1 | All Maps","protocol":17,"map":"koth_viaduct","folder":"tf","game":"Team Fortress","app_id":440,"player_count":0,"max_players":24,"Bots":0,"server_type":"Dedicated","server_os":"Linux","password":true,"vac":true,"version":"7757534","steam_id":85568392924367362,"keywords":["cp","nocrits","nodmgspread","uncletopia"],"game_id":440,"stv_port":27016,"stv_name":"Uncletopia | London | 1 | All Maps | STV","players":null},{"server_id":114,"name":"Uncletopia | London | 2 | All Maps","name_short":"lon-2","host":"lon-1.uk.uncletopia.com","port":27025,"enabled":true,"region":"eu","cc":"gb","latitude":51.509865,"longitude":-0.118092,"reserved":0,"last_update":"0001-01-01T00:00:00Z","name_a2s":"Uncletopia | London | 2 | All Maps","protocol":17,"map":"cp_dustbowl","folder":"tf","game":"Team Fortress","app_id":440,"player_count":0,"max_players":24,"Bots":0,"server_type":"Dedicated","server_os":"Linux","password":true,"vac":true,"version":"7757534","steam_id":85568392924470941,"keywords":["cp","nocrits","nodmgspread","uncletopia"],"game_id":440,"stv_port":27026,"stv_name":"Uncletopia | London | 2 | All Maps | STV","players":null},{"server_id":320,"name":"Uncletopia | London | 3 | All Maps","name_short":"lon-3","host":"lon-1.uk.uncletopia.com","port":27035,"enabled":true,"region":"eu","cc":"gb","latitude":51.509865,"longitude":-0.118092,"reserved":0,"last_update":"0001-01-01T00:00:00Z","name_a2s":"Uncletopia | London | 3 | All Maps","protocol":17,"map":"pl_badwater","folder":"tf","game":"Team Fortress","app_id":440,"player_count":0,"max_players":24,"Bots":0,"server_type":"Dedicated","server_os":"Linux","password":true,"vac":true,"version":"7757534","steam_id":85568392924510192,"keywords":["nocrits","nodmgspread","payload","uncletopia"],"game_id":440,"stv_port":27036,"stv_name":"Uncletopia | London | 3 | All Maps | STV","players":null},{"server_id":321,"name":"Uncletopia | London | 4 | All Maps","name_short":"lon-4","host":"lon-1.uk.uncletopia.com","port":27045,"enabled":true,"region":"eu","cc":"gb","latitude":51.509865,"longitude":-0.118092,"reserved":0,"last_update":"0001-01-01T00:00:00Z","name_a2s":"Uncletopia | London | 4 | All Maps","protocol":17,"map":"koth_viaduct","folder":"tf","game":"Team Fortress","app_id":440,"player_count":0,"max_players":24,"Bots":0,"server_type":"Dedicated","server_os":"Linux","password":true,"vac":true,"version":"7757534","steam_id":85568392924510193,"keywords":["cp","nocrits","nodmgspread","uncletopia"],"game_id":440,"stv_port":27046,"stv_name":"Uncletopia | London | 4 | All Maps | STV","players":null},{"server_id":21,"name":"Uncletopia | London | 5 | All Maps","name_short":"lon-5","host":"lon-1.uk.uncletopia.com","port":27055,"enabled":true,"region":"eu","cc":"gb","latitude":51.509865,"longitude":-0.118092,"reserved":0,"last_update":"0001-01-01T00:00:00Z","name_a2s":"Uncletopia | London | 5 | All Maps","protocol":17,"map":"cp_snakewater_final1","folder":"tf","game":"Team Fortress","app_id":440,"player_count":0,"max_players":24,"Bots":0,"server_type":"Dedicated","server_os":"Linux","password":true,"vac":true,"version":"7757534","steam_id":85568392924742829,"keywords":["cp","nocrits","nodmgspread","uncletopia"],"game_id":440,"stv_port":27056,"stv_name":"Uncletopia | London | 5 | All Maps | STV","players":null},{"server_id":22,"name":"Uncletopia | London | 6 | All Maps","name_short":"lon-6","host":"lon-1.uk.uncletopia.com","port":27065,"enabled":true,"region":"eu","cc":"gb","latitude":51.509865,"longitude":-0.118092,"reserved":0,"last_update":"0001-01-01T00:00:00Z","name_a2s":"Uncletopia | London | 6 | All Maps","protocol":17,"map":"koth_cascade","folder":"tf","game":"Team Fortress","app_id":440,"player_count":0,"max_players":24,"Bots":0,"server_type":"Dedicated","server_os":"Linux","password":true,"vac":true,"version":"7757534","steam_id":85568392924742830,"keywords":["cp","nocrits","nodmgspread","uncletopia"],"game_id":440,"stv_port":27066,"stv_name":"Uncletopia | London | 6 | All Maps | STV","players":null},{"server_id":40,"name":"Uncletopia | London | 7 | No Payload","name_short":"lon-7","host":"lon-1.uk.uncletopia.com","port":27075,"enabled":true,"region":"eu","cc":"gb","latitude":51.509865,"longitude":-0.118092,"reserved":0,"last_update":"0001-01-01T00:00:00Z","name_a2s":"Uncletopia | London | 7 | No Payload","protocol":17,"map":"cp_process_final","folder":"tf","game":"Team Fortress","app_id":440,"player_count":0,"max_players":24,"Bots":0,"server_type":"Dedicated","server_os":"Linux","password":true,"vac":true,"version":"7757534","steam_id":85568392924964314,"keywords":["cp","nocrits","nodmgspread","uncletopia"],"game_id":440,"stv_port":27076,"stv_name":"Uncletopia | London | 7 | No Payload | STV","players":null},{"server_id":41,"name":"Uncletopia | London | 8 | Community","name_short":"lon-8","host":"lon-1.uk.uncletopia.com","port":27085,"enabled":true,"region":"eu","cc":"gb","latitude":51.509865,"longitude":-0.118092,"reserved":0,"last_update":"0001-01-01T00:00:00Z","name_a2s":"Uncletopia | London | 8 | Community","protocol":17,"map":"pl_upward","folder":"tf","game":"Team Fortress","app_id":440,"player_count":0,"max_players":24,"Bots":0,"server_type":"Dedicated","server_os":"Linux","password":true,"vac":true,"version":"7757534","steam_id":85568392924964315,"keywords":["nocrits","nodmgspread","payload","uncletopia"],"game_id":440,"stv_port":27086,"stv_name":"Uncletopia | London | 8 | Community | STV","players":null},{"server_id":300,"name":"Uncletopia | Montréal | 1 | All Maps","name_short":"mtl-1","host":"mtl-1.ca.uncletopia.com","port":27015,"enabled":true,"region":"us-east","cc":"ca","latitude":45.50889,"longitude":-73.56167,"reserved":0,"last_update":"0001-01-01T00:00:00Z","name_a2s":"Uncletopia | Montréal | 1 | All Maps","protocol":17,"map":"pl_barnblitz","folder":"tf","game":"Team Fortress","app_id":440,"player_count":0,"max_players":24,"Bots":0,"server_type":"Dedicated","server_os":"Linux","password":true,"vac":true,"version":"7757534","steam_id":85568392924500087,"keywords":["nocrits","nodmgspread","payload","uncletopia"],"game_id":440,"stv_port":27016,"stv_name":"Uncletopia | Montréal | 1 | All Maps | STV","players":null},{"server_id":301,"name":"Uncletopia | Montréal | 2 | All Maps","name_short":"mtl-2","host":"mtl-1.ca.uncletopia.com","port":27025,"enabled":true,"region":"us-east","cc":"ca","latitude":45.50889,"longitude":-73.56167,"reserved":0,"last_update":"0001-01-01T00:00:00Z","name_a2s":"Uncletopia | Montréal | 2 | All Maps","protocol":17,"map":"koth_lakeside_final","folder":"tf","game":"Team Fortress","app_id":440,"player_count":0,"max_players":24,"Bots":0,"server_type":"Dedicated","server_os":"Linux","password":true,"vac":true,"version":"7757534","steam_id":85568392924500088,"keywords":["cp","nocrits","nodmgspread","uncletopia"],"game_id":440,"stv_port":27026,"stv_name":"Uncletopia | Montréal | 2 | All Maps | STV","players":null},{"server_id":302,"name":"Uncletopia | Montréal | 3 | All Maps","name_short":"mtl-3","host":"mtl-1.ca.uncletopia.com","port":27035,"enabled":true,"region":"us-east","cc":"ca","latitude":45.50889,"longitude":-73.56167,"reserved":0,"last_update":"0001-01-01T00:00:00Z","name_a2s":"Uncletopia | Montréal | 3 | All Maps","protocol":17,"map":"koth_lakeside_final","folder":"tf","game":"Team Fortress","app_id":440,"player_count":0,"max_players":24,"Bots":0,"server_type":"Dedicated","server_os":"Linux","password":true,"vac":true,"version":"7757534","steam_id":85568392924500089,"keywords":["cp","nocrits","nodmgspread","uncletopia"],"game_id":440,"stv_port":27036,"stv_name":"Uncletopia | Montréal | 3 | All Maps | STV","players":null},{"server_id":303,"name":"Uncletopia | Montréal | 4 | No Payload","name_short":"mtl-4","host":"mtl-1.ca.uncletopia.com","port":27045,"enabled":true,"region":"us-east","cc":"ca","latitude":45.50889,"longitude":-73.56167,"reserved":0,"last_update":"0001-01-01T00:00:00Z","name_a2s":"Uncletopia | Montréal | 4 | No Payload","protocol":17,"map":"pl_borneo","folder":"tf","game":"Team Fortress","app_id":440,"player_count":0,"max_players":24,"Bots":0,"server_type":"Dedicated","server_os":"Linux","password":true,"vac":true,"version":"7757534","steam_id":85568392924500090,"keywords":["nocrits","nodmgspread","payload","uncletopia"],"game_id":440,"stv_port":27046,"stv_name":"Uncletopia | Montréal | 4 | No Payload | STV","players":null},{"server_id":13,"name":"Uncletopia | New York City | 1 | All Maps","name_short":"nyc-1","host":"nyc-1.us.uncletopia.com","port":27015,"enabled":true,"region":"us-east","cc":"us","latitude":40.73061,"longitude":-73.93524,"reserved":0,"last_update":"0001-01-01T00:00:00Z","name_a2s":"Uncletopia | New York City | 1 | All Maps","protocol":17,"map":"pl_barnblitz","folder":"tf","game":"Team Fortress","app_id":440,"player_count":0,"max_players":24,"Bots":0,"server_type":"Dedicated","server_os":"Linux","password":true,"vac":true,"version":"7757534","steam_id":85568392924469993,"keywords":["nocrits","nodmgspread","payload","uncletopia"],"game_id":440,"stv_port":27016,"stv_name":"Uncletopia | New York City | 1 | All Maps | STV","players":null},{"server_id":14,"name":"Uncletopia | New York City | 2 | All Maps","name_short":"nyc-2","host":"nyc-1.us.uncletopia.com","port":27025,"enabled":true,"region":"us-east","cc":"us","latitude":40.73061,"longitude":-73.93524,"reserved":0,"last_update":"0001-01-01T00:00:00Z","name_a2s":"Uncletopia | New York City | 2 | All Maps","protocol":17,"map":"cp_altitude","folder":"tf","game":"Team Fortress","app_id":440,"player_count":0,"max_players":24,"Bots":0,"server_type":"Dedicated","server_os":"Linux","password":true,"vac":true,"version":"7757534","steam_id":85568392924469994,"keywords":["cp","nocrits","nodmgspread","uncletopia"],"game_id":440,"stv_port":27026,"stv_name":"Uncletopia | New York City | 2 | All Maps | STV","players":null},{"server_id":15,"name":"Uncletopia | New York City | 3 | Stopwatch Beta","name_short":"nyc-3","host":"nyc-1.us.uncletopia.com","port":27035,"enabled":true,"region":"us-east","cc":"us","latitude":40.73061,"longitude":-73.93524,"reserved":0,"last_update":"0001-01-01T00:00:00Z","name_a2s":"Uncletopia | New York City | 3 | Stopwatch Beta","protocol":17,"map":"workshop/koth_ashville_final.ugc2130459942","folder":"tf","game":"Team Fortress","app_id":440,"player_count":0,"max_players":24,"Bots":0,"server_type":"Dedicated","server_os":"Linux","password":true,"vac":true,"version":"7757534","steam_id":85568392924742820,"keywords":["cp","nocrits","nodmgspread","uncletopia"],"game_id":440,"stv_port":27036,"stv_name":"Uncletopia | New York City | 3 | Stopwatch Beta | STV","players":null},{"server_id":16,"name":"Uncletopia | New York City | 4 | Community","name_short":"nyc-4","host":"nyc-1.us.uncletopia.com","port":27045,"enabled":true,"region":"us-east","cc":"us","latitude":40.73061,"longitude":-73.93524,"reserved":0,"last_update":"0001-01-01T00:00:00Z","name_a2s":"Uncletopia | New York City | 4 | Community","protocol":17,"map":"workshop/koth_bagel_rc6.ugc2514036946","folder":"tf","game":"Team Fortress","app_id":440,"player_count":0,"max_players":24,"Bots":0,"server_type":"Dedicated","server_os":"Linux","password":true,"vac":true,"version":"7757534","steam_id":85568392924742821,"keywords":["cp","nocrits","nodmgspread","uncletopia"],"game_id":440,"stv_port":27046,"stv_name":"Uncletopia | New York City | 4 | Community | STV","players":null},{"server_id":142,"name":"Uncletopia | São Paulo | 1 | All Maps","name_short":"sao-1","host":"sao-1.br.uncletopia.com","port":27015,"enabled":true,"region":"sa","cc":"br","latitude":-23.533773,"longitude":-46.62529,"reserved":0,"last_update":"0001-01-01T00:00:00Z","name_a2s":"Uncletopia | São Paulo | 1 | All Maps","protocol":17,"map":"pl_badwater","folder":"tf","game":"Team Fortress","app_id":440,"player_count":0,"max_players":24,"Bots":0,"server_type":"Dedicated","server_os":"Linux","password":true,"vac":true,"version":"7757534","steam_id":85568392924469996,"keywords":["nocrits","nodmgspread","payload","uncletopia"],"game_id":440,"stv_port":27016,"stv_name":"Uncletopia | São Paulo | 1 | All Maps | STV","players":null},{"server_id":143,"name":"Uncletopia | São Paulo | 2 | All Maps","name_short":"sao-2","host":"sao-2.br.uncletopia.com","port":27015,"enabled":true,"region":"sa","cc":"br","latitude":-23.533773,"longitude":-46.62529,"reserved":0,"last_update":"0001-01-01T00:00:00Z","name_a2s":"Uncletopia | São Paulo | 2 | All Maps","protocol":17,"map":"pl_borneo","folder":"tf","game":"Team Fortress","app_id":440,"player_count":0,"max_players":24,"Bots":0,"server_type":"Dedicated","server_os":"Linux","password":true,"vac":true,"version":"7757534","steam_id":85568392924485349,"keywords":["nocrits","nodmgspread","payload","uncletopia"],"game_id":440,"stv_port":27016,"stv_name":"Uncletopia | São Paulo | 2 | All Maps | STV","players":null},{"server_id":7,"name":"Uncletopia | Seattle | 1 | All Maps","name_short":"sea-1","host":"sea-1.us.uncletopia.com","port":27015,"enabled":true,"region":"us-west","cc":"us","latitude":47.608013,"longitude":-122.33517,"reserved":0,"last_update":"0001-01-01T00:00:00Z","name_a2s":"Uncletopia | Seattle | 1 | All Maps","protocol":17,"map":"cp_sunshine","folder":"tf","game":"Team Fortress","app_id":440,"player_count":4,"max_players":24,"Bots":0,"server_type":"Dedicated","server_os":"Linux","password":true,"vac":true,"version":"7757534","steam_id":85568392924469997,"keywords":["cp","nocrits","nodmgspread","uncletopia"],"game_id":440,"stv_port":27016,"stv_name":"Uncletopia | Seattle | 1 | All Maps | STV","players":[{"user_id":861,"name":"dubba (•̀_•́ )","steam_id":76561199428471192,"connected_time":239000000000,"state":"active","ping":66},{"user_id":862,"name":"Pudsla","steam_id":76561198258974036,"connected_time":213000000000,"state":"active","ping":60},{"user_id":859,"name":"i am weed","steam_id":76561198419896433,"connected_time":500000000000,"state":"active","ping":41},{"user_id":813,"name":"EatSomeBEES","steam_id":76561198047334307,"connected_time":5554000000000,"state":"active","ping":81}]},{"server_id":119,"name":"Uncletopia | Seattle | 2 | All Maps","name_short":"sea-2","host":"sea-1.us.uncletopia.com","port":27025,"enabled":true,"region":"us-west","cc":"us","latitude":47.608013,"longitude":-122.33517,"reserved":0,"last_update":"0001-01-01T00:00:00Z","name_a2s":"Uncletopia | Seattle | 2 | All Maps","protocol":17,"map":"pl_upward","folder":"tf","game":"Team Fortress","app_id":440,"player_count":24,"max_players":24,"Bots":0,"server_type":"Dedicated","server_os":"Linux","password":true,"vac":true,"version":"7757534","steam_id":85568392924469998,"keywords":["nocrits","nodmgspread","payload","uncletopia"],"game_id":440,"stv_port":27026,"stv_name":"Uncletopia | Seattle | 2 | All Maps | STV","players":[{"user_id":936,"name":"rat gets the cheese","steam_id":76561198031234032,"connected_time":869000000000,"state":"active","ping":95},{"user_id":859,"name":"Ping","steam_id":76561198072947773,"connected_time":6908000000000,"state":"active","ping":106},{"user_id":927,"name":"seats","steam_id":76561197998756039,"connected_time":2010000000000,"state":"active","ping":75},{"user_id":930,"name":"Ash!❤","steam_id":76561198070398840,"connected_time":1300000000000,"state":"active","ping":69},{"user_id":796,"name":"Lz","steam_id":76561198445689515,"connected_time":11452000000000,"state":"active","ping":91},{"user_id":862,"name":"Mom","steam_id":76561198207936000,"connected_time":6759000000000,"state":"active","ping":60},{"user_id":911,"name":"PootisLife","steam_id":76561198074400568,"connected_time":2983000000000,"state":"active","ping":41},{"user_id":929,"name":"waert","steam_id":76561198062054335,"connected_time":1323000000000,"state":"active","ping":70},{"user_id":925,"name":"Salazar9","steam_id":76561198049903973,"connected_time":2314000000000,"state":"active","ping":56},{"user_id":938,"name":"KitKat :)","steam_id":76561198191536489,"connected_time":346000000000,"state":"active","ping":86},{"user_id":907,"name":"Disc0","steam_id":76561198067337267,"connected_time":3255000000000,"state":"active","ping":46},{"user_id":939,"name":"ScoutBox","steam_id":76561198111539895,"connected_time":337000000000,"state":"active","ping":77},{"user_id":878,"name":"SvicidalBug","steam_id":76561198221390504,"connected_time":5801000000000,"state":"active","ping":65},{"user_id":916,"name":"Matty the Baby Sloth","steam_id":76561198130993937,"connected_time":2860000000000,"state":"active","ping":60},{"user_id":932,"name":"BrokenDoop","steam_id":76561198072954386,"connected_time":1265000000000,"state":"active","ping":51},{"user_id":935,"name":"oil","steam_id":76561198099980149,"connected_time":1214000000000,"state":"active","ping":78},{"user_id":937,"name":"hart","steam_id":76561198046073848,"connected_time":622000000000,"state":"active","ping":49},{"user_id":933,"name":"Antwan","steam_id":76561198246200638,"connected_time":1252000000000,"state":"active","ping":96},{"user_id":908,"name":"Killer_Bite_","steam_id":76561198153259922,"connected_time":3204000000000,"state":"active","ping":61},{"user_id":922,"name":"Zorlovo","steam_id":76561198006443283,"connected_time":2646000000000,"state":"active","ping":104},{"user_id":918,"name":"Willoe","steam_id":76561198244889942,"connected_time":2827000000000,"state":"active","ping":56},{"user_id":899,"name":"rat eater","steam_id":76561198955453886,"connected_time":4633000000000,"state":"active","ping":88},{"user_id":934,"name":"RuckiC","steam_id":76561198253391237,"connected_time":1249000000000,"state":"active","ping":92},{"user_id":869,"name":"Training Arc","steam_id":76561198038832034,"connected_time":6557000000000,"state":"active","ping":59}]},{"server_id":406,"name":"Uncletopia | Seattle | 3 | Stopwatch Beta","name_short":"sea-3","host":"sea-1.us.uncletopia.com","port":27035,"enabled":true,"region":"us-west","cc":"us","latitude":47.608013,"longitude":-122.33517,"reserved":0,"last_update":"0001-01-01T00:00:00Z","name_a2s":"Uncletopia | Seattle | 3 | Stopwatch Beta","protocol":17,"map":"koth_lakeside_final","folder":"tf","game":"Team Fortress","app_id":440,"player_count":2,"max_players":24,"Bots":0,"server_type":"Dedicated","server_os":"Linux","password":true,"vac":true,"version":"7757534","steam_id":85568392924515217,"keywords":["cp","nocrits","nodmgspread","uncletopia"],"game_id":440,"stv_port":27036,"stv_name":"Uncletopia | Seattle | 3 | Stopwatch Beta | STV","players":[{"user_id":43,"name":"sexylobster","steam_id":76561198080739551,"connected_time":7882000000000,"state":"active","ping":48},{"user_id":45,"name":"Engi","steam_id":76561198054885630,"connected_time":7541000000000,"state":"active","ping":55}]},{"server_id":17,"name":"Uncletopia | San Francisco | 1 | All Maps","name_short":"sfo-1","host":"sfo-1.us.uncletopia.com","port":27015,"enabled":true,"region":"us-west","cc":"us","latitude":37.77397,"longitude":-122.4313,"reserved":0,"last_update":"0001-01-01T00:00:00Z","name_a2s":"Uncletopia | San Francisco | 1 | All Maps","protocol":17,"map":"pl_barnblitz","folder":"tf","game":"Team Fortress","app_id":440,"player_count":24,"max_players":24,"Bots":0,"server_type":"Dedicated","server_os":"Linux","password":true,"vac":true,"version":"7757534","steam_id":85568392924469999,"keywords":["nocrits","nodmgspread","payload","uncletopia"],"game_id":440,"stv_port":27016,"stv_name":"Uncletopia | San Francisco | 1 | All Maps | STV","players":[{"user_id":519,"name":"plutonium isotope","steam_id":76561198319442494,"connected_time":1428000000000,"state":"active","ping":58},{"user_id":466,"name":"Lambchop","steam_id":76561198043900363,"connected_time":4426000000000,"state":"active","ping":60},{"user_id":508,"name":"i have teeth","steam_id":76561198014008520,"connected_time":1958000000000,"state":"active","ping":60},{"user_id":493,"name":"Scrombello Portabello","steam_id":76561198193574042,"connected_time":3212000000000,"state":"active","ping":72},{"user_id":495,"name":"TeCon","steam_id":76561198049127236,"connected_time":3207000000000,"state":"active","ping":66},{"user_id":437,"name":"Oomitch","steam_id":76561198071702759,"connected_time":8056000000000,"state":"active","ping":73},{"user_id":387,"name":"zeel107","steam_id":76561198063892990,"connected_time":10150000000000,"state":"active","ping":63},{"user_id":522,"name":"demoman jumpscare","steam_id":76561198190962742,"connected_time":1263000000000,"state":"active","ping":89},{"user_id":482,"name":"flo rida","steam_id":76561198226169704,"connected_time":3741000000000,"state":"active","ping":62},{"user_id":523,"name":"frozenwasanokmovie","steam_id":76561198157407952,"connected_time":1236000000000,"state":"active","ping":55},{"user_id":515,"name":"ThisBot","steam_id":76561198074123607,"connected_time":1702000000000,"state":"active","ping":63},{"user_id":532,"name":"Fenteale","steam_id":76561198008559945,"connected_time":234000000000,"state":"active","ping":55},{"user_id":517,"name":"esdot","steam_id":76561198836178527,"connected_time":1539000000000,"state":"active","ping":69},{"user_id":516,"name":"HetchHetchy","steam_id":76561198128125728,"connected_time":1702000000000,"state":"active","ping":60},{"user_id":479,"name":"Thunderchief","steam_id":76561198022802780,"connected_time":3952000000000,"state":"active","ping":80},{"user_id":514,"name":"Chalks","steam_id":76561198045978275,"connected_time":1762000000000,"state":"active","ping":59},{"user_id":528,"name":"SkyLark","steam_id":76561198303618132,"connected_time":910000000000,"state":"active","ping":72},{"user_id":529,"name":"Assassin","steam_id":76561198321410235,"connected_time":672000000000,"state":"active","ping":49},{"user_id":511,"name":"Puskinti","steam_id":76561198032120688,"connected_time":1784000000000,"state":"active","ping":76},{"user_id":499,"name":"MINI CRIT!999","steam_id":76561198027649268,"connected_time":3177000000000,"state":"active","ping":93},{"user_id":490,"name":"PopcornNinja101","steam_id":76561198330680181,"connected_time":3399000000000,"state":"active","ping":61},{"user_id":409,"name":"Flyingcat9000","steam_id":76561198179561797,"connected_time":9354000000000,"state":"active","ping":39},{"user_id":462,"name":"00","steam_id":76561198041700636,"connected_time":5457000000000,"state":"active","ping":45},{"user_id":503,"name":"SonicTheHedgehogEpicGamer2013","steam_id":76561199229577594,"connected_time":2857000000000,"state":"active","ping":74}]},{"server_id":18,"name":"Uncletopia | San Francisco | 2 | All Maps","name_short":"sfo-2","host":"sfo-1.us.uncletopia.com","port":27025,"enabled":true,"region":"us-west","cc":"us","latitude":37.77397,"longitude":-122.4313,"reserved":0,"last_update":"0001-01-01T00:00:00Z","name_a2s":"Uncletopia | San Francisco | 2 | All Maps","protocol":17,"map":"cp_process_final","folder":"tf","game":"Team Fortress","app_id":440,"player_count":0,"max_players":24,"Bots":0,"server_type":"Dedicated","server_os":"Linux","password":true,"vac":true,"version":"7757534","steam_id":85568392924470000,"keywords":["cp","nocrits","nodmgspread","uncletopia"],"game_id":440,"stv_port":27026,"stv_name":"Uncletopia | San Francisco | 2 | All Maps | STV","players":null},{"server_id":19,"name":"Uncletopia | San Francisco | 3 | Stopwatch Beta","name_short":"sfo-3","host":"sfo-1.us.uncletopia.com","port":27035,"enabled":true,"region":"us-west","cc":"us","latitude":37.77397,"longitude":-122.4313,"reserved":0,"last_update":"0001-01-01T00:00:00Z","name_a2s":"Uncletopia | San Francisco | 3 | Stopwatch Beta","protocol":17,"map":"pl_borneo","folder":"tf","game":"Team Fortress","app_id":440,"player_count":0,"max_players":24,"Bots":0,"server_type":"Dedicated","server_os":"Linux","password":true,"vac":true,"version":"7757534","steam_id":85568392924742824,"keywords":["nocrits","nodmgspread","payload","uncletopia"],"game_id":440,"stv_port":27036,"stv_name":"Uncletopia | San Francisco | 3 | Stopwatch Beta | STV","players":null},{"server_id":20,"name":"Uncletopia | San Francisco | 4 | Community","name_short":"sfo-4","host":"sfo-1.us.uncletopia.com","port":27045,"enabled":true,"region":"us-west","cc":"us","latitude":37.77397,"longitude":-122.4313,"reserved":0,"last_update":"0001-01-01T00:00:00Z","name_a2s":"Uncletopia | San Francisco | 4 | Community","protocol":17,"map":"koth_highpass","folder":"tf","game":"Team Fortress","app_id":440,"player_count":0,"max_players":24,"Bots":0,"server_type":"Dedicated","server_os":"Linux","password":true,"vac":true,"version":"7757534","steam_id":85568392924742826,"keywords":["cp","nocrits","nodmgspread","uncletopia"],"game_id":440,"stv_port":27046,"stv_name":"Uncletopia | San Francisco | 4 | Community | STV","players":null},{"server_id":141,"name":"Uncletopia | Sydney | 1 | All Maps","name_short":"syd-1","host":"syd-1.au.uncletopia.com","port":27015,"enabled":true,"region":"au","cc":"au","latitude":-33.865143,"longitude":151.2099,"reserved":0,"last_update":"0001-01-01T00:00:00Z","name_a2s":"Uncletopia | Sydney | 1 | All Maps","protocol":17,"map":"cp_sunshine","folder":"tf","game":"Team Fortress","app_id":440,"player_count":13,"max_players":24,"Bots":0,"server_type":"Dedicated","server_os":"Linux","password":true,"vac":true,"version":"7757534","steam_id":85568392924470001,"keywords":["cp","nocrits","nodmgspread","uncletopia"],"game_id":440,"stv_port":27016,"stv_name":"Uncletopia | Sydney | 1 | All Maps | STV","players":[{"user_id":386,"name":"DragRiper","steam_id":76561198050917553,"connected_time":1126000000000,"state":"active","ping":55},{"user_id":380,"name":"Not A F2P","steam_id":76561198376756608,"connected_time":1525000000000,"state":"active","ping":62},{"user_id":395,"name":"no vc no c","steam_id":76561197989503095,"connected_time":422000000000,"state":"active","ping":177},{"user_id":396,"name":"please dont touch me","steam_id":76561198202170587,"connected_time":412000000000,"state":"active","ping":64},{"user_id":399,"name":"XXX_DREAMYBULL_XXX","steam_id":76561198193620930,"connected_time":116000000000,"state":"active","ping":44},{"user_id":397,"name":"sumdweb","steam_id":76561199039434675,"connected_time":270000000000,"state":"active","ping":48},{"user_id":371,"name":"Mith","steam_id":76561197970294899,"connected_time":2087000000000,"state":"active","ping":48},{"user_id":400,"name":"Strike","steam_id":76561198254083849,"connected_time":85000000000,"state":"active","ping":71},{"user_id":347,"name":"voxii","steam_id":76561198099698281,"connected_time":3274000000000,"state":"active","ping":66},{"user_id":331,"name":"MEGA","steam_id":76561198201819060,"connected_time":5255000000000,"state":"active","ping":111},{"user_id":382,"name":"Emanuel Augustus","steam_id":76561199081848498,"connected_time":1461000000000,"state":"active","ping":69},{"user_id":384,"name":"Fuzz","steam_id":76561198063077180,"connected_time":1331000000000,"state":"active","ping":56},{"user_id":385,"name":"IZ*","steam_id":76561198834621927,"connected_time":1318000000000,"state":"active","ping":152}]},{"server_id":123,"name":"Uncletopia | Sydney | 2 | All Maps","name_short":"syd-2","host":"syd-1.au.uncletopia.com","port":27025,"enabled":true,"region":"au","cc":"au","latitude":-33.865143,"longitude":151.2099,"reserved":0,"last_update":"0001-01-01T00:00:00Z","name_a2s":"Uncletopia | Sydney | 2 | All Maps","protocol":17,"map":"pl_thundermountain","folder":"tf","game":"Team Fortress","app_id":440,"player_count":23,"max_players":24,"Bots":0,"server_type":"Dedicated","server_os":"Linux","password":true,"vac":true,"version":"7757534","steam_id":85568392924470002,"keywords":["nocrits","nodmgspread","payload","uncletopia"],"game_id":440,"stv_port":27026,"stv_name":"Uncletopia | Sydney | 2 | All Maps | STV","players":[{"user_id":139,"name":"KnowZero","steam_id":76561198095752015,"connected_time":1704000000000,"state":"active","ping":57},{"user_id":85,"name":"Shadow Puppeteer","steam_id":76561198151121997,"connected_time":10703000000000,"state":"active","ping":69},{"user_id":163,"name":"Doodles ♛","steam_id":76561198023807247,"connected_time":269000000000,"state":"active","ping":58},{"user_id":161,"name":"xenolotl","steam_id":76561198045610545,"connected_time":385000000000,"state":"active","ping":42},{"user_id":158,"name":"korn","steam_id":76561198022563294,"connected_time":460000000000,"state":"active","ping":109},{"user_id":116,"name":"xX_sexhaver_Xx(real)","steam_id":76561199205171109,"connected_time":2681000000000,"state":"active","ping":71},{"user_id":162,"name":"EpicGuy4227","steam_id":76561198094132328,"connected_time":272000000000,"state":"active","ping":55},{"user_id":135,"name":"Radial","steam_id":76561198850076584,"connected_time":1798000000000,"state":"active","ping":66},{"user_id":148,"name":"CypressFluff (She/Her)","steam_id":76561198174667818,"connected_time":1242000000000,"state":"active","ping":60},{"user_id":166,"name":"Branko","steam_id":76561199262196710,"connected_time":53000000000,"state":"active","ping":47},{"user_id":128,"name":"yoga","steam_id":76561199163801558,"connected_time":2080000000000,"state":"active","ping":39},{"user_id":124,"name":"sausage","steam_id":76561199184344763,"connected_time":2323000000000,"state":"active","ping":167},{"user_id":142,"name":"the normoaner","steam_id":76561198082423230,"connected_time":1574000000000,"state":"active","ping":75},{"user_id":160,"name":"blicky","steam_id":76561198029829077,"connected_time":412000000000,"state":"active","ping":92},{"user_id":165,"name":"Del Davis","steam_id":76561198153397177,"connected_time":92000000000,"state":"active","ping":53},{"user_id":130,"name":"ToadFungus","steam_id":76561199219667039,"connected_time":1897000000000,"state":"active","ping":105},{"user_id":156,"name":"4-Star Yelp Review","steam_id":76561197995258180,"connected_time":520000000000,"state":"active","ping":44},{"user_id":143,"name":"seiran","steam_id":76561198880907232,"connected_time":1573000000000,"state":"active","ping":100},{"user_id":145,"name":"NiceName","steam_id":76561198398046309,"connected_time":1514000000000,"state":"active","ping":55},{"user_id":138,"name":"SUSHIMAN","steam_id":76561199089989428,"connected_time":1763000000000,"state":"active","ping":87},{"user_id":150,"name":"Gasoline","steam_id":76561198879023728,"connected_time":1212000000000,"state":"active","ping":75},{"user_id":168,"name":"Critz Eastwood","steam_id":76561198050094688,"connected_time":9000000000,"state":"spawning","ping":49},{"user_id":154,"name":"old chunk of coal","steam_id":76561197990537324,"connected_time":1061000000000,"state":"active","ping":112}]},{"server_id":395,"name":"Uncletopia | Sydney | 3 | All Maps","name_short":"syd-3","host":"syd-1.au.uncletopia.com","port":27035,"enabled":true,"region":"au","cc":"au","latitude":-33.865143,"longitude":151.2099,"reserved":0,"last_update":"0001-01-01T00:00:00Z","name_a2s":"Uncletopia | Sydney | 3 | All Maps","protocol":17,"map":"koth_highpass","folder":"tf","game":"Team Fortress","app_id":440,"player_count":0,"max_players":24,"Bots":0,"server_type":"Dedicated","server_os":"Linux","password":true,"vac":true,"version":"7757534","steam_id":85568392925194467,"keywords":["cp","nocrits","nodmgspread","uncletopia"],"game_id":440,"stv_port":27036,"stv_name":"Uncletopia | Sydney | 3 | All Maps | STV","players":null},{"server_id":396,"name":"Uncletopia | Sydney | 4 | All Maps","name_short":"syd-4","host":"syd-1.au.uncletopia.com","port":27045,"enabled":true,"region":"au","cc":"au","latitude":-33.865143,"longitude":151.2099,"reserved":0,"last_update":"0001-01-01T00:00:00Z","name_a2s":"Uncletopia | Sydney | 4 | All Maps","protocol":17,"map":"pl_badwater","folder":"tf","game":"Team Fortress","app_id":440,"player_count":0,"max_players":24,"Bots":0,"server_type":"Dedicated","server_os":"Linux","password":true,"vac":true,"version":"7757534","steam_id":85568392925397958,"keywords":["nocrits","nodmgspread","payload","uncletopia"],"game_id":440,"stv_port":27046,"stv_name":"Uncletopia | Sydney | 4 | All Maps | STV","players":null},{"server_id":58,"name":"Uncletopia | Sydney | 5 | Stopwatch Beta","name_short":"syd-5","host":"syd-1.au.uncletopia.com","port":27055,"enabled":true,"region":"au","cc":"au","latitude":-33.865143,"longitude":151.2099,"reserved":0,"last_update":"0001-01-01T00:00:00Z","name_a2s":"Uncletopia | Sydney | 5 | Stopwatch Beta","protocol":17,"map":"pl_swiftwater_final1","folder":"tf","game":"Team Fortress","app_id":440,"player_count":0,"max_players":24,"Bots":0,"server_type":"Dedicated","server_os":"Linux","password":true,"vac":true,"version":"7757534","steam_id":85568392925397959,"keywords":["nocrits","nodmgspread","payload","uncletopia"],"game_id":440,"stv_port":27056,"stv_name":"Uncletopia | Sydney | 5 | Stopwatch Beta | STV","players":null},{"server_id":59,"name":"Uncletopia | Sydney | 6 | Community","name_short":"syd-6","host":"syd-1.au.uncletopia.com","port":27065,"enabled":true,"region":"au","cc":"au","latitude":-33.865143,"longitude":151.2099,"reserved":0,"last_update":"0001-01-01T00:00:00Z","name_a2s":"Uncletopia | Sydney | 6 | Community","protocol":17,"map":"workshop/koth_synthetic_rc6a.ugc1549817316","folder":"tf","game":"Team Fortress","app_id":440,"player_count":0,"max_players":24,"Bots":0,"server_type":"Dedicated","server_os":"Linux","password":true,"vac":true,"version":"7757534","steam_id":85568392925397960,"keywords":["cp","nocrits","nodmgspread","uncletopia"],"game_id":440,"stv_port":27066,"stv_name":"Uncletopia | Sydney | 6 | Community | STV","players":null},{"server_id":49,"name":"Uncletopia | Warsaw | 1 | All Maps","name_short":"waw-1","host":"waw-1.pl.uncletopia.com","port":27015,"enabled":true,"region":"eu","cc":"pl","latitude":52.2297,"longitude":21.017532,"reserved":0,"last_update":"0001-01-01T00:00:00Z","name_a2s":"","protocol":0,"map":"","folder":"","game":"","app_id":0,"player_count":0,"max_players":0,"Bots":0,"server_type":"","server_os":"","password":false,"vac":false,"version":"","steam_id":0,"keywords":null,"game_id":0,"stv_port":0,"stv_name":"","players":null},{"server_id":50,"name":"Uncletopia | Warsaw | 2 | All Maps","name_short":"waw-2","host":"waw-1.pl.uncletopia.com","port":27025,"enabled":true,"region":"eu","cc":"pl","latitude":52.2297,"longitude":21.017532,"reserved":0,"last_update":"0001-01-01T00:00:00Z","name_a2s":"Uncletopia | Warsaw | 2 | All Maps","protocol":17,"map":"cp_process_final","folder":"tf","game":"Team Fortress","app_id":440,"player_count":0,"max_players":24,"Bots":0,"server_type":"Dedicated","server_os":"Linux","password":true,"vac":true,"version":"7757534","steam_id":85568392925397851,"keywords":["cp","nocrits","nodmgspread","uncletopia"],"game_id":440,"stv_port":27026,"stv_name":"Uncletopia | Warsaw | 2 | All Maps | STV","players":null},{"server_id":51,"name":"Uncletopia | Warsaw | 3 | All Maps","name_short":"waw-3","host":"waw-1.pl.uncletopia.com","port":27035,"enabled":true,"region":"eu","cc":"pl","latitude":52.2297,"longitude":21.017532,"reserved":0,"last_update":"0001-01-01T00:00:00Z","name_a2s":"Uncletopia | Warsaw | 3 | All Maps","protocol":17,"map":"pl_barnblitz","folder":"tf","game":"Team Fortress","app_id":440,"player_count":0,"max_players":24,"Bots":0,"server_type":"Dedicated","server_os":"Linux","password":true,"vac":true,"version":"7757534","steam_id":85568392925397852,"keywords":["nocrits","nodmgspread","payload","uncletopia"],"game_id":440,"stv_port":27036,"stv_name":"Uncletopia | Warsaw | 3 | All Maps | STV","players":null},{"server_id":52,"name":"Uncletopia | Warsaw | 4 | All Maps","name_short":"waw-4","host":"waw-1.pl.uncletopia.com","port":27045,"enabled":true,"region":"eu","cc":"pl","latitude":52.2297,"longitude":21.017532,"reserved":0,"last_update":"0001-01-01T00:00:00Z","name_a2s":"Uncletopia | Warsaw | 4 | All Maps","protocol":17,"map":"pl_snowycoast","folder":"tf","game":"Team Fortress","app_id":440,"player_count":0,"max_players":24,"Bots":0,"server_type":"Dedicated","server_os":"Linux","password":true,"vac":true,"version":"7757534","steam_id":85568392925397853,"keywords":["nocrits","nodmgspread","payload","uncletopia"],"game_id":440,"stv_port":27046,"stv_name":"Uncletopia | Warsaw | 4 | All Maps | STV","players":null},{"server_id":53,"name":"Uncletopia | Warsaw | 5 | Stopwatch Beta","name_short":"waw-5","host":"waw-1.pl.uncletopia.com","port":27055,"enabled":true,"region":"eu","cc":"pl","latitude":52.2297,"longitude":21.017532,"reserved":0,"last_update":"0001-01-01T00:00:00Z","name_a2s":"Uncletopia | Warsaw | 5 | Stopwatch Beta","protocol":17,"map":"pl_barnblitz","folder":"tf","game":"Team Fortress","app_id":440,"player_count":0,"max_players":24,"Bots":0,"server_type":"Dedicated","server_os":"Linux","password":true,"vac":true,"version":"7757534","steam_id":85568392925397854,"keywords":["nocrits","nodmgspread","payload","uncletopia"],"game_id":440,"stv_port":27056,"stv_name":"Uncletopia | Warsaw | 5 | Stopwatch Beta | STV","players":null},{"server_id":54,"name":"Uncletopia | Warsaw | 6 | Community","name_short":"waw-6","host":"waw-1.pl.uncletopia.com","port":27065,"enabled":true,"region":"eu","cc":"pl","latitude":52.2297,"longitude":21.017532,"reserved":0,"last_update":"0001-01-01T00:00:00Z","name_a2s":"Uncletopia | Warsaw | 6 | Community","protocol":17,"map":"workshop/cp_reckoner_rc6.ugc674719999","folder":"tf","game":"Team Fortress","app_id":440,"player_count":1,"max_players":24,"Bots":0,"server_type":"Dedicated","server_os":"Linux","password":true,"vac":true,"version":"7757534","steam_id":85568392925397856,"keywords":["cp","nocrits","nodmgspread","uncletopia"],"game_id":440,"stv_port":27066,"stv_name":"Uncletopia | Warsaw | 6 | Community | STV","players":[{"user_id":4,"name":"Denialman (Muted)","steam_id":76561198309182092,"connected_time":128000000000,"state":"spawning","ping":179}]}]}