{"status":true,"message":"","result":[{"server_id":9,"name":"Uncletopia | Atlanta | 1 | All Maps","name_short":"atl-1","host":"atl-1.us.uncletopia.com","port":27015,"enabled":true,"region":"us-east","cc":"us","latitude":33.753746,"longitude":-84.38633,"reserved":0,"last_update":"0001-01-01T00:00:00Z","name_a2s":"Uncletopia | Atlanta | 1 | All Maps","protocol":17,"map":"pl_badwater","folder":"tf","game":"Team Fortress","app_id":440,"player_count":24,"max_players":24,"Bots":0,"server_type":"Dedicated","server_os":"Linux","password":true,"vac":true,"version":"7757534","steam_id":85568392924469982,"keywords":["nocrits","nodmgspread","payload","uncletopia"],"game_id":440,"stv_port":27016,"stv_name":"Uncletopia | Atlanta | 1 | All Maps | STV","players":[{"user_id":548,"name":"PizzaPasta","steam_id":76561197991195002,"connected_time":1079000000000,"state":"active","ping":60},{"user_id":573,"name":"Kratos Gaming","steam_id":76561198035475444,"connected_time":49000000000,"state":"active","ping":68},{"user_id":547,"name":"arashsmash","steam_id":76561198277649058,"connected_time":1101000000000,"state":"active","ping":72},{"user_id":555,"name":"trubbabubba","steam_id":76561198095118127,"connected_time":579000000000,"state":"active","ping":88},{"user_id":571,"name":"isaac","steam_id":76561198864307802,"connected_time":111000000000,"state":"active","ping":86},{"user_id":545,"name":"Echo Gaming","steam_id":76561198242890502,"connected_time":1837000000000,"state":"active","ping":90},{"user_id":568,"name":"rlty","steam_id":76561198009395055,"connected_time":219000000000,"state":"active","ping":60},{"user_id":553,"name":"Smug´s","steam_id":76561198071493707,"connected_time":872000000000,"state":"active","ping":113},{"user_id":554,"name":"Left","steam_id":76561199066761834,"connected_time":718000000000,"state":"active","ping":117},{"user_id":546,"name":"csmith","steam_id":76561198880096493,"connected_time":1824000000000,"state":"active","ping":93},{"user_id":557,"name":"PAC-MATH","steam_id":76561198327729748,"connected_time":543000000000,"state":"active","ping":80},{"user_id":558,"name":"Jamendithas","steam_id":76561198119537716,"connected_time":540000000000,"state":"active","ping":90},{"user_id":537,"name":"Gongus","steam_id":76561199199194177,"connected_time":2882000000000,"state":"active","ping":73},{"user_id":567,"name":"Mini Orc","steam_id":76561198982594373,"connected_time":297000000000,"state":"active","ping":89},{"user_id":560,"name":"Orc","steam_id":76561198982645378,"connected_time":418000000000,"state":"active","ping":83},{"user_id":355,"name":"cola","steam_id":76561198374390458,"connected_time":19997000000000,"state":"active","ping":60},{"user_id":561,"name":"vid_","steam_id":76561198065159053,"connected_time":413000000000,"state":"active","ping":48},{"user_id":562,"name":"Kernewëk","steam_id":76561198271772640,"connected_time":400000000000,"state":"active","ping":131},{"user_id":572,"name":"john","steam_id":76561198039864629,"connected_time":51000000000,"state":"active","ping":91},{"user_id":564,"name":"Dank Ghost","steam_id":76561198400690889,"connected_time":343000000000,"state":"active","ping":109},{"user_id":502,"name":"Save your wifi","steam_id":76561198286147372,"connected_time":5906000000000,"state":"active","ping":61},{"user_id":471,"name":"Tay1Qr","steam_id":76561198082809935,"connected_time":10347000000000,"state":"active","ping":64},{"user_id":566,"name":"Regi","steam_id":76561198271508598,"connected_time":312000000000,"state":"active","ping":76},{"user_id":569,"name":"Throckmorton627","steam_id":76561199147734259,"connected_time":208000000000,"state":"active","ping":88}]},{"server_id":400,"name":"Uncletopia | Atlanta | 3 | Stopwatch Beta","name_short":"atl-3","host":"atl-1.us.uncletopia.com","port":27035,"enabled":true,"region":"us-east","cc":"us","latitude":33.753746,"longitude":-84.38633,"reserved":0,"last_update":"0001-01-01T00:00:00Z","name_a2s":"Uncletopia | Atlanta | 3 | Stopwatch Beta","protocol":17,"map":"pl_upward","folder":"tf","game":"Team Fortress","app_id":440,"player_count":0,"max_players":24,"Bots":0,"server_type":"Dedicated","server_os":"Linux","password":true,"vac":true,"version":"7757534","steam_id":85568392924515187,"keywords":["nocrits","nodmgspread","payload","uncletopia"],"game_id":440,"stv_port":27036,"stv_name":"Uncletopia | Atlanta | 3 | Stopwatch Beta | STV","players":null},{"server_id":401,"name":"Uncletopia | Atlanta | 4 | No Payload","name_short":"atl-4","host":"atl-1.us.uncletopia.com","port":27045,"enabled":true,"region":"us-east","cc":"us","latitude":33.753746,"longitude":-84.38633,"reserved":0,"last_update":"0001-01-01T00:00:00Z","name_a2s":"Uncletopia | Atlanta | 4 | No Payload","protocol":17,"map":"pl_pier","folder":"tf","game":"Team Fortress","app_id":440,"player_count":0,"max_players":24,"Bots":0,"server_type":"Dedicated","server_os":"Linux","password":true,"vac":true,"version":"7723704","steam_id":85568392924515188,"keywords":["nocrits","nodmgspread","payload","uncletopia"],"game_id":440,"stv_port":27046,"stv_name":"Uncletopia | Atlanta | 4 | No Payload | STV","players":null},{"server_id":2,"name":"Uncletopia | Chicago | 1 | All Maps","name_short":"chi-1","host":"chi-1.us.uncletopia.com","port":27015,"enabled":true,"region":"us-central","cc":"us","latitude":41.881832,"longitude":-87.62318,"reserved":0,"last_update":"0001-01-01T00:00:00Z","name_a2s":"Uncletopia | Chicago | 1 | All Maps","protocol":17,"map":"pl_badwater","folder":"tf","game":"Team Fortress","app_id":440,"player_count":24,"max_players":24,"Bots":0,"server_type":"Dedicated","server_os":"Linux","password":true,"vac":true,"version":"7757534","steam_id":85568392924469984,"keywords":["nocrits","nodmgspread","payload","uncletopia"],"game_id":440,"stv_port":27016,"stv_name":"Uncletopia | Chicago | 1 | All Maps | STV","players":[{"user_id":659,"name":"RaixaR","steam_id":76561198025289430,"connected_time":206000000000,"state":"active","ping":71},{"user_id":653,"name":"pelt","steam_id":76561197993593754,"connected_time":615000000000,"state":"active","ping":47},{"user_id":630,"name":"XinPing","steam_id":76561198174498174,"connected_time":3008000000000,"state":"active","ping":122},{"user_id":650,"name":"Jeremy Donclurbis","steam_id":76561198062964879,"connected_time":637000000000,"state":"active","ping":46},{"user_id":612,"name":"Censing Auto, The Challenger","steam_id":76561198060926681,"connected_time":3582000000000,"state":"active","ping":67},{"user_id":636,"name":"Ț̷̓r̷̺̈́1̵͒̆ȅ̸͂d̵","steam_id":76561198058522069,"connected_time":2367000000000,"state":"active","ping":76},{"user_id":638,"name":"Woofly132","steam_id":76561199075738626,"connected_time":2340000000000,"state":"active","ping":74},{"user_id":649,"name":"BeKnown","steam_id":76561198344338970,"connected_time":795000000000,"state":"active","ping":86},{"user_id":614,"name":"Kothlo","steam_id":76561198072807222,"connected_time":3574000000000,"state":"active","ping":65},{"user_id":639,"name":"MoonlightDragon","steam_id":76561198124808865,"connected_time":2319000000000,"state":"active","ping":115},{"user_id":652,"name":"Shamaury","steam_id":76561198073773862,"connected_time":623000000000,"state":"active","ping":64},{"user_id":656,"name":"BurnN8or101","steam_id":76561198132668224,"connected_time":577000000000,"state":"active","ping":76},{"user_id":641,"name":"SquishyDog","steam_id":76561198059014380,"connected_time":2289000000000,"state":"active","ping":45},{"user_id":654,"name":"Dan Flashes Rewards Card Holder","steam_id":76561199215811448,"connected_time":608000000000,"state":"active","ping":73},{"user_id":625,"name":"Kapitan Bomba","steam_id":76561199102087660,"connected_time":3293000000000,"state":"active","ping":66},{"user_id":655,"name":"larguu","steam_id":76561197994336210,"connected_time":588000000000,"state":"active","ping":55},{"user_id":626,"name":"Bloodrayne","steam_id":76561198116808497,"connected_time":3269000000000,"state":"active","ping":66},{"user_id":660,"name":"Saiopun","steam_id":76561199011832069,"connected_time":147000000000,"state":"active","ping":119},{"user_id":635,"name":"SCATTER [CTF2 DEV]","steam_id":76561198405168492,"connected_time":2407000000000,"state":"active","ping":77},{"user_id":642,"name":"PKBEAST_7","steam_id":76561198177136537,"connected_time":2230000000000,"state":"active","ping":87},{"user_id":658,"name":"Hifumi Togo","steam_id":76561198074930636,"connected_time":550000000000,"state":"active","ping":45},{"user_id":644,"name":"deepmeta","steam_id":76561199053600691,"connected_time":1835000000000,"state":"active","ping":50},{"user_id":628,"name":"Zubats |TAOZ|","steam_id":76561198041819445,"connected_time":3254000000000,"state":"active","ping":53},{"user_id":588,"name":"Bearegard","steam_id":76561198061926542,"connected_time":6314000000000,"state":"active","ping":65}]},{"server_id":106,"name":"Uncletopia | Chicago | 2 | All Maps","name_short":"chi-2","host":"chi-1.us.uncletopia.com","port":27025,"enabled":true,"region":"us-central","cc":"us","latitude":41.881832,"longitude":-87.62318,"reserved":0,"last_update":"0001-01-01T00:00:00Z","name_a2s":"Uncletopia | Chicago | 2 | All Maps","protocol":17,"map":"koth_viaduct","folder":"tf","game":"Team Fortress","app_id":440,"player_count":0,"max_players":24,"Bots":0,"server_type":"Dedicated","server_os":"Linux","password":true,"vac":true,"version":"7757534","steam_id":85568392924469985,"keywords":["cp","nocrits","nodmgspread","uncletopia"],"game_id":440,"stv_port":27026,"stv_name":"Uncletopia | Chicago | 2 | All Maps | STV","players":null},{"server_id":402,"name":"Uncletopia | Chicago | 3 | All Maps","name_short":"chi-3","host":"chi-1.us.uncletopia.com","port":27035,"enabled":true,"region":"us-central","cc":"us","latitude":41.881832,"longitude":-87.62318,"reserved":0,"last_update":"0001-01-01T00:00:00Z","name_a2s":"Uncletopia | Chicago | 3 | All Maps","protocol":17,"map":"pl_snowycoast","folder":"tf","game":"Team Fortress","app_id":440,"player_count":24,"max_players":24,"Bots":0,"server_type":"Dedicated","server_os":"Linux","password":true,"vac":true,"version":"7757534","steam_id":85568392924515191,"keywords":["nocrits","nodmgspread","payload","uncletopia"],"game_id":440,"stv_port":27036,"stv_name":"Uncletopia | Chicago | 3 | All Maps | STV","players":[{"user_id":658,"name":"BillButtLicker69","steam_id":76561198070119268,"connected_time":132000000000,"state":"active","ping":112},{"user_id":652,"name":"god's drunkest driver","steam_id":76561198108938632,"connected_time":491000000000,"state":"active","ping":44},{"user_id":645,"name":"Wild_Rumpus","steam_id":76561198066393719,"connected_time":2208000000000,"state":"active","ping":66},{"user_id":625,"name":"Pink","steam_id":76561198181361438,"connected_time":3668000000000,"state":"active","ping":81},{"user_id":622,"name":"hauntaholic","steam_id":76561198095051652,"connected_time":4131000000000,"state":"active","ping":71},{"user_id":659,"name":"uufyfuu","steam_id":76561198142787212,"connected_time":102000000000,"state":"active","ping":77},{"user_id":657,"name":"NOLSEY","steam_id":76561198108959504,"connected_time":240000000000,"state":"active","ping":53},{"user_id":643,"name":"Master Of Whales","steam_id":76561198349104889,"connected_time":2742000000000,"state":"active","ping":101},{"user_id":550,"name":"atserc","steam_id":76561197997570349,"connected_time":10345000000000,"state":"active","ping":101},{"user_id":650,"name":"Challenger Charles","steam_id":76561198005576553,"connected_time":729000000000,"state":"active","ping":84},{"user_id":628,"name":"Double Noodle Soup","steam_id":76561198376978394,"connected_time":3556000000000,"state":"active","ping":87},{"user_id":656,"name":"reis","steam_id":76561199232952016,"connected_time":395000000000,"state":"active","ping":179},{"user_id":631,"name":"Myracle","steam_id":76561198070916920,"connected_time":3217000000000,"state":"active","ping":46},{"user_id":660,"name":"mothrising","steam_id":76561199239168878,"connected_time":33000000000,"state":"active","ping":105},{"user_id":635,"name":"potato hiroifan96","steam_id":76561198025489194,"connected_time":3174000000000,"state":"active","ping":82},{"user_id":637,"name":"AKK0","steam_id":76561199063194145,"connected_time":3050000000000,"state":"active","ping":106},{"user_id":638,"name":"St4pps","steam_id":76561198449842958,"connected_time":3035000000000,"state":"active","ping":67},{"user_id":623,"name":"RaccoonCole","steam_id":76561198122478897,"connected_time":3771000000000,"state":"active","ping":73},{"user_id":647,"name":"Grandma Tarkin","steam_id":76561198001756613,"connected_time":2123000000000,"state":"active","ping":54},{"user_id":641,"name":"dairy","steam_id":76561198117033273,"connected_time":2834000000000,"state":"active","ping":138},{"user_id":654,"name":"Kaypo","steam_id":76561198262420097,"connected_time":476000000000,"state":"active","ping":68},{"user_id":655,"name":"KAMAKRAZEE","steam_id":76561198402283169,"connected_time":474000000000,"state":"active","ping":69},{"user_id":548,"name":"Pierce","steam_id":76561198043747953,"connected_time":10490000000000,"state":"active","ping":60},{"user_id":649,"name":"GC.bane","steam_id":76561198196769297,"connected_time":1442000000000,"state":"active","ping":55}]},{"server_id":403,"name":"Uncletopia | Chicago | 4 | All Maps","name_short":"chi-4","host":"chi-1.us.uncletopia.com","port":27045,"enabled":true,"region":"us-central","cc":"us","latitude":41.881832,"longitude":-87.62318,"reserved":0,"last_update":"0001-01-01T00:00:00Z","name_a2s":"Uncletopia | Chicago | 4 | All Maps","protocol":17,"map":"pl_swiftwater_final1","folder":"tf","game":"Team Fortress","app_id":440,"player_count":23,"max_players":24,"Bots":0,"server_type":"Dedicated","server_os":"Linux","password":true,"vac":true,"version":"7757534","steam_id":85568392924515193,"keywords":["nocrits","nodmgspread","payload","uncletopia"],"game_id":440,"stv_port":27046,"stv_name":"Uncletopia | Chicago | 4 | All Maps | STV","players":[{"user_id":627,"name":"Samoclese","steam_id":76561198055515027,"connected_time":2224000000000,"state":"active","ping":165},{"user_id":638,"name":"BILL NYE THE FAMILY GUY","steam_id":76561198380926090,"connected_time":1349000000000,"state":"active","ping":53},{"user_id":626,"name":"2000linky","steam_id":76561198128150129,"connected_time":2338000000000,"state":"active","ping":56},{"user_id":628,"name":"Jupiter","steam_id":76561198181315681,"connected_time":2198000000000,"state":"active","ping":62},{"user_id":643,"name":"hamal cine","steam_id":76561198079619374,"connected_time":1067000000000,"state":"active","ping":80},{"user_id":645,"name":"Pinto","steam_id":76561199105386998,"connected_time":536000000000,"state":"active","ping":78},{"user_id":594,"name":"awesomegirl9","steam_id":76561199245670274,"connected_time":5244000000000,"state":"active","ping":105},{"user_id":648,"name":"honked off the bobo","steam_id":76561198123287268,"connected_time":507000000000,"state":"active","ping":48},{"user_id":646,"name":"Gardangle","steam_id":76561198394173831,"connected_time":527000000000,"state":"active","ping":100},{"user_id":637,"name":"k8o","steam_id":76561198042481882,"connected_time":1446000000000,"state":"active","ping":90},{"user_id":649,"name":"Michael Scarn","steam_id":76561198035740143,"connected_time":464000000000,"state":"active","ping":82},{"user_id":658,"name":"Rudy","steam_id":76561198013456828,"connected_time":68000000000,"state":"active","ping":60},{"user_id":653,"name":"DolphiN | RGL.gg","steam_id":76561198048614515,"connected_time":314000000000,"state":"active","ping":60},{"user_id":608,"name":"C0RV3L","steam_id":76561199205094837,"connected_time":3928000000000,"state":"active","ping":82},{"user_id":598,"name":"Salad","steam_id":76561198120907230,"connected_time":4598000000000,"state":"active","ping":97},{"user_id":599,"name":"HomieJr","steam_id":76561198202448800,"connected_time":4589000000000,"state":"active","ping":84},{"user_id":652,"name":"MYCHEMICALROMANCEENJOYER2","steam_id":76561198278655467,"connected_time":338000000000,"state":"active","ping":70},{"user_id":644,"name":"ATL1 | eish","steam_id":76561198089463603,"connected_time":550000000000,"state":"active","ping":131},{"user_id":654,"name":"Mothership","steam_id":76561198044029501,"connected_time":313000000000,"state":"active","ping":147},{"user_id":655,"name":"John16Mark","steam_id":76561198119445407,"connected_time":312000000000,"state":"active","ping":81},{"user_id":657,"name":"RyInc","steam_id":76561198874261643,"connected_time":114000000000,"state":"active","ping":39},{"user_id":651,"name":"Angel Devil Fan (Derogatory)","steam_id":76561198165208572,"connected_time":409000000000,"state":"active","ping":53},{"user_id":656,"name":"jack's vitamin d","steam_id":76561198036032168,"connected_time":290000000000,"state":"active","ping":56}]},{"server_id":36,"name":"Uncletopia | Chicago | 5 | All Maps","name_short":"chi-5","host":"chi-2.us.uncletopia.com","port":27015,"enabled":true,"region":"us-central","cc":"us","latitude":41.881832,"longitude":-87.62318,"reserved":0,"last_update":"0001-01-01T00:00:00Z","name_a2s":"Uncletopia | Chicago | 5 | All Maps","protocol":17,"map":"cp_mountainlab","folder":"tf","game":"Team Fortress","app_id":440,"player_count":17,"max_players":24,"Bots":0,"server_type":"Dedicated","server_os":"Linux","password":true,"vac":true,"version":"7757534","steam_id":85568392924866362,"keywords":["cp","nocrits","nodmgspread","uncletopia"],"game_id":440,"stv_port":27016,"stv_name":"Uncletopia | Chicago | 5 | All Maps | STV","players":[{"user_id":773,"name":"Krellah","steam_id":76561198287045069,"connected_time":2860000000000,"state":"active","ping":47},{"user_id":805,"name":"ant","steam_id":76561198133738975,"connected_time":106000000000,"state":"active","ping":75},{"user_id":799,"name":"Evil rat","steam_id":76561198117181511,"connected_time":1439000000000,"state":"active","ping":56},{"user_id":743,"name":"wolf_71","steam_id":76561198963570945,"connected_time":4923000000000,"state":"active","ping":67},{"user_id":808,"name":"EATARI","steam_id":76561198158066570,"connected_time":22000000000,"state":"spawning","ping":76},{"user_id":804,"name":"KillPact","steam_id":76561197976319415,"connected_time":145000000000,"state":"active","ping":69},{"user_id":807,"name":"Antifa Alligator","steam_id":76561197988170816,"connected_time":33000000000,"state":"active","ping":172},{"user_id":794,"name":"duneblaster0","steam_id":76561198040364680,"connected_time":1584000000000,"state":"active","ping":43},{"user_id":795,"name":"drdoofus123","steam_id":76561198016826181,"connected_time":1573000000000,"state":"active","ping":65},{"user_id":797,"name":"puke","steam_id":76561197999279693,"connected_time":1498000000000,"state":"active","ping":70},{"user_id":803,"name":"HanakoToast","steam_id":76561198045233131,"connected_time":534000000000,"state":"active","ping":96},{"user_id":796,"name":"keffers","steam_id":76561198202338796,"connected_time":1521000000000,"state":"active","ping":64},{"user_id":778,"name":"brian eats you","steam_id":76561198109901138,"connected_time":2772000000000,"state":"active","ping":75},{"user_id":784,"name":"GlockkRoach","steam_id":76561198140830815,"connected_time":2658000000000,"state":"active","ping":117},{"user_id":782,"name":"Oof","steam_id":76561198079354687,"connected_time":2681000000000,"state":"active","ping":62},{"user_id":792,"name":"SomeScuffedKid","steam_id":76561198086113234,"connected_time":1621000000000,"state":"active","ping":58},{"user_id":752,"name":"real zingers","steam_id":76561198097160898,"connected_time":4357000000000,"state":"active","ping":77}]},{"server_id":37,"name":"Uncletopia | Chicago | 6 | All Maps","name_short":"chi-6","host":"chi-2.us.uncletopia.com","port":27025,"enabled":true,"region":"us-central","cc":"us","latitude":41.881832,"longitude":-87.62318,"reserved":0,"last_update":"0001-01-01T00:00:00Z","name_a2s":"Uncletopia | Chicago | 6 | All Maps","protocol":17,"map":"cp_sunshine","folder":"tf","game":"Team Fortress","app_id":440,"player_count":6,"max_players":24,"Bots":0,"server_type":"Dedicated","server_os":"Linux","password":true,"vac":true,"version":"7757534","steam_id":85568392924866363,"keywords":["cp","nocrits","nodmgspread","uncletopia"],"game_id":440,"stv_port":27026,"stv_name":"Uncletopia | Chicago | 6 | All Maps | STV","players":[{"user_id":842,"name":"Evolution","steam_id":76561198144767370,"connected_time":535000000000,"state":"active","ping":46},{"user_id":830,"name":"El Conquistador","steam_id":76561198066712701,"connected_time":1432000000000,"state":"active","ping":65},{"user_id":841,"name":"Paleo","steam_id":76561198053493855,"connected_time":587000000000,"state":"active","ping":57},{"user_id":845,"name":"hello1001(f2p)","steam_id":76561199468109337,"connected_time":259000000000,"state":"active","ping":62},{"user_id":819,"name":"Daddy-O Dizzy","steam_id":76561198292349348,"connected_time":1947000000000,"state":"active","ping":66},{"user_id":806,"name":"cygnusx1","steam_id":76561199079614516,"connected_time":3006000000000,"state":"active","ping":45}]},{"server_id":38,"name":"Uncletopia | Chicago | 7 | Stopwatch Beta","name_short":"chi-7","host":"chi-2.us.uncletopia.com","port":27035,"enabled":true,"region":"us-central","cc":"us","latitude":41.881832,"longitude":-87.62318,"reserved":0,"last_update":"0001-01-01T00:00:00Z","name_a2s":"Uncletopia | Chicago | 7 | Stopwatch Beta","protocol":17,"map":"workshop/pl_badwater_pro_v12.ugc2142942074","folder":"tf","game":"Team Fortress","app_id":440,"player_count":0,"max_players":24,"Bots":0,"server_type":"Dedicated","server_os":"Linux","password":true,"vac":true,"version":"7757534","steam_id":85568392924866364,"keywords":["nocrits","nodmgspread","payload","uncletopia"],"game_id":440,"stv_port":27036,"stv_name":"Uncletopia | Chicago | 7 | Stopwatch Beta | STV","players":null},{"server_id":39,"name":"Uncletopia | Chicago | 8 | Community","name_short":"chi-8","host":"chi-2.us.uncletopia.com","port":27045,"enabled":true,"region":"us-central","cc":"us","latitude":41.881832,"longitude":-87.62318,"reserved":0,"last_update":"0001-01-01T00:00:00Z","name_a2s":"Uncletopia | Chicago | 8 | Community","protocol":17,"map":"workshop/cp_caldera_rc2.ugc2834196889","folder":"tf","game":"Team Fortress","app_id":440,"player_count":4,"max_players":24,"Bots":0,"server_type":"Dedicated","server_os":"Linux","password":true,"vac":true,"version":"7757534","steam_id":85568392924866365,"keywords":["cp","nocrits","nodmgspread","uncletopia"],"game_id":440,"stv_port":27046,"stv_name":"Uncletopia | Chicago | 8 | Community | STV","players":[{"user_id":327,"name":"Leaf_It","steam_id":76561198018342862,"connected_time":246000000000,"state":"active","ping":72},{"user_id":325,"name":"Boobert von gaming","steam_id":76561199217999178,"connected_time":1295000000000,"state":"active","ping":55},{"user_id":328,"name":"Bucket Hat Trick","steam_id":76561198381785132,"connected_time":112000000000,"state":"active","ping":78},{"user_id":274,"name":"gyroFSnoob","steam_id":76561198158404683,"connected_time":5784000000000,"state":"active","ping":88}]},{"server_id":8,"name":"Uncletopia | Dallas | 1 | All Maps","name_short":"dal-1","host":"dal-1.us.uncletopia.com","port":27015,"enabled":true,"region":"us-central","cc":"us","latitude":32.779167,"longitude":-96.80889,"reserved":0,"last_update":"0001-01-01T00:00:00Z","name_a2s":"Uncletopia | Dallas | 1 | All Maps","protocol":17,"map":"ctf_2fort","folder":"tf","game":"Team Fortress","app_id":440,"player_count":21,"max_players":24,"Bots":0,"server_type":"Dedicated","server_os":"Linux","password":true,"vac":true,"version":"7757534","steam_id":85568392924469986,"keywords":["ctf","nocrits","nodmgspread","uncletopia"],"game_id":440,"stv_port":27016,"stv_name":"Uncletopia | Dallas | 1 | All Maps | STV","players":[{"user_id":679,"name":"Knightly Knight","steam_id":76561198399569659,"connected_time":5583000000000,"state":"active","ping":70},{"user_id":733,"name":"pipeline","steam_id":76561198212263380,"connected_time":1410000000000,"state":"active","ping":45},{"user_id":680,"name":"Conroe8","steam_id":76561198357425910,"connected_time":5552000000000,"state":"active","ping":52},{"user_id":751,"name":"Dictator Noodle","steam_id":76561198277243768,"connected_time":140000000000,"state":"active","ping":74},{"user_id":750,"name":"BLOCKHEAD04","steam_id":76561198808224331,"connected_time":300000000000,"state":"active","ping":110},{"user_id":721,"name":"Arachno-Communist","steam_id":76561198136516130,"connected_time":2361000000000,"state":"active","ping":60},{"user_id":708,"name":"memeboi22","steam_id":76561198172609874,"connected_time":4322000000000,"state":"active","ping":68},{"user_id":735,"name":"mbell1199","steam_id":76561198827517736,"connected_time":1367000000000,"state":"active","ping":58},{"user_id":736,"name":"Leviathan","steam_id":76561198042678399,"connected_time":1347000000000,"state":"active","ping":84},{"user_id":737,"name":"Klip","steam_id":76561198316254429,"connected_time":1338000000000,"state":"active","ping":53},{"user_id":674,"name":"Spazzls","steam_id":76561198075224361,"connected_time":5908000000000,"state":"active","ping":94},{"user_id":729,"name":"Fake21","steam_id":76561198282065071,"connected_time":2046000000000,"state":"active","ping":51},{"user_id":727,"name":"Tingus Pingus","steam_id":76561198155412348,"connected_time":2152000000000,"state":"active","ping":75},{"user_id":738,"name":"Dojojo","steam_id":76561198035654543,"connected_time":1327000000000,"state":"active","ping":71},{"user_id":748,"name":"StarManMatt","steam_id":76561198125513574,"connected_time":627000000000,"state":"active","ping":90},{"user_id":725,"name":"Firelie","steam_id":76561198142061415,"connected_time":2212000000000,"state":"active","ping":78},{"user_id":707,"name":"A Gamer [F2P]","steam_id":76561198138712892,"connected_time":4378000000000,"state":"active","ping":44},{"user_id":728,"name":"Looneymunkey","steam_id":76561198414675183,"connected_time":2147000000000,"state":"active","ping":54},{"user_id":730,"name":"IZISOO","steam_id":76561198970380577,"connected_time":2045000000000,"state":"active","ping":83},{"user_id":749,"name":"boat8047","steam_id":76561198261326806,"connected_time":496000000000,"state":"active","ping":114},{"user_id":701,"name":"the first brood in a trenchcoat","steam_id":76561198028396095,"connected_time":4872000000000,"state":"active","ping":38}]},{"server_id":108,"name":"Uncletopia | Dallas | 2 | All Maps","name_short":"dal-2","host":"dal-1.us.uncletopia.com","port":27025,"enabled":true,"region":"us-central","cc":"us","latitude":32.779167,"longitude":-96.80889,"reserved":0,"last_update":"0001-01-01T00:00:00Z","name_a2s":"Uncletopia | Dallas | 2 | All Maps","protocol":17,"map":"pl_upward","folder":"tf","game":"Team Fortress","app_id":440,"player_count":23,"max_players":24,"Bots":0,"server_type":"Dedicated","server_os":"Linux","password":true,"vac":true,"version":"7757534","steam_id":85568392924469988,"keywords":["nocrits","nodmgspread","payload","uncletopia"],"game_id":440,"stv_port":27026,"stv_name":"Uncletopia | Dallas | 2 | All Maps | STV","players":[{"user_id":248,"name":"Etomb","steam_id":76561198210017208,"connected_time":3988000000000,"state":"active","ping":97},{"user_id":281,"name":"-- .. -.- . / .... ..- -. -","steam_id":76561198109120511,"connected_time":15000000000,"state":"active","ping":50},{"user_id":267,"name":"Saikyo","steam_id":76561198212461467,"connected_time":1274000000000,"state":"active","ping":45},{"user_id":277,"name":"social distance warrior","steam_id":76561198128992994,"connected_time":1160000000000,"state":"active","ping":89},{"user_id":211,"name":"MARIOPARTYDSFAN","steam_id":76561198872122117,"connected_time":6390000000000,"state":"active","ping":98},{"user_id":251,"name":"Birdhorse Of Course","steam_id":76561198038997485,"connected_time":3579000000000,"state":"active","ping":76},{"user_id":233,"name":"plink","steam_id":76561198057829889,"connected_time":5449000000000,"state":"active","ping":106},{"user_id":280,"name":"The Caretaker","steam_id":76561198125241411,"connected_time":163000000000,"state":"active","ping":100},{"user_id":270,"name":"Chiaki Nanami","steam_id":76561198164782653,"connected_time":1230000000000,"state":"active","ping":91},{"user_id":271,"name":"gerg","steam_id":76561197997127387,"connected_time":1229000000000,"state":"active","ping":89},{"user_id":272,"name":"ChEeSeYtAcO24","steam_id":76561198125479386,"connected_time":1223000000000,"state":"active","ping":63},{"user_id":279,"name":"no.1 dragonvale player","steam_id":76561198124365349,"connected_time":473000000000,"state":"active","ping":88},{"user_id":264,"name":"Dylanxp300","steam_id":76561198271974937,"connected_time":1357000000000,"state":"active","ping":86},{"user_id":283,"name":"Riff","steam_id":76561198066921423,"connected_time":2000000000,"state":"spawning","ping":45},{"user_id":247,"name":"Hooray!","steam_id":76561198136487957,"connected_time":4173000000000,"state":"active","ping":60},{"user_id":162,"name":"deadpixel","steam_id":76561198150249843,"connected_time":10167000000000,"state":"active","ping":72},{"user_id":276,"name":"StrangeSaus","steam_id":76561198147790758,"connected_time":1173000000000,"state":"active","ping":88},{"user_id":260,"name":"Woo-Hoo!","steam_id":76561198331647216,"connected_time":2138000000000,"state":"active","ping":67},{"user_id":275,"name":"cder3","steam_id":76561198053912703,"connected_time":1210000000000,"state":"active","ping":75},{"user_id":235,"name":"Phil Collins","steam_id":76561198068868644,"connected_time":5332000000000,"state":"active","ping":85},{"user_id":282,"name":"Shortbane","steam_id":76561198247166584,"connected_time":8000000000,"state":"spawning","ping":44},{"user_id":244,"name":"Lore","steam_id":76561198098407538,"connected_time":4568000000000,"state":"active","ping":75},{"user_id":265,"name":"Krow","steam_id":76561198010392099,"connected_time":1357000000000,"state":"active","ping":50}]},{"server_id":5,"name":"Uncletopia | Frankfurt | 1 | All Maps","name_short":"frk-1","host":"frk-1.de.uncletopia.com","port":27015,"enabled":true,"region":"eu","cc":"de","latitude":50.110924,"longitude":8.682127,"reserved":0,"last_update":"0001-01-01T00:00:00Z","name_a2s":"Uncletopia | Frankfurt | 1 | All Maps","protocol":17,"map":"pl_pier","folder":"tf","game":"Team Fortress","app_id":440,"player_count":0,"max_players":24,"Bots":0,"server_type":"Dedicated","server_os":"Linux","password":true,"vac":true,"version":"7757534","steam_id":85568392924469989,"keywords":["nocrits","nodmgspread","payload","uncletopia"],"game_id":440,"stv_port":27016,"stv_name":"Uncletopia | Frankfurt | 1 | All Maps | STV","players":null},{"server_id":110,"name":"Uncletopia | Frankfurt | 2 | All Maps","name_short":"frk-2","host":"frk-1.de.uncletopia.com","port":27025,"enabled":true,"region":"eu","cc":"de","latitude":50.110924,"longitude":8.682127,"reserved":0,"last_update":"0001-01-01T00:00:00Z","name_a2s":"Uncletopia | Frankfurt | 2 | All Maps","protocol":17,"map":"cp_mountainlab","folder":"tf","game":"Team Fortress","app_id":440,"player_count":0,"max_players":24,"Bots":0,"server_type":"Dedicated","server_os":"Linux","password":true,"vac":true,"version":"7757534","steam_id":85568392924469990,"keywords":["cp","nocrits","nodmgspread","uncletopia"],"game_id":440,"stv_port":27026,"stv_name":"Uncletopia | Frankfurt | 2 | All Maps | STV","players":null},{"server_id":308,"name":"Uncletopia | Frankfurt | 3 | All Maps","name_short":"frk-3","host":"frk-1.de.uncletopia.com","port":27035,"enabled":true,"region":"eu","cc":"de","latitude":50.110924,"longitude":8.682127,"reserved":0,"last_update":"0001-01-01T00:00:00Z","name_a2s":"Uncletopia | Frankfurt | 3 | All Maps","protocol":17,"map":"pl_barnblitz","folder":"tf","game":"Team Fortress","app_id":440,"player_count":0,"max_players":24,"Bots":0,"server_type":"Dedicated","server_os":"Linux","password":true,"vac":true,"version":"7757534","steam_id":85568392924504274,"keywords":["nocrits","nodmgspread","payload","uncletopia"],"game_id":440,"stv_port":27036,"stv_name":"Uncletopia | Frankfurt | 3 | All Maps | STV","players":null},{"server_id":309,"name":"Uncletopia | Frankfurt | 4 | All Maps","name_short":"frk-4","host":"frk-1.de.uncletopia.com","port":27045,"enabled":true,"region":"eu","cc":"de","latitude":50.110924,"longitude":8.682127,"reserved":0,"last_update":"0001-01-01T00:00:00Z","name_a2s":"Uncletopia | Frankfurt | 4 | All Maps","protocol":17,"map":"pl_snowycoast","folder":"tf","game":"Team Fortress","app_id":440,"player_count":0,"max_players":24,"Bots":0,"server_type":"Dedicated","server_os":"Linux","password":true,"vac":true,"version":"7757534","steam_id":85568392924504275,"keywords":["nocrits","nodmgspread","payload","uncletopia"],"game_id":440,"stv_port":27046,"stv_name":"Uncletopia | Frankfurt | 4 | All Maps | STV","players":null},{"server_id":310,"name":"Uncletopia | Frankfurt | 5 | All Maps","name_short":"frk-5","host":"frk-1.de.uncletopia.com","port":27055,"enabled":true,"region":"eu","cc":"de","latitude":50.110924,"longitude":8.682127,"reserved":0,"last_update":"0001-01-01T00:00:00Z","name_a2s":"Uncletopia | Frankfurt | 5 | All Maps","protocol":17,"map":"cp_altitude","folder":"tf","game":"Team Fortress","app_id":440,"player_count":0,"max_players":24,"Bots":0,"server_type":"Dedicated","server_os":"Linux","password":true,"vac":true,"version":"7757534","steam_id":85568392924504277,"keywords":["cp","nocrits","nodmgspread","uncletopia"],"game_id":440,"stv_port":27056,"stv_name":"Uncletopia | Frankfurt | 5 | All Maps | STV","players":null},{"server_id":311,"name":"Uncletopia | Frankfurt | 6 | All Maps","name_short":"frk-6","host":"frk-1.de.uncletopia.com","port":27065,"enabled":true,"region":"eu","cc":"de","latitude":50.110924,"longitude":8.682127,"reserved":0,"last_update":"0001-01-01T00:00:00Z","name_a2s":"Uncletopia | Frankfurt | 6 | All Maps","protocol":17,"map":"koth_highpass","folder":"tf","game":"Team Fortress","app_id":440,"player_count":0,"max_players":24,"Bots":0,"server_type":"Dedicated","server_os":"Linux","password":true,"vac":true,"version":"7757534","steam_id":85568392924504278,"keywords":["cp","nocrits","nodmgspread","uncletopia"],"game_id":440,"stv_port":27066,"stv_name":"Uncletopia | Frankfurt | 6 | All Maps | STV","players":null},{"server_id":23,"name":"Uncletopia | Frankfurt | 7 | Stopwatch Beta","name_short":"frk-7","host":"frk-1.de.uncletopia.com","port":27075,"enabled":true,"region":"eu","cc":"de","latitude":50.110924,"longitude":8.682127,"reserved":0,"last_update":"0001-01-01T00:00:00Z","name_a2s":"Uncletopia | Frankfurt | 7 | Stopwatch Beta","protocol":17,"map":"pl_borneo","folder":"tf","game":"Team Fortress","app_id":440,"player_count":0,"max_players":24,"Bots":0,"server_type":"Dedicated","server_os":"Linux","password":true,"vac":true,"version":"7757534","steam_id":85568392924742827,"keywords":["nocrits","nodmgspread","payload","uncletopia"],"game_id":440,"stv_port":27076,"stv_name":"Uncletopia | Frankfurt | 7 | Stopwatch Beta | STV","players":null},{"server_id":24,"name":"Uncletopia | Frankfurt | 8 | Community","name_short":"frk-8","host":"frk-1.de.uncletopia.com","port":27085,"enabled":true,"region":"eu","cc":"de","latitude":50.110924,"longitude":8.682127,"reserved":0,"last_update":"0001-01-01T00:00:00Z","name_a2s":"Uncletopia | Frankfurt | 8 | Community","protocol":17,"map":"koth_cascade","folder":"tf","game":"Team Fortress","app_id":440,"player_count":0,"max_players":24,"Bots":0,"server_type":"Dedicated","server_os":"Linux","password":true,"vac":true,"version":"7757534","steam_id":85568392924742828,"keywords":["cp","nocrits","nodmgspread","uncletopia"],"game_id":440,"stv_port":27086,"stv_name":"Uncletopia | Frankfurt | 8 | Community | STV","players":null},{"server_id":202,"name":"Uncletopia | Hong Kong | 1 | All Maps","name_short":"hgk-1","host":"hgk-1.hk.uncletopia.com","port":27015,"enabled":true,"region":"asia","cc":"hk","latitude":22.302711,"longitude":114.177216,"reserved":0,"last_update":"0001-01-01T00:00:00Z","name_a2s":"Uncletopia | Hong Kong | 1 | All Maps","protocol":17,"map":"pl_frontier_final","folder":"tf","game":"Team Fortress","app_id":440,"player_count":23,"max_players":24,"Bots":0,"server_type":"Dedicated","server_os":"Linux","password":true,"vac":true,"version":"7757534","steam_id":85568392924494504,"keywords":["nocrits","nodmgspread","payload","uncletopia"],"game_id":440,"stv_port":27016,"stv_name":"Uncletopia | Hong Kong | 1 | All Maps | STV","players":[{"user_id":134,"name":"engineer gaming","steam_id":76561199218582893,"connected_time":8398000000000,"state":"active","ping":79},{"user_id":245,"name":"Buttfart327329","steam_id":76561199192420260,"connected_time":2082000000000,"state":"active","ping":120},{"user_id":251,"name":"Dashinix","steam_id":76561198129263849,"connected_time":1554000000000,"state":"active","ping":86},{"user_id":107,"name":"Zacy","steam_id":76561198114841670,"connected_time":9527000000000,"state":"active","ping":63},{"user_id":156,"name":"Peter Python","steam_id":76561198353760830,"connected_time":6868000000000,"state":"active","ping":132},{"user_id":246,"name":"Argentum","steam_id":76561199023176745,"connected_time":1807000000000,"state":"active","ping":77},{"user_id":236,"name":"Buttman","steam_id":76561198044693388,"connected_time":3173000000000,"state":"active","ping":48},{"user_id":254,"name":"IRA car dealership","steam_id":76561199224577498,"connected_time":410000000000,"state":"active","ping":70},{"user_id":233,"name":"Saggle","steam_id":76561198056075147,"connected_time":4038000000000,"state":"active","ping":159},{"user_id":170,"name":"loreley","steam_id":76561198230213828,"connected_time":5404000000000,"state":"active","ping":60},{"user_id":69,"name":"timmy.1366","steam_id":76561199065433547,"connected_time":12128000000000,"state":"active","ping":80},{"user_id":253,"name":"ɔuᗡඞ ɟƨuᒐ","steam_id":76561199031283970,"connected_time":1180000000000,"state":"active","ping":85},{"user_id":240,"name":"Light Rainbow","steam_id":76561198118966673,"connected_time":2465000000000,"state":"active","ping":38},{"user_id":241,"name":"Mehcro","steam_id":76561198856864170,"connected_time":2377000000000,"state":"active","ping":135},{"user_id":160,"name":"Xstr0yer","steam_id":76561198168212712,"connected_time":6625000000000,"state":"active","ping":130},{"user_id":255,"name":"water tastes good","steam_id":76561199375947670,"connected_time":276000000000,"state":"active","ping":83},{"user_id":239,"name":"Sex","steam_id":76561198871697359,"connected_time":2670000000000,"state":"active","ping":75},{"user_id":244,"name":":D","steam_id":76561198009692495,"connected_time":2318000000000,"state":"active","ping":88},{"user_id":154,"name":"Nonexistent","steam_id":76561198980563251,"connected_time":7009000000000,"state":"active","ping":81},{"user_id":127,"name":"8091573212","steam_id":76561198968776439,"connected_time":8795000000000,"state":"active","ping":88},{"user_id":248,"name":"corpse_cadaver","steam_id":76561199225360457,"connected_time":1724000000000,"state":"active","ping":85},{"user_id":229,"name":"gunslinger? i hardly know er!","steam_id":76561198834445483,"connected_time":4374000000000,"state":"active","ping":76},{"user_id":249,"name":"wota bota","steam_id":76561198173345911,"connected_time":1724000000000,"state":"active","ping":88}]},{"server_id":1,"name":"Uncletopia | Los Angeles | 1 | All Maps","name_short":"lax-1","host":"lax-1.us.uncletopia.com","port":27015,"enabled":true,"region":"us-west","cc":"us","latitude":33.94279,"longitude":-118.41004,"reserved":0,"last_update":"0001-01-01T00:00:00Z","name_a2s":"Uncletopia | Los Angeles | 1 | All Maps","protocol":17,"map":"pl_barnblitz","folder":"tf","game":"Team Fortress","app_id":440,"player_count":24,"max_players":24,"Bots":0,"server_type":"Dedicated","server_os":"Linux","password":true,"vac":true,"version":"7757534","steam_id":85568392924469991,"keywords":["nocrits","nodmgspread","payload","uncletopia"],"game_id":440,"stv_port":27016,"stv_name":"Uncletopia | Los Angeles | 1 | All Maps | STV","players":[{"user_id":472,"name":"lastsboi","steam_id":76561199325877743,"connected_time":3118000000000,"state":"active","ping":48},{"user_id":491,"name":"poey","steam_id":76561198865346767,"connected_time":640000000000,"state":"active","ping":62},{"user_id":470,"name":"Bryce Gobo","steam_id":76561199411560141,"connected_time":3228000000000,"state":"active","ping":70},{"user_id":374,"name":"ุ","steam_id":76561198084134025,"connected_time":11756000000000,"state":"active","ping":99},{"user_id":492,"name":"Marcy","steam_id":76561198122136432,"connected_time":623000000000,"state":"active","ping":77},{"user_id":439,"name":"Who is She?","steam_id":76561198080963759,"connected_time":6522000000000,"state":"active","ping":60},{"user_id":468,"name":"Squatter1","steam_id":76561198078987734,"connected_time":3522000000000,"state":"active","ping":71},{"user_id":469,"name":"Obersteuermann","steam_id":76561198044468707,"connected_time":3349000000000,"state":"active","ping":76},{"user_id":495,"name":"YungKeet","steam_id":76561198293854963,"connected_time":459000000000,"state":"active","ping":90},{"user_id":488,"name":"Saulce","steam_id":76561198066142119,"connected_time":796000000000,"state":"active","ping":65},{"user_id":483,"name":"Snoopy","steam_id":76561198273735974,"connected_time":1096000000000,"state":"active","ping":100},{"user_id":484,"name":"golem","steam_id":76561198355040593,"connected_time":1065000000000,"state":"active","ping":122},{"user_id":485,"name":"man","steam_id":76561199365643094,"connected_time":1063000000000,"state":"active","ping":119},{"user_id":429,"name":"-","steam_id":76561198021308963,"connected_time":7543000000000,"state":"active","ping":76},{"user_id":493,"name":"Saltsquatch","steam_id":76561198064470500,"connected_time":623000000000,"state":"active","ping":116},{"user_id":481,"name":"SparklePawz ♥","steam_id":76561198093703065,"connected_time":1269000000000,"state":"active","ping":186},{"user_id":498,"name":"Federico","steam_id":76561198411873065,"connected_time":109000000000,"state":"active","ping":98},{"user_id":496,"name":"Lavoisier","steam_id":76561198013399809,"connected_time":392000000000,"state":"active","ping":50},{"user_id":494,"name":"2 Point Tom","steam_id":76561198087617008,"connected_time":601000000000,"state":"active","ping":78},{"user_id":482,"name":"IntravenusDeMilo","steam_id":76561197970629020,"connected_time":1138000000000,"state":"active","ping":72},{"user_id":489,"name":"LIMBS","steam_id":76561198101220604,"connected_time":790000000000,"state":"active","ping":56},{"user_id":372,"name":"FESTIVE SQU1RRELLY","steam_id":76561197961279983,"connected_time":11864000000000,"state":"active","ping":75},{"user_id":463,"name":"Scampy","steam_id":76561198001506924,"connected_time":3648000000000,"state":"active","ping":81},{"user_id":487,"name":"Chef","steam_id":76561198037041957,"connected_time":1006000000000,"state":"active","ping":56}]},{"server_id":112,"name":"Uncletopia | Los Angeles | 2 | All Maps","name_short":"lax-2","host":"lax-1.us.uncletopia.com","port":27025,"enabled":true,"region":"us-west","cc":"us","latitude":33.94279,"longitude":-118.41004,"reserved":0,"last_update":"0001-01-01T00:00:00Z","name_a2s":"Uncletopia | Los Angeles | 2 | All Maps","protocol":17,"map":"koth_cascade","folder":"tf","game":"Team Fortress","app_id":440,"player_count":0,"max_players":24,"Bots":0,"server_type":"Dedicated","server_os":"Linux","password":true,"vac":true,"version":"7757534","steam_id":85568392924469992,"keywords":["cp","nocrits","nodmgspread","uncletopia"],"game_id":440,"stv_port":27026,"stv_name":"Uncletopia | Los Angeles | 2 | All Maps | STV","players":null},{"server_id":324,"name":"Uncletopia | Los Angeles | 3 | All Maps","name_short":"lax-3","host":"lax-1.us.uncletopia.com","port":27035,"enabled":true,"region":"us-west","cc":"us","latitude":33.94279,"longitude":-118.41004,"reserved":0,"last_update":"0001-01-01T00:00:00Z","name_a2s":"Uncletopia | Los Angeles | 3 | All Maps","protocol":17,"map":"pl_pier","folder":"tf","game":"Team Fortress","app_id":440,"player_count":24,"max_players":24,"Bots":0,"server_type":"Dedicated","server_os":"Linux","password":true,"vac":true,"version":"7757534","steam_id":85568392924510198,"keywords":["nocrits","nodmgspread","payload","uncletopia"],"game_id":440,"stv_port":27036,"stv_name":"Uncletopia | Los Angeles | 3 | All Maps | STV","players":[{"user_id":227,"name":"magunyamu","steam_id":76561198823083676,"connected_time":707000000000,"state":"active","ping":59},{"user_id":228,"name":"goblin","steam_id":76561199004451589,"connected_time":705000000000,"state":"active","ping":94},{"user_id":218,"name":"Dispenser","steam_id":76561198335380968,"connected_time":1566000000000,"state":"active","ping":79},{"user_id":237,"name":"ohdarling","steam_id":76561198129682583,"connected_time":286000000000,"state":"active","ping":76},{"user_id":223,"name":"cam","steam_id":76561198073426718,"connected_time":1188000000000,"state":"active","ping":57},{"user_id":219,"name":"Grungus","steam_id":76561198047700230,"connected_time":1564000000000,"state":"active","ping":56},{"user_id":213,"name":"yate","steam_id":76561198311004039,"connected_time":1886000000000,"state":"active","ping":120},{"user_id":229,"name":"you look like how my ex smelled","steam_id":76561198986534519,"connected_time":671000000000,"state":"active","ping":61},{"user_id":230,"name":"super-oofio64","steam_id":76561198954052123,"connected_time":670000000000,"state":"active","ping":73},{"user_id":187,"name":"Sleeping_Penguin❤","steam_id":76561198424771117,"connected_time":2466000000000,"state":"active","ping":50},{"user_id":231,"name":"THIRDPIERCE","steam_id":76561198405366314,"connected_time":665000000000,"state":"active","ping":90},{"user_id":191,"name":"[DATS➡] Sugar Meowth","steam_id":76561197995251793,"connected_time":2286000000000,"state":"active","ping":67},{"user_id":195,"name":"Geight","steam_id":76561197991645292,"connected_time":2231000000000,"state":"active","ping":87},{"user_id":190,"name":"Genius Meme","steam_id":76561198162911254,"connected_time":2397000000000,"state":"active","ping":92},{"user_id":152,"name":"monk","steam_id":76561198041266286,"connected_time":4567000000000,"state":"active","ping":59},{"user_id":192,"name":"NGsterson","steam_id":76561198162108154,"connected_time":2277000000000,"state":"active","ping":80},{"user_id":232,"name":"sun sugar","steam_id":76561198385085005,"connected_time":658000000000,"state":"active","ping":65},{"user_id":233,"name":"Lukethan","steam_id":76561198091476521,"connected_time":637000000000,"state":"active","ping":73},{"user_id":239,"name":"traytable","steam_id":76561198355890964,"connected_time":206000000000,"state":"active","ping":114},{"user_id":234,"name":"Quietsharp","steam_id":76561198277968438,"connected_time":625000000000,"state":"active","ping":55},{"user_id":206,"name":"HobHob","steam_id":76561198145646314,"connected_time":2050000000000,"state":"active","ping":116},{"user_id":155,"name":"rebel","steam_id":76561198056377621,"connected_time":4532000000000,"state":"active","ping":75},{"user_id":169,"name":"››Danny G","steam_id":76561198218719943,"connected_time":4053000000000,"state":"active","ping":45},{"user_id":225,"name":"Leth","steam_id":76561198044715192,"connected_time":823000000000,"state":"active","ping":63}]},{"server_id":25,"name":"Uncletopia | Los Angeles | 4 | Stopwatch Beta","name_short":"lax-4","host":"lax-1.us.uncletopia.com","port":27045,"enabled":true,"region":"us-west","cc":"us","latitude":33.94279,"longitude":-118.41004,"reserved":0,"last_update":"0001-01-01T00:00:00Z","name_a2s":"Uncletopia | Los Angeles | 4 | Stopwatch Beta","protocol":17,"map":"koth_viaduct","folder":"tf","game":"Team Fortress","app_id":440,"player_count":0,"max_players":24,"Bots":0,"server_type":"Dedicated","server_os":"Linux","password":true,"vac":true,"version":"7757534","steam_id":85568392924510199,"keywords":["cp","nocrits","nodmgspread","uncletopia"],"game_id":440,"stv_port":27046,"stv_name":"Uncletopia | Los Angeles | 4 | Stopwatch Beta | STV","players":null},{"server_id":11,"name":"Uncletopia | London | 1 | All Maps","name_short":"lon-1","host":"lon-1.uk.uncletopia.com","port":27015,"enabled":true,"region":"eu","cc":"gb","latitude":51.509865,"longitude":-0.118092,"reserved":0,"last_update":"0001-01-01T00:00:00Z","name_a2s":"Uncletopia | London | 1 | All Maps","protocol":17,"map":"pl_barnblitz","folder":"tf","game":"Team Fortress","app_id":440,"player_count":24,"max_players":24,"Bots":0,"server_type":"Dedicated","server_os":"Linux","password":true,"vac":true,"version":"7757534","steam_id":85568392924367362,"keywords":["nocrits","nodmgspread","payload","uncletopia"],"game_id":440,"stv_port":27016,"stv_name":"Uncletopia | London | 1 | All Maps | STV","players":[{"user_id":3,"name":"engie?","steam_id":76561198331852832,"connected_time":2430000000000,"state":"active","ping":60},{"user_id":38,"name":"Pip Boy","steam_id":76561197960530280,"connected_time":1035000000000,"state":"active","ping":73},{"user_id":5,"name":"Melon","steam_id":76561198150893860,"connected_time":2428000000000,"state":"active","ping":85},{"user_id":39,"name":"knyazF","steam_id":76561198163278585,"connected_time":586000000000,"state":"active","ping":75},{"user_id":7,"name":"Hudzy","steam_id":76561198058290638,"connected_time":2423000000000,"state":"active","ping":174},{"user_id":34,"name":"Waffel","steam_id":76561198137729291,"connected_time":1319000000000,"state":"active","ping":108},{"user_id":9,"name":"tindy","steam_id":76561198064581209,"connected_time":2421000000000,"state":"active","ping":90},{"user_id":10,"name":"rat performance","steam_id":76561198065854668,"connected_time":2416000000000,"state":"active","ping":38},{"user_id":43,"name":"333res","steam_id":76561198148106704,"connected_time":161000000000,"state":"active","ping":89},{"user_id":12,"name":"vani","steam_id":76561197991778291,"connected_time":2411000000000,"state":"active","ping":76},{"user_id":13,"name":"psyko lunatic","steam_id":76561198213759580,"connected_time":2408000000000,"state":"active","ping":43},{"user_id":14,"name":"irem eating tuna","steam_id":76561198142183478,"connected_time":2407000000000,"state":"active","ping":92},{"user_id":15,"name":"uhmazn","steam_id":76561198014204225,"connected_time":2402000000000,"state":"active","ping":46},{"user_id":42,"name":"k","steam_id":76561198818452217,"connected_time":243000000000,"state":"active","ping":75},{"user_id":17,"name":"fredu","steam_id":76561198107605938,"connected_time":2383000000000,"state":"active","ping":98},{"user_id":18,"name":"🃔 Nugg1t(sme/lly)","steam_id":76561198065652251,"connected_time":2378000000000,"state":"active","ping":54},{"user_id":19,"name":"Ivan the Terrible","steam_id":76561198139595241,"connected_time":2370000000000,"state":"active","ping":88},{"user_id":20,"name":"Pan Pan","steam_id":76561199074670515,"connected_time":2369000000000,"state":"active","ping":90},{"user_id":21,"name":"SpyChef","steam_id":76561198075326117,"connected_time":2362000000000,"state":"active","ping":52},{"user_id":33,"name":"Cahl","steam_id":76561198980863125,"connected_time":1328000000000,"state":"active","ping":45},{"user_id":23,"name":"iuSDIB8+ ň7","steam_id":76561198363768590,"connected_time":2314000000000,"state":"active","ping":88},{"user_id":26,"name":"☠Holy(cz)☠","steam_id":76561197985535494,"connected_time":2008000000000,"state":"active","ping":99},{"user_id":41,"name":"Batunga","steam_id":76561198174496709,"connected_time":275000000000,"state":"active","ping":68},{"user_id":29,"name":"Parking","steam_id":76561198056842805,"connected_time":1475000000000,"state":"active","ping":64}]},{"server_id":114,"name":"Uncletopia | London | 2 | All Maps","name_short":"lon-2","host":"lon-1.uk.uncletopia.com","port":27025,"enabled":true,"region":"eu","cc":"gb","latitude":51.509865,"longitude":-0.118092,"reserved":0,"last_update":"0001-01-01T00:00:00Z","name_a2s":"Uncletopia | London | 2 | All Maps","protocol":17,"map":"pl_borneo","folder":"tf","game":"Team Fortress","app_id":440,"player_count":0,"max_players":24,"Bots":0,"server_type":"Dedicated","server_os":"Linux","password":true,"vac":true,"version":"7757534","steam_id":85568392924470941,"keywords":["nocrits","nodmgspread","payload","uncletopia"],"game_id":440,"stv_port":27026,"stv_name":"Uncletopia | London | 2 | All Maps | STV","players":null},{"server_id":320,"name":"Uncletopia | London | 3 | All Maps","name_short":"lon-3","host":"lon-1.uk.uncletopia.com","port":27035,"enabled":true,"region":"eu","cc":"gb","latitude":51.509865,"longitude":-0.118092,"reserved":0,"last_update":"0001-01-01T00:00:00Z","name_a2s":"Uncletopia | London | 3 | All Maps","protocol":17,"map":"pl_badwater","folder":"tf","game":"Team Fortress","app_id":440,"player_count":0,"max_players":24,"Bots":0,"server_type":"Dedicated","server_os":"Linux","password":true,"vac":true,"version":"7757534","steam_id":85568392924510192,"keywords":["nocrits","nodmgspread","payload","uncletopia"],"game_id":440,"stv_port":27036,"stv_name":"Uncletopia | London | 3 | All Maps | STV","players":null},{"server_id":321,"name":"Uncletopia | London | 4 | All Maps","name_short":"lon-4","host":"lon-1.uk.uncletopia.com","port":27045,"enabled":true,"region":"eu","cc":"gb","latitude":51.509865,"longitude":-0.118092,"reserved":0,"last_update":"0001-01-01T00:00:00Z","name_a2s":"Uncletopia | London | 4 | All Maps","protocol":17,"map":"cp_snakewater_final1","folder":"tf","game":"Team Fortress","app_id":440,"player_count":0,"max_players":24,"Bots":0,"server_type":"Dedicated","server_os":"Linux","password":true,"vac":true,"version":"7757534","steam_id":85568392924510193,"keywords":["cp","nocrits","nodmgspread","uncletopia"],"game_id":440,"stv_port":27046,"stv_name":"Uncletopia | London | 4 | All Maps | STV","players":null},{"server_id":21,"name":"Uncletopia | London | 5 | All Maps","name_short":"lon-5","host":"lon-1.uk.uncletopia.com","port":27055,"enabled":true,"region":"eu","cc":"gb","latitude":51.509865,"longitude":-0.118092,"reserved":0,"last_update":"0001-01-01T00:00:00Z","name_a2s":"Uncletopia | London | 5 | All Maps","protocol":17,"map":"pl_snowycoast","folder":"tf","game":"Team Fortress","app_id":440,"player_count":0,"max_players":24,"Bots":0,"server_type":"Dedicated","server_os":"Linux","password":true,"vac":true,"version":"7757534","steam_id":85568392924742829,"keywords":["nocrits","nodmgspread","payload","uncletopia"],"game_id":440,"stv_port":27056,"stv_name":"Uncletopia | London | 5 | All Maps | STV","players":null},{"server_id":22,"name":"Uncletopia | London | 6 | All Maps","name_short":"lon-6","host":"lon-1.uk.uncletopia.com","port":27065,"enabled":true,"region":"eu","cc":"gb","latitude":51.509865,"longitude":-0.118092,"reserved":0,"last_update":"0001-01-01T00:00:00Z","name_a2s":"Uncletopia | London | 6 | All Maps","protocol":17,"map":"pl_snowycoast","folder":"tf","game":"Team Fortress","app_id":440,"player_count":0,"max_players":24,"Bots":0,"server_type":"Dedicated","server_os":"Linux","password":true,"vac":true,"version":"7757534","steam_id":85568392924742830,"keywords":["nocrits","nodmgspread","payload","uncletopia"],"game_id":440,"stv_port":27066,"stv_name":"Uncletopia | London | 6 | All Maps | STV","players":null},{"server_id":40,"name":"Uncletopia | London | 7 | No Payload","name_short":"lon-7","host":"lon-1.uk.uncletopia.com","port":27075,"enabled":true,"region":"eu","cc":"gb","latitude":51.509865,"longitude":-0.118092,"reserved":0,"last_update":"0001-01-01T00:00:00Z","name_a2s":"Uncletopia | London | 7 | No Payload","protocol":17,"map":"pl_upward","folder":"tf","game":"Team Fortress","app_id":440,"player_count":0,"max_players":24,"Bots":0,"server_type":"Dedicated","server_os":"Linux","password":true,"vac":true,"version":"7757534","steam_id":85568392924964314,"keywords":["nocrits","nodmgspread","payload","uncletopia"],"game_id":440,"stv_port":27076,"stv_name":"Uncletopia | London | 7 | No Payload | STV","players":null},{"server_id":41,"name":"Uncletopia | London | 8 | Community","name_short":"lon-8","host":"lon-1.uk.uncletopia.com","port":27085,"enabled":true,"region":"eu","cc":"gb","latitude":51.509865,"longitude":-0.118092,"reserved":0,"last_update":"0001-01-01T00:00:00Z","name_a2s":"Uncletopia | London | 8 | Community","protocol":17,"map":"cp_snakewater_final1","folder":"tf","game":"Team Fortress","app_id":440,"player_count":0,"max_players":24,"Bots":0,"server_type":"Dedicated","server_os":"Linux","password":true,"vac":true,"version":"7757534","steam_id":85568392924964315,"keywords":["cp","nocrits","nodmgspread","uncletopia"],"game_id":440,"stv_port":27086,"stv_name":"Uncletopia | London | 8 | Community | STV","players":null},{"server_id":300,"name":"Uncletopia | Montréal | 1 | All Maps","name_short":"mtl-1","host":"mtl-1.ca.uncletopia.com","port":27015,"enabled":true,"region":"us-east","cc":"ca","latitude":45.50889,"longitude":-73.56167,"reserved":0,"last_update":"0001-01-01T00:00:00Z","name_a2s":"Uncletopia | Montréal | 1 | All Maps","protocol":17,"map":"koth_harvest_final","folder":"tf","game":"Team Fortress","app_id":440,"player_count":1,"max_players":24,"Bots":0,"server_type":"Dedicated","server_os":"Linux","password":true,"vac":true,"version":"7757534","steam_id":85568392924500087,"keywords":["cp","nocrits","nodmgspread","uncletopia"],"game_id":440,"stv_port":27016,"stv_name":"Uncletopia | Montréal | 1 | All Maps | STV","players":[{"user_id":161,"name":"Menlymen","steam_id":76561198046508051,"connected_time":0,"state":"spawning","ping":0}]},{"server_id":301,"name":"Uncletopia | Montréal | 2 | All Maps","name_short":"mtl-2","host":"mtl-1.ca.uncletopia.com","port":27025,"enabled":true,"region":"us-east","cc":"ca","latitude":45.50889,"longitude":-73.56167,"reserved":0,"last_update":"0001-01-01T00:00:00Z","name_a2s":"Uncletopia | Montréal | 2 | All Maps","protocol":17,"map":"koth_cascade","folder":"tf","game":"Team Fortress","app_id":440,"player_count":0,"max_players":24,"Bots":0,"server_type":"Dedicated","server_os":"Linux","password":true,"vac":true,"version":"7757534","steam_id":85568392924500088,"keywords":["cp","nocrits","nodmgspread","uncletopia"],"game_id":440,"stv_port":27026,"stv_name":"Uncletopia | Montréal | 2 | All Maps | STV","players":null},{"server_id":302,"name":"Uncletopia | Montréal | 3 | All Maps","name_short":"mtl-3","host":"mtl-1.ca.uncletopia.com","port":27035,"enabled":true,"region":"us-east","cc":"ca","latitude":45.50889,"longitude":-73.56167,"reserved":0,"last_update":"0001-01-01T00:00:00Z","name_a2s":"Uncletopia | Montréal | 3 | All Maps","protocol":17,"map":"pl_borneo","folder":"tf","game":"Team Fortress","app_id":440,"player_count":0,"max_players":24,"Bots":0,"server_type":"Dedicated","server_os":"Linux","password":true,"vac":true,"version":"7757534","steam_id":85568392924500089,"keywords":["nocrits","nodmgspread","payload","uncletopia"],"game_id":440,"stv_port":27036,"stv_name":"Uncletopia | Montréal | 3 | All Maps | STV","players":null},{"server_id":303,"name":"Uncletopia | Montréal | 4 | No Payload","name_short":"mtl-4","host":"mtl-1.ca.uncletopia.com","port":27045,"enabled":true,"region":"us-east","cc":"ca","latitude":45.50889,"longitude":-73.56167,"reserved":0,"last_update":"0001-01-01T00:00:00Z","name_a2s":"Uncletopia | Montréal | 4 | No Payload","protocol":17,"map":"koth_lakeside_final","folder":"tf","game":"Team Fortress","app_id":440,"player_count":0,"max_players":24,"Bots":0,"server_type":"Dedicated","server_os":"Linux","password":true,"vac":true,"version":"7757534","steam_id":85568392924500090,"keywords":["cp","nocrits","nodmgspread","uncletopia"],"game_id":440,"stv_port":27046,"stv_name":"Uncletopia | Montréal | 4 | No Payload | STV","players":null},{"server_id":13,"name":"Uncletopia | New York City | 1 | All Maps","name_short":"nyc-1","host":"nyc-1.us.uncletopia.com","port":27015,"enabled":true,"region":"us-east","cc":"us","latitude":40.73061,"longitude":-73.93524,"reserved":0,"last_update":"0001-01-01T00:00:00Z","name_a2s":"Uncletopia | New York City | 1 | All Maps","protocol":17,"map":"cp_process_final","folder":"tf","game":"Team Fortress","app_id":440,"player_count":0,"max_players":24,"Bots":0,"server_type":"Dedicated","server_os":"Linux","password":true,"vac":true,"version":"7757534","steam_id":85568392924469993,"keywords":["cp","nocrits","nodmgspread","uncletopia"],"game_id":440,"stv_port":27016,"stv_name":"Uncletopia | New York City | 1 | All Maps | STV","players":null},{"server_id":14,"name":"Uncletopia | New York City | 2 | All Maps","name_short":"nyc-2","host":"nyc-1.us.uncletopia.com","port":27025,"enabled":true,"region":"us-east","cc":"us","latitude":40.73061,"longitude":-73.93524,"reserved":0,"last_update":"0001-01-01T00:00:00Z","name_a2s":"Uncletopia | New York City | 2 | All Maps","protocol":17,"map":"pl_borneo","folder":"tf","game":"Team Fortress","app_id":440,"player_count":0,"max_players":24,"Bots":0,"server_type":"Dedicated","server_os":"Linux","password":true,"vac":true,"version":"7757534","steam_id":85568392924469994,"keywords":["nocrits","nodmgspread","payload","uncletopia"],"game_id":440,"stv_port":27026,"stv_name":"Uncletopia | New York City | 2 | All Maps | STV","players":null},{"server_id":15,"name":"Uncletopia | New York City | 3 | Stopwatch Beta","name_short":"nyc-3","host":"nyc-1.us.uncletopia.com","port":27035,"enabled":true,"region":"us-east","cc":"us","latitude":40.73061,"longitude":-73.93524,"reserved":0,"last_update":"0001-01-01T00:00:00Z","name_a2s":"Uncletopia | New York City | 3 | Stopwatch Beta","protocol":17,"map":"koth_lakeside_final","folder":"tf","game":"Team Fortress","app_id":440,"player_count":0,"max_players":24,"Bots":0,"server_type":"Dedicated","server_os":"Linux","password":true,"vac":true,"version":"7757534","steam_id":85568392924742820,"keywords":["cp","nocrits","nodmgspread","uncletopia"],"game_id":440,"stv_port":27036,"stv_name":"Uncletopia | New York City | 3 | Stopwatch Beta | STV","players":null},{"server_id":16,"name":"Uncletopia | New York City | 4 | Community","name_short":"nyc-4","host":"nyc-1.us.uncletopia.com","port":27045,"enabled":true,"region":"us-east","cc":"us","latitude":40.73061,"longitude":-73.93524,"reserved":0,"last_update":"0001-01-01T00:00:00Z","name_a2s":"Uncletopia | New York City | 4 | Community","protocol":17,"map":"workshop/pl_cactuscanyon_redux_rc4b.ugc2579644293","folder":"tf","game":"Team Fortress","app_id":440,"player_count":0,"max_players":24,"Bots":0,"server_type":"Dedicated","server_os":"Linux","password":true,"vac":true,"version":"7757534","steam_id":85568392924742821,"keywords":["nocrits","nodmgspread","payload","uncletopia"],"game_id":440,"stv_port":27046,"stv_name":"Uncletopia | New York City | 4 | Community | STV","players":null},{"server_id":142,"name":"Uncletopia | São Paulo | 1 | All Maps","name_short":"sao-1","host":"sao-1.br.uncletopia.com","port":27015,"enabled":true,"region":"sa","cc":"br","latitude":-23.533773,"longitude":-46.62529,"reserved":0,"last_update":"0001-01-01T00:00:00Z","name_a2s":"Uncletopia | São Paulo | 1 | All Maps","protocol":17,"map":"cp_altitude","folder":"tf","game":"Team Fortress","app_id":440,"player_count":0,"max_players":24,"Bots":0,"server_type":"Dedicated","server_os":"Linux","password":true,"vac":true,"version":"7757534","steam_id":85568392924469996,"keywords":["cp","nocrits","nodmgspread","uncletopia"],"game_id":440,"stv_port":27016,"stv_name":"Uncletopia | São Paulo | 1 | All Maps | STV","players":null},{"server_id":143,"name":"Uncletopia | São Paulo | 2 | All Maps","name_short":"sao-2","host":"sao-2.br.uncletopia.com","port":27015,"enabled":true,"region":"sa","cc":"br","latitude":-23.533773,"longitude":-46.62529,"reserved":0,"last_update":"0001-01-01T00:00:00Z","name_a2s":"Uncletopia | São Paulo | 2 | All Maps","protocol":17,"map":"pl_snowycoast","folder":"tf","game":"Team Fortress","app_id":440,"player_count":0,"max_players":24,"Bots":0,"server_type":"Dedicated","server_os":"Linux","password":true,"vac":true,"version":"7757534","steam_id":85568392924485349,"keywords":["nocrits","nodmgspread","payload","uncletopia"],"game_id":440,"stv_port":27016,"stv_name":"Uncletopia | São Paulo | 2 | All Maps | STV","players":null},{"server_id":7,"name":"Uncletopia | Seattle | 1 | All Maps","name_short":"sea-1","host":"sea-1.us.uncletopia.com","port":27015,"enabled":true,"region":"us-west","cc":"us","latitude":47.608013,"longitude":-122.33517,"reserved":0,"last_update":"0001-01-01T00:00:00Z","name_a2s":"Uncletopia | Seattle | 1 | All Maps","protocol":17,"map":"koth_harvest_final","folder":"tf","game":"Team Fortress","app_id":440,"player_count":24,"max_players":24,"Bots":0,"server_type":"Dedicated","server_os":"Linux","password":true,"vac":true,"version":"7757534","steam_id":85568392924469997,"keywords":["cp","nocrits","nodmgspread","uncletopia"],"game_id":440,"stv_port":27016,"stv_name":"Uncletopia | Seattle | 1 | All Maps | STV","players":[{"user_id":472,"name":"Ayayahuasca","steam_id":76561199002906056,"connected_time":4104000000000,"state":"active","ping":44},{"user_id":459,"name":"profile name","steam_id":76561198032625036,"connected_time":5668000000000,"state":"active","ping":60},{"user_id":517,"name":"john yakuza","steam_id":76561198975512542,"connected_time":766000000000,"state":"active","ping":167},{"user_id":518,"name":"squid game","steam_id":76561199248960166,"connected_time":533000000000,"state":"active","ping":39},{"user_id":481,"name":"Squigzy_","steam_id":76561198061696667,"connected_time":3117000000000,"state":"active","ping":77},{"user_id":410,"name":"rat gets the cheese","steam_id":76561198031234032,"connected_time":10647000000000,"state":"active","ping":92},{"user_id":505,"name":"mega","steam_id":76561198089520959,"connected_time":1406000000000,"state":"active","ping":89},{"user_id":335,"name":"soup","steam_id":76561198043209046,"connected_time":15565000000000,"state":"active","ping":73},{"user_id":515,"name":"Dad Rock Deluxe","steam_id":76561198051224819,"connected_time":1039000000000,"state":"active","ping":93},{"user_id":521,"name":"twitch.tv/abaddon_amog","steam_id":76561198268581959,"connected_time":166000000000,"state":"active","ping":62},{"user_id":512,"name":"smeasly","steam_id":76561198028718812,"connected_time":1225000000000,"state":"active","ping":42},{"user_id":493,"name":"terri joe","steam_id":76561198017030029,"connected_time":2054000000000,"state":"active","ping":71},{"user_id":486,"name":"Saint Pablo","steam_id":76561198083300159,"connected_time":2542000000000,"state":"active","ping":73},{"user_id":471,"name":"[TrC] Dackstrus","steam_id":76561197973518509,"connected_time":4159000000000,"state":"active","ping":60},{"user_id":483,"name":"El Gato Paranoico","steam_id":76561198116567116,"connected_time":2667000000000,"state":"active","ping":120},{"user_id":465,"name":"Arsonist Goose","steam_id":76561198147441830,"connected_time":4473000000000,"state":"active","ping":75},{"user_id":501,"name":"bbbbb","steam_id":76561198095480838,"connected_time":1546000000000,"state":"active","ping":53},{"user_id":503,"name":"TurboRaspberry","steam_id":76561199215360629,"connected_time":1525000000000,"state":"active","ping":54},{"user_id":495,"name":"azureglxy","steam_id":76561198861388315,"connected_time":2049000000000,"state":"active","ping":65},{"user_id":513,"name":"me","steam_id":76561199468285784,"connected_time":1214000000000,"state":"active","ping":59},{"user_id":484,"name":"[TrC] Nosy","steam_id":76561197978859310,"connected_time":2643000000000,"state":"active","ping":61},{"user_id":516,"name":"Bagaboned","steam_id":76561198043761335,"connected_time":951000000000,"state":"active","ping":56},{"user_id":477,"name":"surrealist neophyte","steam_id":76561198325306660,"connected_time":3326000000000,"state":"active","ping":104},{"user_id":500,"name":"Freddie Benson","steam_id":76561198012741266,"connected_time":1777000000000,"state":"active","ping":45}]},{"server_id":119,"name":"Uncletopia | Seattle | 2 | All Maps","name_short":"sea-2","host":"sea-1.us.uncletopia.com","port":27025,"enabled":true,"region":"us-west","cc":"us","latitude":47.608013,"longitude":-122.33517,"reserved":0,"last_update":"0001-01-01T00:00:00Z","name_a2s":"Uncletopia | Seattle | 2 | All Maps","protocol":17,"map":"cp_snakewater_final1","folder":"tf","game":"Team Fortress","app_id":440,"player_count":24,"max_players":24,"Bots":0,"server_type":"Dedicated","server_os":"Linux","password":true,"vac":true,"version":"7757534","steam_id":85568392924469998,"keywords":["cp","nocrits","nodmgspread","uncletopia"],"game_id":440,"stv_port":27026,"stv_name":"Uncletopia | Seattle | 2 | All Maps | STV","players":[{"user_id":559,"name":"goldhed","steam_id":76561198051751133,"connected_time":7254000000000,"state":"active","ping":61},{"user_id":609,"name":"JON","steam_id":76561198057971005,"connected_time":3003000000000,"state":"active","ping":38},{"user_id":626,"name":"God's Drunkest Driver","steam_id":76561198400555049,"connected_time":1586000000000,"state":"active","ping":56},{"user_id":618,"name":"Lily Thorn","steam_id":76561198305488625,"connected_time":2486000000000,"state":"active","ping":66},{"user_id":628,"name":"Wormy wants to RTV","steam_id":76561198054539200,"connected_time":1463000000000,"state":"active","ping":51},{"user_id":620,"name":"iwakvra","steam_id":76561198128164970,"connected_time":2238000000000,"state":"active","ping":76},{"user_id":629,"name":"Alex","steam_id":76561198220176521,"connected_time":1387000000000,"state":"active","ping":105},{"user_id":615,"name":"LWebb","steam_id":76561199162936929,"connected_time":2692000000000,"state":"active","ping":93},{"user_id":635,"name":"the rizzard of oz","steam_id":76561198108196753,"connected_time":1024000000000,"state":"active","ping":75},{"user_id":613,"name":"snub","steam_id":76561198312106312,"connected_time":2891000000000,"state":"active","ping":60},{"user_id":642,"name":"Google","steam_id":76561198857237473,"connected_time":27000000000,"state":"active","ping":49},{"user_id":568,"name":"LazyRat","steam_id":76561198014066794,"connected_time":6980000000000,"state":"active","ping":88},{"user_id":640,"name":"The Population of Sweden","steam_id":76561198202201644,"connected_time":166000000000,"state":"active","ping":48},{"user_id":631,"name":"Toothbrush","steam_id":76561199091907590,"connected_time":1372000000000,"state":"active","ping":59},{"user_id":591,"name":"3 spooky 5 me","steam_id":76561199049488718,"connected_time":3984000000000,"state":"active","ping":82},{"user_id":638,"name":"Naffers","steam_id":76561198195957335,"connected_time":638000000000,"state":"active","ping":45},{"user_id":589,"name":"Bubbamanme","steam_id":76561198119778504,"connected_time":4101000000000,"state":"active","ping":56},{"user_id":621,"name":"Platino","steam_id":76561198410957728,"connected_time":2233000000000,"state":"active","ping":100},{"user_id":583,"name":"Cinna Mon","steam_id":76561198005840633,"connected_time":5346000000000,"state":"active","ping":60},{"user_id":619,"name":"Sylain","steam_id":76561198043958855,"connected_time":2355000000000,"state":"active","ping":79},{"user_id":603,"name":"Evanb","steam_id":76561198042057792,"connected_time":3231000000000,"state":"active","ping":48},{"user_id":632,"name":"bodie._.","steam_id":76561198079474904,"connected_time":1369000000000,"state":"active","ping":72},{"user_id":637,"name":"Tomato Soup","steam_id":76561198051834684,"connected_time":867000000000,"state":"active","ping":60},{"user_id":634,"name":"warewarewa","steam_id":76561197965022076,"connected_time":1337000000000,"state":"active","ping":105}]},{"server_id":406,"name":"Uncletopia | Seattle | 3 | Stopwatch Beta","name_short":"sea-3","host":"sea-1.us.uncletopia.com","port":27035,"enabled":true,"region":"us-west","cc":"us","latitude":47.608013,"longitude":-122.33517,"reserved":0,"last_update":"0001-01-01T00:00:00Z","name_a2s":"Uncletopia | Seattle | 3 | Stopwatch Beta","protocol":17,"map":"workshop/pl_badwater_pro_v12.ugc2142942074","folder":"tf","game":"Team Fortress","app_id":440,"player_count":0,"max_players":24,"Bots":0,"server_type":"Dedicated","server_os":"Linux","password":true,"vac":true,"version":"7757534","steam_id":85568392924515217,"keywords":["nocrits","nodmgspread","payload","uncletopia"],"game_id":440,"stv_port":27036,"stv_name":"Uncletopia | Seattle | 3 | Stopwatch Beta | STV","players":null},{"server_id":17,"name":"Uncletopia | San Francisco | 1 | All Maps","name_short":"sfo-1","host":"sfo-1.us.uncletopia.com","port":27015,"enabled":true,"region":"us-west","cc":"us","latitude":37.77397,"longitude":-122.4313,"reserved":0,"last_update":"0001-01-01T00:00:00Z","name_a2s":"Uncletopia | San Francisco | 1 | All Maps","protocol":17,"map":"koth_cascade","folder":"tf","game":"Team Fortress","app_id":440,"player_count":0,"max_players":24,"Bots":0,"server_type":"Dedicated","server_os":"Linux","password":true,"vac":true,"version":"7757534","steam_id":85568392924469999,"keywords":["cp","nocrits","nodmgspread","uncletopia"],"game_id":440,"stv_port":27016,"stv_name":"Uncletopia | San Francisco | 1 | All Maps | STV","players":null},{"server_id":18,"name":"Uncletopia | San Francisco | 2 | All Maps","name_short":"sfo-2","host":"sfo-1.us.uncletopia.com","port":27025,"enabled":true,"region":"us-west","cc":"us","latitude":37.77397,"longitude":-122.4313,"reserved":0,"last_update":"0001-01-01T00:00:00Z","name_a2s":"Uncletopia | San Francisco | 2 | All Maps","protocol":17,"map":"pl_upward","folder":"tf","game":"Team Fortress","app_id":440,"player_count":24,"max_players":24,"Bots":0,"server_type":"Dedicated","server_os":"Linux","password":true,"vac":true,"version":"7757534","steam_id":85568392924470000,"keywords":["nocrits","nodmgspread","payload","uncletopia"],"game_id":440,"stv_port":27026,"stv_name":"Uncletopia | San Francisco | 2 | All Maps | STV","players":[{"user_id":76,"name":"Battery_Included","steam_id":76561198067164431,"connected_time":5185000000000,"state":"active","ping":45},{"user_id":143,"name":"Ninjalion245","steam_id":76561198376605350,"connected_time":491000000000,"state":"active","ping":111},{"user_id":136,"name":"VikingPilot","steam_id":76561198242552958,"connected_time":695000000000,"state":"active","ping":99},{"user_id":144,"name":"Mr Majesticals","steam_id":76561198015242706,"connected_time":451000000000,"state":"active","ping":59},{"user_id":96,"name":"Sticky","steam_id":76561198031581547,"connected_time":3771000000000,"state":"active","ping":56},{"user_id":121,"name":"sniffy","steam_id":76561198184933255,"connected_time":1752000000000,"state":"active","ping":58},{"user_id":145,"name":"Drown Syndrome","steam_id":76561198046584592,"connected_time":444000000000,"state":"active","ping":109},{"user_id":148,"name":"pengi","steam_id":76561199203221725,"connected_time":71000000000,"state":"active","ping":269},{"user_id":85,"name":"Jay","steam_id":76561198148464582,"connected_time":4366000000000,"state":"active","ping":105},{"user_id":103,"name":"William_V1","steam_id":76561199211255138,"connected_time":3307000000000,"state":"active","ping":118},{"user_id":117,"name":"Allah's drunkest separtist","steam_id":76561198144604567,"connected_time":1931000000000,"state":"active","ping":63},{"user_id":146,"name":"R5-D4","steam_id":76561198025196439,"connected_time":442000000000,"state":"active","ping":69},{"user_id":131,"name":"Flyingcat9000","steam_id":76561198179561797,"connected_time":890000000000,"state":"active","ping":40},{"user_id":132,"name":"ayaya?","steam_id":76561199000188109,"connected_time":853000000000,"state":"active","ping":54},{"user_id":140,"name":"Blaaargie","steam_id":76561198040514250,"connected_time":511000000000,"state":"active","ping":52},{"user_id":28,"name":"THE NUT","steam_id":76561198067813626,"connected_time":7871000000000,"state":"active","ping":65},{"user_id":115,"name":"G. Howard Dee","steam_id":76561198058382812,"connected_time":2054000000000,"state":"active","ping":61},{"user_id":134,"name":"Loving Single Father of Two Boy","steam_id":76561198012280046,"connected_time":709000000000,"state":"active","ping":100},{"user_id":135,"name":"Farseer Ulwithy","steam_id":76561197965179245,"connected_time":709000000000,"state":"active","ping":86},{"user_id":137,"name":"Trip","steam_id":76561199018961051,"connected_time":669000000000,"state":"active","ping":125},{"user_id":138,"name":"cuhwiththeST","steam_id":76561198852393876,"connected_time":600000000000,"state":"active","ping":72},{"user_id":147,"name":"Newt","steam_id":76561198842909288,"connected_time":351000000000,"state":"active","ping":119},{"user_id":141,"name":"Feel the bern","steam_id":76561198078824519,"connected_time":509000000000,"state":"active","ping":54},{"user_id":142,"name":"Deaf Jeff","steam_id":76561198057686070,"connected_time":502000000000,"state":"active","ping":115}]},{"server_id":19,"name":"Uncletopia | San Francisco | 3 | Stopwatch Beta","name_short":"sfo-3","host":"sfo-1.us.uncletopia.com","port":27035,"enabled":true,"region":"us-west","cc":"us","latitude":37.77397,"longitude":-122.4313,"reserved":0,"last_update":"0001-01-01T00:00:00Z","name_a2s":"Uncletopia | San Francisco | 3 | Stopwatch Beta","protocol":17,"map":"koth_viaduct","folder":"tf","game":"Team Fortress","app_id":440,"player_count":0,"max_players":24,"Bots":0,"server_type":"Dedicated","server_os":"Linux","password":true,"vac":true,"version":"7757534","steam_id":85568392924742824,"keywords":["cp","nocrits","nodmgspread","uncletopia"],"game_id":440,"stv_port":27036,"stv_name":"Uncletopia | San Francisco | 3 | Stopwatch Beta | STV","players":null},{"server_id":20,"name":"Uncletopia | San Francisco | 4 | Community","name_short":"sfo-4","host":"sfo-1.us.uncletopia.com","port":27045,"enabled":true,"region":"us-west","cc":"us","latitude":37.77397,"longitude":-122.4313,"reserved":0,"last_update":"0001-01-01T00:00:00Z","name_a2s":"Uncletopia | San Francisco | 4 | Community","protocol":17,"map":"workshop/koth_synthetic_rc6a.ugc1549817316","folder":"tf","game":"Team Fortress","app_id":440,"player_count":0,"max_players":24,"Bots":0,"server_type":"Dedicated","server_os":"Linux","password":true,"vac":true,"version":"7757534","steam_id":85568392924742826,"keywords":["cp","nocrits","nodmgspread","uncletopia"],"game_id":440,"stv_port":27046,"stv_name":"Uncletopia | San Francisco | 4 | Community | STV","players":null},{"server_id":141,"name":"Uncletopia | Sydney | 1 | All Maps","name_short":"syd-1","host":"syd-1.au.uncletopia.com","port":27015,"enabled":true,"region":"au","cc":"au","latitude":-33.865143,"longitude":151.2099,"reserved":0,"last_update":"0001-01-01T00:00:00Z","name_a2s":"Uncletopia | Sydney | 1 | All Maps","protocol":17,"map":"pl_borneo","folder":"tf","game":"Team Fortress","app_id":440,"player_count":24,"max_players":24,"Bots":0,"server_type":"Dedicated","server_os":"Linux","password":true,"vac":true,"version":"7757534","steam_id":85568392924470001,"keywords":["nocrits","nodmgspread","payload","uncletopia"],"game_id":440,"stv_port":27016,"stv_name":"Uncletopia | Sydney | 1 | All Maps | STV","players":[{"user_id":99,"name":"ben","steam_id":76561198223331996,"connected_time":4177000000000,"state":"active","ping":61},{"user_id":114,"name":"wombraider","steam_id":76561199375834537,"connected_time":3335000000000,"state":"active","ping":121},{"user_id":134,"name":"armCHAMP Billie Eilish feet mmm","steam_id":76561198044752424,"connected_time":2067000000000,"state":"active","ping":55},{"user_id":131,"name":"clout","steam_id":76561198073310502,"connected_time":2122000000000,"state":"active","ping":75},{"user_id":139,"name":"MikkyD","steam_id":76561198043452962,"connected_time":1577000000000,"state":"active","ping":61},{"user_id":132,"name":"Greg","steam_id":76561198133966374,"connected_time":2121000000000,"state":"active","ping":55},{"user_id":155,"name":"monocrumb","steam_id":76561199126588682,"connected_time":220000000000,"state":"active","ping":63},{"user_id":59,"name":"freek","steam_id":76561198406237673,"connected_time":5595000000000,"state":"active","ping":50},{"user_id":154,"name":"michael","steam_id":76561198052848358,"connected_time":248000000000,"state":"active","ping":62},{"user_id":152,"name":"MrMuffin16","steam_id":76561198257303774,"connected_time":291000000000,"state":"active","ping":61},{"user_id":150,"name":"Team Fartress Poo","steam_id":76561198139598106,"connected_time":691000000000,"state":"active","ping":48},{"user_id":148,"name":"JokerMain","steam_id":76561198144857794,"connected_time":721000000000,"state":"active","ping":43},{"user_id":128,"name":"Void_Robin","steam_id":76561198855798566,"connected_time":2707000000000,"state":"active","ping":65},{"user_id":151,"name":"MaV","steam_id":76561198045682020,"connected_time":485000000000,"state":"active","ping":66},{"user_id":123,"name":"Dr Barry Mundy PhD","steam_id":76561198034512686,"connected_time":2953000000000,"state":"active","ping":40},{"user_id":108,"name":"blaze","steam_id":76561198241303512,"connected_time":3595000000000,"state":"active","ping":59},{"user_id":116,"name":"match","steam_id":76561198088227748,"connected_time":3317000000000,"state":"active","ping":59},{"user_id":84,"name":"KnowZero","steam_id":76561198095752015,"connected_time":4678000000000,"state":"active","ping":62},{"user_id":136,"name":"Snowy","steam_id":76561198255720598,"connected_time":2064000000000,"state":"active","ping":44},{"user_id":144,"name":"hazz_mcpie -BvM-","steam_id":76561198092450084,"connected_time":1176000000000,"state":"active","ping":79},{"user_id":153,"name":"Rolf :)","steam_id":76561198052357164,"connected_time":250000000000,"state":"active","ping":45},{"user_id":147,"name":"Mr.Deathclaw","steam_id":76561198025419320,"connected_time":994000000000,"state":"active","ping":45},{"user_id":149,"name":"Jacob","steam_id":76561198059341907,"connected_time":715000000000,"state":"active","ping":43},{"user_id":97,"name":"ุbifcheg","steam_id":76561198319806610,"connected_time":4316000000000,"state":"active","ping":72}]},{"server_id":123,"name":"Uncletopia | Sydney | 2 | All Maps","name_short":"syd-2","host":"syd-1.au.uncletopia.com","port":27025,"enabled":true,"region":"au","cc":"au","latitude":-33.865143,"longitude":151.2099,"reserved":0,"last_update":"0001-01-01T00:00:00Z","name_a2s":"Uncletopia | Sydney | 2 | All Maps","protocol":17,"map":"pl_swiftwater_final1","folder":"tf","game":"Team Fortress","app_id":440,"player_count":0,"max_players":24,"Bots":0,"server_type":"Dedicated","server_os":"Linux","password":true,"vac":true,"version":"7757534","steam_id":85568392924470002,"keywords":["nocrits","nodmgspread","payload","uncletopia"],"game_id":440,"stv_port":27026,"stv_name":"Uncletopia | Sydney | 2 | All Maps | STV","players":null},{"server_id":395,"name":"Uncletopia | Sydney | 3 | All Maps","name_short":"syd-3","host":"syd-1.au.uncletopia.com","port":27035,"enabled":true,"region":"au","cc":"au","latitude":-33.865143,"longitude":151.2099,"reserved":0,"last_update":"0001-01-01T00:00:00Z","name_a2s":"Uncletopia | Sydney | 3 | All Maps","protocol":17,"map":"cp_sunshine","folder":"tf","game":"Team Fortress","app_id":440,"player_count":0,"max_players":24,"Bots":0,"server_type":"Dedicated","server_os":"Linux","password":true,"vac":true,"version":"7757534","steam_id":85568392925194467,"keywords":["cp","nocrits","nodmgspread","uncletopia"],"game_id":440,"stv_port":27036,"stv_name":"Uncletopia | Sydney | 3 | All Maps | STV","players":null},{"server_id":396,"name":"Uncletopia | Sydney | 4 | All Maps","name_short":"syd-4","host":"syd-1.au.uncletopia.com","port":27045,"enabled":true,"region":"au","cc":"au","latitude":-33.865143,"longitude":151.2099,"reserved":0,"last_update":"0001-01-01T00:00:00Z","name_a2s":"Uncletopia | Sydney | 4 | All Maps","protocol":17,"map":"pl_pier","folder":"tf","game":"Team Fortress","app_id":440,"player_count":0,"max_players":24,"Bots":0,"server_type":"Dedicated","server_os":"Linux","password":true,"vac":true,"version":"7757534","steam_id":85568392925397958,"keywords":["nocrits","nodmgspread","payload","uncletopia"],"game_id":440,"stv_port":27046,"stv_name":"Uncletopia | Sydney | 4 | All Maps | STV","players":null},{"server_id":58,"name":"Uncletopia | Sydney | 5 | Stopwatch Beta","name_short":"syd-5","host":"syd-1.au.uncletopia.com","port":27055,"enabled":true,"region":"au","cc":"au","latitude":-33.865143,"longitude":151.2099,"reserved":0,"last_update":"0001-01-01T00:00:00Z","name_a2s":"Uncletopia | Sydney | 5 | Stopwatch Beta","protocol":17,"map":"pl_barnblitz","folder":"tf","game":"Team Fortress","app_id":440,"player_count":0,"max_players":24,"Bots":0,"server_type":"Dedicated","server_os":"Linux","password":true,"vac":true,"version":"7757534","steam_id":85568392925397959,"keywords":["nocrits","nodmgspread","payload","uncletopia"],"game_id":440,"stv_port":27056,"stv_name":"Uncletopia | Sydney | 5 | Stopwatch Beta | STV","players":null},{"server_id":59,"name":"Uncletopia | Sydney | 6 | Community","name_short":"syd-6","host":"syd-1.au.uncletopia.com","port":27065,"enabled":true,"region":"au","cc":"au","latitude":-33.865143,"longitude":151.2099,"reserved":0,"last_update":"0001-01-01T00:00:00Z","name_a2s":"Uncletopia | Sydney | 6 | Community","protocol":17,"map":"workshop/koth_ashville_final.ugc2130459942","folder":"tf","game":"Team Fortress","app_id":440,"player_count":0,"max_players":24,"Bots":0,"server_type":"Dedicated","server_os":"Linux","password":true,"vac":true,"version":"7757534","steam_id":85568392925397960,"keywords":["cp","nocrits","nodmgspread","uncletopia"],"game_id":440,"stv_port":27066,"stv_name":"Uncletopia | Sydney | 6 | Community | STV","players":null},{"server_id":49,"name":"Uncletopia | Warsaw | 1 | All Maps","name_short":"waw-1","host":"waw-1.pl.uncletopia.com","port":27015,"enabled":true,"region":"eu","cc":"pl","latitude":52.2297,"longitude":21.017532,"reserved":0,"last_update":"0001-01-01T00:00:00Z","name_a2s":"","protocol":0,"map":"","folder":"","game":"","app_id":0,"player_count":0,"max_players":0,"Bots":0,"server_type":"","server_os":"","password":false,"vac":false,"version":"","steam_id":0,"keywords":null,"game_id":0,"stv_port":0,"stv_name":"","players":null},{"server_id":50,"name":"Uncletopia | Warsaw | 2 | All Maps","name_short":"waw-2","host":"waw-1.pl.uncletopia.com","port":27025,"enabled":true,"region":"eu","cc":"pl","latitude":52.2297,"longitude":21.017532,"reserved":0,"last_update":"0001-01-01T00:00:00Z","name_a2s":"Uncletopia | Warsaw | 2 | All Maps","protocol":17,"map":"cp_snakewater_final1","folder":"tf","game":"Team Fortress","app_id":440,"player_count":0,"max_players":24,"Bots":0,"server_type":"Dedicated","server_os":"Linux","password":true,"vac":true,"version":"7757534","steam_id":85568392925397851,"keywords":["cp","nocrits","nodmgspread","uncletopia"],"game_id":440,"stv_port":27026,"stv_name":"Uncletopia | Warsaw | 2 | All Maps | STV","players":null},{"server_id":51,"name":"Uncletopia | Warsaw | 3 | All Maps","name_short":"waw-3","host":"waw-1.pl.uncletopia.com","port":27035,"enabled":true,"region":"eu","cc":"pl","latitude":52.2297,"longitude":21.017532,"reserved":0,"last_update":"0001-01-01T00:00:00Z","name_a2s":"Uncletopia | Warsaw | 3 | All Maps","protocol":17,"map":"cp_sunshine","folder":"tf","game":"Team Fortress","app_id":440,"player_count":0,"max_players":24,"Bots":0,"server_type":"Dedicated","server_os":"Linux","password":true,"vac":true,"version":"7757534","steam_id":85568392925397852,"keywords":["cp","nocrits","nodmgspread","uncletopia"],"game_id":440,"stv_port":27036,"stv_name":"Uncletopia | Warsaw | 3 | All Maps | STV","players":null},{"server_id":52,"name":"Uncletopia | Warsaw | 4 | All Maps","name_short":"waw-4","host":"waw-1.pl.uncletopia.com","port":27045,"enabled":true,"region":"eu","cc":"pl","latitude":52.2297,"longitude":21.017532,"reserved":0,"last_update":"0001-01-01T00:00:00Z","name_a2s":"Uncletopia | Warsaw | 4 | All Maps","protocol":17,"map":"pl_borneo","folder":"tf","game":"Team Fortress","app_id":440,"player_count":0,"max_players":24,"Bots":0,"server_type":"Dedicated","server_os":"Linux","password":true,"vac":true,"version":"7757534","steam_id":85568392925397853,"keywords":["nocrits","nodmgspread","payload","uncletopia"],"game_id":440,"stv_port":27046,"stv_name":"Uncletopia | Warsaw | 4 | All Maps | STV","players":null},{"server_id":53,"name":"Uncletopia | Warsaw | 5 | Stopwatch Beta","name_short":"waw-5","host":"waw-1.pl.uncletopia.com","port":27055,"enabled":true,"region":"eu","cc":"pl","latitude":52.2297,"longitude":21.017532,"reserved":0,"last_update":"0001-01-01T00:00:00Z","name_a2s":"Uncletopia | Warsaw | 5 | Stopwatch Beta","protocol":17,"map":"pl_upward","folder":"tf","game":"Team Fortress","app_id":440,"player_count":0,"max_players":24,"Bots":0,"server_type":"Dedicated","server_os":"Linux","password":true,"vac":true,"version":"7757534","steam_id":85568392925397854,"keywords":["nocrits","nodmgspread","payload","uncletopia"],"game_id":440,"stv_port":27056,"stv_name":"Uncletopia | Warsaw | 5 | Stopwatch Beta | STV","players":null},{"server_id":54,"name":"Uncletopia | Warsaw | 6 | Community","name_short":"waw-6","host":"waw-1.pl.uncletopia.com","port":27065,"enabled":true,"region":"eu","cc":"pl","latitude":52.2297,"longitude":21.017532,"reserved":0,"last_update":"0001-01-01T00:00:00Z","name_a2s":"Uncletopia | Warsaw | 6 | Community","protocol":17,"map":"pl_barnblitz","folder":"tf","game":"Team Fortress","app_id":440,"player_count":0,"max_players":24,"Bots":0,"server_type":"Dedicated","server_os":"Linux","password":true,"vac":true,"version":"7757534","steam_id":85568392925397856,"keywords":["nocrits","nodmgspread","payload","uncletopia"],"game_id":440,"stv_port":27066,"stv_name":"Uncletopia | Warsaw | 6 | Community | STV","players":null}]}