{"status":true,"message":"","result":[{"server_id":9,"name":"Uncletopia | Atlanta | 1 | All Maps","name_short":"atl-1","host":"atl-1.us.uncletopia.com","port":27015,"enabled":true,"region":"us-east","cc":"us","latitude":33.753746,"longitude":-84.38633,"reserved":0,"last_update":"0001-01-01T00:00:00Z","name_a2s":"Uncletopia | Atlanta | 1 | All Maps","protocol":17,"map":"pl_badwater","folder":"tf","game":"Team Fortress","app_id":440,"player_count":24,"max_players":24,"Bots":0,"server_type":"Dedicated","server_os":"Linux","password":true,"vac":true,"version":"7961495","steam_id":85568392924469982,"keywords":["nocrits","nodmgspread","payload","uncletopia"],"game_id":440,"stv_port":27016,"stv_name":"Uncletopia | Atlanta | 1 | All Maps | STV","players":[{"user_id":212,"name":"kite","steam_id":76561198346516392,"connected_time":3754000000000,"state":"active","ping":78},{"user_id":227,"name":"Nyle","steam_id":76561198045652639,"connected_time":2293000000000,"state":"active","ping":119},{"user_id":118,"name":"Obelisk","steam_id":76561198049416866,"connected_time":11768000000000,"state":"active","ping":46},{"user_id":257,"name":"Ryke","steam_id":76561198170425557,"connected_time":57000000000,"state":"active","ping":155},{"user_id":252,"name":"Sucsubot","steam_id":76561198106456128,"connected_time":463000000000,"state":"active","ping":54},{"user_id":254,"name":"Zoratunictoon","steam_id":76561199475066871,"connected_time":392000000000,"state":"active","ping":59},{"user_id":216,"name":"why","steam_id":76561199059732212,"connected_time":3321000000000,"state":"active","ping":47},{"user_id":162,"name":"Ashes!","steam_id":76561197998475441,"connected_time":7773000000000,"state":"active","ping":53},{"user_id":236,"name":"--_Cook_--","steam_id":76561198080855748,"connected_time":871000000000,"state":"active","ping":60},{"user_id":204,"name":"HarryjusttHarry","steam_id":76561198982810452,"connected_time":4869000000000,"state":"active","ping":77},{"user_id":259,"name":"OVER AND OVER AND OVER AND OVER","steam_id":76561198068654532,"connected_time":42000000000,"state":"active","ping":90},{"user_id":62,"name":"lil hog","steam_id":76561199230929836,"connected_time":17790000000000,"state":"active","ping":79},{"user_id":250,"name":"Tue","steam_id":76561198181668501,"connected_time":628000000000,"state":"active","ping":46},{"user_id":260,"name":"sal","steam_id":76561198814096380,"connected_time":39000000000,"state":"active","ping":75},{"user_id":155,"name":"Sythoo","steam_id":76561198220893788,"connected_time":8066000000000,"state":"active","ping":72},{"user_id":213,"name":"ATL1 | cola","steam_id":76561198374390458,"connected_time":3523000000000,"state":"active","ping":64},{"user_id":233,"name":"Maestro","steam_id":76561198157325020,"connected_time":888000000000,"state":"active","ping":61},{"user_id":167,"name":"Heathcliff","steam_id":76561198044288534,"connected_time":7536000000000,"state":"active","ping":60},{"user_id":220,"name":"roii","steam_id":76561198157517892,"connected_time":2817000000000,"state":"active","ping":79},{"user_id":191,"name":"freyja","steam_id":76561198249206656,"connected_time":6376000000000,"state":"active","ping":84},{"user_id":256,"name":"Alphowlet98","steam_id":76561199093985532,"connected_time":322000000000,"state":"active","ping":133},{"user_id":239,"name":"Trenbolone Acetate","steam_id":76561198353869378,"connected_time":865000000000,"state":"active","ping":46},{"user_id":175,"name":"An Engineer","steam_id":76561198110381643,"connected_time":6841000000000,"state":"active","ping":48},{"user_id":240,"name":"Brown_Dream","steam_id":76561198975766145,"connected_time":863000000000,"state":"active","ping":67}]},{"server_id":104,"name":"Uncletopia | Atlanta | 2 | All Maps","name_short":"atl-2","host":"atl-1.us.uncletopia.com","port":27025,"enabled":true,"region":"us-east","cc":"us","latitude":33.753746,"longitude":-84.38633,"reserved":0,"last_update":"0001-01-01T00:00:00Z","name_a2s":"Uncletopia | Atlanta | 2 | All Maps","protocol":17,"map":"cp_altitude","folder":"tf","game":"Team Fortress","app_id":440,"player_count":22,"max_players":24,"Bots":0,"server_type":"Dedicated","server_os":"Linux","password":true,"vac":true,"version":"7961495","steam_id":85568392924469983,"keywords":["nocrits","nodmgspread","payload","uncletopia"],"game_id":440,"stv_port":27026,"stv_name":"Uncletopia | Atlanta | 2 | All Maps | STV","players":[{"user_id":148,"name":"King","steam_id":76561198039763676,"connected_time":2219000000000,"state":"connecting","ping":71},{"user_id":162,"name":"Verathragna","steam_id":76561198067215453,"connected_time":1510000000000,"state":"connecting","ping":66},{"user_id":149,"name":"metalfan666","steam_id":76561198386344068,"connected_time":2210000000000,"state":"connecting","ping":88},{"user_id":150,"name":"Nic0","steam_id":76561198305690218,"connected_time":2173000000000,"state":"connecting","ping":99},{"user_id":157,"name":"Beta Fish","steam_id":76561198073504861,"connected_time":1902000000000,"state":"connecting","ping":56},{"user_id":164,"name":"Hogman","steam_id":76561198088935064,"connected_time":1386000000000,"state":"connecting","ping":136},{"user_id":159,"name":"DaMultiversalist","steam_id":76561198239552412,"connected_time":1665000000000,"state":"connecting","ping":91},{"user_id":165,"name":"Unlimited_Trees","steam_id":76561198299141443,"connected_time":1369000000000,"state":"connecting","ping":132},{"user_id":180,"name":"vastrobotmax","steam_id":76561198417110724,"connected_time":175000000000,"state":"connecting","ping":91},{"user_id":172,"name":"Kamin","steam_id":76561198255299559,"connected_time":841000000000,"state":"connecting","ping":86},{"user_id":97,"name":"GRONT","steam_id":76561198040464533,"connected_time":5580000000000,"state":"connecting","ping":98},{"user_id":173,"name":"minecraft","steam_id":76561198104345201,"connected_time":431000000000,"state":"connecting","ping":102},{"user_id":169,"name":"Rin \"Hindwing\" Redtail","steam_id":76561199074865638,"connected_time":1271000000000,"state":"connecting","ping":76},{"user_id":181,"name":"fco_munozp1092","steam_id":76561199208070655,"connected_time":134000000000,"state":"connecting","ping":121},{"user_id":176,"name":"NiÎ»iwiÎ»i, â–¼iscount of â–¼io","steam_id":76561198009193777,"connected_time":309000000000,"state":"connecting","ping":88},{"user_id":174,"name":"jazztree14","steam_id":76561199239395356,"connected_time":406000000000,"state":"connecting","ping":95},{"user_id":34,"name":"lilac brooch...","steam_id":76561198333718916,"connected_time":10253000000000,"state":"connecting","ping":65},{"user_id":171,"name":"goblin","steam_id":76561199004451589,"connected_time":1047000000000,"state":"connecting","ping":94},{"user_id":138,"name":"Nestor","steam_id":76561198070782619,"connected_time":3089000000000,"state":"connecting","ping":94},{"user_id":140,"name":"ColinS","steam_id":76561198799215151,"connected_time":2416000000000,"state":"connecting","ping":74},{"user_id":175,"name":"BurnN8or101","steam_id":76561198132668224,"connected_time":350000000000,"state":"connecting","ping":83},{"user_id":182,"name":"Sideboob","steam_id":76561198286170945,"connected_time":39000000000,"state":"connecting","ping":64}]},{"server_id":400,"name":"Uncletopia | Atlanta | 3 | Stopwatch","name_short":"atl-3","host":"atl-1.us.uncletopia.com","port":27035,"enabled":true,"region":"us-east","cc":"us","latitude":33.753746,"longitude":-84.38633,"reserved":0,"last_update":"0001-01-01T00:00:00Z","name_a2s":"Uncletopia | Atlanta | 3 | Stopwatch","protocol":17,"map":"workshop/koth_product_final.ugc454272353","folder":"tf","game":"Team Fortress","app_id":440,"player_count":0,"max_players":24,"Bots":0,"server_type":"Dedicated","server_os":"Linux","password":true,"vac":true,"version":"7961495","steam_id":85568392924515187,"keywords":["cp","nocrits","nodmgspread","uncletopia"],"game_id":440,"stv_port":27036,"stv_name":"Uncletopia | Atlanta | 3 | Stopwatch | STV","players":null},{"server_id":401,"name":"Uncletopia | Atlanta | 4 | Community","name_short":"atl-4","host":"atl-1.us.uncletopia.com","port":27045,"enabled":true,"region":"us-east","cc":"us","latitude":33.753746,"longitude":-84.38633,"reserved":0,"last_update":"0001-01-01T00:00:00Z","name_a2s":"Uncletopia | Atlanta | 4 | Community","protocol":17,"map":"workshop/cp_bruhstbowl_b6.ugc2878604990","folder":"tf","game":"Team Fortress","app_id":440,"player_count":0,"max_players":24,"Bots":0,"server_type":"Dedicated","server_os":"Linux","password":true,"vac":true,"version":"7961495","steam_id":85568392924515188,"keywords":["cp","nocrits","nodmgspread","uncletopia"],"game_id":440,"stv_port":27046,"stv_name":"Uncletopia | Atlanta | 4 | Community | STV","players":null},{"server_id":2,"name":"Uncletopia | Chicago | 1 | All Maps","name_short":"chi-1","host":"chi-1.us.uncletopia.com","port":27015,"enabled":true,"region":"us-central","cc":"us","latitude":41.881832,"longitude":-87.62318,"reserved":0,"last_update":"0001-01-01T00:00:00Z","name_a2s":"Uncletopia | Chicago | 1 | All Maps","protocol":17,"map":"pl_frontier_final","folder":"tf","game":"Team Fortress","app_id":440,"player_count":24,"max_players":24,"Bots":0,"server_type":"Dedicated","server_os":"Linux","password":true,"vac":true,"version":"7961495","steam_id":85568392924469984,"keywords":["nocrits","nodmgspread","payload","uncletopia"],"game_id":440,"stv_port":27016,"stv_name":"Uncletopia | Chicago | 1 | All Maps | STV","players":[{"user_id":381,"name":"Huntpk","steam_id":76561198340591674,"connected_time":684000000000,"state":"active","ping":40},{"user_id":382,"name":"Battery","steam_id":76561199053078059,"connected_time":674000000000,"state":"active","ping":96},{"user_id":393,"name":"Greg_M74","steam_id":76561198823492311,"connected_time":18000000000,"state":"spawning","ping":79},{"user_id":379,"name":"Kiss Master","steam_id":76561198289572271,"connected_time":735000000000,"state":"active","ping":67},{"user_id":378,"name":"Chadmander","steam_id":76561197974136337,"connected_time":755000000000,"state":"active","ping":42},{"user_id":383,"name":"KhorneBread ï¸»ãƒ‡ ä¸€","steam_id":76561198097069958,"connected_time":511000000000,"state":"active","ping":72},{"user_id":386,"name":"Not Eugene Porter","steam_id":76561198834556559,"connected_time":340000000000,"state":"active","ping":75},{"user_id":376,"name":"Cellus","steam_id":76561198067204847,"connected_time":1553000000000,"state":"active","ping":71},{"user_id":387,"name":"LerN","steam_id":76561198083463877,"connected_time":323000000000,"state":"active","ping":59},{"user_id":370,"name":"Chi-Chia","steam_id":76561198067955987,"connected_time":1860000000000,"state":"active","ping":89},{"user_id":368,"name":"Siz","steam_id":76561198072962154,"connected_time":1908000000000,"state":"active","ping":69},{"user_id":369,"name":"Your Local Queer Librarian","steam_id":76561198013077080,"connected_time":1873000000000,"state":"active","ping":43},{"user_id":348,"name":"PringoOrSomething","steam_id":76561198424087726,"connected_time":3444000000000,"state":"active","ping":76},{"user_id":375,"name":"the mold untold","steam_id":76561198857781374,"connected_time":1556000000000,"state":"active","ping":61},{"user_id":390,"name":"Carl, Good to see you","steam_id":76561198070574075,"connected_time":186000000000,"state":"active","ping":57},{"user_id":354,"name":"Sharkwark","steam_id":76561199218566982,"connected_time":2982000000000,"state":"active","ping":58},{"user_id":391,"name":"reverse","steam_id":76561198186840242,"connected_time":119000000000,"state":"active","ping":67},{"user_id":388,"name":"Trollstoy","steam_id":76561198072017175,"connected_time":315000000000,"state":"active","ping":143},{"user_id":353,"name":"Dokkibai","steam_id":76561198355935693,"connected_time":3071000000000,"state":"active","ping":47},{"user_id":392,"name":"hammed burger :(","steam_id":76561199405376783,"connected_time":109000000000,"state":"active","ping":90},{"user_id":384,"name":"Dallas","steam_id":76561198066542919,"connected_time":423000000000,"state":"active","ping":83},{"user_id":344,"name":"SandHanitizer","steam_id":76561198234676500,"connected_time":3480000000000,"state":"active","ping":60},{"user_id":346,"name":"I'm bad I know (controller)","steam_id":76561198058840477,"connected_time":3464000000000,"state":"active","ping":88},{"user_id":367,"name":"gregor","steam_id":76561198057076267,"connected_time":2287000000000,"state":"active","ping":80}]},{"server_id":106,"name":"Uncletopia | Chicago | 2 | All Maps","name_short":"chi-2","host":"chi-1.us.uncletopia.com","port":27025,"enabled":true,"region":"us-central","cc":"us","latitude":41.881832,"longitude":-87.62318,"reserved":0,"last_update":"0001-01-01T00:00:00Z","name_a2s":"Uncletopia | Chicago | 2 | All Maps","protocol":17,"map":"pl_barnblitz","folder":"tf","game":"Team Fortress","app_id":440,"player_count":24,"max_players":24,"Bots":0,"server_type":"Dedicated","server_os":"Linux","password":true,"vac":true,"version":"7961495","steam_id":85568392924469985,"keywords":["nocrits","nodmgspread","payload","uncletopia"],"game_id":440,"stv_port":27026,"stv_name":"Uncletopia | Chicago | 2 | All Maps | STV","players":[{"user_id":171,"name":"Kirbout","steam_id":76561198071788465,"connected_time":6341000000000,"state":"active","ping":70},{"user_id":119,"name":"Gene Takovic","steam_id":76561198881039861,"connected_time":10768000000000,"state":"active","ping":47},{"user_id":150,"name":"Iron Fox (Update-sized)","steam_id":76561198326520372,"connected_time":8028000000000,"state":"active","ping":143},{"user_id":224,"name":"Goober","steam_id":76561198988863807,"connected_time":2023000000000,"state":"active","ping":69},{"user_id":130,"name":"Tobo","steam_id":76561198085846393,"connected_time":9444000000000,"state":"active","ping":74},{"user_id":207,"name":"TehOneZoot","steam_id":76561198121944243,"connected_time":2693000000000,"state":"active","ping":58},{"user_id":223,"name":"fishy","steam_id":76561198018622305,"connected_time":2160000000000,"state":"active","ping":61},{"user_id":210,"name":"Tpoyo","steam_id":76561198049951724,"connected_time":2689000000000,"state":"active","ping":58},{"user_id":192,"name":"tack","steam_id":76561198408477421,"connected_time":4928000000000,"state":"active","ping":77},{"user_id":229,"name":"Hylic","steam_id":76561199051314589,"connected_time":1300000000000,"state":"active","ping":63},{"user_id":203,"name":"PumpkyðŸŒˆ","steam_id":76561198095168396,"connected_time":4234000000000,"state":"active","ping":78},{"user_id":233,"name":"Ballistic is Dumb","steam_id":76561198030323714,"connected_time":834000000000,"state":"active","ping":65},{"user_id":239,"name":"SenpaiZetch","steam_id":76561199132227118,"connected_time":157000000000,"state":"active","ping":70},{"user_id":163,"name":"Always Here for You","steam_id":76561198219252313,"connected_time":7357000000000,"state":"active","ping":69},{"user_id":232,"name":"BigBubble42","steam_id":76561198136286123,"connected_time":870000000000,"state":"active","ping":54},{"user_id":228,"name":"lcy13vv","steam_id":76561197995997446,"connected_time":1591000000000,"state":"active","ping":52},{"user_id":215,"name":"FrameTrash","steam_id":76561199167260122,"connected_time":2641000000000,"state":"active","ping":76},{"user_id":235,"name":"Sprucelass","steam_id":76561197998391724,"connected_time":817000000000,"state":"active","ping":57},{"user_id":238,"name":"yomommasabitch","steam_id":76561198323217150,"connected_time":775000000000,"state":"active","ping":60},{"user_id":237,"name":"SaaxoM","steam_id":76561198208256603,"connected_time":783000000000,"state":"active","ping":78},{"user_id":216,"name":"â™¥Bunnyâ™¥Slutâ™¥","steam_id":76561198206376851,"connected_time":2567000000000,"state":"active","ping":78},{"user_id":177,"name":"Yetiâ„¢","steam_id":76561199151545966,"connected_time":5901000000000,"state":"active","ping":46},{"user_id":231,"name":"iUseDvorak","steam_id":76561198064439037,"connected_time":1280000000000,"state":"active","ping":62},{"user_id":174,"name":"ACKnowledge","steam_id":76561198036189303,"connected_time":6157000000000,"state":"active","ping":73}]},{"server_id":402,"name":"Uncletopia | Chicago | 3 | All Maps","name_short":"chi-3","host":"chi-1.us.uncletopia.com","port":27035,"enabled":true,"region":"us-central","cc":"us","latitude":41.881832,"longitude":-87.62318,"reserved":0,"last_update":"0001-01-01T00:00:00Z","name_a2s":"Uncletopia | Chicago | 3 | All Maps","protocol":17,"map":"plr_pipeline","folder":"tf","game":"Team Fortress","app_id":440,"player_count":0,"max_players":24,"Bots":0,"server_type":"Dedicated","server_os":"Linux","password":true,"vac":true,"version":"7961495","steam_id":85568392924515191,"keywords":["nocrits","nodmgspread","payload","uncletopia"],"game_id":440,"stv_port":27036,"stv_name":"Uncletopia | Chicago | 3 | All Maps | STV","players":null},{"server_id":403,"name":"Uncletopia | Chicago | 4 | All Maps","name_short":"chi-4","host":"chi-1.us.uncletopia.com","port":27045,"enabled":true,"region":"us-central","cc":"us","latitude":41.881832,"longitude":-87.62318,"reserved":0,"last_update":"0001-01-01T00:00:00Z","name_a2s":"Uncletopia | Chicago | 4 | All Maps","protocol":17,"map":"koth_viaduct","folder":"tf","game":"Team Fortress","app_id":440,"player_count":24,"max_players":24,"Bots":0,"server_type":"Dedicated","server_os":"Linux","password":true,"vac":true,"version":"7961495","steam_id":85568392924515193,"keywords":["cp","nocrits","nodmgspread","uncletopia"],"game_id":440,"stv_port":27046,"stv_name":"Uncletopia | Chicago | 4 | All Maps | STV","players":[{"user_id":161,"name":"baunter","steam_id":76561198024311871,"connected_time":202000000000,"state":"active","ping":95},{"user_id":98,"name":"Window Licker #pride","steam_id":76561198386717007,"connected_time":4894000000000,"state":"active","ping":51},{"user_id":94,"name":"DualiTea","steam_id":76561198081733870,"connected_time":5112000000000,"state":"active","ping":46},{"user_id":67,"name":"mkl","steam_id":76561197986401685,"connected_time":6138000000000,"state":"active","ping":79},{"user_id":140,"name":"TrashBoat","steam_id":76561199089671432,"connected_time":1176000000000,"state":"active","ping":75},{"user_id":111,"name":"Liquid Sleep","steam_id":76561198246634038,"connected_time":4060000000000,"state":"active","ping":61},{"user_id":123,"name":"TheGamimgGuru","steam_id":76561198356484354,"connected_time":2786000000000,"state":"active","ping":118},{"user_id":155,"name":"Jovo","steam_id":76561197993265970,"connected_time":610000000000,"state":"active","ping":81},{"user_id":141,"name":"Oni","steam_id":76561198112066584,"connected_time":1174000000000,"state":"active","ping":63},{"user_id":138,"name":"zzzz","steam_id":76561198310495200,"connected_time":1221000000000,"state":"active","ping":46},{"user_id":153,"name":"BoxOfStaples","steam_id":76561198834773017,"connected_time":688000000000,"state":"active","ping":60},{"user_id":156,"name":"schizophrenic with explosives","steam_id":76561199043933182,"connected_time":555000000000,"state":"active","ping":58},{"user_id":158,"name":"ndvr (femboy (REAL))","steam_id":76561199379200102,"connected_time":337000000000,"state":"active","ping":54},{"user_id":144,"name":"brains","steam_id":76561198197388678,"connected_time":1120000000000,"state":"active","ping":54},{"user_id":112,"name":"sum0","steam_id":76561198260451626,"connected_time":4059000000000,"state":"active","ping":59},{"user_id":135,"name":"Aeris","steam_id":76561198287271028,"connected_time":1748000000000,"state":"active","ping":48},{"user_id":159,"name":"gages","steam_id":76561198350747953,"connected_time":277000000000,"state":"active","ping":66},{"user_id":44,"name":"Mysterious Stranger","steam_id":76561199029796289,"connected_time":7972000000000,"state":"active","ping":79},{"user_id":96,"name":"John Fortnite","steam_id":76561198076608253,"connected_time":4946000000000,"state":"active","ping":64},{"user_id":124,"name":"KingPin","steam_id":76561198087366176,"connected_time":2696000000000,"state":"active","ping":59},{"user_id":150,"name":"Usman","steam_id":76561198430295625,"connected_time":994000000000,"state":"active","ping":61},{"user_id":151,"name":"Carl Brutananadilewski","steam_id":76561198004884267,"connected_time":752000000000,"state":"active","ping":58},{"user_id":160,"name":"boo boo keys","steam_id":76561198986534519,"connected_time":268000000000,"state":"active","ping":90},{"user_id":162,"name":"Rawhide Kobayashi","steam_id":76561198067051062,"connected_time":154000000000,"state":"active","ping":41}]},{"server_id":36,"name":"Uncletopia | Chicago | 5 | All Maps","name_short":"chi-5","host":"chi-2.us.uncletopia.com","port":27015,"enabled":true,"region":"us-central","cc":"us","latitude":41.881832,"longitude":-87.62318,"reserved":0,"last_update":"0001-01-01T00:00:00Z","name_a2s":"Uncletopia | Chicago | 5 | All Maps","protocol":17,"map":"pl_snowycoast","folder":"tf","game":"Team Fortress","app_id":440,"player_count":24,"max_players":24,"Bots":0,"server_type":"Dedicated","server_os":"Linux","password":true,"vac":true,"version":"7961495","steam_id":85568392924866362,"keywords":["nocrits","nodmgspread","payload","uncletopia"],"game_id":440,"stv_port":27016,"stv_name":"Uncletopia | Chicago | 5 | All Maps | STV","players":[{"user_id":75,"name":"nicocgboy","steam_id":76561198236849256,"connected_time":1554000000000,"state":"active","ping":181},{"user_id":87,"name":"Mr.Tickles","steam_id":76561198053917342,"connected_time":768000000000,"state":"active","ping":60},{"user_id":88,"name":"Lia_Rein TTV","steam_id":76561198151569597,"connected_time":761000000000,"state":"active","ping":147},{"user_id":73,"name":"booze cruiser","steam_id":76561198203395648,"connected_time":1629000000000,"state":"active","ping":76},{"user_id":90,"name":"SanitysEdge","steam_id":76561198130732813,"connected_time":745000000000,"state":"active","ping":98},{"user_id":84,"name":"Miner2495","steam_id":76561198445904523,"connected_time":962000000000,"state":"active","ping":61},{"user_id":96,"name":"vinny6","steam_id":76561198386735728,"connected_time":681000000000,"state":"active","ping":72},{"user_id":110,"name":"beats its 16:38","steam_id":76561199245717718,"connected_time":90000000000,"state":"active","ping":50},{"user_id":108,"name":"Nolan","steam_id":76561198169648081,"connected_time":223000000000,"state":"active","ping":75},{"user_id":109,"name":"Rein","steam_id":76561198300340427,"connected_time":168000000000,"state":"active","ping":63},{"user_id":118,"name":"jeff","steam_id":76561198059450566,"connected_time":33000000000,"state":"spawning","ping":63},{"user_id":120,"name":"BirBinGo","steam_id":76561198356529600,"connected_time":19000000000,"state":"spawning","ping":78},{"user_id":94,"name":"Amy Roxwell","steam_id":76561198303391830,"connected_time":705000000000,"state":"active","ping":123},{"user_id":100,"name":"Stupid? Probably :(","steam_id":76561198298310744,"connected_time":657000000000,"state":"active","ping":71},{"user_id":97,"name":"9gon Danmar33","steam_id":76561198056453091,"connected_time":677000000000,"state":"active","ping":53},{"user_id":98,"name":"hyazz","steam_id":76561199100342013,"connected_time":675000000000,"state":"active","ping":105},{"user_id":101,"name":"Tomathy","steam_id":76561198036378226,"connected_time":657000000000,"state":"active","ping":146},{"user_id":102,"name":"zy","steam_id":76561199339997328,"connected_time":644000000000,"state":"active","ping":85},{"user_id":85,"name":"bunga_grunga","steam_id":76561199127325952,"connected_time":953000000000,"state":"active","ping":89},{"user_id":103,"name":"bobbybrown","steam_id":76561198193218282,"connected_time":641000000000,"state":"active","ping":67},{"user_id":104,"name":"champagne","steam_id":76561198097007522,"connected_time":626000000000,"state":"active","ping":76},{"user_id":105,"name":"Matthew 10:39","steam_id":76561198121933439,"connected_time":570000000000,"state":"active","ping":62},{"user_id":106,"name":"BonesJohnson","steam_id":76561198799169951,"connected_time":561000000000,"state":"active","ping":134},{"user_id":119,"name":"(1)stir-fried human tonsils","steam_id":76561198312126442,"connected_time":31000000000,"state":"active","ping":86}]},{"server_id":37,"name":"Uncletopia | Chicago | 6 | All Maps","name_short":"chi-6","host":"chi-2.us.uncletopia.com","port":27025,"enabled":true,"region":"us-central","cc":"us","latitude":41.881832,"longitude":-87.62318,"reserved":0,"last_update":"0001-01-01T00:00:00Z","name_a2s":"Uncletopia | Chicago | 6 | All Maps","protocol":17,"map":"pl_borneo","folder":"tf","game":"Team Fortress","app_id":440,"player_count":1,"max_players":24,"Bots":0,"server_type":"Dedicated","server_os":"Linux","password":true,"vac":true,"version":"7961495","steam_id":85568392924866363,"keywords":["nocrits","nodmgspread","payload","uncletopia"],"game_id":440,"stv_port":27026,"stv_name":"Uncletopia | Chicago | 6 | All Maps | STV","players":[{"user_id":11,"name":"minecraft 2.0","steam_id":76561198391819120,"connected_time":945000000000,"state":"active","ping":76}]},{"server_id":38,"name":"Uncletopia | Chicago | 7 | Stopwatch","name_short":"chi-7","host":"chi-2.us.uncletopia.com","port":27035,"enabled":true,"region":"us-central","cc":"us","latitude":41.881832,"longitude":-87.62318,"reserved":0,"last_update":"0001-01-01T00:00:00Z","name_a2s":"Uncletopia | Chicago | 7 | Stopwatch","protocol":17,"map":"cp_snakewater_final1","folder":"tf","game":"Team Fortress","app_id":440,"player_count":0,"max_players":24,"Bots":0,"server_type":"Dedicated","server_os":"Linux","password":true,"vac":true,"version":"7961495","steam_id":85568392924866364,"keywords":["cp","nocrits","nodmgspread","uncletopia"],"game_id":440,"stv_port":27036,"stv_name":"Uncletopia | Chicago | 7 | Stopwatch | STV","players":null},{"server_id":39,"name":"Uncletopia | Chicago | 8 | Community","name_short":"chi-8","host":"chi-2.us.uncletopia.com","port":27045,"enabled":true,"region":"us-central","cc":"us","latitude":41.881832,"longitude":-87.62318,"reserved":0,"last_update":"0001-01-01T00:00:00Z","name_a2s":"Uncletopia | Chicago | 8 | Community","protocol":17,"map":"workshop/koth_slaughter_rc1.ugc1712845210","folder":"tf","game":"Team Fortress","app_id":440,"player_count":0,"max_players":24,"Bots":0,"server_type":"Dedicated","server_os":"Linux","password":true,"vac":true,"version":"7961495","steam_id":85568392924866365,"keywords":["cp","nocrits","nodmgspread","uncletopia"],"game_id":440,"stv_port":27046,"stv_name":"Uncletopia | Chicago | 8 | Community | STV","players":null},{"server_id":8,"name":"Uncletopia | Dallas | 1 | All Maps","name_short":"dal-1","host":"dal-1.us.uncletopia.com","port":27015,"enabled":true,"region":"us-central","cc":"us","latitude":32.779167,"longitude":-96.80889,"reserved":0,"last_update":"0001-01-01T00:00:00Z","name_a2s":"Uncletopia | Dallas | 1 | All Maps","protocol":17,"map":"koth_lakeside_final","folder":"tf","game":"Team Fortress","app_id":440,"player_count":0,"max_players":24,"Bots":0,"server_type":"Dedicated","server_os":"Linux","password":true,"vac":true,"version":"7961495","steam_id":85568392924469986,"keywords":["cp","nocrits","nodmgspread","uncletopia"],"game_id":440,"stv_port":27016,"stv_name":"Uncletopia | Dallas | 1 | All Maps | STV","players":null},{"server_id":108,"name":"Uncletopia | Dallas | 2 | All Maps","name_short":"dal-2","host":"dal-1.us.uncletopia.com","port":27025,"enabled":true,"region":"us-central","cc":"us","latitude":32.779167,"longitude":-96.80889,"reserved":0,"last_update":"0001-01-01T00:00:00Z","name_a2s":"Uncletopia | Dallas | 2 | All Maps","protocol":17,"map":"koth_cascade","folder":"tf","game":"Team Fortress","app_id":440,"player_count":24,"max_players":24,"Bots":0,"server_type":"Dedicated","server_os":"Linux","password":true,"vac":true,"version":"7961495","steam_id":85568392924469988,"keywords":["cp","nocrits","nodmgspread","uncletopia"],"game_id":440,"stv_port":27026,"stv_name":"Uncletopia | Dallas | 2 | All Maps | STV","players":[{"user_id":57,"name":"TheLuzinator","steam_id":76561198377144604,"connected_time":492000000000,"state":"active","ping":96},{"user_id":72,"name":"cyborgjo2147","steam_id":76561199184761439,"connected_time":143000000000,"state":"active","ping":66},{"user_id":59,"name":"Cat in a fedora","steam_id":76561198187502875,"connected_time":437000000000,"state":"active","ping":46},{"user_id":61,"name":"vereer","steam_id":76561198357103879,"connected_time":378000000000,"state":"active","ping":64},{"user_id":9,"name":"Shysoul48","steam_id":76561198147427041,"connected_time":3455000000000,"state":"active","ping":164},{"user_id":62,"name":"Ickly","steam_id":76561198130225025,"connected_time":266000000000,"state":"active","ping":88},{"user_id":11,"name":"Super Tails","steam_id":76561198092462734,"connected_time":3339000000000,"state":"active","ping":71},{"user_id":73,"name":"Momo","steam_id":76561198815067088,"connected_time":99000000000,"state":"active","ping":56},{"user_id":63,"name":"Schmeagleberg Gaming","steam_id":76561198319626797,"connected_time":254000000000,"state":"active","ping":73},{"user_id":53,"name":"Anomet","steam_id":76561198060246255,"connected_time":937000000000,"state":"active","ping":45},{"user_id":64,"name":"ark","steam_id":76561198041066271,"connected_time":245000000000,"state":"active","ping":70},{"user_id":65,"name":"TerracottaP","steam_id":76561199402983168,"connected_time":241000000000,"state":"active","ping":70},{"user_id":21,"name":"Ditto","steam_id":76561198259871363,"connected_time":2749000000000,"state":"active","ping":124},{"user_id":47,"name":"Wulvaryne","steam_id":76561199501209338,"connected_time":1658000000000,"state":"active","ping":71},{"user_id":66,"name":"Piss God","steam_id":76561198090504334,"connected_time":240000000000,"state":"active","ping":90},{"user_id":67,"name":"Primordial pouch","steam_id":76561198077993687,"connected_time":236000000000,"state":"active","ping":104},{"user_id":68,"name":"Business Zone","steam_id":76561198011675372,"connected_time":236000000000,"state":"active","ping":101},{"user_id":28,"name":"Mr.Rogers","steam_id":76561198043878683,"connected_time":2375000000000,"state":"active","ping":69},{"user_id":30,"name":"A Trigger Happy Chipmunk","steam_id":76561198013608736,"connected_time":2363000000000,"state":"active","ping":64},{"user_id":69,"name":"âœªFloofyâœª","steam_id":76561198056298204,"connected_time":232000000000,"state":"active","ping":47},{"user_id":70,"name":"selvhat","steam_id":76561198114225509,"connected_time":230000000000,"state":"active","ping":73},{"user_id":33,"name":"JAKandBEL","steam_id":76561198213060931,"connected_time":2330000000000,"state":"active","ping":75},{"user_id":49,"name":"DIMM4","steam_id":76561198132803810,"connected_time":1068000000000,"state":"active","ping":65},{"user_id":71,"name":"janitor","steam_id":76561198166433332,"connected_time":204000000000,"state":"active","ping":90}]},{"server_id":404,"name":"Uncletopia | Dallas | 3 | All Maps","name_short":"dal-3","host":"dal-1.us.uncletopia.com","port":27035,"enabled":true,"region":"us-central","cc":"us","latitude":32.779167,"longitude":-96.80889,"reserved":0,"last_update":"0001-01-01T00:00:00Z","name_a2s":"Uncletopia | Dallas | 3 | All Maps","protocol":17,"map":"cp_coldfront","folder":"tf","game":"Team Fortress","app_id":440,"player_count":0,"max_players":24,"Bots":0,"server_type":"Dedicated","server_os":"Linux","password":true,"vac":true,"version":"7961495","steam_id":85568392924515219,"keywords":["cp","nocrits","nodmgspread","uncletopia"],"game_id":440,"stv_port":27036,"stv_name":"Uncletopia | Dallas | 3 | All Maps | STV","players":null},{"server_id":405,"name":"Uncletopia | Dallas | 4 | Community","name_short":"dal-4","host":"dal-1.us.uncletopia.com","port":27045,"enabled":true,"region":"us-central","cc":"us","latitude":32.779167,"longitude":-96.80889,"reserved":0,"last_update":"0001-01-01T00:00:00Z","name_a2s":"Uncletopia | Dallas | 4 | Community","protocol":17,"map":"workshop/pl_cactuscanyon_redux_final2.ugc2579644293","folder":"tf","game":"Team Fortress","app_id":440,"player_count":20,"max_players":24,"Bots":0,"server_type":"Dedicated","server_os":"Linux","password":true,"vac":true,"version":"7961495","steam_id":85568392924515220,"keywords":["nocrits","nodmgspread","payload","uncletopia"],"game_id":440,"stv_port":27046,"stv_name":"Uncletopia | Dallas | 4 | Community | STV","players":[{"user_id":69,"name":"Shuu","steam_id":76561199199180558,"connected_time":866000000000,"state":"connecting","ping":97},{"user_id":73,"name":"Melaza Bois","steam_id":76561199031977210,"connected_time":497000000000,"state":"connecting","ping":77},{"user_id":21,"name":"general.b","steam_id":76561198162480519,"connected_time":3607000000000,"state":"connecting","ping":86},{"user_id":71,"name":"catnip","steam_id":76561198819642001,"connected_time":566000000000,"state":"connecting","ping":68},{"user_id":65,"name":"DMM","steam_id":76561198065426171,"connected_time":1052000000000,"state":"connecting","ping":66},{"user_id":15,"name":"Live","steam_id":76561198003194656,"connected_time":4066000000000,"state":"connecting","ping":94},{"user_id":67,"name":"TheBrocklobster","steam_id":76561198039682984,"connected_time":906000000000,"state":"connecting","ping":86},{"user_id":39,"name":"SEGNO","steam_id":76561198102780113,"connected_time":2345000000000,"state":"connecting","ping":69},{"user_id":40,"name":"Jesse Bear","steam_id":76561198217075305,"connected_time":2341000000000,"state":"connecting","ping":101},{"user_id":74,"name":"Monty","steam_id":76561197993567253,"connected_time":205000000000,"state":"connecting","ping":107},{"user_id":48,"name":"Panic Opossum","steam_id":76561198043838227,"connected_time":1939000000000,"state":"connecting","ping":101},{"user_id":51,"name":"Gelliteration","steam_id":76561198107233070,"connected_time":1822000000000,"state":"connecting","ping":60},{"user_id":56,"name":"Labienus \u003e Caesar","steam_id":76561198864585874,"connected_time":1623000000000,"state":"connecting","ping":53},{"user_id":66,"name":"Genderneutron","steam_id":76561199022773775,"connected_time":1040000000000,"state":"connecting","ping":84},{"user_id":72,"name":"Deeply","steam_id":76561199000786530,"connected_time":533000000000,"state":"connecting","ping":84},{"user_id":45,"name":"white gilgamesh","steam_id":76561198046111695,"connected_time":2105000000000,"state":"connecting","ping":56},{"user_id":62,"name":"Nasatron7","steam_id":76561198217185169,"connected_time":1457000000000,"state":"connecting","ping":76},{"user_id":59,"name":"the flying spoon","steam_id":76561199039152146,"connected_time":1516000000000,"state":"connecting","ping":123},{"user_id":60,"name":"wolf_71","steam_id":76561198963570945,"connected_time":1508000000000,"state":"connecting","ping":59},{"user_id":63,"name":"LeTonzy","steam_id":76561198005806699,"connected_time":1343000000000,"state":"connecting","ping":103}]},{"server_id":5,"name":"Uncletopia | Frankfurt | 1 | All Maps","name_short":"frk-1","host":"frk-1.de.uncletopia.com","port":27015,"enabled":true,"region":"eu","cc":"de","latitude":50.110924,"longitude":8.682127,"reserved":0,"last_update":"0001-01-01T00:00:00Z","name_a2s":"Uncletopia | Frankfurt | 1 | All Maps","protocol":17,"map":"pl_barnblitz","folder":"tf","game":"Team Fortress","app_id":440,"player_count":24,"max_players":24,"Bots":0,"server_type":"Dedicated","server_os":"Linux","password":true,"vac":true,"version":"7961495","steam_id":85568392924469989,"keywords":["nocrits","nodmgspread","payload","uncletopia"],"game_id":440,"stv_port":27016,"stv_name":"Uncletopia | Frankfurt | 1 | All Maps | STV","players":[{"user_id":436,"name":"my honest reaction","steam_id":76561198175433731,"connected_time":113000000000,"state":"active","ping":60},{"user_id":402,"name":"realness","steam_id":76561199129226935,"connected_time":3428000000000,"state":"active","ping":102},{"user_id":409,"name":"Vene","steam_id":76561198018116338,"connected_time":2710000000000,"state":"active","ping":91},{"user_id":435,"name":"Monkey Friend","steam_id":76561198144403074,"connected_time":210000000000,"state":"active","ping":53},{"user_id":433,"name":"schaffi","steam_id":76561198061369274,"connected_time":329000000000,"state":"active","ping":75},{"user_id":424,"name":"SunZi","steam_id":76561198139243535,"connected_time":1124000000000,"state":"active","ping":72},{"user_id":374,"name":"NJ","steam_id":76561198142721484,"connected_time":6734000000000,"state":"active","ping":61},{"user_id":397,"name":"KALACH","steam_id":76561198028664460,"connected_time":3898000000000,"state":"active","ping":106},{"user_id":358,"name":"cheriberry","steam_id":76561198093577036,"connected_time":7702000000000,"state":"active","ping":49},{"user_id":422,"name":"Hey, IÂ´m Andy!","steam_id":76561198060337777,"connected_time":1289000000000,"state":"active","ping":63},{"user_id":381,"name":"FoOzTV","steam_id":76561197998636728,"connected_time":6202000000000,"state":"active","ping":61},{"user_id":425,"name":"Twik","steam_id":76561198023835056,"connected_time":1123000000000,"state":"active","ping":53},{"user_id":398,"name":"Sunduchek","steam_id":76561198067934157,"connected_time":3874000000000,"state":"active","ping":125},{"user_id":419,"name":"monky â™¿","steam_id":76561198064440542,"connected_time":1643000000000,"state":"active","ping":56},{"user_id":418,"name":"Real life (scary)","steam_id":76561198803743443,"connected_time":1770000000000,"state":"active","ping":68},{"user_id":413,"name":"kelm","steam_id":76561198027166144,"connected_time":2271000000000,"state":"active","ping":83},{"user_id":427,"name":"Chappi","steam_id":76561198075512843,"connected_time":935000000000,"state":"active","ping":80},{"user_id":352,"name":"balder","steam_id":76561198796325635,"connected_time":8130000000000,"state":"active","ping":87},{"user_id":400,"name":"romov","steam_id":76561199182288871,"connected_time":3801000000000,"state":"active","ping":90},{"user_id":432,"name":"Volter","steam_id":76561198190304115,"connected_time":610000000000,"state":"active","ping":77},{"user_id":355,"name":"Carl","steam_id":76561198045638738,"connected_time":7754000000000,"state":"active","ping":60},{"user_id":406,"name":"galen luffare","steam_id":76561198220052159,"connected_time":3213000000000,"state":"active","ping":44},{"user_id":396,"name":"After8","steam_id":76561198090750865,"connected_time":3966000000000,"state":"active","ping":61},{"user_id":383,"name":"à¹–Û£ÛœSir Robbiewolf","steam_id":76561198001357988,"connected_time":5878000000000,"state":"active","ping":62}]},{"server_id":110,"name":"Uncletopia | Frankfurt | 2 | All Maps","name_short":"frk-2","host":"frk-1.de.uncletopia.com","port":27025,"enabled":true,"region":"eu","cc":"de","latitude":50.110924,"longitude":8.682127,"reserved":0,"last_update":"0001-01-01T00:00:00Z","name_a2s":"Uncletopia | Frankfurt | 2 | All Maps","protocol":17,"map":"cp_dustbowl","folder":"tf","game":"Team Fortress","app_id":440,"player_count":24,"max_players":24,"Bots":0,"server_type":"Dedicated","server_os":"Linux","password":true,"vac":true,"version":"7961495","steam_id":85568392924469990,"keywords":["cp","nocrits","nodmgspread","uncletopia"],"game_id":440,"stv_port":27026,"stv_name":"Uncletopia | Frankfurt | 2 | All Maps | STV","players":[{"user_id":467,"name":"Glorified Toaster with Legs","steam_id":76561198068445999,"connected_time":174000000000,"state":"active","ping":79},{"user_id":429,"name":"Sat","steam_id":76561199076943548,"connected_time":2858000000000,"state":"active","ping":147},{"user_id":459,"name":"8 Ball","steam_id":76561197960988736,"connected_time":1009000000000,"state":"active","ping":60},{"user_id":460,"name":"goku left nut","steam_id":76561198314919758,"connected_time":972000000000,"state":"active","ping":65},{"user_id":466,"name":"Zerfesh","steam_id":76561198117534358,"connected_time":381000000000,"state":"active","ping":87},{"user_id":464,"name":"Whisk #GOOD GAMER","steam_id":76561198272318229,"connected_time":782000000000,"state":"active","ping":142},{"user_id":372,"name":"Padd","steam_id":76561198345331768,"connected_time":6728000000000,"state":"active","ping":66},{"user_id":424,"name":"Dá´‡á´€á´›Êœ","steam_id":76561198007905163,"connected_time":3212000000000,"state":"active","ping":55},{"user_id":347,"name":"Dicartal","steam_id":76561198295793592,"connected_time":7371000000000,"state":"active","ping":122},{"user_id":462,"name":"Vytuzas","steam_id":76561198012868436,"connected_time":956000000000,"state":"active","ping":74},{"user_id":463,"name":"Salty","steam_id":76561198046333417,"connected_time":880000000000,"state":"active","ping":63},{"user_id":425,"name":"Gses","steam_id":76561198365498324,"connected_time":3201000000000,"state":"active","ping":50},{"user_id":378,"name":"Shapeshifter","steam_id":76561198052898368,"connected_time":6288000000000,"state":"active","ping":74},{"user_id":454,"name":"scarfweather","steam_id":76561198121331836,"connected_time":1225000000000,"state":"active","ping":74},{"user_id":418,"name":"Super medyk","steam_id":76561198170125887,"connected_time":3706000000000,"state":"active","ping":60},{"user_id":415,"name":"vi hava en usel regering","steam_id":76561198037978654,"connected_time":4295000000000,"state":"active","ping":54},{"user_id":455,"name":"Konahrik the Warlord","steam_id":76561199097105542,"connected_time":1198000000000,"state":"active","ping":76},{"user_id":442,"name":"sokige","steam_id":76561198167112371,"connected_time":1715000000000,"state":"active","ping":92},{"user_id":437,"name":"Jangli","steam_id":76561198103923652,"connected_time":1895000000000,"state":"active","ping":184},{"user_id":468,"name":"remapek","steam_id":76561198407942929,"connected_time":173000000000,"state":"active","ping":60},{"user_id":465,"name":"BearJuice","steam_id":76561198999534523,"connected_time":550000000000,"state":"active","ping":94},{"user_id":405,"name":"000000","steam_id":76561198292215545,"connected_time":4691000000000,"state":"active","ping":94},{"user_id":441,"name":"sus man","steam_id":76561199234935153,"connected_time":1735000000000,"state":"active","ping":115},{"user_id":456,"name":"Clodovicus","steam_id":76561198889832157,"connected_time":1181000000000,"state":"active","ping":58}]},{"server_id":308,"name":"Uncletopia | Frankfurt | 3 | All Maps","name_short":"frk-3","host":"frk-1.de.uncletopia.com","port":27035,"enabled":true,"region":"eu","cc":"de","latitude":50.110924,"longitude":8.682127,"reserved":0,"last_update":"0001-01-01T00:00:00Z","name_a2s":"Uncletopia | Frankfurt | 3 | All Maps","protocol":17,"map":"cp_process_final","folder":"tf","game":"Team Fortress","app_id":440,"player_count":24,"max_players":24,"Bots":0,"server_type":"Dedicated","server_os":"Linux","password":true,"vac":true,"version":"7961495","steam_id":85568392924504274,"keywords":["cp","nocrits","nodmgspread","uncletopia"],"game_id":440,"stv_port":27036,"stv_name":"Uncletopia | Frankfurt | 3 | All Maps | STV","players":[{"user_id":278,"name":"minuscule portions of clowning","steam_id":76561198059535856,"connected_time":5975000000000,"state":"active","ping":180},{"user_id":330,"name":"real gamer (fake)","steam_id":76561199199499453,"connected_time":1818000000000,"state":"active","ping":73},{"user_id":288,"name":"Farmercy","steam_id":76561198000038039,"connected_time":5573000000000,"state":"active","ping":59},{"user_id":323,"name":"WasserGurke","steam_id":76561198372482746,"connected_time":2741000000000,"state":"active","ping":61},{"user_id":226,"name":"Nittugai","steam_id":76561198067366462,"connected_time":9770000000000,"state":"active","ping":60},{"user_id":348,"name":"Andy","steam_id":76561198046918834,"connected_time":23000000000,"state":"active","ping":54},{"user_id":236,"name":"Edsuedi","steam_id":76561198074722832,"connected_time":9256000000000,"state":"active","ping":48},{"user_id":228,"name":"Fat Pigeon","steam_id":76561198817940142,"connected_time":9712000000000,"state":"active","ping":59},{"user_id":337,"name":"ToniGAM3S","steam_id":76561198128605351,"connected_time":948000000000,"state":"active","ping":59},{"user_id":345,"name":"Vi100 Dol7","steam_id":76561198118137461,"connected_time":328000000000,"state":"active","ping":70},{"user_id":334,"name":"Nick","steam_id":76561198036109469,"connected_time":1069000000000,"state":"active","ping":80},{"user_id":297,"name":"static","steam_id":76561198836825741,"connected_time":4870000000000,"state":"active","ping":59},{"user_id":335,"name":"Mr. Potato the 11th","steam_id":76561198163246758,"connected_time":981000000000,"state":"active","ping":53},{"user_id":346,"name":"â™« Calamarc â™«","steam_id":76561198055292205,"connected_time":255000000000,"state":"active","ping":53},{"user_id":331,"name":"Mr. Marcoboy","steam_id":76561198158853671,"connected_time":1782000000000,"state":"active","ping":64},{"user_id":349,"name":"Nithle","steam_id":76561198025372740,"connected_time":2000000000,"state":"spawning","ping":38},{"user_id":338,"name":"Adamkarz","steam_id":76561198796428403,"connected_time":912000000000,"state":"active","ping":77},{"user_id":308,"name":"Efeca","steam_id":76561198018923829,"connected_time":3615000000000,"state":"active","ping":64},{"user_id":302,"name":"Bobirulez","steam_id":76561198009125458,"connected_time":4088000000000,"state":"active","ping":78},{"user_id":343,"name":"Ebling Mis","steam_id":76561198977948250,"connected_time":581000000000,"state":"active","ping":67},{"user_id":326,"name":"Rock..","steam_id":76561198004641963,"connected_time":2330000000000,"state":"active","ping":82},{"user_id":298,"name":"Bill_nye_epic","steam_id":76561199216249214,"connected_time":4792000000000,"state":"active","ping":126},{"user_id":344,"name":"race car driver jerry","steam_id":76561198054047446,"connected_time":443000000000,"state":"active","ping":60},{"user_id":294,"name":"Udinese Dion","steam_id":76561198067931573,"connected_time":5251000000000,"state":"active","ping":45}]},{"server_id":309,"name":"Uncletopia | Frankfurt | 4 | All Maps","name_short":"frk-4","host":"frk-1.de.uncletopia.com","port":27045,"enabled":true,"region":"eu","cc":"de","latitude":50.110924,"longitude":8.682127,"reserved":0,"last_update":"0001-01-01T00:00:00Z","name_a2s":"Uncletopia | Frankfurt | 4 | All Maps","protocol":17,"map":"cp_dustbowl","folder":"tf","game":"Team Fortress","app_id":440,"player_count":23,"max_players":24,"Bots":0,"server_type":"Dedicated","server_os":"Linux","password":true,"vac":true,"version":"7961495","steam_id":85568392924504275,"keywords":["cp","nocrits","nodmgspread","uncletopia"],"game_id":440,"stv_port":27046,"stv_name":"Uncletopia | Frankfurt | 4 | All Maps | STV","players":[{"user_id":162,"name":"cl","steam_id":76561199436640904,"connected_time":4741000000000,"state":"active","ping":76},{"user_id":188,"name":"dexter","steam_id":76561198937297906,"connected_time":2395000000000,"state":"active","ping":78},{"user_id":177,"name":"CalThePal","steam_id":76561198084842126,"connected_time":2622000000000,"state":"active","ping":56},{"user_id":199,"name":"NuggetKeeper","steam_id":76561198245790030,"connected_time":1363000000000,"state":"active","ping":66},{"user_id":197,"name":"PLUTO","steam_id":76561198312436128,"connected_time":1459000000000,"state":"active","ping":116},{"user_id":179,"name":"Random DÃ¼d","steam_id":76561199035738200,"connected_time":2614000000000,"state":"active","ping":51},{"user_id":208,"name":"Woman (Real)","steam_id":76561199151823932,"connected_time":704000000000,"state":"active","ping":62},{"user_id":209,"name":"sriracha..","steam_id":76561198005560221,"connected_time":570000000000,"state":"active","ping":82},{"user_id":166,"name":"icewalowpis","steam_id":76561199093369711,"connected_time":4154000000000,"state":"active","ping":91},{"user_id":210,"name":"TurnaJ","steam_id":76561198189223495,"connected_time":409000000000,"state":"active","ping":72},{"user_id":205,"name":"FoxyTheFish","steam_id":76561199074190919,"connected_time":897000000000,"state":"active","ping":39},{"user_id":39,"name":"Carry Krypl","steam_id":76561198136938121,"connected_time":11963000000000,"state":"active","ping":45},{"user_id":211,"name":"Sigsby","steam_id":76561198155116429,"connected_time":405000000000,"state":"active","ping":154},{"user_id":181,"name":"Eri","steam_id":76561198016688382,"connected_time":2603000000000,"state":"active","ping":66},{"user_id":190,"name":"HayLeX","steam_id":76561198130997343,"connected_time":2302000000000,"state":"active","ping":79},{"user_id":214,"name":"Jnet","steam_id":76561198001282720,"connected_time":316000000000,"state":"active","ping":98},{"user_id":213,"name":"Smartest Person In the Universe","steam_id":76561199444636848,"connected_time":350000000000,"state":"active","ping":40},{"user_id":200,"name":"S4LV4G3","steam_id":76561198130314779,"connected_time":1251000000000,"state":"active","ping":64},{"user_id":194,"name":"Fish_n_Chips","steam_id":76561199039556489,"connected_time":1991000000000,"state":"active","ping":74},{"user_id":206,"name":"Gustavo_Fring_6969","steam_id":76561199373610279,"connected_time":851000000000,"state":"active","ping":91},{"user_id":202,"name":"\u003cGNGWD\u003e the scringly dingly","steam_id":76561198192179174,"connected_time":1024000000000,"state":"active","ping":117},{"user_id":186,"name":"ThellanM","steam_id":76561199014222387,"connected_time":2522000000000,"state":"active","ping":58},{"user_id":168,"name":"Alyosha","steam_id":76561198032771167,"connected_time":4147000000000,"state":"active","ping":72}]},{"server_id":310,"name":"Uncletopia | Frankfurt | 5 | All Maps","name_short":"frk-5","host":"frk-1.de.uncletopia.com","port":27055,"enabled":true,"region":"eu","cc":"de","latitude":50.110924,"longitude":8.682127,"reserved":0,"last_update":"0001-01-01T00:00:00Z","name_a2s":"Uncletopia | Frankfurt | 5 | All Maps","protocol":17,"map":"pl_upward","folder":"tf","game":"Team Fortress","app_id":440,"player_count":19,"max_players":24,"Bots":0,"server_type":"Dedicated","server_os":"Linux","password":true,"vac":true,"version":"7961495","steam_id":85568392924504277,"keywords":["nocrits","nodmgspread","payload","uncletopia"],"game_id":440,"stv_port":27056,"stv_name":"Uncletopia | Frankfurt | 5 | All Maps | STV","players":[{"user_id":58,"name":"GÃ¼Ã§lÃ¼AYraNsAÄž","steam_id":76561199184988396,"connected_time":1193000000000,"state":"active","ping":82},{"user_id":27,"name":"Yo' Local NPC","steam_id":76561198129474001,"connected_time":2600000000000,"state":"active","ping":58},{"user_id":26,"name":"mossfan1","steam_id":76561198087525446,"connected_time":2656000000000,"state":"active","ping":89},{"user_id":80,"name":"bl0ke","steam_id":76561198012526576,"connected_time":46000000000,"state":"active","ping":60},{"user_id":81,"name":"ShadowTwin","steam_id":76561198046658200,"connected_time":39000000000,"state":"active","ping":72},{"user_id":70,"name":"the grongle","steam_id":76561198989398023,"connected_time":639000000000,"state":"active","ping":113},{"user_id":61,"name":"KnugenIV","steam_id":76561198127091993,"connected_time":966000000000,"state":"active","ping":72},{"user_id":32,"name":"do you see Gustavo?","steam_id":76561198951268072,"connected_time":2297000000000,"state":"active","ping":85},{"user_id":71,"name":"grr","steam_id":76561199429407130,"connected_time":584000000000,"state":"active","ping":80},{"user_id":57,"name":"Shego is kewl","steam_id":76561198371343966,"connected_time":1201000000000,"state":"active","ping":196},{"user_id":56,"name":"ToM","steam_id":76561199111585109,"connected_time":1238000000000,"state":"active","ping":75},{"user_id":37,"name":"zaza_enjoyer","steam_id":76561198042242313,"connected_time":2162000000000,"state":"active","ping":53},{"user_id":60,"name":"Triploon","steam_id":76561198173304074,"connected_time":1085000000000,"state":"active","ping":66},{"user_id":73,"name":"Ð’Ð»Ð°Ð´Ð¸Ð¼Ð¸Ñ€ Ð‘ÑƒÐ´Ñ‘Ð½Ñ‹Ð¹","steam_id":76561198381978883,"connected_time":521000000000,"state":"active","ping":71},{"user_id":64,"name":"microkwas","steam_id":76561199123377384,"connected_time":845000000000,"state":"active","ping":80},{"user_id":67,"name":"mdngkn","steam_id":76561198015393505,"connected_time":695000000000,"state":"active","ping":76},{"user_id":74,"name":"MrRoAndrei","steam_id":76561198205282000,"connected_time":503000000000,"state":"active","ping":75},{"user_id":75,"name":"jabar7","steam_id":76561198055137986,"connected_time":453000000000,"state":"active","ping":60},{"user_id":78,"name":"Nyä¹¡","steam_id":76561198091222791,"connected_time":278000000000,"state":"active","ping":70}]},{"server_id":311,"name":"Uncletopia | Frankfurt | 6 | All Maps","name_short":"frk-6","host":"frk-1.de.uncletopia.com","port":27065,"enabled":true,"region":"eu","cc":"de","latitude":50.110924,"longitude":8.682127,"reserved":0,"last_update":"0001-01-01T00:00:00Z","name_a2s":"Uncletopia | Frankfurt | 6 | All Maps","protocol":17,"map":"koth_lakeside_final","folder":"tf","game":"Team Fortress","app_id":440,"player_count":0,"max_players":24,"Bots":0,"server_type":"Dedicated","server_os":"Linux","password":true,"vac":true,"version":"7961495","steam_id":85568392924504278,"keywords":["cp","nocrits","nodmgspread","uncletopia"],"game_id":440,"stv_port":27066,"stv_name":"Uncletopia | Frankfurt | 6 | All Maps | STV","players":null},{"server_id":23,"name":"Uncletopia | Frankfurt | 7 | Stopwatch","name_short":"frk-7","host":"frk-1.de.uncletopia.com","port":27075,"enabled":true,"region":"eu","cc":"de","latitude":50.110924,"longitude":8.682127,"reserved":0,"last_update":"0001-01-01T00:00:00Z","name_a2s":"Uncletopia | Frankfurt | 7 | Stopwatch","protocol":17,"map":"cp_process_final","folder":"tf","game":"Team Fortress","app_id":440,"player_count":23,"max_players":24,"Bots":0,"server_type":"Dedicated","server_os":"Linux","password":true,"vac":true,"version":"7961495","steam_id":85568392924742827,"keywords":["cp","nocrits","nodmgspread","uncletopia"],"game_id":440,"stv_port":27076,"stv_name":"Uncletopia | Frankfurt | 7 | Stopwatch | STV","players":[{"user_id":483,"name":"Lance Corporal Boiled Egg","steam_id":76561197989717358,"connected_time":2039000000000,"state":"active","ping":46},{"user_id":449,"name":"NESS","steam_id":76561197995225318,"connected_time":3390000000000,"state":"active","ping":59},{"user_id":482,"name":"P","steam_id":76561198399390201,"connected_time":2107000000000,"state":"active","ping":81},{"user_id":508,"name":"Daga","steam_id":76561198055450219,"connected_time":150000000000,"state":"active","ping":55},{"user_id":506,"name":"mads.svennum","steam_id":76561198815544142,"connected_time":290000000000,"state":"active","ping":45},{"user_id":495,"name":"smiley","steam_id":76561198042245117,"connected_time":869000000000,"state":"active","ping":64},{"user_id":509,"name":"SpyCrab  Erik Twice","steam_id":76561198009710309,"connected_time":137000000000,"state":"active","ping":59},{"user_id":464,"name":"\u003cGNGWD\u003e CrocAsaurus","steam_id":76561198213982408,"connected_time":2967000000000,"state":"active","ping":60},{"user_id":453,"name":"I have no enemies","steam_id":76561198983730384,"connected_time":3249000000000,"state":"active","ping":91},{"user_id":454,"name":"ennfai","steam_id":76561199008282239,"connected_time":3223000000000,"state":"active","ping":101},{"user_id":477,"name":"Jimmy Poppadopolos","steam_id":76561198044825612,"connected_time":2562000000000,"state":"active","ping":56},{"user_id":507,"name":"darkwater","steam_id":76561197986978738,"connected_time":232000000000,"state":"active","ping":60},{"user_id":478,"name":"Razef","steam_id":76561198030309484,"connected_time":2490000000000,"state":"active","ping":47},{"user_id":458,"name":"Ð”ÐžÐ¢Ð 2 Ð“ÐžÐ’ÐÐž","steam_id":76561198359413478,"connected_time":3168000000000,"state":"active","ping":89},{"user_id":492,"name":"Zephyr","steam_id":76561199116936359,"connected_time":1021000000000,"state":"active","ping":45},{"user_id":502,"name":"Lord Philip","steam_id":76561198277097779,"connected_time":555000000000,"state":"active","ping":60},{"user_id":510,"name":"Yanniki","steam_id":76561197986058110,"connected_time":93000000000,"state":"active","ping":56},{"user_id":487,"name":"Lord of Birds","steam_id":76561198268952995,"connected_time":1236000000000,"state":"active","ping":60},{"user_id":497,"name":"Terhen","steam_id":76561198218299273,"connected_time":843000000000,"state":"active","ping":108},{"user_id":504,"name":"Phephone","steam_id":76561199273799263,"connected_time":519000000000,"state":"active","ping":55},{"user_id":471,"name":"Serg","steam_id":76561198218959001,"connected_time":2827000000000,"state":"active","ping":65},{"user_id":505,"name":"akakez","steam_id":76561198095432821,"connected_time":517000000000,"state":"active","ping":115},{"user_id":475,"name":"Chill Spirit","steam_id":76561198845001725,"connected_time":2781000000000,"state":"active","ping":44}]},{"server_id":24,"name":"Uncletopia | Frankfurt | 8 | Community","name_short":"frk-8","host":"frk-1.de.uncletopia.com","port":27085,"enabled":true,"region":"eu","cc":"de","latitude":50.110924,"longitude":8.682127,"reserved":0,"last_update":"0001-01-01T00:00:00Z","name_a2s":"Uncletopia | Frankfurt | 8 | Community","protocol":17,"map":"workshop/koth_trenchfoot_ab1.ugc731436616","folder":"tf","game":"Team Fortress","app_id":440,"player_count":0,"max_players":24,"Bots":0,"server_type":"Dedicated","server_os":"Linux","password":true,"vac":true,"version":"7961495","steam_id":85568392924742828,"keywords":["cp","nocrits","nodmgspread","uncletopia"],"game_id":440,"stv_port":27086,"stv_name":"Uncletopia | Frankfurt | 8 | Community | STV","players":null},{"server_id":202,"name":"Uncletopia | Hong Kong | 1 | All Maps","name_short":"hgk-1","host":"hgk-1.hk.uncletopia.com","port":27015,"enabled":true,"region":"asia","cc":"hk","latitude":22.302711,"longitude":114.177216,"reserved":0,"last_update":"0001-01-01T00:00:00Z","name_a2s":"Uncletopia | Hong Kong | 1 | All Maps","protocol":17,"map":"koth_lakeside_final","folder":"tf","game":"Team Fortress","app_id":440,"player_count":0,"max_players":24,"Bots":0,"server_type":"Dedicated","server_os":"Linux","password":true,"vac":true,"version":"7961495","steam_id":85568392924494504,"keywords":["cp","nocrits","nodmgspread","uncletopia"],"game_id":440,"stv_port":27016,"stv_name":"Uncletopia | Hong Kong | 1 | All Maps | STV","players":null},{"server_id":1,"name":"Uncletopia | Los Angeles | 1 | All Maps","name_short":"lax-1","host":"lax-1.us.uncletopia.com","port":27015,"enabled":true,"region":"us-west","cc":"us","latitude":33.94279,"longitude":-118.41004,"reserved":0,"last_update":"0001-01-01T00:00:00Z","name_a2s":"Uncletopia | Los Angeles | 1 | All Maps","protocol":17,"map":"koth_viaduct","folder":"tf","game":"Team Fortress","app_id":440,"player_count":0,"max_players":24,"Bots":0,"server_type":"Dedicated","server_os":"Linux","password":true,"vac":true,"version":"7961495","steam_id":85568392924469991,"keywords":["cp","nocrits","nodmgspread","uncletopia"],"game_id":440,"stv_port":27016,"stv_name":"Uncletopia | Los Angeles | 1 | All Maps | STV","players":null},{"server_id":112,"name":"Uncletopia | Los Angeles | 2 | All Maps","name_short":"lax-2","host":"lax-1.us.uncletopia.com","port":27025,"enabled":true,"region":"us-west","cc":"us","latitude":33.94279,"longitude":-118.41004,"reserved":0,"last_update":"0001-01-01T00:00:00Z","name_a2s":"Uncletopia | Los Angeles | 2 | All Maps","protocol":17,"map":"koth_cascade","folder":"tf","game":"Team Fortress","app_id":440,"player_count":0,"max_players":24,"Bots":0,"server_type":"Dedicated","server_os":"Linux","password":true,"vac":true,"version":"7961495","steam_id":85568392924469992,"keywords":["cp","nocrits","nodmgspread","uncletopia"],"game_id":440,"stv_port":27026,"stv_name":"Uncletopia | Los Angeles | 2 | All Maps | STV","players":null},{"server_id":324,"name":"Uncletopia | Los Angeles | 3 | All Maps","name_short":"lax-3","host":"lax-1.us.uncletopia.com","port":27035,"enabled":true,"region":"us-west","cc":"us","latitude":33.94279,"longitude":-118.41004,"reserved":0,"last_update":"0001-01-01T00:00:00Z","name_a2s":"Uncletopia | Los Angeles | 3 | All Maps","protocol":17,"map":"cp_snakewater_final1","folder":"tf","game":"Team Fortress","app_id":440,"player_count":0,"max_players":24,"Bots":0,"server_type":"Dedicated","server_os":"Linux","password":true,"vac":true,"version":"7961495","steam_id":85568392924510198,"keywords":["cp","nocrits","nodmgspread","uncletopia"],"game_id":440,"stv_port":27036,"stv_name":"Uncletopia | Los Angeles | 3 | All Maps | STV","players":null},{"server_id":25,"name":"Uncletopia | Los Angeles | 4 | Stopwatch","name_short":"lax-4","host":"lax-1.us.uncletopia.com","port":27045,"enabled":true,"region":"us-west","cc":"us","latitude":33.94279,"longitude":-118.41004,"reserved":0,"last_update":"0001-01-01T00:00:00Z","name_a2s":"Uncletopia | Los Angeles | 4 | Stopwatch","protocol":17,"map":"koth_highpass","folder":"tf","game":"Team Fortress","app_id":440,"player_count":0,"max_players":24,"Bots":0,"server_type":"Dedicated","server_os":"Linux","password":true,"vac":true,"version":"7961495","steam_id":85568392924510199,"keywords":["cp","nocrits","nodmgspread","uncletopia"],"game_id":440,"stv_port":27046,"stv_name":"Uncletopia | Los Angeles | 4 | Stopwatch | STV","players":null},{"server_id":11,"name":"Uncletopia | London | 1 | All Maps","name_short":"lon-1","host":"lon-1.uk.uncletopia.com","port":27015,"enabled":true,"region":"eu","cc":"gb","latitude":51.509865,"longitude":-0.118092,"reserved":0,"last_update":"0001-01-01T00:00:00Z","name_a2s":"Uncletopia | London | 1 | All Maps","protocol":17,"map":"pl_borneo","folder":"tf","game":"Team Fortress","app_id":440,"player_count":24,"max_players":24,"Bots":0,"server_type":"Dedicated","server_os":"Linux","password":true,"vac":true,"version":"7961495","steam_id":85568392924367362,"keywords":["nocrits","nodmgspread","payload","uncletopia"],"game_id":440,"stv_port":27016,"stv_name":"Uncletopia | London | 1 | All Maps | STV","players":[{"user_id":867,"name":"Fofenho","steam_id":76561198436817109,"connected_time":420000000000,"state":"active","ping":46},{"user_id":840,"name":"Purple Soup :D","steam_id":76561198985100366,"connected_time":775000000000,"state":"active","ping":85},{"user_id":826,"name":"Jeffacakes","steam_id":76561198280101970,"connected_time":913000000000,"state":"active","ping":53},{"user_id":871,"name":"Bonca","steam_id":76561198137503531,"connected_time":152000000000,"state":"active","ping":75},{"user_id":570,"name":"chezpierrealtea","steam_id":76561198043601838,"connected_time":5139000000000,"state":"active","ping":74},{"user_id":727,"name":"Johnny \"Danger\" Amoeba","steam_id":76561198079530054,"connected_time":1899000000000,"state":"active","ping":46},{"user_id":678,"name":"trite","steam_id":76561197983765323,"connected_time":2806000000000,"state":"active","ping":39},{"user_id":718,"name":"mertefe","steam_id":76561199237126613,"connected_time":2024000000000,"state":"active","ping":87},{"user_id":807,"name":"whimsy. (live)","steam_id":76561198878171763,"connected_time":1142000000000,"state":"active","ping":57},{"user_id":872,"name":"Sekiro","steam_id":76561199047116669,"connected_time":124000000000,"state":"active","ping":97},{"user_id":870,"name":"HardJaguar66","steam_id":76561198149326434,"connected_time":291000000000,"state":"active","ping":90},{"user_id":614,"name":"hitbox criminal","steam_id":76561198079277466,"connected_time":4028000000000,"state":"active","ping":69},{"user_id":578,"name":"Grim the lemon","steam_id":76561199083433988,"connected_time":4827000000000,"state":"active","ping":48},{"user_id":841,"name":"Kaisbald","steam_id":76561198151929487,"connected_time":765000000000,"state":"active","ping":107},{"user_id":703,"name":"shooer!","steam_id":76561198110531281,"connected_time":2252000000000,"state":"active","ping":52},{"user_id":717,"name":"charlotte","steam_id":76561198075129898,"connected_time":2035000000000,"state":"active","ping":32},{"user_id":875,"name":"nordstream bomber","steam_id":76561199401283123,"connected_time":57000000000,"state":"active","ping":39},{"user_id":566,"name":"itransition UKRAINE","steam_id":76561198080912087,"connected_time":5186000000000,"state":"active","ping":67},{"user_id":793,"name":"muta7awil jinsi","steam_id":76561199057953617,"connected_time":1237000000000,"state":"active","ping":70},{"user_id":506,"name":"magÌ¶pÌ¶iÌ¶e âœ¿","steam_id":76561198797266244,"connected_time":7594000000000,"state":"active","ping":70},{"user_id":624,"name":"17","steam_id":76561198241530712,"connected_time":3732000000000,"state":"active","ping":252},{"user_id":804,"name":"emily.","steam_id":76561198835010390,"connected_time":1158000000000,"state":"active","ping":32},{"user_id":823,"name":"SendBob","steam_id":76561198151981614,"connected_time":959000000000,"state":"active","ping":80},{"user_id":808,"name":"garfieldsofa","steam_id":76561198295577035,"connected_time":1141000000000,"state":"active","ping":58}]},{"server_id":114,"name":"Uncletopia | London | 2 | All Maps","name_short":"lon-2","host":"lon-1.uk.uncletopia.com","port":27025,"enabled":true,"region":"eu","cc":"gb","latitude":51.509865,"longitude":-0.118092,"reserved":0,"last_update":"0001-01-01T00:00:00Z","name_a2s":"Uncletopia | London | 2 | All Maps","protocol":17,"map":"pl_snowycoast","folder":"tf","game":"Team Fortress","app_id":440,"player_count":23,"max_players":24,"Bots":0,"server_type":"Dedicated","server_os":"Linux","password":true,"vac":true,"version":"7961495","steam_id":85568392924470941,"keywords":["nocrits","nodmgspread","payload","uncletopia"],"game_id":440,"stv_port":27026,"stv_name":"Uncletopia | London | 2 | All Maps | STV","players":[{"user_id":316,"name":"highest noon","steam_id":76561199103959197,"connected_time":214000000000,"state":"active","ping":89},{"user_id":293,"name":"Sebyz","steam_id":76561198062641710,"connected_time":1957000000000,"state":"active","ping":43},{"user_id":273,"name":"Drojdier","steam_id":76561198080789836,"connected_time":3416000000000,"state":"active","ping":480},{"user_id":290,"name":"DVS","steam_id":76561198062909843,"connected_time":2573000000000,"state":"active","ping":46},{"user_id":318,"name":"Dr. Livesey","steam_id":76561198071049943,"connected_time":102000000000,"state":"active","ping":57},{"user_id":298,"name":"The Goon","steam_id":76561198086913973,"connected_time":858000000000,"state":"active","ping":51},{"user_id":319,"name":"woodpercy","steam_id":76561198871844865,"connected_time":77000000000,"state":"active","ping":92},{"user_id":317,"name":"Dei Genetrix","steam_id":76561198305678122,"connected_time":150000000000,"state":"active","ping":48},{"user_id":307,"name":"Mr.J","steam_id":76561199127439080,"connected_time":601000000000,"state":"active","ping":72},{"user_id":312,"name":"Qwertuss","steam_id":76561198026305366,"connected_time":408000000000,"state":"active","ping":44},{"user_id":303,"name":"Tenshi","steam_id":76561197964915322,"connected_time":731000000000,"state":"active","ping":93},{"user_id":314,"name":"[1VS23] BAKELITE","steam_id":76561198190816499,"connected_time":302000000000,"state":"active","ping":81},{"user_id":315,"name":"hbdie_","steam_id":76561198109996675,"connected_time":272000000000,"state":"active","ping":31},{"user_id":308,"name":"(MAC) [BN] Crazyking","steam_id":76561198001668616,"connected_time":573000000000,"state":"active","ping":42},{"user_id":309,"name":"Demicore","steam_id":76561197976922136,"connected_time":565000000000,"state":"active","ping":60},{"user_id":288,"name":"multiplayer","steam_id":76561198422565245,"connected_time":2852000000000,"state":"active","ping":77},{"user_id":263,"name":"Scuffed katana+9 PvP stones+4","steam_id":76561199375170916,"connected_time":3929000000000,"state":"active","ping":108},{"user_id":285,"name":"Saul Badman","steam_id":76561199013233409,"connected_time":2998000000000,"state":"active","ping":49},{"user_id":320,"name":"syms","steam_id":76561198066679812,"connected_time":53000000000,"state":"active","ping":69},{"user_id":292,"name":"c","steam_id":76561197986672188,"connected_time":2449000000000,"state":"active","ping":52},{"user_id":283,"name":"Beowmcianx","steam_id":76561198363627544,"connected_time":3028000000000,"state":"active","ping":89},{"user_id":266,"name":"aochte^","steam_id":76561198018507987,"connected_time":3875000000000,"state":"active","ping":67},{"user_id":284,"name":"hoizil","steam_id":76561198800688436,"connected_time":3022000000000,"state":"active","ping":67}]},{"server_id":320,"name":"Uncletopia | London | 3 | All Maps","name_short":"lon-3","host":"lon-1.uk.uncletopia.com","port":27035,"enabled":true,"region":"eu","cc":"gb","latitude":51.509865,"longitude":-0.118092,"reserved":0,"last_update":"0001-01-01T00:00:00Z","name_a2s":"Uncletopia | London | 3 | All Maps","protocol":17,"map":"cp_process_final","folder":"tf","game":"Team Fortress","app_id":440,"player_count":23,"max_players":24,"Bots":0,"server_type":"Dedicated","server_os":"Linux","password":true,"vac":true,"version":"7961495","steam_id":85568392924510192,"keywords":["cp","nocrits","nodmgspread","uncletopia"],"game_id":440,"stv_port":27036,"stv_name":"Uncletopia | London | 3 | All Maps | STV","players":[{"user_id":168,"name":"Laru","steam_id":76561197998838438,"connected_time":438000000000,"state":"active","ping":91},{"user_id":172,"name":"GenerÃ¡l Kiwi","steam_id":76561198255946537,"connected_time":258000000000,"state":"active","ping":33},{"user_id":131,"name":"e","steam_id":76561198032359132,"connected_time":2363000000000,"state":"active","ping":45},{"user_id":169,"name":"louis.iana1","steam_id":76561198181470374,"connected_time":412000000000,"state":"active","ping":56},{"user_id":123,"name":"Ziemniaczki","steam_id":76561198061866742,"connected_time":3604000000000,"state":"active","ping":74},{"user_id":163,"name":"Sunshine","steam_id":76561198885528098,"connected_time":686000000000,"state":"active","ping":120},{"user_id":152,"name":"mario schifano","steam_id":76561198038748489,"connected_time":1176000000000,"state":"active","ping":78},{"user_id":146,"name":"Metal Gear Solid 2 for PS2","steam_id":76561198110611210,"connected_time":1824000000000,"state":"active","ping":87},{"user_id":151,"name":"Sholunan","steam_id":76561198062435739,"connected_time":1197000000000,"state":"active","ping":58},{"user_id":171,"name":"Skirata","steam_id":76561197985224878,"connected_time":376000000000,"state":"active","ping":79},{"user_id":166,"name":"gaggle","steam_id":76561197988226281,"connected_time":482000000000,"state":"active","ping":47},{"user_id":126,"name":"dools18","steam_id":76561198880768062,"connected_time":3252000000000,"state":"active","ping":55},{"user_id":154,"name":"AWildTamim","steam_id":76561198048060652,"connected_time":1152000000000,"state":"active","ping":44},{"user_id":160,"name":"fluffs","steam_id":76561198436106996,"connected_time":967000000000,"state":"active","ping":34},{"user_id":162,"name":"Neeeiks","steam_id":76561198009156801,"connected_time":781000000000,"state":"active","ping":62},{"user_id":135,"name":"Diker","steam_id":76561198132906026,"connected_time":2324000000000,"state":"active","ping":69},{"user_id":136,"name":"bottomest g","steam_id":76561198138928548,"connected_time":2300000000000,"state":"active","ping":61},{"user_id":130,"name":"dzirau","steam_id":76561198068680178,"connected_time":2390000000000,"state":"active","ping":55},{"user_id":174,"name":"skittish maiden","steam_id":76561198096856475,"connected_time":225000000000,"state":"active","ping":54},{"user_id":71,"name":"glyph","steam_id":76561197980736364,"connected_time":6728000000000,"state":"active","ping":90},{"user_id":165,"name":"Jersku","steam_id":76561198140994845,"connected_time":618000000000,"state":"active","ping":75},{"user_id":145,"name":"soil.dirt.earth","steam_id":76561198014377623,"connected_time":1885000000000,"state":"active","ping":30},{"user_id":118,"name":"baver","steam_id":76561198135293142,"connected_time":3789000000000,"state":"active","ping":56}]},{"server_id":321,"name":"Uncletopia | London | 4 | All Maps","name_short":"lon-4","host":"lon-1.uk.uncletopia.com","port":27045,"enabled":true,"region":"eu","cc":"gb","latitude":51.509865,"longitude":-0.118092,"reserved":0,"last_update":"0001-01-01T00:00:00Z","name_a2s":"Uncletopia | London | 4 | All Maps","protocol":17,"map":"cp_foundry","folder":"tf","game":"Team Fortress","app_id":440,"player_count":24,"max_players":24,"Bots":0,"server_type":"Dedicated","server_os":"Linux","password":true,"vac":true,"version":"7961495","steam_id":85568392924510193,"keywords":["cp","nocrits","nodmgspread","uncletopia"],"game_id":440,"stv_port":27046,"stv_name":"Uncletopia | London | 4 | All Maps | STV","players":[{"user_id":262,"name":"w presser","steam_id":76561197994600818,"connected_time":1419000000000,"state":"active","ping":45},{"user_id":275,"name":"JodeXtreme","steam_id":76561198044132935,"connected_time":390000000000,"state":"active","ping":86},{"user_id":276,"name":"Mr. Hunts","steam_id":76561197981910397,"connected_time":298000000000,"state":"active","ping":63},{"user_id":249,"name":"Dirty goblin","steam_id":76561198153207632,"connected_time":2004000000000,"state":"active","ping":66},{"user_id":250,"name":"Aureolin","steam_id":76561198210274835,"connected_time":1942000000000,"state":"active","ping":121},{"user_id":228,"name":"Ullr","steam_id":76561198140547483,"connected_time":2862000000000,"state":"active","ping":45},{"user_id":246,"name":"â˜­ybercat","steam_id":76561198014070417,"connected_time":2178000000000,"state":"active","ping":45},{"user_id":267,"name":"please","steam_id":76561199149307190,"connected_time":1248000000000,"state":"active","ping":84},{"user_id":272,"name":"TheKees301","steam_id":76561198827506371,"connected_time":985000000000,"state":"active","ping":73},{"user_id":233,"name":"Lauchboiz | Bannic","steam_id":76561198060362129,"connected_time":2772000000000,"state":"active","ping":56},{"user_id":270,"name":"CreepyYellowDuck","steam_id":76561198000479387,"connected_time":1110000000000,"state":"active","ping":33},{"user_id":261,"name":"ran is running","steam_id":76561199443185667,"connected_time":1440000000000,"state":"active","ping":113},{"user_id":244,"name":"rwota","steam_id":76561198385769722,"connected_time":2376000000000,"state":"active","ping":116},{"user_id":245,"name":"Distributedcomputing","steam_id":76561198044421981,"connected_time":2257000000000,"state":"active","ping":94},{"user_id":277,"name":"Sigma Gregory","steam_id":76561199040010283,"connected_time":111000000000,"state":"active","ping":87},{"user_id":241,"name":"Warrior555MainsGanon","steam_id":76561198388627786,"connected_time":2513000000000,"state":"active","ping":56},{"user_id":278,"name":"1ggy","steam_id":76561199051285912,"connected_time":109000000000,"state":"active","ping":82},{"user_id":274,"name":"Supercoxylac","steam_id":76561198376300138,"connected_time":467000000000,"state":"active","ping":54},{"user_id":237,"name":"ACG_Dubsy","steam_id":76561198797308565,"connected_time":2717000000000,"state":"active","ping":54},{"user_id":257,"name":"monsterISfun","steam_id":76561198121734867,"connected_time":1614000000000,"state":"active","ping":74},{"user_id":258,"name":"Creative","steam_id":76561198835034247,"connected_time":1582000000000,"state":"active","ping":81},{"user_id":279,"name":"Qwerty","steam_id":76561198023525894,"connected_time":36000000000,"state":"active","ping":80},{"user_id":156,"name":"KayPay","steam_id":76561198112127032,"connected_time":6374000000000,"state":"active","ping":85},{"user_id":273,"name":"shenanigan","steam_id":76561198043452925,"connected_time":824000000000,"state":"active","ping":88}]},{"server_id":21,"name":"Uncletopia | London | 5 | All Maps","name_short":"lon-5","host":"lon-1.uk.uncletopia.com","port":27055,"enabled":true,"region":"eu","cc":"gb","latitude":51.509865,"longitude":-0.118092,"reserved":0,"last_update":"0001-01-01T00:00:00Z","name_a2s":"Uncletopia | London | 5 | All Maps","protocol":17,"map":"pl_pier","folder":"tf","game":"Team Fortress","app_id":440,"player_count":22,"max_players":24,"Bots":0,"server_type":"Dedicated","server_os":"Linux","password":true,"vac":true,"version":"7961495","steam_id":85568392924742829,"keywords":["nocrits","nodmgspread","payload","uncletopia"],"game_id":440,"stv_port":27056,"stv_name":"Uncletopia | London | 5 | All Maps | STV","players":[{"user_id":335,"name":"Ptero7","steam_id":76561198308672665,"connected_time":116000000000,"state":"active","ping":51},{"user_id":306,"name":"Spinya","steam_id":76561198086653667,"connected_time":1746000000000,"state":"active","ping":60},{"user_id":337,"name":"alpha","steam_id":76561198250491640,"connected_time":53000000000,"state":"active","ping":31},{"user_id":307,"name":"DudeoftheRock","steam_id":76561198059401865,"connected_time":1739000000000,"state":"active","ping":60},{"user_id":234,"name":"Krysys","steam_id":76561198059740403,"connected_time":5359000000000,"state":"active","ping":112},{"user_id":289,"name":"hard dk","steam_id":76561198303735514,"connected_time":2544000000000,"state":"active","ping":44},{"user_id":336,"name":"Plep","steam_id":76561198840259819,"connected_time":70000000000,"state":"active","ping":59},{"user_id":325,"name":"tapeworms!","steam_id":76561198069649097,"connected_time":1084000000000,"state":"active","ping":52},{"user_id":304,"name":"Fearly","steam_id":76561198798684016,"connected_time":1768000000000,"state":"active","ping":46},{"user_id":334,"name":"ð“¹ð“±ð“ªð“·ð“½ð“¸ð“¶","steam_id":76561199095923041,"connected_time":139000000000,"state":"active","ping":144},{"user_id":318,"name":"eMcP","steam_id":76561198382509396,"connected_time":1637000000000,"state":"active","ping":60},{"user_id":331,"name":"lexa","steam_id":76561198153381971,"connected_time":358000000000,"state":"active","ping":80},{"user_id":326,"name":"_Context_","steam_id":76561199163359312,"connected_time":980000000000,"state":"active","ping":47},{"user_id":300,"name":"Fabric","steam_id":76561198118742661,"connected_time":2170000000000,"state":"active","ping":72},{"user_id":261,"name":"quickfast","steam_id":76561199438900919,"connected_time":4677000000000,"state":"active","ping":45},{"user_id":311,"name":"jack'o classes","steam_id":76561199030218131,"connected_time":1703000000000,"state":"active","ping":40},{"user_id":332,"name":"Milk","steam_id":76561198125876588,"connected_time":319000000000,"state":"active","ping":38},{"user_id":338,"name":"Name","steam_id":76561197990757157,"connected_time":19000000000,"state":"spawning","ping":67},{"user_id":313,"name":"midlpsyzl47","steam_id":76561199475972637,"connected_time":1702000000000,"state":"active","ping":65},{"user_id":339,"name":"Hexagon","steam_id":76561198151205758,"connected_time":16000000000,"state":"active","ping":58},{"user_id":330,"name":"Bob1y","steam_id":76561199113762786,"connected_time":460000000000,"state":"active","ping":48},{"user_id":329,"name":"tf2 snake","steam_id":76561198193971167,"connected_time":643000000000,"state":"active","ping":79}]},{"server_id":22,"name":"Uncletopia | London | 6 | All Maps","name_short":"lon-6","host":"lon-1.uk.uncletopia.com","port":27065,"enabled":true,"region":"eu","cc":"gb","latitude":51.509865,"longitude":-0.118092,"reserved":0,"last_update":"0001-01-01T00:00:00Z","name_a2s":"Uncletopia | London | 6 | All Maps","protocol":17,"map":"pl_swiftwater_final1","folder":"tf","game":"Team Fortress","app_id":440,"player_count":17,"max_players":24,"Bots":0,"server_type":"Dedicated","server_os":"Linux","password":true,"vac":true,"version":"7961495","steam_id":85568392924742830,"keywords":["nocrits","nodmgspread","payload","uncletopia"],"game_id":440,"stv_port":27066,"stv_name":"Uncletopia | London | 6 | All Maps | STV","players":[{"user_id":110,"name":"sniper's kangaroo wife","steam_id":76561198334042273,"connected_time":218000000000,"state":"active","ping":34},{"user_id":80,"name":"Nag","steam_id":76561197970488206,"connected_time":1781000000000,"state":"active","ping":70},{"user_id":115,"name":"jake.july","steam_id":76561199215700530,"connected_time":80000000000,"state":"active","ping":44},{"user_id":112,"name":"WHERE ARE THE MEDALS, ETF2L?","steam_id":76561198051852765,"connected_time":202000000000,"state":"active","ping":75},{"user_id":92,"name":"3L","steam_id":76561198007208996,"connected_time":1432000000000,"state":"active","ping":56},{"user_id":106,"name":"qsb","steam_id":76561198160202087,"connected_time":909000000000,"state":"active","ping":72},{"user_id":114,"name":"A  cute cat who has a knife and","steam_id":76561199017719018,"connected_time":142000000000,"state":"active","ping":137},{"user_id":109,"name":"BONK-TEC!","steam_id":76561198272667029,"connected_time":345000000000,"state":"active","ping":43},{"user_id":99,"name":"Ferrariracer5f1","steam_id":76561199229815098,"connected_time":1265000000000,"state":"active","ping":39},{"user_id":101,"name":"STARRI","steam_id":76561198245784188,"connected_time":1111000000000,"state":"active","ping":46},{"user_id":76,"name":"ç‹¬ã‚Šã€ä¸€äººãªã„","steam_id":76561199077022985,"connected_time":2529000000000,"state":"active","ping":50},{"user_id":117,"name":"kim pine is wife","steam_id":76561198836246326,"connected_time":71000000000,"state":"active","ping":50},{"user_id":65,"name":"sv_MrGibbs","steam_id":76561198114071972,"connected_time":3450000000000,"state":"active","ping":44},{"user_id":90,"name":"Sparky","steam_id":76561198036754195,"connected_time":1479000000000,"state":"active","ping":47},{"user_id":91,"name":"Sentry Gun (imposter)","steam_id":76561198182233723,"connected_time":1471000000000,"state":"active","ping":127},{"user_id":93,"name":"cold#panda","steam_id":76561199220136710,"connected_time":1426000000000,"state":"active","ping":106},{"user_id":105,"name":"husk scrambled eggs when","steam_id":76561198173218318,"connected_time":1052000000000,"state":"active","ping":45}]},{"server_id":40,"name":"Uncletopia | London | 7 | Stopwatch","name_short":"lon-7","host":"lon-1.uk.uncletopia.com","port":27075,"enabled":true,"region":"eu","cc":"gb","latitude":51.509865,"longitude":-0.118092,"reserved":0,"last_update":"0001-01-01T00:00:00Z","name_a2s":"Uncletopia | London | 7 | Stopwatch","protocol":17,"map":"workshop/pl_vigil_rc10.ugc1266210012","folder":"tf","game":"Team Fortress","app_id":440,"player_count":0,"max_players":24,"Bots":0,"server_type":"Dedicated","server_os":"Linux","password":true,"vac":true,"version":"7961495","steam_id":85568392924964314,"keywords":["nocrits","nodmgspread","payload","uncletopia"],"game_id":440,"stv_port":27076,"stv_name":"Uncletopia | London | 7 | Stopwatch | STV","players":null},{"server_id":41,"name":"Uncletopia | London | 8 | Community","name_short":"lon-8","host":"lon-1.uk.uncletopia.com","port":27085,"enabled":true,"region":"eu","cc":"gb","latitude":51.509865,"longitude":-0.118092,"reserved":0,"last_update":"0001-01-01T00:00:00Z","name_a2s":"Uncletopia | London | 8 | Community","protocol":17,"map":"workshop/pl_boundary_final1.ugc456799153","folder":"tf","game":"Team Fortress","app_id":440,"player_count":1,"max_players":24,"Bots":0,"server_type":"Dedicated","server_os":"Linux","password":true,"vac":true,"version":"7961495","steam_id":85568392924964315,"keywords":["nocrits","nodmgspread","payload","uncletopia"],"game_id":440,"stv_port":27086,"stv_name":"Uncletopia | London | 8 | Community | STV","players":[{"user_id":8,"name":"A_GingerIdiot","steam_id":76561198313306026,"connected_time":345000000000,"state":"active","ping":42}]},{"server_id":300,"name":"Uncletopia | MontrÃ©al | 1 | One Thousand Uncles","name_short":"mtl-1","host":"mtl-1.ca.uncletopia.com","port":27015,"enabled":true,"region":"us-east","cc":"ca","latitude":45.50889,"longitude":-73.56167,"reserved":0,"last_update":"0001-01-01T00:00:00Z","name_a2s":"Uncletopia | MontrÃ©al | 1 | One Thousand Uncles","protocol":17,"map":"pl_chilly","folder":"tf","game":"Team Fortress","app_id":440,"player_count":0,"max_players":32,"Bots":0,"server_type":"Dedicated","server_os":"Linux","password":true,"vac":true,"version":"7961495","steam_id":85568392924500087,"keywords":["alltalk","danepve","increased_maxplayers","norespawntime","payload","uncletopia"],"game_id":440,"stv_port":0,"stv_name":"","players":null},{"server_id":301,"name":"Uncletopia | MontrÃ©al | 2 | One Thousand Uncles","name_short":"mtl-2","host":"mtl-1.ca.uncletopia.com","port":27025,"enabled":true,"region":"us-east","cc":"ca","latitude":45.50889,"longitude":-73.56167,"reserved":0,"last_update":"0001-01-01T00:00:00Z","name_a2s":"Uncletopia | MontrÃ©al | 2 | One Thousand Uncles","protocol":17,"map":"pl_chilly","folder":"tf","game":"Team Fortress","app_id":440,"player_count":0,"max_players":32,"Bots":0,"server_type":"Dedicated","server_os":"Linux","password":true,"vac":true,"version":"7961495","steam_id":85568392924500088,"keywords":["alltalk","danepve","increased_maxplayers","norespawntime","payload","uncletopia"],"game_id":440,"stv_port":0,"stv_name":"","players":null},{"server_id":302,"name":"Uncletopia | MontrÃ©al | 3 | One Thousand Uncles","name_short":"mtl-3","host":"mtl-1.ca.uncletopia.com","port":27035,"enabled":true,"region":"us-east","cc":"ca","latitude":45.50889,"longitude":-73.56167,"reserved":0,"last_update":"0001-01-01T00:00:00Z","name_a2s":"Uncletopia | MontrÃ©al | 3 | One Thousand Uncles","protocol":17,"map":"pl_upward","folder":"tf","game":"Team Fortress","app_id":440,"player_count":0,"max_players":32,"Bots":0,"server_type":"Dedicated","server_os":"Linux","password":true,"vac":true,"version":"7961495","steam_id":85568392924500089,"keywords":["alltalk","danepve","increased_maxplayers","norespawntime","payload","uncletopia"],"game_id":440,"stv_port":0,"stv_name":"","players":null},{"server_id":13,"name":"Uncletopia | New York City | 1 | All Maps","name_short":"nyc-1","host":"nyc-1.us.uncletopia.com","port":27015,"enabled":true,"region":"us-east","cc":"us","latitude":40.73061,"longitude":-73.93524,"reserved":0,"last_update":"0001-01-01T00:00:00Z","name_a2s":"Uncletopia | New York City | 1 | All Maps","protocol":17,"map":"koth_brazil","folder":"tf","game":"Team Fortress","app_id":440,"player_count":0,"max_players":24,"Bots":0,"server_type":"Dedicated","server_os":"Linux","password":true,"vac":true,"version":"7961495","steam_id":85568392924469993,"keywords":["cp","nocrits","nodmgspread","uncletopia"],"game_id":440,"stv_port":27016,"stv_name":"Uncletopia | New York City | 1 | All Maps | STV","players":null},{"server_id":14,"name":"Uncletopia | New York City | 2 | All Maps","name_short":"nyc-2","host":"nyc-1.us.uncletopia.com","port":27025,"enabled":true,"region":"us-east","cc":"us","latitude":40.73061,"longitude":-73.93524,"reserved":0,"last_update":"0001-01-01T00:00:00Z","name_a2s":"Uncletopia | New York City | 2 | All Maps","protocol":17,"map":"cp_process_final","folder":"tf","game":"Team Fortress","app_id":440,"player_count":2,"max_players":24,"Bots":0,"server_type":"Dedicated","server_os":"Linux","password":true,"vac":true,"version":"7961495","steam_id":85568392924469994,"keywords":["cp","nocrits","nodmgspread","uncletopia"],"game_id":440,"stv_port":27026,"stv_name":"Uncletopia | New York City | 2 | All Maps | STV","players":[{"user_id":5,"name":"DrMania82","steam_id":76561198113086878,"connected_time":462000000000,"state":"active","ping":73},{"user_id":6,"name":"loscemo","steam_id":76561197994884609,"connected_time":448000000000,"state":"active","ping":65}]},{"server_id":15,"name":"Uncletopia | New York City | 3 | Stopwatch","name_short":"nyc-3","host":"nyc-1.us.uncletopia.com","port":27035,"enabled":true,"region":"us-east","cc":"us","latitude":40.73061,"longitude":-73.93524,"reserved":0,"last_update":"0001-01-01T00:00:00Z","name_a2s":"Uncletopia | New York City | 3 | Stopwatch","protocol":17,"map":"workshop/cp_reckoner_rc6.ugc674719999","folder":"tf","game":"Team Fortress","app_id":440,"player_count":0,"max_players":24,"Bots":0,"server_type":"Dedicated","server_os":"Linux","password":true,"vac":true,"version":"7961495","steam_id":85568392924742820,"keywords":["cp","nocrits","nodmgspread","uncletopia"],"game_id":440,"stv_port":27036,"stv_name":"Uncletopia | New York City | 3 | Stopwatch | STV","players":null},{"server_id":16,"name":"Uncletopia | New York City | 4 | Community","name_short":"nyc-4","host":"nyc-1.us.uncletopia.com","port":27045,"enabled":true,"region":"us-east","cc":"us","latitude":40.73061,"longitude":-73.93524,"reserved":0,"last_update":"0001-01-01T00:00:00Z","name_a2s":"Uncletopia | New York City | 4 | Community","protocol":17,"map":"workshop/cp_indulge.ugc528106646","folder":"tf","game":"Team Fortress","app_id":440,"player_count":0,"max_players":24,"Bots":0,"server_type":"Dedicated","server_os":"Linux","password":true,"vac":true,"version":"7961495","steam_id":85568392924742821,"keywords":["cp","nocrits","nodmgspread","uncletopia"],"game_id":440,"stv_port":27046,"stv_name":"Uncletopia | New York City | 4 | Community | STV","players":null},{"server_id":142,"name":"Uncletopia | SÃ£o Paulo | 1 | All Maps","name_short":"sao-1","host":"sao-1.br.uncletopia.com","port":27015,"enabled":true,"region":"sa","cc":"br","latitude":-23.533773,"longitude":-46.62529,"reserved":0,"last_update":"0001-01-01T00:00:00Z","name_a2s":"Uncletopia | SÃ£o Paulo | 1 | All Maps","protocol":17,"map":"cp_granary","folder":"tf","game":"Team Fortress","app_id":440,"player_count":0,"max_players":24,"Bots":0,"server_type":"Dedicated","server_os":"Linux","password":true,"vac":true,"version":"7961495","steam_id":85568392924469996,"keywords":["cp","nocrits","nodmgspread","uncletopia"],"game_id":440,"stv_port":27016,"stv_name":"Uncletopia | SÃ£o Paulo | 1 | All Maps | STV","players":null},{"server_id":143,"name":"Uncletopia | SÃ£o Paulo | 2 | Community","name_short":"sao-2","host":"sao-2.br.uncletopia.com","port":27015,"enabled":true,"region":"sa","cc":"br","latitude":-23.533773,"longitude":-46.62529,"reserved":0,"last_update":"0001-01-01T00:00:00Z","name_a2s":"Uncletopia | SÃ£o Paulo | 2 | Community","protocol":17,"map":"workshop/koth_product_final.ugc454272353","folder":"tf","game":"Team Fortress","app_id":440,"player_count":0,"max_players":24,"Bots":0,"server_type":"Dedicated","server_os":"Linux","password":true,"vac":true,"version":"7961495","steam_id":85568392924485349,"keywords":["cp","nocrits","nodmgspread","uncletopia"],"game_id":440,"stv_port":27016,"stv_name":"Uncletopia | SÃ£o Paulo | 2 | Community | STV","players":null},{"server_id":7,"name":"Uncletopia | Seattle | 1 | All Maps","name_short":"sea-1","host":"sea-1.us.uncletopia.com","port":27015,"enabled":true,"region":"us-west","cc":"us","latitude":47.608013,"longitude":-122.33517,"reserved":0,"last_update":"0001-01-01T00:00:00Z","name_a2s":"Uncletopia | Seattle | 1 | All Maps","protocol":17,"map":"pl_barnblitz","folder":"tf","game":"Team Fortress","app_id":440,"player_count":23,"max_players":24,"Bots":0,"server_type":"Dedicated","server_os":"Linux","password":true,"vac":true,"version":"7961495","steam_id":85568392924469997,"keywords":["nocrits","nodmgspread","payload","uncletopia"],"game_id":440,"stv_port":27016,"stv_name":"Uncletopia | Seattle | 1 | All Maps | STV","players":[{"user_id":262,"name":"stainless-steel","steam_id":76561199277139390,"connected_time":3535000000000,"state":"active","ping":77},{"user_id":299,"name":"Punchman228","steam_id":76561198930758451,"connected_time":825000000000,"state":"active","ping":48},{"user_id":291,"name":"BreakfastTacos","steam_id":76561198847620442,"connected_time":1245000000000,"state":"active","ping":87},{"user_id":289,"name":"Shark Sandwich","steam_id":76561198025007938,"connected_time":1309000000000,"state":"active","ping":44},{"user_id":301,"name":"BLÃ˜RG","steam_id":76561198036126673,"connected_time":804000000000,"state":"active","ping":88},{"user_id":242,"name":"Miss Pauling","steam_id":76561198102043913,"connected_time":4457000000000,"state":"active","ping":120},{"user_id":208,"name":"you just got dyked on","steam_id":76561198018977723,"connected_time":6673000000000,"state":"active","ping":41},{"user_id":300,"name":"No.21 - Feral Scent","steam_id":76561198045844070,"connected_time":823000000000,"state":"active","ping":104},{"user_id":281,"name":"V_","steam_id":76561198147577835,"connected_time":2402000000000,"state":"active","ping":71},{"user_id":282,"name":"Recluse","steam_id":76561198155011568,"connected_time":2402000000000,"state":"active","ping":120},{"user_id":245,"name":"Catgirl Explise","steam_id":76561198044413891,"connected_time":4382000000000,"state":"active","ping":85},{"user_id":305,"name":"GKumo","steam_id":76561198023175868,"connected_time":138000000000,"state":"active","ping":64},{"user_id":266,"name":"2 Point Tom","steam_id":76561198087617008,"connected_time":3432000000000,"state":"active","ping":52},{"user_id":293,"name":"OrangeSodaMachine","steam_id":76561198079230156,"connected_time":1228000000000,"state":"active","ping":130},{"user_id":252,"name":"gloobern","steam_id":76561198341190679,"connected_time":4089000000000,"state":"active","ping":43},{"user_id":286,"name":"pjrock101","steam_id":76561198070616561,"connected_time":2257000000000,"state":"active","ping":49},{"user_id":288,"name":"Mikke","steam_id":76561198170234003,"connected_time":1372000000000,"state":"active","ping":78},{"user_id":265,"name":"The Grungler","steam_id":76561198126561438,"connected_time":3471000000000,"state":"active","ping":73},{"user_id":302,"name":"Capitalism","steam_id":76561198068677316,"connected_time":416000000000,"state":"active","ping":45},{"user_id":259,"name":"Supersonic","steam_id":76561198042167127,"connected_time":3686000000000,"state":"active","ping":60},{"user_id":297,"name":"Boxhead","steam_id":76561198010183947,"connected_time":1033000000000,"state":"active","ping":68},{"user_id":280,"name":"fish","steam_id":76561198182052198,"connected_time":2685000000000,"state":"active","ping":116},{"user_id":295,"name":"sheep","steam_id":76561198994761483,"connected_time":1175000000000,"state":"active","ping":90}]},{"server_id":119,"name":"Uncletopia | Seattle | 2 | All Maps","name_short":"sea-2","host":"sea-1.us.uncletopia.com","port":27025,"enabled":true,"region":"us-west","cc":"us","latitude":47.608013,"longitude":-122.33517,"reserved":0,"last_update":"0001-01-01T00:00:00Z","name_a2s":"Uncletopia | Seattle | 2 | All Maps","protocol":17,"map":"koth_lakeside_final","folder":"tf","game":"Team Fortress","app_id":440,"player_count":0,"max_players":24,"Bots":0,"server_type":"Dedicated","server_os":"Linux","password":true,"vac":true,"version":"7961495","steam_id":85568392924469998,"keywords":["cp","nocrits","nodmgspread","uncletopia"],"game_id":440,"stv_port":27026,"stv_name":"Uncletopia | Seattle | 2 | All Maps | STV","players":null},{"server_id":406,"name":"Uncletopia | Seattle | 3 | Stopwatch","name_short":"sea-3","host":"sea-1.us.uncletopia.com","port":27035,"enabled":true,"region":"us-west","cc":"us","latitude":47.608013,"longitude":-122.33517,"reserved":0,"last_update":"0001-01-01T00:00:00Z","name_a2s":"Uncletopia | Seattle | 3 | Stopwatch","protocol":17,"map":"cp_gullywash_final1","folder":"tf","game":"Team Fortress","app_id":440,"player_count":0,"max_players":24,"Bots":0,"server_type":"Dedicated","server_os":"Linux","password":true,"vac":true,"version":"7961495","steam_id":85568392924515217,"keywords":["cp","nocrits","nodmgspread","uncletopia"],"game_id":440,"stv_port":27036,"stv_name":"Uncletopia | Seattle | 3 | Stopwatch | STV","players":null},{"server_id":17,"name":"Uncletopia | San Francisco | 1 | All Maps","name_short":"sfo-1","host":"sfo-1.us.uncletopia.com","port":27015,"enabled":true,"region":"us-west","cc":"us","latitude":37.77397,"longitude":-122.4313,"reserved":0,"last_update":"0001-01-01T00:00:00Z","name_a2s":"Uncletopia | San Francisco | 1 | All Maps","protocol":17,"map":"koth_highpass","folder":"tf","game":"Team Fortress","app_id":440,"player_count":0,"max_players":24,"Bots":0,"server_type":"Dedicated","server_os":"Linux","password":true,"vac":true,"version":"7961495","steam_id":85568392924469999,"keywords":["cp","nocrits","nodmgspread","uncletopia"],"game_id":440,"stv_port":27016,"stv_name":"Uncletopia | San Francisco | 1 | All Maps | STV","players":null},{"server_id":18,"name":"Uncletopia | San Francisco | 2 | All Maps","name_short":"sfo-2","host":"sfo-1.us.uncletopia.com","port":27025,"enabled":true,"region":"us-west","cc":"us","latitude":37.77397,"longitude":-122.4313,"reserved":0,"last_update":"0001-01-01T00:00:00Z","name_a2s":"Uncletopia | San Francisco | 2 | All Maps","protocol":17,"map":"koth_cascade","folder":"tf","game":"Team Fortress","app_id":440,"player_count":0,"max_players":24,"Bots":0,"server_type":"Dedicated","server_os":"Linux","password":true,"vac":true,"version":"7961495","steam_id":85568392924470000,"keywords":["cp","nocrits","nodmgspread","uncletopia"],"game_id":440,"stv_port":27026,"stv_name":"Uncletopia | San Francisco | 2 | All Maps | STV","players":null},{"server_id":19,"name":"Uncletopia | San Francisco | 3 | Stopwatch","name_short":"sfo-3","host":"sfo-1.us.uncletopia.com","port":27035,"enabled":true,"region":"us-west","cc":"us","latitude":37.77397,"longitude":-122.4313,"reserved":0,"last_update":"0001-01-01T00:00:00Z","name_a2s":"Uncletopia | San Francisco | 3 | Stopwatch","protocol":17,"map":"pl_swiftwater_final1","folder":"tf","game":"Team Fortress","app_id":440,"player_count":0,"max_players":24,"Bots":0,"server_type":"Dedicated","server_os":"Linux","password":true,"vac":true,"version":"7961495","steam_id":85568392924742824,"keywords":["nocrits","nodmgspread","payload","uncletopia"],"game_id":440,"stv_port":27036,"stv_name":"Uncletopia | San Francisco | 3 | Stopwatch | STV","players":null},{"server_id":20,"name":"Uncletopia | San Francisco | 4 | Community","name_short":"sfo-4","host":"sfo-1.us.uncletopia.com","port":27045,"enabled":true,"region":"us-west","cc":"us","latitude":37.77397,"longitude":-122.4313,"reserved":0,"last_update":"0001-01-01T00:00:00Z","name_a2s":"Uncletopia | San Francisco | 4 | Community","protocol":17,"map":"workshop/cp_reckoner_rc6.ugc674719999","folder":"tf","game":"Team Fortress","app_id":440,"player_count":0,"max_players":24,"Bots":0,"server_type":"Dedicated","server_os":"Linux","password":true,"vac":true,"version":"7961495","steam_id":85568392924742826,"keywords":["cp","nocrits","nodmgspread","uncletopia"],"game_id":440,"stv_port":27046,"stv_name":"Uncletopia | San Francisco | 4 | Community | STV","players":null},{"server_id":141,"name":"Uncletopia | Sydney | 1 | All Maps","name_short":"syd-1","host":"syd-1.au.uncletopia.com","port":27015,"enabled":true,"region":"au","cc":"au","latitude":-33.865143,"longitude":151.2099,"reserved":0,"last_update":"0001-01-01T00:00:00Z","name_a2s":"Uncletopia | Sydney | 1 | All Maps","protocol":17,"map":"koth_lakeside_final","folder":"tf","game":"Team Fortress","app_id":440,"player_count":0,"max_players":24,"Bots":0,"server_type":"Dedicated","server_os":"Linux","password":true,"vac":true,"version":"7961495","steam_id":85568392924470001,"keywords":["cp","nocrits","nodmgspread","uncletopia"],"game_id":440,"stv_port":27016,"stv_name":"Uncletopia | Sydney | 1 | All Maps | STV","players":null},{"server_id":123,"name":"Uncletopia | Sydney | 2 | All Maps","name_short":"syd-2","host":"syd-1.au.uncletopia.com","port":27025,"enabled":true,"region":"au","cc":"au","latitude":-33.865143,"longitude":151.2099,"reserved":0,"last_update":"0001-01-01T00:00:00Z","name_a2s":"Uncletopia | Sydney | 2 | All Maps","protocol":17,"map":"cp_dustbowl","folder":"tf","game":"Team Fortress","app_id":440,"player_count":0,"max_players":24,"Bots":0,"server_type":"Dedicated","server_os":"Linux","password":true,"vac":true,"version":"7961495","steam_id":85568392924470002,"keywords":["cp","nocrits","nodmgspread","uncletopia"],"game_id":440,"stv_port":27026,"stv_name":"Uncletopia | Sydney | 2 | All Maps | STV","players":null},{"server_id":395,"name":"Uncletopia | Sydney | 3 | All Maps","name_short":"syd-3","host":"syd-1.au.uncletopia.com","port":27035,"enabled":true,"region":"au","cc":"au","latitude":-33.865143,"longitude":151.2099,"reserved":0,"last_update":"0001-01-01T00:00:00Z","name_a2s":"Uncletopia | Sydney | 3 | All Maps","protocol":17,"map":"cp_sunshine","folder":"tf","game":"Team Fortress","app_id":440,"player_count":0,"max_players":24,"Bots":0,"server_type":"Dedicated","server_os":"Linux","password":true,"vac":true,"version":"7961495","steam_id":85568392925194467,"keywords":["cp","nocrits","nodmgspread","uncletopia"],"game_id":440,"stv_port":27036,"stv_name":"Uncletopia | Sydney | 3 | All Maps | STV","players":null},{"server_id":396,"name":"Uncletopia | Sydney | 4 | All Maps","name_short":"syd-4","host":"syd-1.au.uncletopia.com","port":27045,"enabled":true,"region":"au","cc":"au","latitude":-33.865143,"longitude":151.2099,"reserved":0,"last_update":"0001-01-01T00:00:00Z","name_a2s":"Uncletopia | Sydney | 4 | All Maps","protocol":17,"map":"koth_cascade","folder":"tf","game":"Team Fortress","app_id":440,"player_count":0,"max_players":24,"Bots":0,"server_type":"Dedicated","server_os":"Linux","password":true,"vac":true,"version":"7961495","steam_id":85568392925397958,"keywords":["cp","nocrits","nodmgspread","uncletopia"],"game_id":440,"stv_port":27046,"stv_name":"Uncletopia | Sydney | 4 | All Maps | STV","players":null},{"server_id":58,"name":"Uncletopia | Sydney | 5 | Stopwatch","name_short":"syd-5","host":"syd-1.au.uncletopia.com","port":27055,"enabled":true,"region":"au","cc":"au","latitude":-33.865143,"longitude":151.2099,"reserved":0,"last_update":"0001-01-01T00:00:00Z","name_a2s":"Uncletopia | Sydney | 5 | Stopwatch","protocol":17,"map":"workshop/koth_bagel_rc6.ugc2514036946","folder":"tf","game":"Team Fortress","app_id":440,"player_count":0,"max_players":24,"Bots":0,"server_type":"Dedicated","server_os":"Linux","password":true,"vac":true,"version":"7961495","steam_id":85568392925397959,"keywords":["cp","nocrits","nodmgspread","uncletopia"],"game_id":440,"stv_port":27056,"stv_name":"Uncletopia | Sydney | 5 | Stopwatch | STV","players":null},{"server_id":59,"name":"Uncletopia | Sydney | 6 | Community","name_short":"syd-6","host":"syd-1.au.uncletopia.com","port":27065,"enabled":true,"region":"au","cc":"au","latitude":-33.865143,"longitude":151.2099,"reserved":0,"last_update":"0001-01-01T00:00:00Z","name_a2s":"Uncletopia | Sydney | 6 | Community","protocol":17,"map":"workshop/koth_ashville_final.ugc2130459942","folder":"tf","game":"Team Fortress","app_id":440,"player_count":0,"max_players":24,"Bots":0,"server_type":"Dedicated","server_os":"Linux","password":true,"vac":true,"version":"7961495","steam_id":85568392925397960,"keywords":["cp","nocrits","nodmgspread","uncletopia"],"game_id":440,"stv_port":27066,"stv_name":"Uncletopia | Sydney | 6 | Community | STV","players":null},{"server_id":49,"name":"Uncletopia | Warsaw | 1 | One Thousand Uncles","name_short":"waw-1","host":"waw-1.pl.uncletopia.com","port":27015,"enabled":true,"region":"eu","cc":"pl","latitude":52.2297,"longitude":21.017532,"reserved":0,"last_update":"0001-01-01T00:00:00Z","name_a2s":"Uncletopia | Warsaw | 1 | One Thousand Uncles","protocol":17,"map":"pl_upward","folder":"tf","game":"Team Fortress","app_id":440,"player_count":32,"max_players":32,"Bots":16,"server_type":"Dedicated","server_os":"Linux","password":true,"vac":true,"version":"7961495","steam_id":85568392925397850,"keywords":["alltalk","bots","danepve","increased_maxplayers","norespawntime","payload","uncletopia"],"game_id":440,"stv_port":0,"stv_name":"","players":[{"user_id":571,"name":"adv6","steam_id":76561198029789989,"connected_time":2179000000000,"state":"active","ping":73},{"user_id":448,"name":"CHEK","steam_id":76561199474613865,"connected_time":11861000000000,"state":"active","ping":97},{"user_id":466,"name":"Senpaiãƒ„","steam_id":76561198857611627,"connected_time":10479000000000,"state":"active","ping":75},{"user_id":595,"name":"Cynthia","steam_id":76561198874418999,"connected_time":796000000000,"state":"active","ping":72},{"user_id":614,"name":"Kaia Brodbecker","steam_id":76561198294109951,"connected_time":418000000000,"state":"active","ping":101},{"user_id":596,"name":"[]Ð¿Ð°Ð¿Ð°[]Ð³ÐµÑ‚Ñ‚Ð¾[]","steam_id":76561199486729516,"connected_time":727000000000,"state":"active","ping":47},{"user_id":615,"name":"Sigma","steam_id":76561198086510020,"connected_time":373000000000,"state":"active","ping":158},{"user_id":616,"name":"Le Juge","steam_id":76561199196283622,"connected_time":321000000000,"state":"active","ping":188},{"user_id":590,"name":"vurtun","steam_id":76561198857395274,"connected_time":1753000000000,"state":"active","ping":61},{"user_id":592,"name":"Flying skyhigh","steam_id":76561198372971096,"connected_time":1544000000000,"state":"active","ping":99},{"user_id":617,"name":"Black_Knight","steam_id":76561198350957192,"connected_time":217000000000,"state":"active","ping":63},{"user_id":618,"name":"biodeath30","steam_id":76561198315826675,"connected_time":134000000000,"state":"spawning","ping":52},{"user_id":619,"name":"GAYPORN69","steam_id":76561199473267237,"connected_time":78000000000,"state":"active","ping":54},{"user_id":620,"name":"A SODA FROM THE FRIDGE","steam_id":76561199393312258,"connected_time":46000000000,"state":"active","ping":61},{"user_id":561,"name":"Jared","steam_id":76561198020432651,"connected_time":3510000000000,"state":"active","ping":148},{"user_id":621,"name":"Millennial on phone","steam_id":76561199083638722,"connected_time":38000000000,"state":"spawning","ping":179}]},{"server_id":50,"name":"Uncletopia | Warsaw | 2 | One Thousand Uncles","name_short":"waw-2","host":"waw-1.pl.uncletopia.com","port":27025,"enabled":true,"region":"eu","cc":"pl","latitude":52.2297,"longitude":21.017532,"reserved":0,"last_update":"0001-01-01T00:00:00Z","name_a2s":"Uncletopia | Warsaw | 2 | One Thousand Uncles","protocol":17,"map":"pl_thundermountain","folder":"tf","game":"Team Fortress","app_id":440,"player_count":24,"max_players":32,"Bots":16,"server_type":"Dedicated","server_os":"Linux","password":true,"vac":true,"version":"7961495","steam_id":85568392925397851,"keywords":["alltalk","bots","danepve","increased_maxplayers","norespawntime","payload","uncletopia"],"game_id":440,"stv_port":0,"stv_name":"","players":[{"user_id":208,"name":"Lavi","steam_id":76561198000911853,"connected_time":1343000000000,"state":"active","ping":77},{"user_id":186,"name":"KipxSateee","steam_id":76561198149158137,"connected_time":2276000000000,"state":"active","ping":69},{"user_id":213,"name":"Miksi","steam_id":76561199138567944,"connected_time":566000000000,"state":"active","ping":75},{"user_id":214,"name":"TekuSP","steam_id":76561198072367754,"connected_time":154000000000,"state":"active","ping":47},{"user_id":211,"name":"The Troglodyte","steam_id":76561199119744358,"connected_time":878000000000,"state":"active","ping":73},{"user_id":212,"name":"Womanticore","steam_id":76561199235582031,"connected_time":772000000000,"state":"active","ping":254},{"user_id":215,"name":"Blipper the Dialated","steam_id":76561198800726749,"connected_time":74000000000,"state":"active","ping":153},{"user_id":210,"name":"LightBulbGlue #SaveTF2","steam_id":76561198329573529,"connected_time":1143000000000,"state":"active","ping":177}]},{"server_id":51,"name":"Uncletopia | Warsaw | 3 | All Maps","name_short":"waw-3","host":"waw-1.pl.uncletopia.com","port":27035,"enabled":true,"region":"eu","cc":"pl","latitude":52.2297,"longitude":21.017532,"reserved":0,"last_update":"0001-01-01T00:00:00Z","name_a2s":"Uncletopia | Warsaw | 3 | All Maps","protocol":17,"map":"koth_viaduct","folder":"tf","game":"Team Fortress","app_id":440,"player_count":0,"max_players":24,"Bots":0,"server_type":"Dedicated","server_os":"Linux","password":true,"vac":true,"version":"7961495","steam_id":85568392925397852,"keywords":["cp","nocrits","nodmgspread","uncletopia"],"game_id":440,"stv_port":27036,"stv_name":"Uncletopia | Warsaw | 3 | All Maps | STV","players":null},{"server_id":52,"name":"Uncletopia | Warsaw | 4 | All Maps","name_short":"waw-4","host":"waw-1.pl.uncletopia.com","port":27045,"enabled":true,"region":"eu","cc":"pl","latitude":52.2297,"longitude":21.017532,"reserved":0,"last_update":"0001-01-01T00:00:00Z","name_a2s":"Uncletopia | Warsaw | 4 | All Maps","protocol":17,"map":"pl_swiftwater_final1","folder":"tf","game":"Team Fortress","app_id":440,"player_count":2,"max_players":24,"Bots":0,"server_type":"Dedicated","server_os":"Linux","password":true,"vac":true,"version":"7961495","steam_id":85568392925397853,"keywords":["nocrits","nodmgspread","payload","uncletopia"],"game_id":440,"stv_port":27046,"stv_name":"Uncletopia | Warsaw | 4 | All Maps | STV","players":[{"user_id":14,"name":"Turecki GoÅ‚Ä…b","steam_id":76561199116183115,"connected_time":1285000000000,"state":"active","ping":49},{"user_id":15,"name":"killed by Kacper.exe","steam_id":76561199075173183,"connected_time":1272000000000,"state":"active","ping":35}]},{"server_id":53,"name":"Uncletopia | Warsaw | 5 | Stopwatch","name_short":"waw-5","host":"waw-1.pl.uncletopia.com","port":27055,"enabled":true,"region":"eu","cc":"pl","latitude":52.2297,"longitude":21.017532,"reserved":0,"last_update":"0001-01-01T00:00:00Z","name_a2s":"Uncletopia | Warsaw | 5 | Stopwatch","protocol":17,"map":"koth_highpass","folder":"tf","game":"Team Fortress","app_id":440,"player_count":0,"max_players":24,"Bots":0,"server_type":"Dedicated","server_os":"Linux","password":true,"vac":true,"version":"7961495","steam_id":85568392925397854,"keywords":["cp","nocrits","nodmgspread","uncletopia"],"game_id":440,"stv_port":27056,"stv_name":"Uncletopia | Warsaw | 5 | Stopwatch | STV","players":null},{"server_id":54,"name":"Uncletopia | Warsaw | 6 | Community","name_short":"waw-6","host":"waw-1.pl.uncletopia.com","port":27065,"enabled":true,"region":"eu","cc":"pl","latitude":52.2297,"longitude":21.017532,"reserved":0,"last_update":"0001-01-01T00:00:00Z","name_a2s":"Uncletopia | Warsaw | 6 | Community","protocol":17,"map":"workshop/cp_overgrown_rc8.ugc503939302","folder":"tf","game":"Team Fortress","app_id":440,"player_count":0,"max_players":24,"Bots":0,"server_type":"Dedicated","server_os":"Linux","password":true,"vac":true,"version":"7961495","steam_id":85568392925397856,"keywords":["cp","nocrits","nodmgspread","uncletopia"],"game_id":440,"stv_port":27066,"stv_name":"Uncletopia | Warsaw | 6 | Community | STV","players":null}]}