{"status":true,"message":"","result":[{"server_id":9,"name":"Uncletopia | Atlanta | 1 | All Maps","name_short":"atl-1","host":"atl-1.us.uncletopia.com","port":27015,"enabled":true,"region":"us-east","cc":"us","latitude":33.753746,"longitude":-84.38633,"reserved":0,"last_update":"0001-01-01T00:00:00Z","name_a2s":"Uncletopia | Atlanta | 1 | All Maps","protocol":17,"map":"pl_barnblitz","folder":"tf","game":"Team Fortress","app_id":440,"player_count":25,"max_players":24,"Bots":0,"server_type":"Dedicated","server_os":"Linux","password":true,"vac":true,"version":"7757534","steam_id":85568392924469982,"keywords":["nocrits","nodmgspread","payload","uncletopia"],"game_id":440,"stv_port":27016,"stv_name":"Uncletopia | Atlanta | 1 | All Maps | STV","players":[{"user_id":226,"name":"Bandi","steam_id":76561198432036026,"connected_time":1426000000000,"state":"active","ping":50},{"user_id":215,"name":"SparkStorm","steam_id":76561198095817025,"connected_time":2037000000000,"state":"active","ping":35},{"user_id":289,"name":"LadyAnon","steam_id":76561198014709418,"connected_time":26000000000,"state":"active","ping":57},{"user_id":216,"name":"Eins","steam_id":76561199030343810,"connected_time":2036000000000,"state":"active","ping":42},{"user_id":194,"name":"O'Keearns","steam_id":76561198042213797,"connected_time":4085000000000,"state":"active","ping":43},{"user_id":217,"name":"cyclops","steam_id":76561197970370198,"connected_time":2025000000000,"state":"active","ping":84},{"user_id":290,"name":"ToddStool","steam_id":76561198338144919,"connected_time":5000000000,"state":"spawning","ping":122},{"user_id":267,"name":"ATL1 | Avo","steam_id":76561197993340494,"connected_time":608000000000,"state":"active","ping":63},{"user_id":274,"name":"DJ Sheeve","steam_id":76561198095910139,"connected_time":365000000000,"state":"active","ping":92},{"user_id":218,"name":"Higgle Poggers","steam_id":76561198043960257,"connected_time":2025000000000,"state":"active","ping":68},{"user_id":234,"name":"ATL1 | Lancer Fan Club","steam_id":76561198355495948,"connected_time":1287000000000,"state":"active","ping":64},{"user_id":178,"name":"Bali","steam_id":76561198038693845,"connected_time":5137000000000,"state":"active","ping":69},{"user_id":273,"name":"Spooky Scary","steam_id":76561198195388759,"connected_time":386000000000,"state":"active","ping":54},{"user_id":222,"name":"snoops","steam_id":76561197986760351,"connected_time":1802000000000,"state":"active","ping":76},{"user_id":266,"name":"Genetic Komodo (He/Him)","steam_id":76561198174806758,"connected_time":676000000000,"state":"active","ping":53},{"user_id":276,"name":"Fresh0c0","steam_id":76561198271933283,"connected_time":245000000000,"state":"active","ping":96},{"user_id":200,"name":"Brown_Dream","steam_id":76561198975766145,"connected_time":3948000000000,"state":"active","ping":68},{"user_id":231,"name":"Mug","steam_id":76561199282207802,"connected_time":1313000000000,"state":"active","ping":69},{"user_id":265,"name":"ATL1 | Crystron","steam_id":76561198880437428,"connected_time":878000000000,"state":"active","ping":89},{"user_id":239,"name":"Gian","steam_id":76561198098575593,"connected_time":1208000000000,"state":"active","ping":96},{"user_id":270,"name":"Legit_Jaxer","steam_id":76561198172234053,"connected_time":470000000000,"state":"active","ping":106},{"user_id":53,"name":"scuba doo warfare","steam_id":76561198018761740,"connected_time":14541000000000,"state":"active","ping":77},{"user_id":119,"name":"lil hog","steam_id":76561199230929836,"connected_time":10523000000000,"state":"active","ping":80},{"user_id":192,"name":"Motorol¬™","steam_id":76561198358119669,"connected_time":4275000000000,"state":"active","ping":142},{"user_id":201,"name":"Dr. drips","steam_id":76561198209380493,"connected_time":3947000000000,"state":"active","ping":62}]},{"server_id":104,"name":"Uncletopia | Atlanta | 2 | All Maps","name_short":"atl-2","host":"atl-1.us.uncletopia.com","port":27025,"enabled":true,"region":"us-east","cc":"us","latitude":33.753746,"longitude":-84.38633,"reserved":0,"last_update":"0001-01-01T00:00:00Z","name_a2s":"Uncletopia | Atlanta | 2 | All Maps","protocol":17,"map":"pl_pier","folder":"tf","game":"Team Fortress","app_id":440,"player_count":21,"max_players":24,"Bots":0,"server_type":"Dedicated","server_os":"Linux","password":true,"vac":true,"version":"7757534","steam_id":85568392924469983,"keywords":["cp","nocrits","nodmgspread","uncletopia"],"game_id":440,"stv_port":27026,"stv_name":"Uncletopia | Atlanta | 2 | All Maps | STV","players":[{"user_id":57,"name":"Pluto","steam_id":76561198338593690,"connected_time":2397000000000,"state":"connecting","ping":81},{"user_id":35,"name":"uhooter","steam_id":76561198007829078,"connected_time":3320000000000,"state":"connecting","ping":85},{"user_id":24,"name":"box","steam_id":76561198985635309,"connected_time":3577000000000,"state":"connecting","ping":93},{"user_id":41,"name":"jeremimi","steam_id":76561198818225102,"connected_time":2958000000000,"state":"connecting","ping":116},{"user_id":74,"name":"nav","steam_id":76561198872608266,"connected_time":268000000000,"state":"connecting","ping":78},{"user_id":42,"name":"POOTIS_OVERLORD","steam_id":76561198063850303,"connected_time":2932000000000,"state":"connecting","ping":81},{"user_id":73,"name":"dylanbackspace","steam_id":76561198820174633,"connected_time":311000000000,"state":"connecting","ping":77},{"user_id":40,"name":"Animal Slices","steam_id":76561198137545511,"connected_time":3006000000000,"state":"connecting","ping":94},{"user_id":75,"name":"KyonHB","steam_id":76561198050311904,"connected_time":74000000000,"state":"connecting","ping":80},{"user_id":78,"name":"aaronslammer","steam_id":76561198050136796,"connected_time":7000000000,"state":"connecting","ping":209},{"user_id":69,"name":"Rhutebeer","steam_id":76561198018302761,"connected_time":1081000000000,"state":"connecting","ping":77},{"user_id":39,"name":"exotic fishes","steam_id":76561199046490785,"connected_time":3057000000000,"state":"connecting","ping":106},{"user_id":76,"name":"TF2 2023 SUMMER UPDATE","steam_id":76561198084982609,"connected_time":21000000000,"state":"connecting","ping":101},{"user_id":45,"name":"Path","steam_id":76561198106831514,"connected_time":2823000000000,"state":"connecting","ping":79},{"user_id":46,"name":"bobbyreinman2009","steam_id":76561198804763186,"connected_time":2775000000000,"state":"connecting","ping":89},{"user_id":77,"name":"runescape sea_shanty2","steam_id":76561198397662124,"connected_time":19000000000,"state":"connecting","ping":88},{"user_id":49,"name":"ib88","steam_id":76561198364967316,"connected_time":2562000000000,"state":"connecting","ping":209},{"user_id":50,"name":"Pizzaguy108","steam_id":76561198972791353,"connected_time":2561000000000,"state":"connecting","ping":94},{"user_id":71,"name":"Yep","steam_id":76561198041437251,"connected_time":588000000000,"state":"connecting","ping":196},{"user_id":63,"name":"custodian","steam_id":76561198058793778,"connected_time":1896000000000,"state":"connecting","ping":90},{"user_id":72,"name":"webbchess","steam_id":76561198825450565,"connected_time":579000000000,"state":"connecting","ping":99}]},{"server_id":400,"name":"Uncletopia | Atlanta | 3 | Community","name_short":"atl-3","host":"atl-1.us.uncletopia.com","port":27035,"enabled":true,"region":"us-east","cc":"us","latitude":33.753746,"longitude":-84.38633,"reserved":0,"last_update":"0001-01-01T00:00:00Z","name_a2s":"Uncletopia | Atlanta | 3 | Community","protocol":17,"map":"workshop/cp_caldera_rc2.ugc2834196889","folder":"tf","game":"Team Fortress","app_id":440,"player_count":0,"max_players":24,"Bots":0,"server_type":"Dedicated","server_os":"Linux","password":true,"vac":true,"version":"7757534","steam_id":85568392924515187,"keywords":["cp","nocrits","nodmgspread","uncletopia"],"game_id":440,"stv_port":27036,"stv_name":"Uncletopia | Atlanta | 3 | Community | STV","players":null},{"server_id":401,"name":"Uncletopia | Atlanta | 4 | No Payload","name_short":"atl-4","host":"atl-1.us.uncletopia.com","port":27045,"enabled":true,"region":"us-east","cc":"us","latitude":33.753746,"longitude":-84.38633,"reserved":0,"last_update":"0001-01-01T00:00:00Z","name_a2s":"","protocol":0,"map":"","folder":"","game":"","app_id":0,"player_count":0,"max_players":0,"Bots":0,"server_type":"","server_os":"","password":false,"vac":false,"version":"","steam_id":0,"keywords":null,"game_id":0,"stv_port":0,"stv_name":"","players":null},{"server_id":2,"name":"Uncletopia | Chicago | 1 | All Maps","name_short":"chi-1","host":"chi-1.us.uncletopia.com","port":27015,"enabled":true,"region":"us-central","cc":"us","latitude":41.881832,"longitude":-87.62318,"reserved":0,"last_update":"0001-01-01T00:00:00Z","name_a2s":"Uncletopia | Chicago | 1 | All Maps","protocol":17,"map":"pl_barnblitz","folder":"tf","game":"Team Fortress","app_id":440,"player_count":24,"max_players":24,"Bots":0,"server_type":"Dedicated","server_os":"Linux","password":true,"vac":true,"version":"7757534","steam_id":85568392924469984,"keywords":["nocrits","nodmgspread","payload","uncletopia"],"game_id":440,"stv_port":27016,"stv_name":"Uncletopia | Chicago | 1 | All Maps | STV","players":[{"user_id":279,"name":"volta","steam_id":76561199214283884,"connected_time":960000000000,"state":"active","ping":105},{"user_id":272,"name":"[ŸäŸáŸàÿØŸä] Bill Clinton [◊ê◊ú","steam_id":76561198163291190,"connected_time":2182000000000,"state":"active","ping":84},{"user_id":265,"name":"Tobo","steam_id":76561198085846393,"connected_time":2822000000000,"state":"active","ping":94},{"user_id":269,"name":"Howard Hamlin","steam_id":76561198881039861,"connected_time":2523000000000,"state":"active","ping":67},{"user_id":294,"name":"CinnamonBoy","steam_id":76561198882330338,"connected_time":197000000000,"state":"active","ping":77},{"user_id":291,"name":"DerrickHenryFan2012","steam_id":76561198254452687,"connected_time":537000000000,"state":"active","ping":124},{"user_id":284,"name":"yeyoi","steam_id":76561198069821885,"connected_time":929000000000,"state":"active","ping":64},{"user_id":211,"name":"NovaSc6ut","steam_id":76561198277163301,"connected_time":6744000000000,"state":"active","ping":64},{"user_id":259,"name":"sensitize","steam_id":76561198350134869,"connected_time":3535000000000,"state":"active","ping":58},{"user_id":276,"name":"Baka!‚ë®‚ë®‚ë®‚ë®","steam_id":76561198152948254,"connected_time":1674000000000,"state":"active","ping":66},{"user_id":286,"name":"[MNLY]Otter","steam_id":76561198400829471,"connected_time":690000000000,"state":"active","ping":83},{"user_id":287,"name":"GatoSeiko","steam_id":76561198001001360,"connected_time":631000000000,"state":"active","ping":171},{"user_id":252,"name":"Discourse","steam_id":76561198984286678,"connected_time":4143000000000,"state":"active","ping":57},{"user_id":268,"name":"Mike Charlie","steam_id":76561199470538309,"connected_time":2566000000000,"state":"active","ping":174},{"user_id":281,"name":"bruiseraaron","steam_id":76561198020092380,"connected_time":951000000000,"state":"active","ping":53},{"user_id":282,"name":"WatchWill","steam_id":76561198157237945,"connected_time":949000000000,"state":"active","ping":72},{"user_id":225,"name":"Boba T","steam_id":76561198012278650,"connected_time":6095000000000,"state":"active","ping":109},{"user_id":226,"name":"test","steam_id":76561198197388678,"connected_time":6093000000000,"state":"active","ping":79},{"user_id":292,"name":"SafetyInstructor","steam_id":76561199195205705,"connected_time":531000000000,"state":"active","ping":77},{"user_id":295,"name":"Nexusuxen","steam_id":76561198117547131,"connected_time":68000000000,"state":"active","ping":73},{"user_id":293,"name":"GLURRIN","steam_id":76561198315690955,"connected_time":528000000000,"state":"active","ping":56},{"user_id":290,"name":"AiRBiscuiT","steam_id":76561198348655114,"connected_time":588000000000,"state":"active","ping":146},{"user_id":253,"name":"Rich Kitten","steam_id":76561199152388008,"connected_time":4142000000000,"state":"active","ping":57},{"user_id":262,"name":"Ras","steam_id":76561198123546775,"connected_time":3217000000000,"state":"active","ping":61}]},{"server_id":106,"name":"Uncletopia | Chicago | 2 | All Maps","name_short":"chi-2","host":"chi-1.us.uncletopia.com","port":27025,"enabled":true,"region":"us-central","cc":"us","latitude":41.881832,"longitude":-87.62318,"reserved":0,"last_update":"0001-01-01T00:00:00Z","name_a2s":"Uncletopia | Chicago | 2 | All Maps","protocol":17,"map":"koth_nucleus","folder":"tf","game":"Team Fortress","app_id":440,"player_count":1,"max_players":24,"Bots":0,"server_type":"Dedicated","server_os":"Linux","password":true,"vac":true,"version":"7757534","steam_id":85568392924469985,"keywords":["cp","nocrits","nodmgspread","uncletopia"],"game_id":440,"stv_port":27026,"stv_name":"Uncletopia | Chicago | 2 | All Maps | STV","players":[{"user_id":24,"name":"The Real Jetpack Jackson","steam_id":76561199009471455,"connected_time":185000000000,"state":"active","ping":105}]},{"server_id":402,"name":"Uncletopia | Chicago | 3 | All Maps","name_short":"chi-3","host":"chi-1.us.uncletopia.com","port":27035,"enabled":true,"region":"us-central","cc":"us","latitude":41.881832,"longitude":-87.62318,"reserved":0,"last_update":"0001-01-01T00:00:00Z","name_a2s":"Uncletopia | Chicago | 3 | All Maps","protocol":17,"map":"pl_barnblitz","folder":"tf","game":"Team Fortress","app_id":440,"player_count":24,"max_players":24,"Bots":0,"server_type":"Dedicated","server_os":"Linux","password":true,"vac":true,"version":"7757534","steam_id":85568392924515191,"keywords":["nocrits","nodmgspread","payload","uncletopia"],"game_id":440,"stv_port":27036,"stv_name":"Uncletopia | Chicago | 3 | All Maps | STV","players":[{"user_id":342,"name":"Nefy","steam_id":76561198030017316,"connected_time":2266000000000,"state":"active","ping":85},{"user_id":343,"name":"Soul_Intern","steam_id":76561198310238109,"connected_time":2250000000000,"state":"active","ping":95},{"user_id":339,"name":"sweppy","steam_id":76561198035457667,"connected_time":2390000000000,"state":"active","ping":62},{"user_id":353,"name":"The Feds","steam_id":76561199134834554,"connected_time":1174000000000,"state":"active","ping":84},{"user_id":275,"name":"Jill the Owl","steam_id":76561197999210583,"connected_time":5485000000000,"state":"active","ping":70},{"user_id":304,"name":"gNarNar","steam_id":76561197994505205,"connected_time":4070000000000,"state":"active","ping":61},{"user_id":347,"name":"Quibbli","steam_id":76561199214866732,"connected_time":1535000000000,"state":"active","ping":63},{"user_id":361,"name":"TheLobsterInQuestion","steam_id":76561198888928334,"connected_time":387000000000,"state":"active","ping":71},{"user_id":356,"name":"Not What He Wanted to Cook","steam_id":76561198057374871,"connected_time":872000000000,"state":"active","ping":62},{"user_id":352,"name":"Aegis","steam_id":76561198272052750,"connected_time":1341000000000,"state":"active","ping":75},{"user_id":359,"name":"B0otstrut beel","steam_id":76561198202457221,"connected_time":699000000000,"state":"active","ping":70},{"user_id":360,"name":"Lightish Red","steam_id":76561198060879701,"connected_time":514000000000,"state":"active","ping":45},{"user_id":338,"name":"Barry","steam_id":76561198983866005,"connected_time":2419000000000,"state":"active","ping":66},{"user_id":350,"name":"Quark","steam_id":76561198328155605,"connected_time":1465000000000,"state":"active","ping":49},{"user_id":327,"name":"ChocoCrispChunks","steam_id":76561198881926539,"connected_time":2843000000000,"state":"active","ping":110},{"user_id":317,"name":"Business skeleton","steam_id":76561198840648058,"connected_time":3067000000000,"state":"active","ping":52},{"user_id":366,"name":"Texas Man","steam_id":76561198353412986,"connected_time":174000000000,"state":"active","ping":108},{"user_id":362,"name":"Anger No Vanquish","steam_id":76561198100942212,"connected_time":354000000000,"state":"active","ping":80},{"user_id":367,"name":"Rukks","steam_id":76561197993918954,"connected_time":13000000000,"state":"active","ping":343},{"user_id":354,"name":"|WS| Don't_Taze_Me_Bro","steam_id":76561198043289495,"connected_time":1150000000000,"state":"active","ping":73},{"user_id":329,"name":"ManOfManyBeans","steam_id":76561199213349938,"connected_time":2828000000000,"state":"active","ping":72},{"user_id":263,"name":"Bread Baker","steam_id":76561198185335103,"connected_time":5790000000000,"state":"active","ping":69},{"user_id":331,"name":"(‚óî) Neville","steam_id":76561198025637970,"connected_time":2766000000000,"state":"active","ping":75},{"user_id":365,"name":"Heisenberg","steam_id":76561198084212164,"connected_time":287000000000,"state":"active","ping":93}]},{"server_id":403,"name":"Uncletopia | Chicago | 4 | All Maps","name_short":"chi-4","host":"chi-1.us.uncletopia.com","port":27045,"enabled":true,"region":"us-central","cc":"us","latitude":41.881832,"longitude":-87.62318,"reserved":0,"last_update":"0001-01-01T00:00:00Z","name_a2s":"Uncletopia | Chicago | 4 | All Maps","protocol":17,"map":"cp_process_final","folder":"tf","game":"Team Fortress","app_id":440,"player_count":24,"max_players":24,"Bots":0,"server_type":"Dedicated","server_os":"Linux","password":true,"vac":true,"version":"7757534","steam_id":85568392924515193,"keywords":["cp","nocrits","nodmgspread","uncletopia"],"game_id":440,"stv_port":27046,"stv_name":"Uncletopia | Chicago | 4 | All Maps | STV","players":[{"user_id":469,"name":"dahperson","steam_id":76561198067207467,"connected_time":3975000000000,"state":"active","ping":55},{"user_id":448,"name":"Rec","steam_id":76561198022813906,"connected_time":5375000000000,"state":"active","ping":49},{"user_id":499,"name":"Gandalf Gaming","steam_id":76561198368151490,"connected_time":842000000000,"state":"active","ping":60},{"user_id":514,"name":"Furious George","steam_id":76561198405111646,"connected_time":525000000000,"state":"active","ping":99},{"user_id":515,"name":"023e20902o0239ee02390o239e","steam_id":76561198175741741,"connected_time":523000000000,"state":"active","ping":74},{"user_id":504,"name":"Kris","steam_id":76561198116511493,"connected_time":813000000000,"state":"active","ping":135},{"user_id":480,"name":"poe","steam_id":76561198155720118,"connected_time":2828000000000,"state":"active","ping":57},{"user_id":477,"name":"Mindset","steam_id":76561198107074449,"connected_time":2844000000000,"state":"active","ping":56},{"user_id":523,"name":"The local hobo","steam_id":76561198289650060,"connected_time":52000000000,"state":"active","ping":86},{"user_id":458,"name":"B.","steam_id":76561198040445907,"connected_time":4346000000000,"state":"active","ping":72},{"user_id":521,"name":"Deathninja952","steam_id":76561199066489355,"connected_time":434000000000,"state":"active","ping":95},{"user_id":496,"name":"JSClinton","steam_id":76561198067487389,"connected_time":1819000000000,"state":"active","ping":76},{"user_id":518,"name":"Cousin Corn on the Cob","steam_id":76561198049837377,"connected_time":517000000000,"state":"active","ping":47},{"user_id":476,"name":"TransSammie","steam_id":76561198046331930,"connected_time":3219000000000,"state":"active","ping":102},{"user_id":513,"name":"Barlon","steam_id":76561198023717515,"connected_time":599000000000,"state":"active","ping":75},{"user_id":522,"name":"AX0L_","steam_id":76561199008960175,"connected_time":307000000000,"state":"active","ping":56},{"user_id":454,"name":"Jak(i)","steam_id":76561198076823144,"connected_time":4846000000000,"state":"active","ping":69},{"user_id":497,"name":"l0ne","steam_id":76561198138424835,"connected_time":1721000000000,"state":"active","ping":78},{"user_id":519,"name":"Seojer","steam_id":76561198234965408,"connected_time":517000000000,"state":"active","ping":110},{"user_id":486,"name":"matt fong","steam_id":76561198271946754,"connected_time":2689000000000,"state":"active","ping":74},{"user_id":498,"name":"Addy \u003c3","steam_id":76561198045819723,"connected_time":1353000000000,"state":"active","ping":93},{"user_id":450,"name":"b√ºddeh","steam_id":76561198070735936,"connected_time":5228000000000,"state":"active","ping":61},{"user_id":490,"name":"primordialheath","steam_id":76561199386942638,"connected_time":2594000000000,"state":"active","ping":55},{"user_id":492,"name":"the ifunny watermark","steam_id":76561198077272494,"connected_time":2218000000000,"state":"active","ping":51}]},{"server_id":36,"name":"Uncletopia | Chicago | 5 | All Maps","name_short":"chi-5","host":"chi-2.us.uncletopia.com","port":27015,"enabled":true,"region":"us-central","cc":"us","latitude":41.881832,"longitude":-87.62318,"reserved":0,"last_update":"0001-01-01T00:00:00Z","name_a2s":"Uncletopia | Chicago | 5 | All Maps","protocol":17,"map":"koth_cascade","folder":"tf","game":"Team Fortress","app_id":440,"player_count":0,"max_players":24,"Bots":0,"server_type":"Dedicated","server_os":"Linux","password":true,"vac":true,"version":"7757534","steam_id":85568392924866362,"keywords":["cp","nocrits","nodmgspread","uncletopia"],"game_id":440,"stv_port":27016,"stv_name":"Uncletopia | Chicago | 5 | All Maps | STV","players":null},{"server_id":37,"name":"Uncletopia | Chicago | 6 | All Maps","name_short":"chi-6","host":"chi-2.us.uncletopia.com","port":27025,"enabled":true,"region":"us-central","cc":"us","latitude":41.881832,"longitude":-87.62318,"reserved":0,"last_update":"0001-01-01T00:00:00Z","name_a2s":"Uncletopia | Chicago | 6 | All Maps","protocol":17,"map":"pl_swiftwater_final1","folder":"tf","game":"Team Fortress","app_id":440,"player_count":24,"max_players":24,"Bots":0,"server_type":"Dedicated","server_os":"Linux","password":true,"vac":true,"version":"7757534","steam_id":85568392924866363,"keywords":["nocrits","nodmgspread","payload","uncletopia"],"game_id":440,"stv_port":27026,"stv_name":"Uncletopia | Chicago | 6 | All Maps | STV","players":[{"user_id":397,"name":"Error 4 Oh Four","steam_id":76561198121637567,"connected_time":1014000000000,"state":"active","ping":74},{"user_id":395,"name":"playername","steam_id":76561198121955432,"connected_time":1136000000000,"state":"active","ping":47},{"user_id":405,"name":"Matt","steam_id":76561198008108521,"connected_time":737000000000,"state":"active","ping":70},{"user_id":404,"name":"Fandor","steam_id":76561198115777254,"connected_time":835000000000,"state":"active","ping":75},{"user_id":414,"name":"Alice in Rubberland","steam_id":76561198087328346,"connected_time":520000000000,"state":"active","ping":45},{"user_id":415,"name":"Pohnut","steam_id":76561198087831690,"connected_time":520000000000,"state":"active","ping":136},{"user_id":407,"name":"Ned Ryerson","steam_id":76561198014574925,"connected_time":734000000000,"state":"active","ping":69},{"user_id":412,"name":"3ggsalad3","steam_id":76561199386969191,"connected_time":576000000000,"state":"active","ping":51},{"user_id":425,"name":"Blud walked 0 miles üò≠üò≠\ufffd\ufffd\ufffd","steam_id":76561199285074344,"connected_time":177000000000,"state":"active","ping":66},{"user_id":416,"name":"Reptikality","steam_id":76561199057211698,"connected_time":510000000000,"state":"active","ping":83},{"user_id":417,"name":"Swirly Cat","steam_id":76561198017033478,"connected_time":508000000000,"state":"active","ping":144},{"user_id":384,"name":"Luck","steam_id":76561199122232082,"connected_time":2052000000000,"state":"active","ping":74},{"user_id":418,"name":"Dr Spaceman","steam_id":76561197969755657,"connected_time":503000000000,"state":"active","ping":48},{"user_id":419,"name":"bread","steam_id":76561198148565240,"connected_time":488000000000,"state":"active","ping":43},{"user_id":420,"name":"h20verdrive","steam_id":76561198115957085,"connected_time":478000000000,"state":"active","ping":96},{"user_id":389,"name":"flappyflap2","steam_id":76561198285048973,"connected_time":1507000000000,"state":"active","ping":61},{"user_id":392,"name":"Tamalito109","steam_id":76561198310531554,"connected_time":1423000000000,"state":"active","ping":137},{"user_id":381,"name":"peachy_day","steam_id":76561198170698267,"connected_time":2096000000000,"state":"active","ping":79},{"user_id":421,"name":"Achi","steam_id":76561199097601364,"connected_time":465000000000,"state":"active","ping":109},{"user_id":422,"name":"Mr.Bady","steam_id":76561199094651706,"connected_time":441000000000,"state":"active","ping":76},{"user_id":399,"name":"Yuri Tarded","steam_id":76561198034339940,"connected_time":963000000000,"state":"active","ping":60},{"user_id":334,"name":"CreativeCoffeeCake","steam_id":76561198323542875,"connected_time":4597000000000,"state":"active","ping":78},{"user_id":423,"name":"Kdwag","steam_id":76561198030761042,"connected_time":427000000000,"state":"active","ping":122},{"user_id":424,"name":"Unlock The Shock (She/They)","steam_id":76561198823616667,"connected_time":320000000000,"state":"active","ping":88}]},{"server_id":38,"name":"Uncletopia | Chicago | 7 | Stopwatch Beta","name_short":"chi-7","host":"chi-2.us.uncletopia.com","port":27035,"enabled":true,"region":"us-central","cc":"us","latitude":41.881832,"longitude":-87.62318,"reserved":0,"last_update":"0001-01-01T00:00:00Z","name_a2s":"Uncletopia | Chicago | 7 | Stopwatch Beta","protocol":17,"map":"pl_barnblitz","folder":"tf","game":"Team Fortress","app_id":440,"player_count":0,"max_players":24,"Bots":0,"server_type":"Dedicated","server_os":"Linux","password":true,"vac":true,"version":"7757534","steam_id":85568392924866364,"keywords":["nocrits","nodmgspread","payload","uncletopia"],"game_id":440,"stv_port":27036,"stv_name":"Uncletopia | Chicago | 7 | Stopwatch Beta | STV","players":null},{"server_id":39,"name":"Uncletopia | Chicago | 8 | Community","name_short":"chi-8","host":"chi-2.us.uncletopia.com","port":27045,"enabled":true,"region":"us-central","cc":"us","latitude":41.881832,"longitude":-87.62318,"reserved":0,"last_update":"0001-01-01T00:00:00Z","name_a2s":"Uncletopia | Chicago | 8 | Community","protocol":17,"map":"koth_cascade","folder":"tf","game":"Team Fortress","app_id":440,"player_count":0,"max_players":24,"Bots":0,"server_type":"Dedicated","server_os":"Linux","password":true,"vac":true,"version":"7757534","steam_id":85568392924866365,"keywords":["cp","nocrits","nodmgspread","uncletopia"],"game_id":440,"stv_port":27046,"stv_name":"Uncletopia | Chicago | 8 | Community | STV","players":null},{"server_id":8,"name":"Uncletopia | Dallas | 1 | All Maps","name_short":"dal-1","host":"dal-1.us.uncletopia.com","port":27015,"enabled":true,"region":"us-central","cc":"us","latitude":32.779167,"longitude":-96.80889,"reserved":0,"last_update":"0001-01-01T00:00:00Z","name_a2s":"Uncletopia | Dallas | 1 | All Maps","protocol":17,"map":"pl_pier","folder":"tf","game":"Team Fortress","app_id":440,"player_count":24,"max_players":24,"Bots":0,"server_type":"Dedicated","server_os":"Linux","password":true,"vac":true,"version":"7757534","steam_id":85568392924469986,"keywords":["nocrits","nodmgspread","payload","uncletopia"],"game_id":440,"stv_port":27016,"stv_name":"Uncletopia | Dallas | 1 | All Maps | STV","players":[{"user_id":172,"name":"Takeo","steam_id":76561197999385838,"connected_time":754000000000,"state":"active","ping":60},{"user_id":124,"name":"Romo","steam_id":76561198243101572,"connected_time":4242000000000,"state":"active","ping":79},{"user_id":164,"name":"Shamrock Shake Oct.10.2020 @8pm","steam_id":76561198833313201,"connected_time":1116000000000,"state":"active","ping":84},{"user_id":173,"name":"ThatGamingKiwi","steam_id":76561199170522237,"connected_time":717000000000,"state":"active","ping":108},{"user_id":167,"name":"ProbiusSC","steam_id":76561198379167322,"connected_time":1092000000000,"state":"active","ping":86},{"user_id":157,"name":"COOK","steam_id":76561198149929885,"connected_time":1568000000000,"state":"active","ping":79},{"user_id":150,"name":"DoomoPelota","steam_id":76561198326462587,"connected_time":2182000000000,"state":"active","ping":89},{"user_id":129,"name":"FluttyPutty","steam_id":76561198218446556,"connected_time":3121000000000,"state":"active","ping":78},{"user_id":169,"name":"comet sooicidy","steam_id":76561198025173479,"connected_time":923000000000,"state":"active","ping":97},{"user_id":156,"name":"Slingwolf","steam_id":76561198132720460,"connected_time":1655000000000,"state":"active","ping":106},{"user_id":126,"name":"Piss Champion","steam_id":76561198059362878,"connected_time":4124000000000,"state":"active","ping":75},{"user_id":163,"name":"iaPK","steam_id":76561198056618642,"connected_time":1298000000000,"state":"active","ping":52},{"user_id":154,"name":"RetroAdvance64","steam_id":76561198154072380,"connected_time":1839000000000,"state":"active","ping":63},{"user_id":165,"name":"Hambo","steam_id":76561199013488128,"connected_time":1115000000000,"state":"active","ping":88},{"user_id":176,"name":"ChottoAMinute","steam_id":76561198873157775,"connected_time":211000000000,"state":"active","ping":29},{"user_id":162,"name":"Nash","steam_id":76561198044192734,"connected_time":1432000000000,"state":"active","ping":55},{"user_id":166,"name":"Owixan","steam_id":76561198074990070,"connected_time":1111000000000,"state":"active","ping":60},{"user_id":118,"name":"plink","steam_id":76561198057829889,"connected_time":4601000000000,"state":"active","ping":105},{"user_id":139,"name":"Dell Conagher (real)","steam_id":76561198220120368,"connected_time":2771000000000,"state":"active","ping":45},{"user_id":146,"name":"Terratomere","steam_id":76561198067716320,"connected_time":2412000000000,"state":"active","ping":89},{"user_id":148,"name":"darktheif54","steam_id":76561198043650119,"connected_time":2242000000000,"state":"active","ping":72},{"user_id":141,"name":"KyleBlack","steam_id":76561198139932550,"connected_time":2737000000000,"state":"active","ping":45},{"user_id":171,"name":"Healing Weapons Guy","steam_id":76561198005608047,"connected_time":800000000000,"state":"active","ping":68},{"user_id":175,"name":"Tophatter","steam_id":76561198328977474,"connected_time":423000000000,"state":"active","ping":64}]},{"server_id":108,"name":"Uncletopia | Dallas | 2 | All Maps","name_short":"dal-2","host":"dal-1.us.uncletopia.com","port":27025,"enabled":true,"region":"us-central","cc":"us","latitude":32.779167,"longitude":-96.80889,"reserved":0,"last_update":"0001-01-01T00:00:00Z","name_a2s":"Uncletopia | Dallas | 2 | All Maps","protocol":17,"map":"pl_upward","folder":"tf","game":"Team Fortress","app_id":440,"player_count":24,"max_players":24,"Bots":0,"server_type":"Dedicated","server_os":"Linux","password":true,"vac":true,"version":"7757534","steam_id":85568392924469988,"keywords":["nocrits","nodmgspread","payload","uncletopia"],"game_id":440,"stv_port":27026,"stv_name":"Uncletopia | Dallas | 2 | All Maps | STV","players":[{"user_id":437,"name":"(TPT) Ghost","steam_id":76561198123262873,"connected_time":1703000000000,"state":"active","ping":88},{"user_id":440,"name":"Saul gaming","steam_id":76561199245933458,"connected_time":1575000000000,"state":"active","ping":128},{"user_id":459,"name":"mkl","steam_id":76561197986401685,"connected_time":175000000000,"state":"active","ping":58},{"user_id":460,"name":"groupth1nk","steam_id":76561198386858216,"connected_time":172000000000,"state":"active","ping":98},{"user_id":458,"name":"VixianUwU","steam_id":76561198948815060,"connected_time":389000000000,"state":"active","ping":76},{"user_id":432,"name":"Happy whale","steam_id":76561199026039153,"connected_time":1909000000000,"state":"active","ping":92},{"user_id":436,"name":"Disqordant","steam_id":76561198052514978,"connected_time":1802000000000,"state":"active","ping":44},{"user_id":445,"name":"Robbie Rotten","steam_id":76561198125993888,"connected_time":1289000000000,"state":"active","ping":57},{"user_id":461,"name":"ts","steam_id":76561198119826352,"connected_time":155000000000,"state":"active","ping":59},{"user_id":379,"name":"fac","steam_id":76561198009818412,"connected_time":3737000000000,"state":"active","ping":60},{"user_id":462,"name":"bookreader","steam_id":76561198978568007,"connected_time":128000000000,"state":"active","ping":75},{"user_id":468,"name":"Bobby Zimmeruski","steam_id":76561198171428589,"connected_time":60000000000,"state":"active","ping":48},{"user_id":464,"name":"Spector","steam_id":76561198008137094,"connected_time":102000000000,"state":"active","ping":53},{"user_id":429,"name":"Unreliable Narrator","steam_id":76561198021303959,"connected_time":1973000000000,"state":"active","ping":67},{"user_id":465,"name":"Rockcrusher","steam_id":76561199012666353,"connected_time":97000000000,"state":"active","ping":82},{"user_id":466,"name":"Jar Jar Kinks","steam_id":76561199087748803,"connected_time":94000000000,"state":"active","ping":99},{"user_id":455,"name":"Shalom","steam_id":76561198410005222,"connected_time":527000000000,"state":"active","ping":60},{"user_id":456,"name":"picnic blanket","steam_id":76561198308186037,"connected_time":513000000000,"state":"active","ping":66},{"user_id":467,"name":"TinySuperion","steam_id":76561198917460128,"connected_time":88000000000,"state":"active","ping":86},{"user_id":469,"name":"mineblast99","steam_id":76561199065648954,"connected_time":58000000000,"state":"spawning","ping":499},{"user_id":470,"name":"elso","steam_id":76561198058209902,"connected_time":44000000000,"state":"active","ping":164},{"user_id":471,"name":"tr3@d0f4","steam_id":76561198000757362,"connected_time":44000000000,"state":"active","ping":88},{"user_id":424,"name":"the henny man","steam_id":76561198042600523,"connected_time":2303000000000,"state":"active","ping":46},{"user_id":457,"name":"Yeagle","steam_id":76561199086620299,"connected_time":507000000000,"state":"active","ping":46}]},{"server_id":5,"name":"Uncletopia | Frankfurt | 1 | All Maps","name_short":"frk-1","host":"frk-1.de.uncletopia.com","port":27015,"enabled":true,"region":"eu","cc":"de","latitude":50.110924,"longitude":8.682127,"reserved":0,"last_update":"0001-01-01T00:00:00Z","name_a2s":"Uncletopia | Frankfurt | 1 | All Maps","protocol":17,"map":"pl_snowycoast","folder":"tf","game":"Team Fortress","app_id":440,"player_count":0,"max_players":24,"Bots":0,"server_type":"Dedicated","server_os":"Linux","password":true,"vac":true,"version":"7757534","steam_id":85568392924469989,"keywords":["nocrits","nodmgspread","payload","uncletopia"],"game_id":440,"stv_port":27016,"stv_name":"Uncletopia | Frankfurt | 1 | All Maps | STV","players":null},{"server_id":110,"name":"Uncletopia | Frankfurt | 2 | All Maps","name_short":"frk-2","host":"frk-1.de.uncletopia.com","port":27025,"enabled":true,"region":"eu","cc":"de","latitude":50.110924,"longitude":8.682127,"reserved":0,"last_update":"0001-01-01T00:00:00Z","name_a2s":"Uncletopia | Frankfurt | 2 | All Maps","protocol":17,"map":"pl_upward","folder":"tf","game":"Team Fortress","app_id":440,"player_count":21,"max_players":24,"Bots":0,"server_type":"Dedicated","server_os":"Linux","password":true,"vac":true,"version":"7757534","steam_id":85568392924469990,"keywords":["nocrits","nodmgspread","payload","uncletopia"],"game_id":440,"stv_port":27026,"stv_name":"Uncletopia | Frankfurt | 2 | All Maps | STV","players":[{"user_id":514,"name":"Vene","steam_id":76561198018116338,"connected_time":4440000000000,"state":"active","ping":82},{"user_id":571,"name":"Tonne","steam_id":76561197970856766,"connected_time":1340000000000,"state":"active","ping":57},{"user_id":561,"name":"JeanCorben","steam_id":76561197965133561,"connected_time":1609000000000,"state":"active","ping":45},{"user_id":563,"name":"NB","steam_id":76561198079361515,"connected_time":1599000000000,"state":"active","ping":71},{"user_id":574,"name":"Dragul","steam_id":76561198032885938,"connected_time":924000000000,"state":"active","ping":59},{"user_id":539,"name":"Average Zoboomafoo Enjoyer","steam_id":76561198084891833,"connected_time":2961000000000,"state":"active","ping":59},{"user_id":584,"name":"Refurbished Boy","steam_id":76561197995834697,"connected_time":153000000000,"state":"active","ping":84},{"user_id":572,"name":"nytronytronytro","steam_id":76561198080496833,"connected_time":1325000000000,"state":"active","ping":82},{"user_id":573,"name":"Be on my ....!?","steam_id":76561198067204908,"connected_time":1124000000000,"state":"active","ping":60},{"user_id":555,"name":"MaccyF","steam_id":76561198039214805,"connected_time":1864000000000,"state":"active","ping":69},{"user_id":582,"name":"Hanƒ±mSever23","steam_id":76561198142124751,"connected_time":323000000000,"state":"active","ping":116},{"user_id":545,"name":"lol.com","steam_id":76561198231764164,"connected_time":2822000000000,"state":"active","ping":48},{"user_id":586,"name":"Juiceydough","steam_id":76561197997323419,"connected_time":115000000000,"state":"active","ping":90},{"user_id":575,"name":"Rat head","steam_id":76561198184360615,"connected_time":919000000000,"state":"active","ping":90},{"user_id":559,"name":"Ichbaplaya","steam_id":76561198152701211,"connected_time":1639000000000,"state":"active","ping":64},{"user_id":580,"name":"ScarredPixel123","steam_id":76561199165112703,"connected_time":464000000000,"state":"active","ping":81},{"user_id":587,"name":"Barely legal","steam_id":76561198070376743,"connected_time":0,"state":"spawning","ping":0},{"user_id":549,"name":"ShaiKai","steam_id":76561198333319986,"connected_time":2382000000000,"state":"active","ping":160},{"user_id":570,"name":"Vershal Smershal","steam_id":76561198116223995,"connected_time":1399000000000,"state":"active","ping":59},{"user_id":578,"name":"EagleFire","steam_id":76561198352938403,"connected_time":518000000000,"state":"active","ping":75},{"user_id":543,"name":"S_ApplePie","steam_id":76561198106947669,"connected_time":2872000000000,"state":"active","ping":86}]},{"server_id":308,"name":"Uncletopia | Frankfurt | 3 | All Maps","name_short":"frk-3","host":"frk-1.de.uncletopia.com","port":27035,"enabled":true,"region":"eu","cc":"de","latitude":50.110924,"longitude":8.682127,"reserved":0,"last_update":"0001-01-01T00:00:00Z","name_a2s":"Uncletopia | Frankfurt | 3 | All Maps","protocol":17,"map":"koth_highpass","folder":"tf","game":"Team Fortress","app_id":440,"player_count":0,"max_players":24,"Bots":0,"server_type":"Dedicated","server_os":"Linux","password":true,"vac":true,"version":"7757534","steam_id":85568392924504274,"keywords":["cp","nocrits","nodmgspread","uncletopia"],"game_id":440,"stv_port":27036,"stv_name":"Uncletopia | Frankfurt | 3 | All Maps | STV","players":null},{"server_id":309,"name":"Uncletopia | Frankfurt | 4 | All Maps","name_short":"frk-4","host":"frk-1.de.uncletopia.com","port":27045,"enabled":true,"region":"eu","cc":"de","latitude":50.110924,"longitude":8.682127,"reserved":0,"last_update":"0001-01-01T00:00:00Z","name_a2s":"Uncletopia | Frankfurt | 4 | All Maps","protocol":17,"map":"cp_sunshine","folder":"tf","game":"Team Fortress","app_id":440,"player_count":12,"max_players":24,"Bots":0,"server_type":"Dedicated","server_os":"Linux","password":true,"vac":true,"version":"7757534","steam_id":85568392924504275,"keywords":["cp","nocrits","nodmgspread","uncletopia"],"game_id":440,"stv_port":27046,"stv_name":"Uncletopia | Frankfurt | 4 | All Maps | STV","players":[{"user_id":459,"name":"Endi","steam_id":76561198914938199,"connected_time":1327000000000,"state":"active","ping":85},{"user_id":430,"name":"The Boogieman","steam_id":76561198154512305,"connected_time":3174000000000,"state":"active","ping":55},{"user_id":482,"name":"walter white","steam_id":76561198075157560,"connected_time":77000000000,"state":"active","ping":47},{"user_id":433,"name":"SPONGE","steam_id":76561198040933472,"connected_time":3048000000000,"state":"active","ping":60},{"user_id":466,"name":"fluzeraa","steam_id":76561198038748489,"connected_time":968000000000,"state":"active","ping":60},{"user_id":468,"name":"wren","steam_id":76561197996645029,"connected_time":888000000000,"state":"active","ping":90},{"user_id":441,"name":"Oak","steam_id":76561198412507725,"connected_time":2886000000000,"state":"active","ping":97},{"user_id":442,"name":"Proud Jojo Fan #TF2SP","steam_id":76561198847327216,"connected_time":2837000000000,"state":"active","ping":59},{"user_id":470,"name":"lvl. 50 honkler","steam_id":76561198061688660,"connected_time":698000000000,"state":"active","ping":106},{"user_id":476,"name":"Rayunic","steam_id":76561198380887070,"connected_time":418000000000,"state":"active","ping":55},{"user_id":477,"name":"regen","steam_id":76561198038665095,"connected_time":353000000000,"state":"active","ping":64},{"user_id":450,"name":"PROFILE NAME","steam_id":76561198180056982,"connected_time":2513000000000,"state":"active","ping":69}]},{"server_id":310,"name":"Uncletopia | Frankfurt | 5 | All Maps","name_short":"frk-5","host":"frk-1.de.uncletopia.com","port":27055,"enabled":true,"region":"eu","cc":"de","latitude":50.110924,"longitude":8.682127,"reserved":0,"last_update":"0001-01-01T00:00:00Z","name_a2s":"Uncletopia | Frankfurt | 5 | All Maps","protocol":17,"map":"pl_badwater","folder":"tf","game":"Team Fortress","app_id":440,"player_count":0,"max_players":24,"Bots":0,"server_type":"Dedicated","server_os":"Linux","password":true,"vac":true,"version":"7757534","steam_id":85568392924504277,"keywords":["nocrits","nodmgspread","payload","uncletopia"],"game_id":440,"stv_port":27056,"stv_name":"Uncletopia | Frankfurt | 5 | All Maps | STV","players":null},{"server_id":311,"name":"Uncletopia | Frankfurt | 6 | All Maps","name_short":"frk-6","host":"frk-1.de.uncletopia.com","port":27065,"enabled":true,"region":"eu","cc":"de","latitude":50.110924,"longitude":8.682127,"reserved":0,"last_update":"0001-01-01T00:00:00Z","name_a2s":"Uncletopia | Frankfurt | 6 | All Maps","protocol":17,"map":"plr_nightfall_final","folder":"tf","game":"Team Fortress","app_id":440,"player_count":0,"max_players":24,"Bots":0,"server_type":"Dedicated","server_os":"Linux","password":true,"vac":true,"version":"7757534","steam_id":85568392924504278,"keywords":["nocrits","nodmgspread","payload","uncletopia"],"game_id":440,"stv_port":27066,"stv_name":"Uncletopia | Frankfurt | 6 | All Maps | STV","players":null},{"server_id":23,"name":"Uncletopia | Frankfurt | 7 | Stopwatch Beta","name_short":"frk-7","host":"frk-1.de.uncletopia.com","port":27075,"enabled":true,"region":"eu","cc":"de","latitude":50.110924,"longitude":8.682127,"reserved":0,"last_update":"0001-01-01T00:00:00Z","name_a2s":"Uncletopia | Frankfurt | 7 | Stopwatch Beta","protocol":17,"map":"workshop/koth_clearcut_b15.ugc2107050255","folder":"tf","game":"Team Fortress","app_id":440,"player_count":0,"max_players":24,"Bots":0,"server_type":"Dedicated","server_os":"Linux","password":true,"vac":true,"version":"7757534","steam_id":85568392924742827,"keywords":["cp","nocrits","nodmgspread","uncletopia"],"game_id":440,"stv_port":27076,"stv_name":"Uncletopia | Frankfurt | 7 | Stopwatch Beta | STV","players":null},{"server_id":24,"name":"Uncletopia | Frankfurt | 8 | Community","name_short":"frk-8","host":"frk-1.de.uncletopia.com","port":27085,"enabled":true,"region":"eu","cc":"de","latitude":50.110924,"longitude":8.682127,"reserved":0,"last_update":"0001-01-01T00:00:00Z","name_a2s":"Uncletopia | Frankfurt | 8 | Community","protocol":17,"map":"workshop/cp_kalinka_rc6a.ugc1272700588","folder":"tf","game":"Team Fortress","app_id":440,"player_count":0,"max_players":24,"Bots":0,"server_type":"Dedicated","server_os":"Linux","password":true,"vac":true,"version":"7757534","steam_id":85568392924742828,"keywords":["cp","nocrits","nodmgspread","uncletopia"],"game_id":440,"stv_port":27086,"stv_name":"Uncletopia | Frankfurt | 8 | Community | STV","players":null},{"server_id":202,"name":"Uncletopia | Hong Kong | 1 | All Maps","name_short":"hgk-1","host":"hgk-1.hk.uncletopia.com","port":27015,"enabled":true,"region":"asia","cc":"hk","latitude":22.302711,"longitude":114.177216,"reserved":0,"last_update":"0001-01-01T00:00:00Z","name_a2s":"Uncletopia | Hong Kong | 1 | All Maps","protocol":17,"map":"pl_borneo","folder":"tf","game":"Team Fortress","app_id":440,"player_count":0,"max_players":24,"Bots":0,"server_type":"Dedicated","server_os":"Linux","password":true,"vac":true,"version":"7757534","steam_id":85568392924494504,"keywords":["nocrits","nodmgspread","payload","uncletopia"],"game_id":440,"stv_port":27016,"stv_name":"Uncletopia | Hong Kong | 1 | All Maps | STV","players":null},{"server_id":1,"name":"Uncletopia | Los Angeles | 1 | All Maps","name_short":"lax-1","host":"lax-1.us.uncletopia.com","port":27015,"enabled":true,"region":"us-west","cc":"us","latitude":33.94279,"longitude":-118.41004,"reserved":0,"last_update":"0001-01-01T00:00:00Z","name_a2s":"Uncletopia | Los Angeles | 1 | All Maps","protocol":17,"map":"koth_lakeside_final","folder":"tf","game":"Team Fortress","app_id":440,"player_count":0,"max_players":24,"Bots":0,"server_type":"Dedicated","server_os":"Linux","password":true,"vac":true,"version":"7757534","steam_id":85568392924469991,"keywords":["cp","nocrits","nodmgspread","uncletopia"],"game_id":440,"stv_port":27016,"stv_name":"Uncletopia | Los Angeles | 1 | All Maps | STV","players":null},{"server_id":112,"name":"Uncletopia | Los Angeles | 2 | All Maps","name_short":"lax-2","host":"lax-1.us.uncletopia.com","port":27025,"enabled":true,"region":"us-west","cc":"us","latitude":33.94279,"longitude":-118.41004,"reserved":0,"last_update":"0001-01-01T00:00:00Z","name_a2s":"Uncletopia | Los Angeles | 2 | All Maps","protocol":17,"map":"pl_badwater","folder":"tf","game":"Team Fortress","app_id":440,"player_count":0,"max_players":24,"Bots":0,"server_type":"Dedicated","server_os":"Linux","password":true,"vac":true,"version":"7757534","steam_id":85568392924469992,"keywords":["nocrits","nodmgspread","payload","uncletopia"],"game_id":440,"stv_port":27026,"stv_name":"Uncletopia | Los Angeles | 2 | All Maps | STV","players":null},{"server_id":324,"name":"Uncletopia | Los Angeles | 3 | All Maps","name_short":"lax-3","host":"lax-1.us.uncletopia.com","port":27035,"enabled":true,"region":"us-west","cc":"us","latitude":33.94279,"longitude":-118.41004,"reserved":0,"last_update":"0001-01-01T00:00:00Z","name_a2s":"Uncletopia | Los Angeles | 3 | All Maps","protocol":17,"map":"pl_barnblitz","folder":"tf","game":"Team Fortress","app_id":440,"player_count":0,"max_players":24,"Bots":0,"server_type":"Dedicated","server_os":"Linux","password":true,"vac":true,"version":"7757534","steam_id":85568392924510198,"keywords":["nocrits","nodmgspread","payload","uncletopia"],"game_id":440,"stv_port":27036,"stv_name":"Uncletopia | Los Angeles | 3 | All Maps | STV","players":null},{"server_id":25,"name":"Uncletopia | Los Angeles | 4 | Stopwatch Beta","name_short":"lax-4","host":"lax-1.us.uncletopia.com","port":27045,"enabled":true,"region":"us-west","cc":"us","latitude":33.94279,"longitude":-118.41004,"reserved":0,"last_update":"0001-01-01T00:00:00Z","name_a2s":"Uncletopia | Los Angeles | 4 | Stopwatch Beta","protocol":17,"map":"pl_swiftwater_final1","folder":"tf","game":"Team Fortress","app_id":440,"player_count":0,"max_players":24,"Bots":0,"server_type":"Dedicated","server_os":"Linux","password":true,"vac":true,"version":"7757534","steam_id":85568392924510199,"keywords":["nocrits","nodmgspread","payload","uncletopia"],"game_id":440,"stv_port":27046,"stv_name":"Uncletopia | Los Angeles | 4 | Stopwatch Beta | STV","players":null},{"server_id":11,"name":"Uncletopia | London | 1 | All Maps","name_short":"lon-1","host":"lon-1.uk.uncletopia.com","port":27015,"enabled":true,"region":"eu","cc":"gb","latitude":51.509865,"longitude":-0.118092,"reserved":0,"last_update":"0001-01-01T00:00:00Z","name_a2s":"Uncletopia | London | 1 | All Maps","protocol":17,"map":"pl_barnblitz","folder":"tf","game":"Team Fortress","app_id":440,"player_count":24,"max_players":24,"Bots":0,"server_type":"Dedicated","server_os":"Linux","password":true,"vac":true,"version":"7757534","steam_id":85568392924367362,"keywords":["nocrits","nodmgspread","payload","uncletopia"],"game_id":440,"stv_port":27016,"stv_name":"Uncletopia | London | 1 | All Maps | STV","players":[{"user_id":640,"name":"Fr3nzyfull","steam_id":76561199156792382,"connected_time":172000000000,"state":"active","ping":47},{"user_id":641,"name":"Alfred Schroom","steam_id":76561198117990411,"connected_time":162000000000,"state":"active","ping":117},{"user_id":635,"name":"Locke","steam_id":76561198339408300,"connected_time":678000000000,"state":"active","ping":58},{"user_id":620,"name":"Instituto Nacional de Empleo","steam_id":76561198317014067,"connected_time":1432000000000,"state":"active","ping":74},{"user_id":644,"name":"stoppen","steam_id":76561197960281482,"connected_time":41000000000,"state":"active","ping":75},{"user_id":621,"name":"Pepe El grillao","steam_id":76561198177855119,"connected_time":1292000000000,"state":"active","ping":77},{"user_id":587,"name":"It's a me Malario","steam_id":76561198176546013,"connected_time":6191000000000,"state":"active","ping":48},{"user_id":592,"name":"shooer","steam_id":76561198110531281,"connected_time":5522000000000,"state":"active","ping":71},{"user_id":622,"name":"Ooze","steam_id":76561198039642637,"connected_time":1234000000000,"state":"active","ping":75},{"user_id":623,"name":"MedicMania","steam_id":76561199013190566,"connected_time":1218000000000,"state":"active","ping":53},{"user_id":626,"name":"Pinkchup","steam_id":76561198106802803,"connected_time":1164000000000,"state":"active","ping":82},{"user_id":615,"name":"Kraiti","steam_id":76561198847296908,"connected_time":2575000000000,"state":"active","ping":83},{"user_id":637,"name":"Bingus","steam_id":76561198085837630,"connected_time":549000000000,"state":"active","ping":90},{"user_id":627,"name":"Littleyoshifan","steam_id":76561198445491045,"connected_time":1095000000000,"state":"active","ping":41},{"user_id":599,"name":"nedilya","steam_id":76561198039692077,"connected_time":4365000000000,"state":"active","ping":62},{"user_id":556,"name":"gnarly business","steam_id":76561198832688767,"connected_time":8634000000000,"state":"active","ping":49},{"user_id":636,"name":"hxppy","steam_id":76561198214356923,"connected_time":665000000000,"state":"active","ping":101},{"user_id":631,"name":"‚ú™ Danny","steam_id":76561198104483241,"connected_time":955000000000,"state":"active","ping":52},{"user_id":634,"name":"tm`","steam_id":76561197993580412,"connected_time":776000000000,"state":"active","ping":75},{"user_id":645,"name":"randompixel","steam_id":76561198003941207,"connected_time":30000000000,"state":"active","ping":62},{"user_id":588,"name":"Minimi","steam_id":76561198873850443,"connected_time":5937000000000,"state":"active","ping":41},{"user_id":557,"name":"regimiro","steam_id":76561198120457008,"connected_time":8634000000000,"state":"active","ping":45},{"user_id":616,"name":"UltimateSlayer","steam_id":76561198384109309,"connected_time":2052000000000,"state":"active","ping":57},{"user_id":618,"name":"xcvbwravdloiy56qw","steam_id":76561198448551449,"connected_time":1855000000000,"state":"active","ping":37}]},{"server_id":114,"name":"Uncletopia | London | 2 | All Maps","name_short":"lon-2","host":"lon-1.uk.uncletopia.com","port":27025,"enabled":true,"region":"eu","cc":"gb","latitude":51.509865,"longitude":-0.118092,"reserved":0,"last_update":"0001-01-01T00:00:00Z","name_a2s":"Uncletopia | London | 2 | All Maps","protocol":17,"map":"cp_egypt_final","folder":"tf","game":"Team Fortress","app_id":440,"player_count":22,"max_players":24,"Bots":0,"server_type":"Dedicated","server_os":"Linux","password":true,"vac":true,"version":"7757534","steam_id":85568392924470941,"keywords":["cp","nocrits","nodmgspread","uncletopia"],"game_id":440,"stv_port":27026,"stv_name":"Uncletopia | London | 2 | All Maps | STV","players":[{"user_id":232,"name":"He could be any one of us","steam_id":76561198320506848,"connected_time":1122000000000,"state":"active","ping":40},{"user_id":211,"name":"Arti","steam_id":76561197983352845,"connected_time":2446000000000,"state":"active","ping":58},{"user_id":217,"name":"S21","steam_id":76561199191390558,"connected_time":2085000000000,"state":"active","ping":85},{"user_id":209,"name":"Mr. House (Real)","steam_id":76561198162554213,"connected_time":2525000000000,"state":"active","ping":75},{"user_id":190,"name":"NitPig","steam_id":76561198212991935,"connected_time":4439000000000,"state":"active","ping":102},{"user_id":233,"name":"Sparky","steam_id":76561198036754195,"connected_time":1006000000000,"state":"active","ping":49},{"user_id":206,"name":"HilldogGaming","steam_id":76561198082209322,"connected_time":2778000000000,"state":"active","ping":74},{"user_id":234,"name":"Night Fury","steam_id":76561197995207032,"connected_time":954000000000,"state":"active","ping":85},{"user_id":228,"name":"grandpa's post-mortem photo","steam_id":76561198130116078,"connected_time":1394000000000,"state":"active","ping":101},{"user_id":224,"name":"Wubba","steam_id":76561198421341789,"connected_time":1469000000000,"state":"active","ping":40},{"user_id":235,"name":"free uber","steam_id":76561198198581079,"connected_time":950000000000,"state":"active","ping":74},{"user_id":239,"name":"KarlRanzeier","steam_id":76561198066281337,"connected_time":811000000000,"state":"active","ping":64},{"user_id":186,"name":"Regan","steam_id":76561198100631086,"connected_time":4633000000000,"state":"active","ping":55},{"user_id":226,"name":"·†å ·†å ·†å·†å ·†å ·†å ·†å","steam_id":76561198312906114,"connected_time":1447000000000,"state":"active","ping":56},{"user_id":243,"name":"Morisan","steam_id":76561198043153528,"connected_time":645000000000,"state":"active","ping":45},{"user_id":247,"name":"Lord","steam_id":76561198241305816,"connected_time":397000000000,"state":"active","ping":130},{"user_id":248,"name":"Shelly1052","steam_id":76561199043551053,"connected_time":334000000000,"state":"active","ping":42},{"user_id":222,"name":"TV","steam_id":76561198177326926,"connected_time":1848000000000,"state":"active","ping":162},{"user_id":202,"name":"Seneron4","steam_id":76561198107658391,"connected_time":3808000000000,"state":"active","ping":85},{"user_id":244,"name":"Veliki Gospar","steam_id":76561198077733475,"connected_time":628000000000,"state":"active","ping":67},{"user_id":220,"name":"SuntanPikachu","steam_id":76561198121242476,"connected_time":2022000000000,"state":"active","ping":53},{"user_id":221,"name":"Kyeel_Smeel","steam_id":76561199164471622,"connected_time":1981000000000,"state":"active","ping":70}]},{"server_id":320,"name":"Uncletopia | London | 3 | All Maps","name_short":"lon-3","host":"lon-1.uk.uncletopia.com","port":27035,"enabled":true,"region":"eu","cc":"gb","latitude":51.509865,"longitude":-0.118092,"reserved":0,"last_update":"0001-01-01T00:00:00Z","name_a2s":"Uncletopia | London | 3 | All Maps","protocol":17,"map":"cp_process_final","folder":"tf","game":"Team Fortress","app_id":440,"player_count":23,"max_players":24,"Bots":0,"server_type":"Dedicated","server_os":"Linux","password":true,"vac":true,"version":"7757534","steam_id":85568392924510192,"keywords":["cp","nocrits","nodmgspread","uncletopia"],"game_id":440,"stv_port":27036,"stv_name":"Uncletopia | London | 3 | All Maps | STV","players":[{"user_id":611,"name":"Buddy","steam_id":76561198050185582,"connected_time":2436000000000,"state":"active","ping":106},{"user_id":569,"name":"gofdrey","steam_id":76561198121941052,"connected_time":7093000000000,"state":"active","ping":56},{"user_id":609,"name":"Purps","steam_id":76561198053886680,"connected_time":2466000000000,"state":"active","ping":39},{"user_id":555,"name":"Welder","steam_id":76561198355300561,"connected_time":8284000000000,"state":"active","ping":70},{"user_id":615,"name":"‚ô• Aura ‚òÖ","steam_id":76561198066258544,"connected_time":2026000000000,"state":"active","ping":60},{"user_id":610,"name":"flan","steam_id":76561198271900816,"connected_time":2461000000000,"state":"active","ping":52},{"user_id":627,"name":"GuSkand","steam_id":76561198043775605,"connected_time":561000000000,"state":"active","ping":85},{"user_id":629,"name":"BetrayedBanana","steam_id":76561198053470223,"connected_time":517000000000,"state":"active","ping":47},{"user_id":604,"name":"Steen","steam_id":76561198122992510,"connected_time":4214000000000,"state":"active","ping":45},{"user_id":620,"name":"Backup","steam_id":76561197999557567,"connected_time":1898000000000,"state":"active","ping":62},{"user_id":624,"name":"f√©nix","steam_id":76561198083199151,"connected_time":1208000000000,"state":"active","ping":56},{"user_id":628,"name":"‚ù§ milkkore","steam_id":76561198019165469,"connected_time":529000000000,"state":"active","ping":64},{"user_id":619,"name":"Arcader","steam_id":76561198109860110,"connected_time":1961000000000,"state":"active","ping":67},{"user_id":608,"name":"Mor'du","steam_id":76561198274105878,"connected_time":2471000000000,"state":"active","ping":100},{"user_id":631,"name":"tapeworms!","steam_id":76561198069649097,"connected_time":441000000000,"state":"active","ping":45},{"user_id":625,"name":"Granny","steam_id":76561198335585737,"connected_time":700000000000,"state":"active","ping":45},{"user_id":632,"name":"[T]aKer","steam_id":76561198001778013,"connected_time":437000000000,"state":"active","ping":47},{"user_id":582,"name":"addicted","steam_id":76561199129801006,"connected_time":5696000000000,"state":"active","ping":54},{"user_id":591,"name":"NotFionn","steam_id":76561198890525176,"connected_time":4618000000000,"state":"active","ping":79},{"user_id":622,"name":"Raingnome @SaveTF2","steam_id":76561198007394958,"connected_time":1778000000000,"state":"active","ping":53},{"user_id":592,"name":"PizzaPete123","steam_id":76561198089478290,"connected_time":4617000000000,"state":"active","ping":41},{"user_id":500,"name":"Fat Pigeon","steam_id":76561198817940142,"connected_time":10693000000000,"state":"active","ping":46},{"user_id":633,"name":"Jedleo","steam_id":76561198347292531,"connected_time":401000000000,"state":"active","ping":58}]},{"server_id":321,"name":"Uncletopia | London | 4 | All Maps","name_short":"lon-4","host":"lon-1.uk.uncletopia.com","port":27045,"enabled":true,"region":"eu","cc":"gb","latitude":51.509865,"longitude":-0.118092,"reserved":0,"last_update":"0001-01-01T00:00:00Z","name_a2s":"Uncletopia | London | 4 | All Maps","protocol":17,"map":"pl_badwater","folder":"tf","game":"Team Fortress","app_id":440,"player_count":9,"max_players":24,"Bots":0,"server_type":"Dedicated","server_os":"Linux","password":true,"vac":true,"version":"7757534","steam_id":85568392924510193,"keywords":["nocrits","nodmgspread","payload","uncletopia"],"game_id":440,"stv_port":27046,"stv_name":"Uncletopia | London | 4 | All Maps | STV","players":[{"user_id":203,"name":"Bird","steam_id":76561198410598772,"connected_time":523000000000,"state":"active","ping":54},{"user_id":173,"name":"Toodlesnoot","steam_id":76561198036543689,"connected_time":2646000000000,"state":"active","ping":54},{"user_id":208,"name":"Lil Ari","steam_id":76561198218178180,"connected_time":127000000000,"state":"active","ping":70},{"user_id":204,"name":"Canteloupe","steam_id":76561199187764012,"connected_time":438000000000,"state":"active","ping":121},{"user_id":196,"name":"dr. coom","steam_id":76561198172193711,"connected_time":1101000000000,"state":"active","ping":39},{"user_id":206,"name":"jones","steam_id":76561198044434971,"connected_time":333000000000,"state":"active","ping":62},{"user_id":202,"name":"Doctor sex","steam_id":76561198332202074,"connected_time":735000000000,"state":"active","ping":81},{"user_id":180,"name":"Nassu","steam_id":76561198147367577,"connected_time":2135000000000,"state":"active","ping":154},{"user_id":184,"name":"Breadcrab","steam_id":76561198015924039,"connected_time":2030000000000,"state":"active","ping":61}]},{"server_id":21,"name":"Uncletopia | London | 5 | All Maps","name_short":"lon-5","host":"lon-1.uk.uncletopia.com","port":27055,"enabled":true,"region":"eu","cc":"gb","latitude":51.509865,"longitude":-0.118092,"reserved":0,"last_update":"0001-01-01T00:00:00Z","name_a2s":"Uncletopia | London | 5 | All Maps","protocol":17,"map":"pl_frontier_final","folder":"tf","game":"Team Fortress","app_id":440,"player_count":24,"max_players":24,"Bots":0,"server_type":"Dedicated","server_os":"Linux","password":true,"vac":true,"version":"7757534","steam_id":85568392924742829,"keywords":["nocrits","nodmgspread","payload","uncletopia"],"game_id":440,"stv_port":27056,"stv_name":"Uncletopia | London | 5 | All Maps | STV","players":[{"user_id":341,"name":"MiniGame","steam_id":76561198093477052,"connected_time":341000000000,"state":"active","ping":65},{"user_id":342,"name":"feed and seed","steam_id":76561199088046420,"connected_time":332000000000,"state":"active","ping":48},{"user_id":337,"name":"cz","steam_id":76561198965227348,"connected_time":752000000000,"state":"active","ping":66},{"user_id":344,"name":"Doctor Marijuana","steam_id":76561198288289879,"connected_time":285000000000,"state":"active","ping":46},{"user_id":340,"name":"An albino alsatian","steam_id":76561198073769916,"connected_time":393000000000,"state":"active","ping":58},{"user_id":345,"name":"Vladimir Lenin","steam_id":76561199438120787,"connected_time":267000000000,"state":"active","ping":49},{"user_id":293,"name":"Hampter","steam_id":76561198012351470,"connected_time":5764000000000,"state":"active","ping":38},{"user_id":300,"name":"Majima Gaming HD","steam_id":76561198365750503,"connected_time":4887000000000,"state":"active","ping":44},{"user_id":346,"name":"Sagger","steam_id":76561198065915748,"connected_time":261000000000,"state":"active","ping":55},{"user_id":347,"name":"Anttech","steam_id":76561198065184022,"connected_time":255000000000,"state":"active","ping":69},{"user_id":349,"name":"tone","steam_id":76561197975301462,"connected_time":242000000000,"state":"active","ping":73},{"user_id":350,"name":"(=blackstabby=)","steam_id":76561199217036236,"connected_time":241000000000,"state":"active","ping":105},{"user_id":351,"name":"minn","steam_id":76561198099101232,"connected_time":174000000000,"state":"active","ping":56},{"user_id":352,"name":"fefe | „Éï„Çß„Éï„Çß","steam_id":76561199402489568,"connected_time":158000000000,"state":"active","ping":75},{"user_id":353,"name":"FireStorm","steam_id":76561198350478325,"connected_time":126000000000,"state":"active","ping":43},{"user_id":267,"name":"Sinny","steam_id":76561197999598422,"connected_time":7100000000000,"state":"active","ping":84},{"user_id":280,"name":"Alibi","steam_id":76561198061845595,"connected_time":6726000000000,"state":"active","ping":49},{"user_id":332,"name":"prophits","steam_id":76561198011854314,"connected_time":1178000000000,"state":"active","ping":62},{"user_id":323,"name":"Al3xis","steam_id":76561198183835821,"connected_time":2252000000000,"state":"active","ping":89},{"user_id":333,"name":"Dwevy","steam_id":76561198090379437,"connected_time":1175000000000,"state":"active","ping":56},{"user_id":339,"name":"Bonca","steam_id":76561198137503531,"connected_time":548000000000,"state":"active","ping":74},{"user_id":274,"name":"rz-/Atomic Punch","steam_id":76561199195508541,"connected_time":7025000000000,"state":"active","ping":78},{"user_id":336,"name":"Misctek","steam_id":76561199037541925,"connected_time":946000000000,"state":"active","ping":72},{"user_id":338,"name":"Skylox","steam_id":76561198129291480,"connected_time":641000000000,"state":"active","ping":84}]},{"server_id":22,"name":"Uncletopia | London | 6 | All Maps","name_short":"lon-6","host":"lon-1.uk.uncletopia.com","port":27065,"enabled":true,"region":"eu","cc":"gb","latitude":51.509865,"longitude":-0.118092,"reserved":0,"last_update":"0001-01-01T00:00:00Z","name_a2s":"Uncletopia | London | 6 | All Maps","protocol":17,"map":"cp_sunshine","folder":"tf","game":"Team Fortress","app_id":440,"player_count":4,"max_players":24,"Bots":0,"server_type":"Dedicated","server_os":"Linux","password":true,"vac":true,"version":"7757534","steam_id":85568392924742830,"keywords":["cp","nocrits","nodmgspread","uncletopia"],"game_id":440,"stv_port":27066,"stv_name":"Uncletopia | London | 6 | All Maps | STV","players":[{"user_id":24,"name":"Ariedente","steam_id":76561198844312151,"connected_time":2043000000000,"state":"active","ping":59},{"user_id":28,"name":"pizza man","steam_id":76561198952555268,"connected_time":25000000000,"state":"active","ping":96},{"user_id":26,"name":"ctkirky","steam_id":76561199023969927,"connected_time":753000000000,"state":"active","ping":52},{"user_id":27,"name":"alexandersutton14","steam_id":76561199049379273,"connected_time":745000000000,"state":"active","ping":48}]},{"server_id":40,"name":"Uncletopia | London | 7 | No Payload","name_short":"lon-7","host":"lon-1.uk.uncletopia.com","port":27075,"enabled":true,"region":"eu","cc":"gb","latitude":51.509865,"longitude":-0.118092,"reserved":0,"last_update":"0001-01-01T00:00:00Z","name_a2s":"Uncletopia | London | 7 | No Payload","protocol":17,"map":"cp_process_final","folder":"tf","game":"Team Fortress","app_id":440,"player_count":0,"max_players":24,"Bots":0,"server_type":"Dedicated","server_os":"Linux","password":true,"vac":true,"version":"7757534","steam_id":85568392924964314,"keywords":["cp","nocrits","nodmgspread","uncletopia"],"game_id":440,"stv_port":27076,"stv_name":"Uncletopia | London | 7 | No Payload | STV","players":null},{"server_id":41,"name":"Uncletopia | London | 8 | Community","name_short":"lon-8","host":"lon-1.uk.uncletopia.com","port":27085,"enabled":true,"region":"eu","cc":"gb","latitude":51.509865,"longitude":-0.118092,"reserved":0,"last_update":"0001-01-01T00:00:00Z","name_a2s":"Uncletopia | London | 8 | Community","protocol":17,"map":"workshop/cp_indulge.ugc528106646","folder":"tf","game":"Team Fortress","app_id":440,"player_count":0,"max_players":24,"Bots":0,"server_type":"Dedicated","server_os":"Linux","password":true,"vac":true,"version":"7757534","steam_id":85568392924964315,"keywords":["cp","nocrits","nodmgspread","uncletopia"],"game_id":440,"stv_port":27086,"stv_name":"Uncletopia | London | 8 | Community | STV","players":null},{"server_id":300,"name":"Uncletopia | Montr√©al | 1 | All Maps","name_short":"mtl-1","host":"mtl-1.ca.uncletopia.com","port":27015,"enabled":true,"region":"us-east","cc":"ca","latitude":45.50889,"longitude":-73.56167,"reserved":0,"last_update":"0001-01-01T00:00:00Z","name_a2s":"Uncletopia | Montr√©al | 1 | All Maps","protocol":17,"map":"koth_cascade","folder":"tf","game":"Team Fortress","app_id":440,"player_count":0,"max_players":24,"Bots":0,"server_type":"Dedicated","server_os":"Linux","password":true,"vac":true,"version":"7757534","steam_id":85568392924500087,"keywords":["cp","nocrits","nodmgspread","uncletopia"],"game_id":440,"stv_port":27016,"stv_name":"Uncletopia | Montr√©al | 1 | All Maps | STV","players":null},{"server_id":301,"name":"Uncletopia | Montr√©al | 2 | All Maps","name_short":"mtl-2","host":"mtl-1.ca.uncletopia.com","port":27025,"enabled":true,"region":"us-east","cc":"ca","latitude":45.50889,"longitude":-73.56167,"reserved":0,"last_update":"0001-01-01T00:00:00Z","name_a2s":"Uncletopia | Montr√©al | 2 | All Maps","protocol":17,"map":"pl_snowycoast","folder":"tf","game":"Team Fortress","app_id":440,"player_count":0,"max_players":24,"Bots":0,"server_type":"Dedicated","server_os":"Linux","password":true,"vac":true,"version":"7757534","steam_id":85568392924500088,"keywords":["nocrits","nodmgspread","payload","uncletopia"],"game_id":440,"stv_port":27026,"stv_name":"Uncletopia | Montr√©al | 2 | All Maps | STV","players":null},{"server_id":302,"name":"Uncletopia | Montr√©al | 3 | All Maps","name_short":"mtl-3","host":"mtl-1.ca.uncletopia.com","port":27035,"enabled":true,"region":"us-east","cc":"ca","latitude":45.50889,"longitude":-73.56167,"reserved":0,"last_update":"0001-01-01T00:00:00Z","name_a2s":"Uncletopia | Montr√©al | 3 | All Maps","protocol":17,"map":"pl_swiftwater_final1","folder":"tf","game":"Team Fortress","app_id":440,"player_count":0,"max_players":24,"Bots":0,"server_type":"Dedicated","server_os":"Linux","password":true,"vac":true,"version":"7757534","steam_id":85568392924500089,"keywords":["nocrits","nodmgspread","payload","uncletopia"],"game_id":440,"stv_port":27036,"stv_name":"Uncletopia | Montr√©al | 3 | All Maps | STV","players":null},{"server_id":303,"name":"Uncletopia | Montr√©al | 4 | No Payload","name_short":"mtl-4","host":"mtl-1.ca.uncletopia.com","port":27045,"enabled":true,"region":"us-east","cc":"ca","latitude":45.50889,"longitude":-73.56167,"reserved":0,"last_update":"0001-01-01T00:00:00Z","name_a2s":"Uncletopia | Montr√©al | 4 | No Payload","protocol":17,"map":"cp_mercenarypark","folder":"tf","game":"Team Fortress","app_id":440,"player_count":0,"max_players":24,"Bots":0,"server_type":"Dedicated","server_os":"Linux","password":true,"vac":true,"version":"7757534","steam_id":85568392924500090,"keywords":["cp","nocrits","nodmgspread","uncletopia"],"game_id":440,"stv_port":27046,"stv_name":"Uncletopia | Montr√©al | 4 | No Payload | STV","players":null},{"server_id":13,"name":"Uncletopia | New York City | 1 | All Maps","name_short":"nyc-1","host":"nyc-1.us.uncletopia.com","port":27015,"enabled":true,"region":"us-east","cc":"us","latitude":40.73061,"longitude":-73.93524,"reserved":0,"last_update":"0001-01-01T00:00:00Z","name_a2s":"Uncletopia | New York City | 1 | All Maps","protocol":17,"map":"cp_5gorge","folder":"tf","game":"Team Fortress","app_id":440,"player_count":21,"max_players":24,"Bots":0,"server_type":"Dedicated","server_os":"Linux","password":true,"vac":true,"version":"7757534","steam_id":85568392924469993,"keywords":["cp","nocrits","nodmgspread","uncletopia"],"game_id":440,"stv_port":27016,"stv_name":"Uncletopia | New York City | 1 | All Maps | STV","players":[{"user_id":62,"name":"Hydrostasis","steam_id":76561198412399283,"connected_time":1829000000000,"state":"active","ping":82},{"user_id":80,"name":"Aviyarn","steam_id":76561199074194652,"connected_time":1157000000000,"state":"active","ping":73},{"user_id":86,"name":"Nightmare Tune","steam_id":76561198880493433,"connected_time":654000000000,"state":"active","ping":82},{"user_id":83,"name":"Gerald Jay Sussman","steam_id":76561198114515026,"connected_time":1014000000000,"state":"active","ping":44},{"user_id":89,"name":"doodlenoodles","steam_id":76561199345823430,"connected_time":50000000000,"state":"spawning","ping":62},{"user_id":69,"name":"Shiroompa","steam_id":76561198010705959,"connected_time":1458000000000,"state":"active","ping":101},{"user_id":57,"name":"Doost","steam_id":76561198115785902,"connected_time":2483000000000,"state":"active","ping":70},{"user_id":71,"name":"flamingcookies","steam_id":76561198280864779,"connected_time":1359000000000,"state":"active","ping":68},{"user_id":73,"name":"dangler","steam_id":76561198060334743,"connected_time":1339000000000,"state":"active","ping":64},{"user_id":72,"name":"basilberry","steam_id":76561198145275937,"connected_time":1353000000000,"state":"active","ping":97},{"user_id":50,"name":"Pourpel","steam_id":76561198059125470,"connected_time":3195000000000,"state":"active","ping":81},{"user_id":51,"name":"Buttons :)","steam_id":76561198139478534,"connected_time":3193000000000,"state":"active","ping":115},{"user_id":33,"name":"TaBunnie","steam_id":76561198197894178,"connected_time":3987000000000,"state":"active","ping":70},{"user_id":79,"name":"Scoober","steam_id":76561198079736959,"connected_time":1227000000000,"state":"active","ping":69},{"user_id":59,"name":"[F8P] ‚ô†Robs-Insanity‚ô¶‚Ñ¢","steam_id":76561198055521233,"connected_time":2379000000000,"state":"active","ping":66},{"user_id":85,"name":"Bootes","steam_id":76561197968255551,"connected_time":704000000000,"state":"active","ping":49},{"user_id":37,"name":"Pig","steam_id":76561198276179693,"connected_time":3895000000000,"state":"active","ping":71},{"user_id":75,"name":"MattJettskie","steam_id":76561199229493583,"connected_time":1314000000000,"state":"active","ping":95},{"user_id":88,"name":"FROYO yumyum","steam_id":76561198150567198,"connected_time":556000000000,"state":"active","ping":44},{"user_id":60,"name":"hsoj318","steam_id":76561198062564543,"connected_time":2360000000000,"state":"active","ping":94},{"user_id":43,"name":"Hipp-Dip","steam_id":76561199027874633,"connected_time":3817000000000,"state":"active","ping":41}]},{"server_id":14,"name":"Uncletopia | New York City | 2 | All Maps","name_short":"nyc-2","host":"nyc-1.us.uncletopia.com","port":27025,"enabled":true,"region":"us-east","cc":"us","latitude":40.73061,"longitude":-73.93524,"reserved":0,"last_update":"0001-01-01T00:00:00Z","name_a2s":"Uncletopia | New York City | 2 | All Maps","protocol":17,"map":"koth_lakeside_final","folder":"tf","game":"Team Fortress","app_id":440,"player_count":0,"max_players":24,"Bots":0,"server_type":"Dedicated","server_os":"Linux","password":true,"vac":true,"version":"7757534","steam_id":85568392924469994,"keywords":["cp","nocrits","nodmgspread","uncletopia"],"game_id":440,"stv_port":27026,"stv_name":"Uncletopia | New York City | 2 | All Maps | STV","players":null},{"server_id":15,"name":"Uncletopia | New York City | 3 | Stopwatch Beta","name_short":"nyc-3","host":"nyc-1.us.uncletopia.com","port":27035,"enabled":true,"region":"us-east","cc":"us","latitude":40.73061,"longitude":-73.93524,"reserved":0,"last_update":"0001-01-01T00:00:00Z","name_a2s":"Uncletopia | New York City | 3 | Stopwatch Beta","protocol":17,"map":"pl_upward","folder":"tf","game":"Team Fortress","app_id":440,"player_count":0,"max_players":24,"Bots":0,"server_type":"Dedicated","server_os":"Linux","password":true,"vac":true,"version":"7757534","steam_id":85568392924742820,"keywords":["nocrits","nodmgspread","payload","uncletopia"],"game_id":440,"stv_port":27036,"stv_name":"Uncletopia | New York City | 3 | Stopwatch Beta | STV","players":null},{"server_id":16,"name":"Uncletopia | New York City | 4 | Community","name_short":"nyc-4","host":"nyc-1.us.uncletopia.com","port":27045,"enabled":true,"region":"us-east","cc":"us","latitude":40.73061,"longitude":-73.93524,"reserved":0,"last_update":"0001-01-01T00:00:00Z","name_a2s":"Uncletopia | New York City | 4 | Community","protocol":17,"map":"workshop/pl_eruption_b9a.ugc2807898013","folder":"tf","game":"Team Fortress","app_id":440,"player_count":0,"max_players":24,"Bots":0,"server_type":"Dedicated","server_os":"Linux","password":true,"vac":true,"version":"7757534","steam_id":85568392924742821,"keywords":["nocrits","nodmgspread","payload","uncletopia"],"game_id":440,"stv_port":27046,"stv_name":"Uncletopia | New York City | 4 | Community | STV","players":null},{"server_id":142,"name":"Uncletopia | S√£o Paulo | 1 | All Maps","name_short":"sao-1","host":"sao-1.br.uncletopia.com","port":27015,"enabled":true,"region":"sa","cc":"br","latitude":-23.533773,"longitude":-46.62529,"reserved":0,"last_update":"0001-01-01T00:00:00Z","name_a2s":"Uncletopia | S√£o Paulo | 1 | All Maps","protocol":17,"map":"cp_process_final","folder":"tf","game":"Team Fortress","app_id":440,"player_count":9,"max_players":24,"Bots":0,"server_type":"Dedicated","server_os":"Linux","password":true,"vac":true,"version":"7757534","steam_id":85568392924469996,"keywords":["cp","nocrits","nodmgspread","uncletopia"],"game_id":440,"stv_port":27016,"stv_name":"Uncletopia | S√£o Paulo | 1 | All Maps | STV","players":[{"user_id":8,"name":"ailuros","steam_id":76561198171349369,"connected_time":6973000000000,"state":"active","ping":33},{"user_id":61,"name":"Grinch","steam_id":76561198322765783,"connected_time":111000000000,"state":"active","ping":48},{"user_id":59,"name":"lambari makonha","steam_id":76561198169083341,"connected_time":460000000000,"state":"active","ping":47},{"user_id":43,"name":"PrYume","steam_id":76561198976110673,"connected_time":2022000000000,"state":"active","ping":67},{"user_id":38,"name":"jr_rusty","steam_id":76561198313937899,"connected_time":2519000000000,"state":"active","ping":42},{"user_id":17,"name":"Kaiser","steam_id":76561199168194896,"connected_time":4952000000000,"state":"active","ping":61},{"user_id":55,"name":"Rick Astley Gaming","steam_id":76561199088485755,"connected_time":748000000000,"state":"active","ping":81},{"user_id":60,"name":"La'caca","steam_id":76561199047860229,"connected_time":382000000000,"state":"active","ping":64},{"user_id":51,"name":"Sabot","steam_id":76561198176478934,"connected_time":1469000000000,"state":"active","ping":60}]},{"server_id":143,"name":"Uncletopia | S√£o Paulo | 2 | All Maps","name_short":"sao-2","host":"sao-2.br.uncletopia.com","port":27015,"enabled":true,"region":"sa","cc":"br","latitude":-23.533773,"longitude":-46.62529,"reserved":0,"last_update":"0001-01-01T00:00:00Z","name_a2s":"Uncletopia | S√£o Paulo | 2 | All Maps","protocol":17,"map":"koth_viaduct","folder":"tf","game":"Team Fortress","app_id":440,"player_count":0,"max_players":24,"Bots":0,"server_type":"Dedicated","server_os":"Linux","password":true,"vac":true,"version":"7757534","steam_id":85568392924485349,"keywords":["cp","nocrits","nodmgspread","uncletopia"],"game_id":440,"stv_port":27016,"stv_name":"Uncletopia | S√£o Paulo | 2 | All Maps | STV","players":null},{"server_id":7,"name":"Uncletopia | Seattle | 1 | All Maps","name_short":"sea-1","host":"sea-1.us.uncletopia.com","port":27015,"enabled":true,"region":"us-west","cc":"us","latitude":47.608013,"longitude":-122.33517,"reserved":0,"last_update":"0001-01-01T00:00:00Z","name_a2s":"Uncletopia | Seattle | 1 | All Maps","protocol":17,"map":"pl_swiftwater_final1","folder":"tf","game":"Team Fortress","app_id":440,"player_count":24,"max_players":24,"Bots":0,"server_type":"Dedicated","server_os":"Linux","password":true,"vac":true,"version":"7757534","steam_id":85568392924469997,"keywords":["nocrits","nodmgspread","payload","uncletopia"],"game_id":440,"stv_port":27016,"stv_name":"Uncletopia | Seattle | 1 | All Maps | STV","players":[{"user_id":509,"name":"Captain Demytri","steam_id":76561198097998607,"connected_time":2942000000000,"state":"active","ping":90},{"user_id":520,"name":"Big Jack Horner","steam_id":76561198847690613,"connected_time":1946000000000,"state":"active","ping":128},{"user_id":547,"name":"diymo","steam_id":76561198017600790,"connected_time":79000000000,"state":"active","ping":30},{"user_id":548,"name":"LightBulbGlue #SaveTF2","steam_id":76561198329573529,"connected_time":57000000000,"state":"active","ping":122},{"user_id":417,"name":"Thexx ‚ù§","steam_id":76561198113823050,"connected_time":5486000000000,"state":"active","ping":48},{"user_id":549,"name":"Master Humper","steam_id":76561198142933570,"connected_time":47000000000,"state":"active","ping":75},{"user_id":541,"name":"OutspokenWeeb","steam_id":76561198062984704,"connected_time":393000000000,"state":"active","ping":100},{"user_id":501,"name":"Fh","steam_id":76561198000903511,"connected_time":3878000000000,"state":"active","ping":65},{"user_id":519,"name":"mango cafe","steam_id":76561198142328193,"connected_time":2092000000000,"state":"active","ping":35},{"user_id":539,"name":"fancyfreak","steam_id":76561198326466375,"connected_time":536000000000,"state":"active","ping":84},{"user_id":363,"name":"Blitzy","steam_id":76561198149472890,"connected_time":8562000000000,"state":"active","ping":66},{"user_id":540,"name":"chalupa","steam_id":76561199072435724,"connected_time":535000000000,"state":"active","ping":129},{"user_id":381,"name":"üÖúüÖîüÖîüÖöüÖ¢üÖ£üÖî\ufffd\ufffd\ufffd","steam_id":76561197999748343,"connected_time":7529000000000,"state":"active","ping":95},{"user_id":530,"name":"Imitation Caucasian","steam_id":76561198320536166,"connected_time":1070000000000,"state":"active","ping":99},{"user_id":543,"name":"Colonel Chikara","steam_id":76561198010021087,"connected_time":283000000000,"state":"active","ping":68},{"user_id":513,"name":"dance moon","steam_id":76561198110152060,"connected_time":2672000000000,"state":"active","ping":47},{"user_id":414,"name":"Mediarch","steam_id":76561198050765729,"connected_time":5573000000000,"state":"active","ping":50},{"user_id":528,"name":"Len","steam_id":76561199141913673,"connected_time":1235000000000,"state":"active","ping":50},{"user_id":527,"name":"Zadok","steam_id":76561198075397776,"connected_time":1312000000000,"state":"active","ping":59},{"user_id":321,"name":"ratie","steam_id":76561198059399661,"connected_time":11535000000000,"state":"active","ping":87},{"user_id":524,"name":"spacetoven","steam_id":76561198115821131,"connected_time":1791000000000,"state":"active","ping":61},{"user_id":529,"name":"TheMagicMrWaffle","steam_id":76561198104357256,"connected_time":1086000000000,"state":"active","ping":70},{"user_id":550,"name":"SeriousBread","steam_id":76561198043901577,"connected_time":14000000000,"state":"spawning","ping":44},{"user_id":545,"name":"Pump","steam_id":76561198085846167,"connected_time":189000000000,"state":"active","ping":104}]},{"server_id":119,"name":"Uncletopia | Seattle | 2 | All Maps","name_short":"sea-2","host":"sea-1.us.uncletopia.com","port":27025,"enabled":true,"region":"us-west","cc":"us","latitude":47.608013,"longitude":-122.33517,"reserved":0,"last_update":"0001-01-01T00:00:00Z","name_a2s":"Uncletopia | Seattle | 2 | All Maps","protocol":17,"map":"pl_swiftwater_final1","folder":"tf","game":"Team Fortress","app_id":440,"player_count":18,"max_players":24,"Bots":0,"server_type":"Dedicated","server_os":"Linux","password":true,"vac":true,"version":"7757534","steam_id":85568392924469998,"keywords":["nocrits","nodmgspread","payload","uncletopia"],"game_id":440,"stv_port":27026,"stv_name":"Uncletopia | Seattle | 2 | All Maps | STV","players":[{"user_id":163,"name":"doctor large","steam_id":76561199195836752,"connected_time":4268000000000,"state":"active","ping":110},{"user_id":150,"name":"Wavelengths (they/it)","steam_id":76561197997621320,"connected_time":4963000000000,"state":"active","ping":95},{"user_id":196,"name":"Samantha","steam_id":76561198106265274,"connected_time":177000000000,"state":"active","ping":111},{"user_id":134,"name":"Training Arc","steam_id":76561198038832034,"connected_time":5850000000000,"state":"active","ping":59},{"user_id":168,"name":"The Pepsi¬Æ Superbowl¬Æ!","steam_id":76561198080828981,"connected_time":3405000000000,"state":"active","ping":76},{"user_id":67,"name":"roanoke‚Ä∫","steam_id":76561198048007844,"connected_time":10522000000000,"state":"active","ping":75},{"user_id":186,"name":"They/Them Rattussy","steam_id":76561198238186628,"connected_time":1313000000000,"state":"active","ping":75},{"user_id":194,"name":"N√©oGothiqueüïØ","steam_id":76561198003467269,"connected_time":537000000000,"state":"active","ping":106},{"user_id":195,"name":"chrome 2008 (she/they)","steam_id":76561198321277216,"connected_time":376000000000,"state":"active","ping":65},{"user_id":201,"name":"Trash Boat","steam_id":76561198181586946,"connected_time":28000000000,"state":"spawning","ping":71},{"user_id":193,"name":"Mr. Morrow","steam_id":76561198011333701,"connected_time":770000000000,"state":"active","ping":111},{"user_id":178,"name":"lowtierdeity","steam_id":76561199154440770,"connected_time":2388000000000,"state":"active","ping":79},{"user_id":197,"name":"Rat","steam_id":76561198330059340,"connected_time":162000000000,"state":"active","ping":62},{"user_id":155,"name":"Z71Jeffrey05","steam_id":76561198045992418,"connected_time":4720000000000,"state":"active","ping":59},{"user_id":200,"name":"Duck","steam_id":76561198074705500,"connected_time":81000000000,"state":"active","ping":85},{"user_id":202,"name":"sevanial","steam_id":76561198071532126,"connected_time":17000000000,"state":"active","ping":105},{"user_id":198,"name":"6PieceNuggs","steam_id":76561198333367310,"connected_time":160000000000,"state":"active","ping":72},{"user_id":154,"name":"Vlasic_Garlic_Dills99","steam_id":76561198030052564,"connected_time":4800000000000,"state":"active","ping":49}]},{"server_id":406,"name":"Uncletopia | Seattle | 3 | Stopwatch Beta","name_short":"sea-3","host":"sea-1.us.uncletopia.com","port":27035,"enabled":true,"region":"us-west","cc":"us","latitude":47.608013,"longitude":-122.33517,"reserved":0,"last_update":"0001-01-01T00:00:00Z","name_a2s":"Uncletopia | Seattle | 3 | Stopwatch Beta","protocol":17,"map":"workshop/koth_clearcut_b15.ugc2107050255","folder":"tf","game":"Team Fortress","app_id":440,"player_count":0,"max_players":24,"Bots":0,"server_type":"Dedicated","server_os":"Linux","password":true,"vac":true,"version":"7757534","steam_id":85568392924515217,"keywords":["cp","nocrits","nodmgspread","uncletopia"],"game_id":440,"stv_port":27036,"stv_name":"Uncletopia | Seattle | 3 | Stopwatch Beta | STV","players":null},{"server_id":17,"name":"Uncletopia | San Francisco | 1 | All Maps","name_short":"sfo-1","host":"sfo-1.us.uncletopia.com","port":27015,"enabled":true,"region":"us-west","cc":"us","latitude":37.77397,"longitude":-122.4313,"reserved":0,"last_update":"0001-01-01T00:00:00Z","name_a2s":"Uncletopia | San Francisco | 1 | All Maps","protocol":17,"map":"cp_sunshine","folder":"tf","game":"Team Fortress","app_id":440,"player_count":0,"max_players":24,"Bots":0,"server_type":"Dedicated","server_os":"Linux","password":true,"vac":true,"version":"7757534","steam_id":85568392924469999,"keywords":["cp","nocrits","nodmgspread","uncletopia"],"game_id":440,"stv_port":27016,"stv_name":"Uncletopia | San Francisco | 1 | All Maps | STV","players":null},{"server_id":18,"name":"Uncletopia | San Francisco | 2 | All Maps","name_short":"sfo-2","host":"sfo-1.us.uncletopia.com","port":27025,"enabled":true,"region":"us-west","cc":"us","latitude":37.77397,"longitude":-122.4313,"reserved":0,"last_update":"0001-01-01T00:00:00Z","name_a2s":"Uncletopia | San Francisco | 2 | All Maps","protocol":17,"map":"pl_snowycoast","folder":"tf","game":"Team Fortress","app_id":440,"player_count":0,"max_players":24,"Bots":0,"server_type":"Dedicated","server_os":"Linux","password":true,"vac":true,"version":"7757534","steam_id":85568392924470000,"keywords":["nocrits","nodmgspread","payload","uncletopia"],"game_id":440,"stv_port":27026,"stv_name":"Uncletopia | San Francisco | 2 | All Maps | STV","players":null},{"server_id":19,"name":"Uncletopia | San Francisco | 3 | Stopwatch Beta","name_short":"sfo-3","host":"sfo-1.us.uncletopia.com","port":27035,"enabled":true,"region":"us-west","cc":"us","latitude":37.77397,"longitude":-122.4313,"reserved":0,"last_update":"0001-01-01T00:00:00Z","name_a2s":"Uncletopia | San Francisco | 3 | Stopwatch Beta","protocol":17,"map":"koth_lakeside_final","folder":"tf","game":"Team Fortress","app_id":440,"player_count":0,"max_players":24,"Bots":0,"server_type":"Dedicated","server_os":"Linux","password":true,"vac":true,"version":"7757534","steam_id":85568392924742824,"keywords":["cp","nocrits","nodmgspread","uncletopia"],"game_id":440,"stv_port":27036,"stv_name":"Uncletopia | San Francisco | 3 | Stopwatch Beta | STV","players":null},{"server_id":20,"name":"Uncletopia | San Francisco | 4 | Community","name_short":"sfo-4","host":"sfo-1.us.uncletopia.com","port":27045,"enabled":true,"region":"us-west","cc":"us","latitude":37.77397,"longitude":-122.4313,"reserved":0,"last_update":"0001-01-01T00:00:00Z","name_a2s":"Uncletopia | San Francisco | 4 | Community","protocol":17,"map":"workshop/pl_cooler_upward_a4.ugc2446525461","folder":"tf","game":"Team Fortress","app_id":440,"player_count":15,"max_players":24,"Bots":0,"server_type":"Dedicated","server_os":"Linux","password":true,"vac":true,"version":"7757534","steam_id":85568392924742826,"keywords":["nocrits","nodmgspread","payload","uncletopia"],"game_id":440,"stv_port":27046,"stv_name":"Uncletopia | San Francisco | 4 | Community | STV","players":[{"user_id":153,"name":"ConiferCarver(#SaveTF2)","steam_id":76561198195875845,"connected_time":1232000000000,"state":"active","ping":53},{"user_id":176,"name":"Kaluka","steam_id":76561198036861445,"connected_time":279000000000,"state":"active","ping":119},{"user_id":170,"name":"Mall","steam_id":76561198436085386,"connected_time":460000000000,"state":"active","ping":97},{"user_id":119,"name":"‡∏∏","steam_id":76561198084134025,"connected_time":4114000000000,"state":"active","ping":76},{"user_id":156,"name":"NVM!!!","steam_id":76561198432721568,"connected_time":1136000000000,"state":"active","ping":82},{"user_id":137,"name":"Cave Dweller","steam_id":76561198374825685,"connected_time":2712000000000,"state":"active","ping":57},{"user_id":171,"name":"the meta","steam_id":76561199071495058,"connected_time":455000000000,"state":"active","ping":112},{"user_id":157,"name":"Sly Marbo","steam_id":76561198135271741,"connected_time":1122000000000,"state":"active","ping":67},{"user_id":172,"name":"The Assistant Regional Manager","steam_id":76561199221484936,"connected_time":434000000000,"state":"active","ping":67},{"user_id":166,"name":"terrorism? boy howdy","steam_id":76561198844003641,"connected_time":779000000000,"state":"active","ping":65},{"user_id":158,"name":"Meth Goblin","steam_id":76561198086355221,"connected_time":1084000000000,"state":"active","ping":96},{"user_id":113,"name":"Thunderchief","steam_id":76561198022802780,"connected_time":4457000000000,"state":"active","ping":71},{"user_id":159,"name":"HellRaiser","steam_id":76561199051660033,"connected_time":1070000000000,"state":"active","ping":101},{"user_id":152,"name":"knatspray","steam_id":76561198832507482,"connected_time":1597000000000,"state":"active","ping":72},{"user_id":162,"name":"K2f","steam_id":76561198049600563,"connected_time":1032000000000,"state":"active","ping":59}]},{"server_id":141,"name":"Uncletopia | Sydney | 1 | All Maps","name_short":"syd-1","host":"syd-1.au.uncletopia.com","port":27015,"enabled":true,"region":"au","cc":"au","latitude":-33.865143,"longitude":151.2099,"reserved":0,"last_update":"0001-01-01T00:00:00Z","name_a2s":"Uncletopia | Sydney | 1 | All Maps","protocol":17,"map":"koth_viaduct","folder":"tf","game":"Team Fortress","app_id":440,"player_count":0,"max_players":24,"Bots":0,"server_type":"Dedicated","server_os":"Linux","password":true,"vac":true,"version":"7757534","steam_id":85568392924470001,"keywords":["cp","nocrits","nodmgspread","uncletopia"],"game_id":440,"stv_port":27016,"stv_name":"Uncletopia | Sydney | 1 | All Maps | STV","players":null},{"server_id":123,"name":"Uncletopia | Sydney | 2 | All Maps","name_short":"syd-2","host":"syd-1.au.uncletopia.com","port":27025,"enabled":true,"region":"au","cc":"au","latitude":-33.865143,"longitude":151.2099,"reserved":0,"last_update":"0001-01-01T00:00:00Z","name_a2s":"Uncletopia | Sydney | 2 | All Maps","protocol":17,"map":"cp_process_final","folder":"tf","game":"Team Fortress","app_id":440,"player_count":0,"max_players":24,"Bots":0,"server_type":"Dedicated","server_os":"Linux","password":true,"vac":true,"version":"7757534","steam_id":85568392924470002,"keywords":["cp","nocrits","nodmgspread","uncletopia"],"game_id":440,"stv_port":27026,"stv_name":"Uncletopia | Sydney | 2 | All Maps | STV","players":null},{"server_id":395,"name":"Uncletopia | Sydney | 3 | All Maps","name_short":"syd-3","host":"syd-1.au.uncletopia.com","port":27035,"enabled":true,"region":"au","cc":"au","latitude":-33.865143,"longitude":151.2099,"reserved":0,"last_update":"0001-01-01T00:00:00Z","name_a2s":"Uncletopia | Sydney | 3 | All Maps","protocol":17,"map":"pl_swiftwater_final1","folder":"tf","game":"Team Fortress","app_id":440,"player_count":0,"max_players":24,"Bots":0,"server_type":"Dedicated","server_os":"Linux","password":true,"vac":true,"version":"7757534","steam_id":85568392925194467,"keywords":["nocrits","nodmgspread","payload","uncletopia"],"game_id":440,"stv_port":27036,"stv_name":"Uncletopia | Sydney | 3 | All Maps | STV","players":null},{"server_id":396,"name":"Uncletopia | Sydney | 4 | All Maps","name_short":"syd-4","host":"syd-1.au.uncletopia.com","port":27045,"enabled":true,"region":"au","cc":"au","latitude":-33.865143,"longitude":151.2099,"reserved":0,"last_update":"0001-01-01T00:00:00Z","name_a2s":"Uncletopia | Sydney | 4 | All Maps","protocol":17,"map":"koth_highpass","folder":"tf","game":"Team Fortress","app_id":440,"player_count":0,"max_players":24,"Bots":0,"server_type":"Dedicated","server_os":"Linux","password":true,"vac":true,"version":"7757534","steam_id":85568392925397958,"keywords":["cp","nocrits","nodmgspread","uncletopia"],"game_id":440,"stv_port":27046,"stv_name":"Uncletopia | Sydney | 4 | All Maps | STV","players":null},{"server_id":58,"name":"Uncletopia | Sydney | 5 | Stopwatch Beta","name_short":"syd-5","host":"syd-1.au.uncletopia.com","port":27055,"enabled":true,"region":"au","cc":"au","latitude":-33.865143,"longitude":151.2099,"reserved":0,"last_update":"0001-01-01T00:00:00Z","name_a2s":"Uncletopia | Sydney | 5 | Stopwatch Beta","protocol":17,"map":"koth_cascade","folder":"tf","game":"Team Fortress","app_id":440,"player_count":0,"max_players":24,"Bots":0,"server_type":"Dedicated","server_os":"Linux","password":true,"vac":true,"version":"7757534","steam_id":85568392925397959,"keywords":["cp","nocrits","nodmgspread","uncletopia"],"game_id":440,"stv_port":27056,"stv_name":"Uncletopia | Sydney | 5 | Stopwatch Beta | STV","players":null},{"server_id":59,"name":"Uncletopia | Sydney | 6 | Community","name_short":"syd-6","host":"syd-1.au.uncletopia.com","port":27065,"enabled":true,"region":"au","cc":"au","latitude":-33.865143,"longitude":151.2099,"reserved":0,"last_update":"0001-01-01T00:00:00Z","name_a2s":"Uncletopia | Sydney | 6 | Community","protocol":17,"map":"cp_snakewater_final1","folder":"tf","game":"Team Fortress","app_id":440,"player_count":0,"max_players":24,"Bots":0,"server_type":"Dedicated","server_os":"Linux","password":true,"vac":true,"version":"7757534","steam_id":85568392925397960,"keywords":["cp","nocrits","nodmgspread","uncletopia"],"game_id":440,"stv_port":27066,"stv_name":"Uncletopia | Sydney | 6 | Community | STV","players":null},{"server_id":49,"name":"Uncletopia | Warsaw | 1 | All Maps","name_short":"waw-1","host":"waw-1.pl.uncletopia.com","port":27015,"enabled":true,"region":"eu","cc":"pl","latitude":52.2297,"longitude":21.017532,"reserved":0,"last_update":"0001-01-01T00:00:00Z","name_a2s":"","protocol":0,"map":"","folder":"","game":"","app_id":0,"player_count":0,"max_players":0,"Bots":0,"server_type":"","server_os":"","password":false,"vac":false,"version":"","steam_id":0,"keywords":null,"game_id":0,"stv_port":0,"stv_name":"","players":null},{"server_id":50,"name":"Uncletopia | Warsaw | 2 | All Maps","name_short":"waw-2","host":"waw-1.pl.uncletopia.com","port":27025,"enabled":true,"region":"eu","cc":"pl","latitude":52.2297,"longitude":21.017532,"reserved":0,"last_update":"0001-01-01T00:00:00Z","name_a2s":"Uncletopia | Warsaw | 2 | All Maps","protocol":17,"map":"pl_barnblitz","folder":"tf","game":"Team Fortress","app_id":440,"player_count":0,"max_players":24,"Bots":0,"server_type":"Dedicated","server_os":"Linux","password":true,"vac":true,"version":"7757534","steam_id":85568392925397851,"keywords":["nocrits","nodmgspread","payload","uncletopia"],"game_id":440,"stv_port":27026,"stv_name":"Uncletopia | Warsaw | 2 | All Maps | STV","players":null},{"server_id":51,"name":"Uncletopia | Warsaw | 3 | All Maps","name_short":"waw-3","host":"waw-1.pl.uncletopia.com","port":27035,"enabled":true,"region":"eu","cc":"pl","latitude":52.2297,"longitude":21.017532,"reserved":0,"last_update":"0001-01-01T00:00:00Z","name_a2s":"Uncletopia | Warsaw | 3 | All Maps","protocol":17,"map":"koth_lakeside_final","folder":"tf","game":"Team Fortress","app_id":440,"player_count":0,"max_players":24,"Bots":0,"server_type":"Dedicated","server_os":"Linux","password":true,"vac":true,"version":"7757534","steam_id":85568392925397852,"keywords":["cp","nocrits","nodmgspread","uncletopia"],"game_id":440,"stv_port":27036,"stv_name":"Uncletopia | Warsaw | 3 | All Maps | STV","players":null},{"server_id":52,"name":"Uncletopia | Warsaw | 4 | All Maps","name_short":"waw-4","host":"waw-1.pl.uncletopia.com","port":27045,"enabled":true,"region":"eu","cc":"pl","latitude":52.2297,"longitude":21.017532,"reserved":0,"last_update":"0001-01-01T00:00:00Z","name_a2s":"Uncletopia | Warsaw | 4 | All Maps","protocol":17,"map":"koth_lakeside_final","folder":"tf","game":"Team Fortress","app_id":440,"player_count":1,"max_players":24,"Bots":0,"server_type":"Dedicated","server_os":"Linux","password":true,"vac":true,"version":"7757534","steam_id":85568392925397853,"keywords":["cp","nocrits","nodmgspread","uncletopia"],"game_id":440,"stv_port":27046,"stv_name":"Uncletopia | Warsaw | 4 | All Maps | STV","players":[{"user_id":7,"name":"le Shtink","steam_id":76561199433948284,"connected_time":316000000000,"state":"active","ping":143}]},{"server_id":53,"name":"Uncletopia | Warsaw | 5 | Stopwatch Beta","name_short":"waw-5","host":"waw-1.pl.uncletopia.com","port":27055,"enabled":true,"region":"eu","cc":"pl","latitude":52.2297,"longitude":21.017532,"reserved":0,"last_update":"0001-01-01T00:00:00Z","name_a2s":"Uncletopia | Warsaw | 5 | Stopwatch Beta","protocol":17,"map":"pl_borneo","folder":"tf","game":"Team Fortress","app_id":440,"player_count":0,"max_players":24,"Bots":0,"server_type":"Dedicated","server_os":"Linux","password":true,"vac":true,"version":"7757534","steam_id":85568392925397854,"keywords":["nocrits","nodmgspread","payload","uncletopia"],"game_id":440,"stv_port":27056,"stv_name":"Uncletopia | Warsaw | 5 | Stopwatch Beta | STV","players":null},{"server_id":54,"name":"Uncletopia | Warsaw | 6 | Community","name_short":"waw-6","host":"waw-1.pl.uncletopia.com","port":27065,"enabled":true,"region":"eu","cc":"pl","latitude":52.2297,"longitude":21.017532,"reserved":0,"last_update":"0001-01-01T00:00:00Z","name_a2s":"Uncletopia | Warsaw | 6 | Community","protocol":17,"map":"koth_lakeside_final","folder":"tf","game":"Team Fortress","app_id":440,"player_count":0,"max_players":24,"Bots":0,"server_type":"Dedicated","server_os":"Linux","password":true,"vac":true,"version":"7757534","steam_id":85568392925397856,"keywords":["cp","nocrits","nodmgspread","uncletopia"],"game_id":440,"stv_port":27066,"stv_name":"Uncletopia | Warsaw | 6 | Community | STV","players":null}]}