{"status":true,"message":"","result":[{"server_id":9,"name":"Uncletopia | Atlanta | 1 | All Maps","name_short":"atl-1","host":"atl-1.us.uncletopia.com","port":27015,"enabled":true,"region":"us-east","cc":"us","latitude":33.753746,"longitude":-84.38633,"reserved":0,"last_update":"0001-01-01T00:00:00Z","name_a2s":"Uncletopia | Atlanta | 1 | All Maps","protocol":17,"map":"koth_cascade","folder":"tf","game":"Team Fortress","app_id":440,"player_count":0,"max_players":24,"Bots":0,"server_type":"Dedicated","server_os":"Linux","password":true,"vac":true,"version":"7757534","steam_id":85568392924469982,"keywords":["cp","nocrits","nodmgspread","uncletopia"],"game_id":440,"stv_port":27016,"stv_name":"Uncletopia | Atlanta | 1 | All Maps | STV","players":null},{"server_id":104,"name":"Uncletopia | Atlanta | 2 | All Maps","name_short":"atl-2","host":"atl-1.us.uncletopia.com","port":27025,"enabled":true,"region":"us-east","cc":"us","latitude":33.753746,"longitude":-84.38633,"reserved":0,"last_update":"0001-01-01T00:00:00Z","name_a2s":"Uncletopia | Atlanta | 2 | All Maps","protocol":17,"map":"cp_dustbowl","folder":"tf","game":"Team Fortress","app_id":440,"player_count":0,"max_players":24,"Bots":0,"server_type":"Dedicated","server_os":"Linux","password":true,"vac":true,"version":"7757534","steam_id":85568392924469983,"keywords":["cp","nocrits","nodmgspread","uncletopia"],"game_id":440,"stv_port":27026,"stv_name":"Uncletopia | Atlanta | 2 | All Maps | STV","players":null},{"server_id":400,"name":"Uncletopia | Atlanta | 3 | Community","name_short":"atl-3","host":"atl-1.us.uncletopia.com","port":27035,"enabled":true,"region":"us-east","cc":"us","latitude":33.753746,"longitude":-84.38633,"reserved":0,"last_update":"0001-01-01T00:00:00Z","name_a2s":"Uncletopia | Atlanta | 3 | Community","protocol":17,"map":"cp_snakewater_final1","folder":"tf","game":"Team Fortress","app_id":440,"player_count":0,"max_players":24,"Bots":0,"server_type":"Dedicated","server_os":"Linux","password":true,"vac":true,"version":"7757534","steam_id":85568392924515187,"keywords":["cp","nocrits","nodmgspread","uncletopia"],"game_id":440,"stv_port":27036,"stv_name":"Uncletopia | Atlanta | 3 | Community | STV","players":null},{"server_id":401,"name":"Uncletopia | Atlanta | 4 | No Payload","name_short":"atl-4","host":"atl-1.us.uncletopia.com","port":27045,"enabled":true,"region":"us-east","cc":"us","latitude":33.753746,"longitude":-84.38633,"reserved":0,"last_update":"0001-01-01T00:00:00Z","name_a2s":"","protocol":0,"map":"","folder":"","game":"","app_id":0,"player_count":0,"max_players":0,"Bots":0,"server_type":"","server_os":"","password":false,"vac":false,"version":"","steam_id":0,"keywords":null,"game_id":0,"stv_port":0,"stv_name":"","players":null},{"server_id":2,"name":"Uncletopia | Chicago | 1 | All Maps","name_short":"chi-1","host":"chi-1.us.uncletopia.com","port":27015,"enabled":true,"region":"us-central","cc":"us","latitude":41.881832,"longitude":-87.62318,"reserved":0,"last_update":"0001-01-01T00:00:00Z","name_a2s":"Uncletopia | Chicago | 1 | All Maps","protocol":17,"map":"pl_upward","folder":"tf","game":"Team Fortress","app_id":440,"player_count":24,"max_players":24,"Bots":0,"server_type":"Dedicated","server_os":"Linux","password":true,"vac":true,"version":"7757534","steam_id":85568392924469984,"keywords":["nocrits","nodmgspread","payload","uncletopia"],"game_id":440,"stv_port":27016,"stv_name":"Uncletopia | Chicago | 1 | All Maps | STV","players":[{"user_id":5,"name":"SoundslikeJustice","steam_id":76561198963640645,"connected_time":2607000000000,"state":"active","ping":82},{"user_id":44,"name":"tar","steam_id":76561197995620232,"connected_time":128000000000,"state":"active","ping":59},{"user_id":11,"name":"Blue Necromancer","steam_id":76561198275755146,"connected_time":1828000000000,"state":"active","ping":117},{"user_id":8,"name":"xZoroarkgaming","steam_id":76561199199302865,"connected_time":2048000000000,"state":"active","ping":95},{"user_id":9,"name":"Spectre","steam_id":76561198025652246,"connected_time":1998000000000,"state":"active","ping":33},{"user_id":10,"name":"lambmyth","steam_id":76561199215261209,"connected_time":1990000000000,"state":"active","ping":79},{"user_id":42,"name":"is that the guy from dead space","steam_id":76561198128570345,"connected_time":276000000000,"state":"active","ping":65},{"user_id":43,"name":"Titus Tyrwitt","steam_id":76561197990779673,"connected_time":222000000000,"state":"active","ping":76},{"user_id":38,"name":"Wolfman","steam_id":76561198095264646,"connected_time":460000000000,"state":"active","ping":89},{"user_id":39,"name":"STONE COLD","steam_id":76561198041643833,"connected_time":426000000000,"state":"active","ping":84},{"user_id":16,"name":"❀TheFlyingSpaghettiMonster❀","steam_id":76561198094145477,"connected_time":1601000000000,"state":"active","ping":41},{"user_id":17,"name":"gamer girl scout","steam_id":76561198929109037,"connected_time":1571000000000,"state":"active","ping":77},{"user_id":32,"name":"need a dispenser here","steam_id":76561198060912995,"connected_time":1139000000000,"state":"active","ping":54},{"user_id":36,"name":"forkes","steam_id":76561198130478202,"connected_time":508000000000,"state":"active","ping":44},{"user_id":21,"name":"Henners","steam_id":76561198078559370,"connected_time":1229000000000,"state":"active","ping":68},{"user_id":40,"name":"enotown","steam_id":76561198109901138,"connected_time":425000000000,"state":"active","ping":75},{"user_id":23,"name":"hitscan","steam_id":76561198252351550,"connected_time":1197000000000,"state":"active","ping":72},{"user_id":24,"name":"ronocc","steam_id":76561198089225457,"connected_time":1196000000000,"state":"active","ping":103},{"user_id":25,"name":"vanilla linguine","steam_id":76561198155661890,"connected_time":1194000000000,"state":"active","ping":74},{"user_id":29,"name":"THEDOOF","steam_id":76561198220428817,"connected_time":1159000000000,"state":"active","ping":88},{"user_id":37,"name":"Im High","steam_id":76561198049954886,"connected_time":492000000000,"state":"active","ping":76},{"user_id":45,"name":"yeqaauuhhhttytttuthbt 5 hi iwbe","steam_id":76561198044856349,"connected_time":27000000000,"state":"active","ping":48},{"user_id":33,"name":"Malevo","steam_id":76561198148606522,"connected_time":1137000000000,"state":"active","ping":76},{"user_id":34,"name":"Hope","steam_id":76561199201900779,"connected_time":1129000000000,"state":"active","ping":79}]},{"server_id":106,"name":"Uncletopia | Chicago | 2 | All Maps","name_short":"chi-2","host":"chi-1.us.uncletopia.com","port":27025,"enabled":true,"region":"us-central","cc":"us","latitude":41.881832,"longitude":-87.62318,"reserved":0,"last_update":"0001-01-01T00:00:00Z","name_a2s":"Uncletopia | Chicago | 2 | All Maps","protocol":17,"map":"koth_nucleus","folder":"tf","game":"Team Fortress","app_id":440,"player_count":0,"max_players":24,"Bots":0,"server_type":"Dedicated","server_os":"Linux","password":true,"vac":true,"version":"7757534","steam_id":85568392924469985,"keywords":["cp","nocrits","nodmgspread","uncletopia"],"game_id":440,"stv_port":27026,"stv_name":"Uncletopia | Chicago | 2 | All Maps | STV","players":null},{"server_id":402,"name":"Uncletopia | Chicago | 3 | All Maps","name_short":"chi-3","host":"chi-1.us.uncletopia.com","port":27035,"enabled":true,"region":"us-central","cc":"us","latitude":41.881832,"longitude":-87.62318,"reserved":0,"last_update":"0001-01-01T00:00:00Z","name_a2s":"Uncletopia | Chicago | 3 | All Maps","protocol":17,"map":"koth_nucleus","folder":"tf","game":"Team Fortress","app_id":440,"player_count":0,"max_players":24,"Bots":0,"server_type":"Dedicated","server_os":"Linux","password":true,"vac":true,"version":"7757534","steam_id":85568392924515191,"keywords":["cp","nocrits","nodmgspread","uncletopia"],"game_id":440,"stv_port":27036,"stv_name":"Uncletopia | Chicago | 3 | All Maps | STV","players":null},{"server_id":403,"name":"Uncletopia | Chicago | 4 | All Maps","name_short":"chi-4","host":"chi-1.us.uncletopia.com","port":27045,"enabled":true,"region":"us-central","cc":"us","latitude":41.881832,"longitude":-87.62318,"reserved":0,"last_update":"0001-01-01T00:00:00Z","name_a2s":"Uncletopia | Chicago | 4 | All Maps","protocol":17,"map":"pl_borneo","folder":"tf","game":"Team Fortress","app_id":440,"player_count":24,"max_players":24,"Bots":0,"server_type":"Dedicated","server_os":"Linux","password":true,"vac":true,"version":"7757534","steam_id":85568392924515193,"keywords":["nocrits","nodmgspread","payload","uncletopia"],"game_id":440,"stv_port":27046,"stv_name":"Uncletopia | Chicago | 4 | All Maps | STV","players":[{"user_id":112,"name":"The Land Admiral","steam_id":76561198159356609,"connected_time":1632000000000,"state":"active","ping":74},{"user_id":115,"name":"ƐՌѴƳ","steam_id":76561198099470277,"connected_time":1553000000000,"state":"active","ping":79},{"user_id":36,"name":"roxases","steam_id":76561198119759490,"connected_time":7567000000000,"state":"active","ping":86},{"user_id":122,"name":"Kyzer","steam_id":76561198048034600,"connected_time":591000000000,"state":"active","ping":73},{"user_id":71,"name":"Lusty.","steam_id":76561198446378419,"connected_time":4825000000000,"state":"active","ping":85},{"user_id":127,"name":"THE BURGER","steam_id":76561198311704368,"connected_time":160000000000,"state":"active","ping":65},{"user_id":120,"name":"barbara","steam_id":76561198072417792,"connected_time":726000000000,"state":"active","ping":110},{"user_id":105,"name":"indi","steam_id":76561198045917538,"connected_time":2157000000000,"state":"active","ping":50},{"user_id":40,"name":"HeisenBurger","steam_id":76561198040632080,"connected_time":7186000000000,"state":"active","ping":50},{"user_id":113,"name":"kametro4","steam_id":76561198835430429,"connected_time":1600000000000,"state":"active","ping":104},{"user_id":89,"name":"Tilly","steam_id":76561198054825100,"connected_time":3271000000000,"state":"active","ping":60},{"user_id":114,"name":"ATL1 | Pango","steam_id":76561198069811545,"connected_time":1599000000000,"state":"active","ping":70},{"user_id":126,"name":"IHave2000HoursButPlayLikeIHave1","steam_id":76561198295280927,"connected_time":371000000000,"state":"active","ping":74},{"user_id":17,"name":"Bryguy","steam_id":76561198092096120,"connected_time":9052000000000,"state":"active","ping":41},{"user_id":110,"name":"mobe","steam_id":76561198121633820,"connected_time":1825000000000,"state":"active","ping":104},{"user_id":91,"name":"Parker","steam_id":76561198046044893,"connected_time":3247000000000,"state":"active","ping":55},{"user_id":100,"name":"Cooksandcleans™","steam_id":76561198049696128,"connected_time":2807000000000,"state":"active","ping":69},{"user_id":67,"name":"i love tf2!","steam_id":76561198050220225,"connected_time":5318000000000,"state":"active","ping":67},{"user_id":111,"name":"AkimboAoki","steam_id":76561198158323058,"connected_time":1662000000000,"state":"active","ping":90},{"user_id":94,"name":"mechiimi ★","steam_id":76561198321627268,"connected_time":3139000000000,"state":"active","ping":117},{"user_id":58,"name":"whimsical little creature","steam_id":76561198271710504,"connected_time":6314000000000,"state":"active","ping":55},{"user_id":106,"name":"BIG HOG","steam_id":76561198079923652,"connected_time":1906000000000,"state":"active","ping":89},{"user_id":109,"name":"the grungler!","steam_id":76561198058485742,"connected_time":1860000000000,"state":"active","ping":118},{"user_id":125,"name":"Nukem","steam_id":76561198166236574,"connected_time":451000000000,"state":"active","ping":80}]},{"server_id":36,"name":"Uncletopia | Chicago | 5 | All Maps","name_short":"chi-5","host":"chi-2.us.uncletopia.com","port":27015,"enabled":true,"region":"us-central","cc":"us","latitude":41.881832,"longitude":-87.62318,"reserved":0,"last_update":"0001-01-01T00:00:00Z","name_a2s":"Uncletopia | Chicago | 5 | All Maps","protocol":17,"map":"koth_cascade","folder":"tf","game":"Team Fortress","app_id":440,"player_count":0,"max_players":24,"Bots":0,"server_type":"Dedicated","server_os":"Linux","password":true,"vac":true,"version":"7757534","steam_id":85568392924866362,"keywords":["cp","nocrits","nodmgspread","uncletopia"],"game_id":440,"stv_port":27016,"stv_name":"Uncletopia | Chicago | 5 | All Maps | STV","players":null},{"server_id":37,"name":"Uncletopia | Chicago | 6 | All Maps","name_short":"chi-6","host":"chi-2.us.uncletopia.com","port":27025,"enabled":true,"region":"us-central","cc":"us","latitude":41.881832,"longitude":-87.62318,"reserved":0,"last_update":"0001-01-01T00:00:00Z","name_a2s":"Uncletopia | Chicago | 6 | All Maps","protocol":17,"map":"pl_borneo","folder":"tf","game":"Team Fortress","app_id":440,"player_count":0,"max_players":24,"Bots":0,"server_type":"Dedicated","server_os":"Linux","password":true,"vac":true,"version":"7757534","steam_id":85568392924866363,"keywords":["nocrits","nodmgspread","payload","uncletopia"],"game_id":440,"stv_port":27026,"stv_name":"Uncletopia | Chicago | 6 | All Maps | STV","players":null},{"server_id":38,"name":"Uncletopia | Chicago | 7 | Stopwatch Beta","name_short":"chi-7","host":"chi-2.us.uncletopia.com","port":27035,"enabled":true,"region":"us-central","cc":"us","latitude":41.881832,"longitude":-87.62318,"reserved":0,"last_update":"0001-01-01T00:00:00Z","name_a2s":"Uncletopia | Chicago | 7 | Stopwatch Beta","protocol":17,"map":"pl_barnblitz","folder":"tf","game":"Team Fortress","app_id":440,"player_count":0,"max_players":24,"Bots":0,"server_type":"Dedicated","server_os":"Linux","password":true,"vac":true,"version":"7757534","steam_id":85568392924866364,"keywords":["nocrits","nodmgspread","payload","uncletopia"],"game_id":440,"stv_port":27036,"stv_name":"Uncletopia | Chicago | 7 | Stopwatch Beta | STV","players":null},{"server_id":39,"name":"Uncletopia | Chicago | 8 | Community","name_short":"chi-8","host":"chi-2.us.uncletopia.com","port":27045,"enabled":true,"region":"us-central","cc":"us","latitude":41.881832,"longitude":-87.62318,"reserved":0,"last_update":"0001-01-01T00:00:00Z","name_a2s":"Uncletopia | Chicago | 8 | Community","protocol":17,"map":"koth_cascade","folder":"tf","game":"Team Fortress","app_id":440,"player_count":0,"max_players":24,"Bots":0,"server_type":"Dedicated","server_os":"Linux","password":true,"vac":true,"version":"7757534","steam_id":85568392924866365,"keywords":["cp","nocrits","nodmgspread","uncletopia"],"game_id":440,"stv_port":27046,"stv_name":"Uncletopia | Chicago | 8 | Community | STV","players":null},{"server_id":8,"name":"Uncletopia | Dallas | 1 | All Maps","name_short":"dal-1","host":"dal-1.us.uncletopia.com","port":27015,"enabled":true,"region":"us-central","cc":"us","latitude":32.779167,"longitude":-96.80889,"reserved":0,"last_update":"0001-01-01T00:00:00Z","name_a2s":"Uncletopia | Dallas | 1 | All Maps","protocol":17,"map":"koth_cascade","folder":"tf","game":"Team Fortress","app_id":440,"player_count":0,"max_players":24,"Bots":0,"server_type":"Dedicated","server_os":"Linux","password":true,"vac":true,"version":"7757534","steam_id":85568392924469986,"keywords":["cp","nocrits","nodmgspread","uncletopia"],"game_id":440,"stv_port":27016,"stv_name":"Uncletopia | Dallas | 1 | All Maps | STV","players":null},{"server_id":108,"name":"Uncletopia | Dallas | 2 | All Maps","name_short":"dal-2","host":"dal-1.us.uncletopia.com","port":27025,"enabled":true,"region":"us-central","cc":"us","latitude":32.779167,"longitude":-96.80889,"reserved":0,"last_update":"0001-01-01T00:00:00Z","name_a2s":"Uncletopia | Dallas | 2 | All Maps","protocol":17,"map":"pl_upward","folder":"tf","game":"Team Fortress","app_id":440,"player_count":0,"max_players":24,"Bots":0,"server_type":"Dedicated","server_os":"Linux","password":true,"vac":true,"version":"7757534","steam_id":85568392924469988,"keywords":["nocrits","nodmgspread","payload","uncletopia"],"game_id":440,"stv_port":27026,"stv_name":"Uncletopia | Dallas | 2 | All Maps | STV","players":null},{"server_id":5,"name":"Uncletopia | Frankfurt | 1 | All Maps","name_short":"frk-1","host":"frk-1.de.uncletopia.com","port":27015,"enabled":true,"region":"eu","cc":"de","latitude":50.110924,"longitude":8.682127,"reserved":0,"last_update":"0001-01-01T00:00:00Z","name_a2s":"Uncletopia | Frankfurt | 1 | All Maps","protocol":17,"map":"koth_cascade","folder":"tf","game":"Team Fortress","app_id":440,"player_count":19,"max_players":24,"Bots":0,"server_type":"Dedicated","server_os":"Linux","password":true,"vac":true,"version":"7757534","steam_id":85568392924469989,"keywords":["cp","nocrits","nodmgspread","uncletopia"],"game_id":440,"stv_port":27016,"stv_name":"Uncletopia | Frankfurt | 1 | All Maps | STV","players":[{"user_id":395,"name":"Sifan (CAMSL)","steam_id":76561198094433932,"connected_time":2210000000000,"state":"active","ping":160},{"user_id":421,"name":"strideΔ","steam_id":76561199007826093,"connected_time":236000000000,"state":"active","ping":74},{"user_id":420,"name":"I am inside your mother","steam_id":76561198173218318,"connected_time":254000000000,"state":"active","ping":54},{"user_id":384,"name":"Among Us","steam_id":76561199045075356,"connected_time":2510000000000,"state":"active","ping":166},{"user_id":382,"name":"Pek","steam_id":76561198110417995,"connected_time":2760000000000,"state":"active","ping":116},{"user_id":422,"name":"BookFps","steam_id":76561199113947978,"connected_time":219000000000,"state":"active","ping":74},{"user_id":337,"name":"Why?","steam_id":76561198970833545,"connected_time":5359000000000,"state":"active","ping":78},{"user_id":386,"name":"Mat","steam_id":76561198049245672,"connected_time":2467000000000,"state":"active","ping":69},{"user_id":426,"name":"soup","steam_id":76561198386933065,"connected_time":113000000000,"state":"active","ping":61},{"user_id":425,"name":"Maya #transrights","steam_id":76561198290614621,"connected_time":156000000000,"state":"active","ping":65},{"user_id":412,"name":"grandpa's post-mortem photo","steam_id":76561198130116078,"connected_time":963000000000,"state":"active","ping":91},{"user_id":388,"name":"METhOphetamine","steam_id":76561198068216224,"connected_time":2445000000000,"state":"active","ping":45},{"user_id":427,"name":"sod","steam_id":76561198986102579,"connected_time":51000000000,"state":"active","ping":71},{"user_id":415,"name":"Soerlssoelssöen","steam_id":76561197993060585,"connected_time":563000000000,"state":"active","ping":77},{"user_id":428,"name":"kotamine","steam_id":76561198068907991,"connected_time":41000000000,"state":"active","ping":69},{"user_id":399,"name":"Lord Aerial","steam_id":76561198288157281,"connected_time":2039000000000,"state":"active","ping":68},{"user_id":401,"name":"fire axe entrepenour","steam_id":76561199061893308,"connected_time":1657000000000,"state":"active","ping":99},{"user_id":405,"name":"SHADOW WIZARD MONEY GANG","steam_id":76561198179324075,"connected_time":1447000000000,"state":"active","ping":75},{"user_id":414,"name":"sasibak123@gmail.com","steam_id":76561198981533174,"connected_time":806000000000,"state":"active","ping":78}]},{"server_id":110,"name":"Uncletopia | Frankfurt | 2 | All Maps","name_short":"frk-2","host":"frk-1.de.uncletopia.com","port":27025,"enabled":true,"region":"eu","cc":"de","latitude":50.110924,"longitude":8.682127,"reserved":0,"last_update":"0001-01-01T00:00:00Z","name_a2s":"Uncletopia | Frankfurt | 2 | All Maps","protocol":17,"map":"cp_process_final","folder":"tf","game":"Team Fortress","app_id":440,"player_count":22,"max_players":24,"Bots":0,"server_type":"Dedicated","server_os":"Linux","password":true,"vac":true,"version":"7757534","steam_id":85568392924469990,"keywords":["cp","nocrits","nodmgspread","uncletopia"],"game_id":440,"stv_port":27026,"stv_name":"Uncletopia | Frankfurt | 2 | All Maps | STV","players":[{"user_id":172,"name":"addicted","steam_id":76561199129801006,"connected_time":252000000000,"state":"active","ping":53},{"user_id":48,"name":"Kamanie","steam_id":76561198135448255,"connected_time":8207000000000,"state":"active","ping":46},{"user_id":148,"name":"wicked","steam_id":76561198164376035,"connected_time":2791000000000,"state":"active","ping":60},{"user_id":149,"name":"transgender e-girl","steam_id":76561198168589809,"connected_time":2774000000000,"state":"active","ping":65},{"user_id":168,"name":"Fofenho","steam_id":76561198436817109,"connected_time":439000000000,"state":"active","ping":60},{"user_id":173,"name":"Chocofrolik","steam_id":76561198454779847,"connected_time":228000000000,"state":"active","ping":79},{"user_id":108,"name":"howabe","steam_id":76561197996486818,"connected_time":5587000000000,"state":"active","ping":54},{"user_id":145,"name":"malinký","steam_id":76561198048683488,"connected_time":3078000000000,"state":"active","ping":65},{"user_id":41,"name":"Angelatine","steam_id":76561198101624996,"connected_time":8430000000000,"state":"active","ping":92},{"user_id":94,"name":"Fat Pigeon","steam_id":76561198817940142,"connected_time":6397000000000,"state":"active","ping":48},{"user_id":31,"name":"jonas","steam_id":76561198250132954,"connected_time":8961000000000,"state":"active","ping":48},{"user_id":161,"name":"Kumquat","steam_id":76561198200490386,"connected_time":1240000000000,"state":"active","ping":68},{"user_id":143,"name":"♥ Aura says Trans Rights ♥","steam_id":76561198066258544,"connected_time":3205000000000,"state":"active","ping":59},{"user_id":177,"name":"NK","steam_id":76561198302662020,"connected_time":59000000000,"state":"active","ping":89},{"user_id":111,"name":"Minimi","steam_id":76561198873850443,"connected_time":4893000000000,"state":"active","ping":61},{"user_id":159,"name":"Rui","steam_id":76561198263735498,"connected_time":1374000000000,"state":"active","ping":78},{"user_id":176,"name":"Sharkplut","steam_id":76561198973649647,"connected_time":143000000000,"state":"active","ping":53},{"user_id":130,"name":"Silverstorm","steam_id":76561198118175267,"connected_time":4154000000000,"state":"active","ping":72},{"user_id":60,"name":"player","steam_id":76561198054474684,"connected_time":7889000000000,"state":"active","ping":72},{"user_id":170,"name":"sm0ke","steam_id":76561198198977226,"connected_time":355000000000,"state":"active","ping":75},{"user_id":146,"name":"Tekky","steam_id":76561197990987315,"connected_time":3060000000000,"state":"active","ping":49},{"user_id":157,"name":"Ghost","steam_id":76561198110914180,"connected_time":1499000000000,"state":"active","ping":109}]},{"server_id":308,"name":"Uncletopia | Frankfurt | 3 | All Maps","name_short":"frk-3","host":"frk-1.de.uncletopia.com","port":27035,"enabled":true,"region":"eu","cc":"de","latitude":50.110924,"longitude":8.682127,"reserved":0,"last_update":"0001-01-01T00:00:00Z","name_a2s":"Uncletopia | Frankfurt | 3 | All Maps","protocol":17,"map":"pl_swiftwater_final1","folder":"tf","game":"Team Fortress","app_id":440,"player_count":24,"max_players":24,"Bots":0,"server_type":"Dedicated","server_os":"Linux","password":true,"vac":true,"version":"7757534","steam_id":85568392924504274,"keywords":["nocrits","nodmgspread","payload","uncletopia"],"game_id":440,"stv_port":27036,"stv_name":"Uncletopia | Frankfurt | 3 | All Maps | STV","players":[{"user_id":209,"name":"RiX","steam_id":76561197969053733,"connected_time":1681000000000,"state":"active","ping":71},{"user_id":231,"name":"Omni","steam_id":76561197964320557,"connected_time":638000000000,"state":"active","ping":67},{"user_id":237,"name":"{dogs}კობა77koba77[ASS]","steam_id":76561198154218182,"connected_time":492000000000,"state":"active","ping":62},{"user_id":239,"name":"Spinyapickle","steam_id":76561198086653667,"connected_time":325000000000,"state":"active","ping":67},{"user_id":211,"name":"OreHaX","steam_id":76561198272166623,"connected_time":1634000000000,"state":"active","ping":72},{"user_id":189,"name":"pfear","steam_id":76561197999207328,"connected_time":2791000000000,"state":"active","ping":74},{"user_id":228,"name":"Gorogaz","steam_id":76561198207157679,"connected_time":978000000000,"state":"active","ping":63},{"user_id":213,"name":"kallerannar","steam_id":76561199095701143,"connected_time":1490000000000,"state":"active","ping":94},{"user_id":200,"name":"NFTs are the future!","steam_id":76561198128506921,"connected_time":2317000000000,"state":"active","ping":75},{"user_id":219,"name":"Greenmaker","steam_id":76561198060466591,"connected_time":1361000000000,"state":"active","ping":81},{"user_id":186,"name":"Hegyi tahó F2P","steam_id":76561199219150356,"connected_time":2858000000000,"state":"active","ping":62},{"user_id":230,"name":"|hmc|hmc|","steam_id":76561198998684199,"connected_time":780000000000,"state":"active","ping":116},{"user_id":225,"name":"ricky pee pee","steam_id":76561198152620745,"connected_time":1026000000000,"state":"active","ping":72},{"user_id":214,"name":"Mor'du","steam_id":76561198274105878,"connected_time":1450000000000,"state":"active","ping":97},{"user_id":203,"name":"Damn fiddle!","steam_id":76561198345873608,"connected_time":1996000000000,"state":"active","ping":68},{"user_id":221,"name":":)","steam_id":76561198977420882,"connected_time":1245000000000,"state":"active","ping":60},{"user_id":188,"name":"Birb","steam_id":76561198381881577,"connected_time":2813000000000,"state":"active","ping":129},{"user_id":235,"name":"fmdi","steam_id":76561199433879329,"connected_time":596000000000,"state":"active","ping":60},{"user_id":159,"name":"Balls","steam_id":76561198086400484,"connected_time":4923000000000,"state":"active","ping":86},{"user_id":227,"name":"agent","steam_id":76561199136842813,"connected_time":996000000000,"state":"active","ping":167},{"user_id":206,"name":"AstroT112","steam_id":76561198328997531,"connected_time":1871000000000,"state":"active","ping":62},{"user_id":229,"name":"yeldad","steam_id":76561198447264153,"connected_time":827000000000,"state":"active","ping":117},{"user_id":217,"name":"Professional facestab","steam_id":76561198258721056,"connected_time":1404000000000,"state":"active","ping":49},{"user_id":236,"name":"Stepoface","steam_id":76561198091569863,"connected_time":592000000000,"state":"active","ping":77}]},{"server_id":309,"name":"Uncletopia | Frankfurt | 4 | All Maps","name_short":"frk-4","host":"frk-1.de.uncletopia.com","port":27045,"enabled":true,"region":"eu","cc":"de","latitude":50.110924,"longitude":8.682127,"reserved":0,"last_update":"0001-01-01T00:00:00Z","name_a2s":"Uncletopia | Frankfurt | 4 | All Maps","protocol":17,"map":"koth_viaduct","folder":"tf","game":"Team Fortress","app_id":440,"player_count":17,"max_players":24,"Bots":0,"server_type":"Dedicated","server_os":"Linux","password":true,"vac":true,"version":"7757534","steam_id":85568392924504275,"keywords":["cp","nocrits","nodmgspread","uncletopia"],"game_id":440,"stv_port":27046,"stv_name":"Uncletopia | Frankfurt | 4 | All Maps | STV","players":[{"user_id":8,"name":"Mλt","steam_id":76561198070826903,"connected_time":633000000000,"state":"active","ping":89},{"user_id":9,"name":"Fratm_Wolf","steam_id":76561199100512277,"connected_time":626000000000,"state":"active","ping":61},{"user_id":10,"name":"Darwin","steam_id":76561198079924012,"connected_time":622000000000,"state":"active","ping":72},{"user_id":11,"name":"[DAH] Mλrco7","steam_id":76561198157665073,"connected_time":606000000000,"state":"active","ping":69},{"user_id":12,"name":"Loh","steam_id":76561198085198339,"connected_time":554000000000,"state":"active","ping":74},{"user_id":13,"name":"Dream (real)","steam_id":76561199013644069,"connected_time":515000000000,"state":"active","ping":67},{"user_id":14,"name":"hedon/","steam_id":76561198249832770,"connected_time":505000000000,"state":"active","ping":64},{"user_id":15,"name":"Sneaky boi","steam_id":76561199195985387,"connected_time":412000000000,"state":"active","ping":129},{"user_id":16,"name":"sam-","steam_id":76561198013770973,"connected_time":341000000000,"state":"active","ping":71},{"user_id":17,"name":"SpeddyMeddy","steam_id":76561197999693825,"connected_time":332000000000,"state":"active","ping":70},{"user_id":25,"name":"Mr Markyz","steam_id":76561199063497223,"connected_time":78000000000,"state":"active","ping":91},{"user_id":19,"name":"ralph62x","steam_id":76561198865294231,"connected_time":318000000000,"state":"active","ping":62},{"user_id":21,"name":"Proud Jojo Fan #TF2SP","steam_id":76561198847327216,"connected_time":287000000000,"state":"active","ping":55},{"user_id":22,"name":"Rex","steam_id":76561199474556920,"connected_time":286000000000,"state":"active","ping":90},{"user_id":23,"name":"Datenegassie","steam_id":76561198089417032,"connected_time":211000000000,"state":"active","ping":56},{"user_id":24,"name":"Musicano","steam_id":76561198114541088,"connected_time":191000000000,"state":"active","ping":92},{"user_id":26,"name":"Magirby","steam_id":76561198818777390,"connected_time":67000000000,"state":"active","ping":116}]},{"server_id":310,"name":"Uncletopia | Frankfurt | 5 | All Maps","name_short":"frk-5","host":"frk-1.de.uncletopia.com","port":27055,"enabled":true,"region":"eu","cc":"de","latitude":50.110924,"longitude":8.682127,"reserved":0,"last_update":"0001-01-01T00:00:00Z","name_a2s":"Uncletopia | Frankfurt | 5 | All Maps","protocol":17,"map":"koth_lakeside_final","folder":"tf","game":"Team Fortress","app_id":440,"player_count":0,"max_players":24,"Bots":0,"server_type":"Dedicated","server_os":"Linux","password":true,"vac":true,"version":"7757534","steam_id":85568392924504277,"keywords":["cp","nocrits","nodmgspread","uncletopia"],"game_id":440,"stv_port":27056,"stv_name":"Uncletopia | Frankfurt | 5 | All Maps | STV","players":null},{"server_id":311,"name":"Uncletopia | Frankfurt | 6 | All Maps","name_short":"frk-6","host":"frk-1.de.uncletopia.com","port":27065,"enabled":true,"region":"eu","cc":"de","latitude":50.110924,"longitude":8.682127,"reserved":0,"last_update":"0001-01-01T00:00:00Z","name_a2s":"Uncletopia | Frankfurt | 6 | All Maps","protocol":17,"map":"pl_frontier_final","folder":"tf","game":"Team Fortress","app_id":440,"player_count":0,"max_players":24,"Bots":0,"server_type":"Dedicated","server_os":"Linux","password":true,"vac":true,"version":"7757534","steam_id":85568392924504278,"keywords":["nocrits","nodmgspread","payload","uncletopia"],"game_id":440,"stv_port":27066,"stv_name":"Uncletopia | Frankfurt | 6 | All Maps | STV","players":null},{"server_id":23,"name":"Uncletopia | Frankfurt | 7 | Stopwatch Beta","name_short":"frk-7","host":"frk-1.de.uncletopia.com","port":27075,"enabled":true,"region":"eu","cc":"de","latitude":50.110924,"longitude":8.682127,"reserved":0,"last_update":"0001-01-01T00:00:00Z","name_a2s":"Uncletopia | Frankfurt | 7 | Stopwatch Beta","protocol":17,"map":"cp_sunshine","folder":"tf","game":"Team Fortress","app_id":440,"player_count":0,"max_players":24,"Bots":0,"server_type":"Dedicated","server_os":"Linux","password":true,"vac":true,"version":"7757534","steam_id":85568392924742827,"keywords":["cp","nocrits","nodmgspread","uncletopia"],"game_id":440,"stv_port":27076,"stv_name":"Uncletopia | Frankfurt | 7 | Stopwatch Beta | STV","players":null},{"server_id":24,"name":"Uncletopia | Frankfurt | 8 | Community","name_short":"frk-8","host":"frk-1.de.uncletopia.com","port":27085,"enabled":true,"region":"eu","cc":"de","latitude":50.110924,"longitude":8.682127,"reserved":0,"last_update":"0001-01-01T00:00:00Z","name_a2s":"Uncletopia | Frankfurt | 8 | Community","protocol":17,"map":"koth_lakeside_final","folder":"tf","game":"Team Fortress","app_id":440,"player_count":2,"max_players":24,"Bots":0,"server_type":"Dedicated","server_os":"Linux","password":true,"vac":true,"version":"7757534","steam_id":85568392924742828,"keywords":["cp","nocrits","nodmgspread","uncletopia"],"game_id":440,"stv_port":27086,"stv_name":"Uncletopia | Frankfurt | 8 | Community | STV","players":[{"user_id":6,"name":"bolognese","steam_id":76561199105861570,"connected_time":33000000000,"state":"spawning","ping":65},{"user_id":5,"name":"Truegr","steam_id":76561198811912339,"connected_time":380000000000,"state":"active","ping":63}]},{"server_id":202,"name":"Uncletopia | Hong Kong | 1 | All Maps","name_short":"hgk-1","host":"hgk-1.hk.uncletopia.com","port":27015,"enabled":true,"region":"asia","cc":"hk","latitude":22.302711,"longitude":114.177216,"reserved":0,"last_update":"0001-01-01T00:00:00Z","name_a2s":"Uncletopia | Hong Kong | 1 | All Maps","protocol":17,"map":"pl_upward","folder":"tf","game":"Team Fortress","app_id":440,"player_count":24,"max_players":24,"Bots":0,"server_type":"Dedicated","server_os":"Linux","password":true,"vac":true,"version":"7757534","steam_id":85568392924494504,"keywords":["nocrits","nodmgspread","payload","uncletopia"],"game_id":440,"stv_port":27016,"stv_name":"Uncletopia | Hong Kong | 1 | All Maps | STV","players":[{"user_id":216,"name":"ObscuroLucem","steam_id":76561198875037943,"connected_time":4516000000000,"state":"active","ping":84},{"user_id":261,"name":"Corn_Archer","steam_id":76561199185044554,"connected_time":824000000000,"state":"active","ping":70},{"user_id":265,"name":"RP birdzz","steam_id":76561198318077734,"connected_time":377000000000,"state":"active","ping":61},{"user_id":257,"name":"killman47","steam_id":76561198348487408,"connected_time":1802000000000,"state":"active","ping":39},{"user_id":256,"name":"ChoboUnjeon","steam_id":76561198806095977,"connected_time":2074000000000,"state":"active","ping":89},{"user_id":243,"name":"shenko","steam_id":76561198082921407,"connected_time":3485000000000,"state":"active","ping":120},{"user_id":258,"name":"Aug","steam_id":76561199212711900,"connected_time":1412000000000,"state":"active","ping":105},{"user_id":181,"name":"LEGS","steam_id":76561199111623890,"connected_time":6458000000000,"state":"active","ping":88},{"user_id":266,"name":"i am a F2P and my aim is shit","steam_id":76561199475974790,"connected_time":365000000000,"state":"active","ping":98},{"user_id":220,"name":"Puddin","steam_id":76561198140052918,"connected_time":4397000000000,"state":"active","ping":97},{"user_id":232,"name":"Momoxhien","steam_id":76561198414997429,"connected_time":4029000000000,"state":"active","ping":59},{"user_id":262,"name":"17","steam_id":76561198241530712,"connected_time":799000000000,"state":"active","ping":63},{"user_id":207,"name":"Kazeyama Toru","steam_id":76561199222419339,"connected_time":5179000000000,"state":"active","ping":86},{"user_id":241,"name":"쿠키","steam_id":76561197997220367,"connected_time":3593000000000,"state":"active","ping":52},{"user_id":235,"name":"Giyu","steam_id":76561198299150410,"connected_time":3823000000000,"state":"active","ping":79},{"user_id":209,"name":"Othopeus","steam_id":76561198283534382,"connected_time":5158000000000,"state":"active","ping":67},{"user_id":234,"name":"23rd","steam_id":76561199014675406,"connected_time":3867000000000,"state":"active","ping":130},{"user_id":222,"name":"AHHHHHHHHHHHH","steam_id":76561199221091556,"connected_time":4286000000000,"state":"active","ping":78},{"user_id":211,"name":"Leroy","steam_id":76561199137927625,"connected_time":5059000000000,"state":"active","ping":93},{"user_id":263,"name":"Skyler White yo","steam_id":76561198895193247,"connected_time":725000000000,"state":"active","ping":77},{"user_id":229,"name":"Beef Wellington","steam_id":76561197995635241,"connected_time":4130000000000,"state":"active","ping":124},{"user_id":242,"name":"光头强","steam_id":76561198045255591,"connected_time":3548000000000,"state":"active","ping":128},{"user_id":249,"name":"母の肉団子@hao123.com","steam_id":76561198069561896,"connected_time":2783000000000,"state":"active","ping":38},{"user_id":264,"name":"rat","steam_id":76561198840261854,"connected_time":723000000000,"state":"active","ping":116}]},{"server_id":1,"name":"Uncletopia | Los Angeles | 1 | All Maps","name_short":"lax-1","host":"lax-1.us.uncletopia.com","port":27015,"enabled":true,"region":"us-west","cc":"us","latitude":33.94279,"longitude":-118.41004,"reserved":0,"last_update":"0001-01-01T00:00:00Z","name_a2s":"Uncletopia | Los Angeles | 1 | All Maps","protocol":17,"map":"koth_lakeside_final","folder":"tf","game":"Team Fortress","app_id":440,"player_count":0,"max_players":24,"Bots":0,"server_type":"Dedicated","server_os":"Linux","password":true,"vac":true,"version":"7757534","steam_id":85568392924469991,"keywords":["cp","nocrits","nodmgspread","uncletopia"],"game_id":440,"stv_port":27016,"stv_name":"Uncletopia | Los Angeles | 1 | All Maps | STV","players":null},{"server_id":112,"name":"Uncletopia | Los Angeles | 2 | All Maps","name_short":"lax-2","host":"lax-1.us.uncletopia.com","port":27025,"enabled":true,"region":"us-west","cc":"us","latitude":33.94279,"longitude":-118.41004,"reserved":0,"last_update":"0001-01-01T00:00:00Z","name_a2s":"Uncletopia | Los Angeles | 2 | All Maps","protocol":17,"map":"pl_badwater","folder":"tf","game":"Team Fortress","app_id":440,"player_count":0,"max_players":24,"Bots":0,"server_type":"Dedicated","server_os":"Linux","password":true,"vac":true,"version":"7757534","steam_id":85568392924469992,"keywords":["nocrits","nodmgspread","payload","uncletopia"],"game_id":440,"stv_port":27026,"stv_name":"Uncletopia | Los Angeles | 2 | All Maps | STV","players":null},{"server_id":324,"name":"Uncletopia | Los Angeles | 3 | All Maps","name_short":"lax-3","host":"lax-1.us.uncletopia.com","port":27035,"enabled":true,"region":"us-west","cc":"us","latitude":33.94279,"longitude":-118.41004,"reserved":0,"last_update":"0001-01-01T00:00:00Z","name_a2s":"Uncletopia | Los Angeles | 3 | All Maps","protocol":17,"map":"pl_barnblitz","folder":"tf","game":"Team Fortress","app_id":440,"player_count":0,"max_players":24,"Bots":0,"server_type":"Dedicated","server_os":"Linux","password":true,"vac":true,"version":"7757534","steam_id":85568392924510198,"keywords":["nocrits","nodmgspread","payload","uncletopia"],"game_id":440,"stv_port":27036,"stv_name":"Uncletopia | Los Angeles | 3 | All Maps | STV","players":null},{"server_id":25,"name":"Uncletopia | Los Angeles | 4 | Stopwatch Beta","name_short":"lax-4","host":"lax-1.us.uncletopia.com","port":27045,"enabled":true,"region":"us-west","cc":"us","latitude":33.94279,"longitude":-118.41004,"reserved":0,"last_update":"0001-01-01T00:00:00Z","name_a2s":"Uncletopia | Los Angeles | 4 | Stopwatch Beta","protocol":17,"map":"pl_swiftwater_final1","folder":"tf","game":"Team Fortress","app_id":440,"player_count":0,"max_players":24,"Bots":0,"server_type":"Dedicated","server_os":"Linux","password":true,"vac":true,"version":"7757534","steam_id":85568392924510199,"keywords":["nocrits","nodmgspread","payload","uncletopia"],"game_id":440,"stv_port":27046,"stv_name":"Uncletopia | Los Angeles | 4 | Stopwatch Beta | STV","players":null},{"server_id":11,"name":"Uncletopia | London | 1 | All Maps","name_short":"lon-1","host":"lon-1.uk.uncletopia.com","port":27015,"enabled":true,"region":"eu","cc":"gb","latitude":51.509865,"longitude":-0.118092,"reserved":0,"last_update":"0001-01-01T00:00:00Z","name_a2s":"Uncletopia | London | 1 | All Maps","protocol":17,"map":"koth_king","folder":"tf","game":"Team Fortress","app_id":440,"player_count":21,"max_players":24,"Bots":0,"server_type":"Dedicated","server_os":"Linux","password":true,"vac":true,"version":"7757534","steam_id":85568392924367362,"keywords":["cp","nocrits","nodmgspread","uncletopia"],"game_id":440,"stv_port":27016,"stv_name":"Uncletopia | London | 1 | All Maps | STV","players":[{"user_id":206,"name":"GMsU | Rebikas","steam_id":76561198077053764,"connected_time":3033000000000,"state":"active","ping":57},{"user_id":242,"name":"spearfishNL","steam_id":76561199077022985,"connected_time":1402000000000,"state":"active","ping":49},{"user_id":223,"name":"Daoloth, Render of the Veils","steam_id":76561198115106008,"connected_time":2263000000000,"state":"active","ping":47},{"user_id":236,"name":"Flare","steam_id":76561198039098320,"connected_time":1743000000000,"state":"active","ping":52},{"user_id":252,"name":"homeinvasion$","steam_id":76561199111905021,"connected_time":151000000000,"state":"active","ping":133},{"user_id":207,"name":"GMsU | DaLuigi","steam_id":76561198054486188,"connected_time":3030000000000,"state":"active","ping":53},{"user_id":224,"name":"Jörmungandr","steam_id":76561199121981748,"connected_time":2247000000000,"state":"active","ping":75},{"user_id":209,"name":"SirToast","steam_id":76561199229729107,"connected_time":3017000000000,"state":"active","ping":85},{"user_id":226,"name":"Purps","steam_id":76561198053886680,"connected_time":2212000000000,"state":"active","ping":43},{"user_id":245,"name":"Rambert","steam_id":76561198145175472,"connected_time":1170000000000,"state":"active","ping":61},{"user_id":185,"name":"Apathy","steam_id":76561199308784371,"connected_time":5645000000000,"state":"active","ping":57},{"user_id":251,"name":"Sirzen","steam_id":76561198170155434,"connected_time":283000000000,"state":"active","ping":46},{"user_id":210,"name":"the youngest trillionaire","steam_id":76561198078780040,"connected_time":3003000000000,"state":"active","ping":73},{"user_id":247,"name":"Myrmodion","steam_id":76561198054746247,"connected_time":893000000000,"state":"active","ping":74},{"user_id":240,"name":"skille","steam_id":76561198005794325,"connected_time":1527000000000,"state":"active","ping":72},{"user_id":243,"name":"Maximus","steam_id":76561198032472655,"connected_time":1261000000000,"state":"active","ping":61},{"user_id":221,"name":"ciliorkun18","steam_id":76561198228942500,"connected_time":2427000000000,"state":"active","ping":90},{"user_id":166,"name":"poliakov.noam","steam_id":76561199259322961,"connected_time":7465000000000,"state":"active","ping":101},{"user_id":246,"name":"GMsU | Smiley","steam_id":76561198121494414,"connected_time":1076000000000,"state":"active","ping":92},{"user_id":192,"name":"hmmmmm","steam_id":76561198024619679,"connected_time":4490000000000,"state":"active","ping":58},{"user_id":249,"name":"kilikia","steam_id":76561198350261670,"connected_time":785000000000,"state":"active","ping":96}]},{"server_id":114,"name":"Uncletopia | London | 2 | All Maps","name_short":"lon-2","host":"lon-1.uk.uncletopia.com","port":27025,"enabled":true,"region":"eu","cc":"gb","latitude":51.509865,"longitude":-0.118092,"reserved":0,"last_update":"0001-01-01T00:00:00Z","name_a2s":"Uncletopia | London | 2 | All Maps","protocol":17,"map":"koth_viaduct","folder":"tf","game":"Team Fortress","app_id":440,"player_count":0,"max_players":24,"Bots":0,"server_type":"Dedicated","server_os":"Linux","password":true,"vac":true,"version":"7757534","steam_id":85568392924470941,"keywords":["cp","nocrits","nodmgspread","uncletopia"],"game_id":440,"stv_port":27026,"stv_name":"Uncletopia | London | 2 | All Maps | STV","players":null},{"server_id":320,"name":"Uncletopia | London | 3 | All Maps","name_short":"lon-3","host":"lon-1.uk.uncletopia.com","port":27035,"enabled":true,"region":"eu","cc":"gb","latitude":51.509865,"longitude":-0.118092,"reserved":0,"last_update":"0001-01-01T00:00:00Z","name_a2s":"Uncletopia | London | 3 | All Maps","protocol":17,"map":"pl_upward","folder":"tf","game":"Team Fortress","app_id":440,"player_count":24,"max_players":24,"Bots":0,"server_type":"Dedicated","server_os":"Linux","password":true,"vac":true,"version":"7757534","steam_id":85568392924510192,"keywords":["nocrits","nodmgspread","payload","uncletopia"],"game_id":440,"stv_port":27036,"stv_name":"Uncletopia | London | 3 | All Maps | STV","players":[{"user_id":91,"name":"сын джеффа убийц\ufffd","steam_id":76561199149307190,"connected_time":1390000000000,"state":"active","ping":89},{"user_id":137,"name":"storepilled grocerycel","steam_id":76561198097588802,"connected_time":141000000000,"state":"active","ping":135},{"user_id":129,"name":"kaa","steam_id":76561198044061430,"connected_time":306000000000,"state":"active","ping":54},{"user_id":62,"name":"Dagda","steam_id":76561198871136698,"connected_time":3101000000000,"state":"active","ping":45},{"user_id":75,"name":"halo 3 rat","steam_id":76561198439007717,"connected_time":2119000000000,"state":"active","ping":62},{"user_id":121,"name":"Umbro","steam_id":76561198087930438,"connected_time":451000000000,"state":"active","ping":77},{"user_id":68,"name":"Scavenger","steam_id":76561199067000038,"connected_time":2948000000000,"state":"active","ping":63},{"user_id":100,"name":"Totalfet","steam_id":76561198979468432,"connected_time":745000000000,"state":"active","ping":102},{"user_id":130,"name":"Arecibo","steam_id":76561198014359615,"connected_time":294000000000,"state":"active","ping":59},{"user_id":78,"name":"Sharkeh","steam_id":76561199005336372,"connected_time":2000000000000,"state":"active","ping":61},{"user_id":72,"name":"Thakings","steam_id":76561198415272620,"connected_time":2550000000000,"state":"active","ping":57},{"user_id":64,"name":"Spy TF2 (real)","steam_id":76561199034305167,"connected_time":3074000000000,"state":"active","ping":32},{"user_id":69,"name":"sHIFTINGvORTEX","steam_id":76561198231648332,"connected_time":2665000000000,"state":"active","ping":60},{"user_id":138,"name":"BobTheBox","steam_id":76561198080894136,"connected_time":100000000000,"state":"active","ping":66},{"user_id":93,"name":"Creamy","steam_id":76561198063907478,"connected_time":1275000000000,"state":"active","ping":54},{"user_id":46,"name":"lark","steam_id":76561198091724522,"connected_time":4642000000000,"state":"active","ping":52},{"user_id":24,"name":"JeanCorben","steam_id":76561197965133561,"connected_time":5792000000000,"state":"active","ping":38},{"user_id":94,"name":"Chen","steam_id":76561198440363619,"connected_time":1272000000000,"state":"active","ping":59},{"user_id":113,"name":"Average Zoboomafoo Enjoyer","steam_id":76561198084891833,"connected_time":560000000000,"state":"active","ping":45},{"user_id":84,"name":"john fortress","steam_id":76561198013237629,"connected_time":1903000000000,"state":"active","ping":94},{"user_id":132,"name":"Sigma","steam_id":76561199088506542,"connected_time":264000000000,"state":"active","ping":59},{"user_id":55,"name":"cropping","steam_id":76561198026586456,"connected_time":3814000000000,"state":"active","ping":56},{"user_id":103,"name":"the trollining","steam_id":76561199160884713,"connected_time":695000000000,"state":"active","ping":197},{"user_id":133,"name":"Noob_with_source","steam_id":76561198870362103,"connected_time":254000000000,"state":"active","ping":54}]},{"server_id":321,"name":"Uncletopia | London | 4 | All Maps","name_short":"lon-4","host":"lon-1.uk.uncletopia.com","port":27045,"enabled":true,"region":"eu","cc":"gb","latitude":51.509865,"longitude":-0.118092,"reserved":0,"last_update":"0001-01-01T00:00:00Z","name_a2s":"Uncletopia | London | 4 | All Maps","protocol":17,"map":"cp_sunshine","folder":"tf","game":"Team Fortress","app_id":440,"player_count":0,"max_players":24,"Bots":0,"server_type":"Dedicated","server_os":"Linux","password":true,"vac":true,"version":"7757534","steam_id":85568392924510193,"keywords":["cp","nocrits","nodmgspread","uncletopia"],"game_id":440,"stv_port":27046,"stv_name":"Uncletopia | London | 4 | All Maps | STV","players":null},{"server_id":21,"name":"Uncletopia | London | 5 | All Maps","name_short":"lon-5","host":"lon-1.uk.uncletopia.com","port":27055,"enabled":true,"region":"eu","cc":"gb","latitude":51.509865,"longitude":-0.118092,"reserved":0,"last_update":"0001-01-01T00:00:00Z","name_a2s":"Uncletopia | London | 5 | All Maps","protocol":17,"map":"cp_mountainlab","folder":"tf","game":"Team Fortress","app_id":440,"player_count":0,"max_players":24,"Bots":0,"server_type":"Dedicated","server_os":"Linux","password":true,"vac":true,"version":"7757534","steam_id":85568392924742829,"keywords":["cp","nocrits","nodmgspread","uncletopia"],"game_id":440,"stv_port":27056,"stv_name":"Uncletopia | London | 5 | All Maps | STV","players":null},{"server_id":22,"name":"Uncletopia | London | 6 | All Maps","name_short":"lon-6","host":"lon-1.uk.uncletopia.com","port":27065,"enabled":true,"region":"eu","cc":"gb","latitude":51.509865,"longitude":-0.118092,"reserved":0,"last_update":"0001-01-01T00:00:00Z","name_a2s":"Uncletopia | London | 6 | All Maps","protocol":17,"map":"cp_mountainlab","folder":"tf","game":"Team Fortress","app_id":440,"player_count":0,"max_players":24,"Bots":0,"server_type":"Dedicated","server_os":"Linux","password":true,"vac":true,"version":"7757534","steam_id":85568392924742830,"keywords":["cp","nocrits","nodmgspread","uncletopia"],"game_id":440,"stv_port":27066,"stv_name":"Uncletopia | London | 6 | All Maps | STV","players":null},{"server_id":40,"name":"Uncletopia | London | 7 | No Payload","name_short":"lon-7","host":"lon-1.uk.uncletopia.com","port":27075,"enabled":true,"region":"eu","cc":"gb","latitude":51.509865,"longitude":-0.118092,"reserved":0,"last_update":"0001-01-01T00:00:00Z","name_a2s":"Uncletopia | London | 7 | No Payload","protocol":17,"map":"cp_sunshine","folder":"tf","game":"Team Fortress","app_id":440,"player_count":0,"max_players":24,"Bots":0,"server_type":"Dedicated","server_os":"Linux","password":true,"vac":true,"version":"7757534","steam_id":85568392924964314,"keywords":["cp","nocrits","nodmgspread","uncletopia"],"game_id":440,"stv_port":27076,"stv_name":"Uncletopia | London | 7 | No Payload | STV","players":null},{"server_id":41,"name":"Uncletopia | London | 8 | Community","name_short":"lon-8","host":"lon-1.uk.uncletopia.com","port":27085,"enabled":true,"region":"eu","cc":"gb","latitude":51.509865,"longitude":-0.118092,"reserved":0,"last_update":"0001-01-01T00:00:00Z","name_a2s":"Uncletopia | London | 8 | Community","protocol":17,"map":"pl_barnblitz","folder":"tf","game":"Team Fortress","app_id":440,"player_count":0,"max_players":24,"Bots":0,"server_type":"Dedicated","server_os":"Linux","password":true,"vac":true,"version":"7757534","steam_id":85568392924964315,"keywords":["nocrits","nodmgspread","payload","uncletopia"],"game_id":440,"stv_port":27086,"stv_name":"Uncletopia | London | 8 | Community | STV","players":null},{"server_id":300,"name":"Uncletopia | Montréal | 1 | All Maps","name_short":"mtl-1","host":"mtl-1.ca.uncletopia.com","port":27015,"enabled":true,"region":"us-east","cc":"ca","latitude":45.50889,"longitude":-73.56167,"reserved":0,"last_update":"0001-01-01T00:00:00Z","name_a2s":"Uncletopia | Montréal | 1 | All Maps","protocol":17,"map":"pl_upward","folder":"tf","game":"Team Fortress","app_id":440,"player_count":0,"max_players":24,"Bots":0,"server_type":"Dedicated","server_os":"Linux","password":true,"vac":true,"version":"7757534","steam_id":85568392924500087,"keywords":["nocrits","nodmgspread","payload","uncletopia"],"game_id":440,"stv_port":27016,"stv_name":"Uncletopia | Montréal | 1 | All Maps | STV","players":null},{"server_id":301,"name":"Uncletopia | Montréal | 2 | All Maps","name_short":"mtl-2","host":"mtl-1.ca.uncletopia.com","port":27025,"enabled":true,"region":"us-east","cc":"ca","latitude":45.50889,"longitude":-73.56167,"reserved":0,"last_update":"0001-01-01T00:00:00Z","name_a2s":"Uncletopia | Montréal | 2 | All Maps","protocol":17,"map":"pl_snowycoast","folder":"tf","game":"Team Fortress","app_id":440,"player_count":0,"max_players":24,"Bots":0,"server_type":"Dedicated","server_os":"Linux","password":true,"vac":true,"version":"7757534","steam_id":85568392924500088,"keywords":["nocrits","nodmgspread","payload","uncletopia"],"game_id":440,"stv_port":27026,"stv_name":"Uncletopia | Montréal | 2 | All Maps | STV","players":null},{"server_id":302,"name":"Uncletopia | Montréal | 3 | All Maps","name_short":"mtl-3","host":"mtl-1.ca.uncletopia.com","port":27035,"enabled":true,"region":"us-east","cc":"ca","latitude":45.50889,"longitude":-73.56167,"reserved":0,"last_update":"0001-01-01T00:00:00Z","name_a2s":"Uncletopia | Montréal | 3 | All Maps","protocol":17,"map":"pl_swiftwater_final1","folder":"tf","game":"Team Fortress","app_id":440,"player_count":0,"max_players":24,"Bots":0,"server_type":"Dedicated","server_os":"Linux","password":true,"vac":true,"version":"7757534","steam_id":85568392924500089,"keywords":["nocrits","nodmgspread","payload","uncletopia"],"game_id":440,"stv_port":27036,"stv_name":"Uncletopia | Montréal | 3 | All Maps | STV","players":null},{"server_id":303,"name":"Uncletopia | Montréal | 4 | No Payload","name_short":"mtl-4","host":"mtl-1.ca.uncletopia.com","port":27045,"enabled":true,"region":"us-east","cc":"ca","latitude":45.50889,"longitude":-73.56167,"reserved":0,"last_update":"0001-01-01T00:00:00Z","name_a2s":"Uncletopia | Montréal | 4 | No Payload","protocol":17,"map":"pl_pier","folder":"tf","game":"Team Fortress","app_id":440,"player_count":0,"max_players":24,"Bots":0,"server_type":"Dedicated","server_os":"Linux","password":true,"vac":true,"version":"7757534","steam_id":85568392924500090,"keywords":["nocrits","nodmgspread","payload","uncletopia"],"game_id":440,"stv_port":27046,"stv_name":"Uncletopia | Montréal | 4 | No Payload | STV","players":null},{"server_id":13,"name":"Uncletopia | New York City | 1 | All Maps","name_short":"nyc-1","host":"nyc-1.us.uncletopia.com","port":27015,"enabled":true,"region":"us-east","cc":"us","latitude":40.73061,"longitude":-73.93524,"reserved":0,"last_update":"0001-01-01T00:00:00Z","name_a2s":"Uncletopia | New York City | 1 | All Maps","protocol":17,"map":"koth_viaduct","folder":"tf","game":"Team Fortress","app_id":440,"player_count":0,"max_players":24,"Bots":0,"server_type":"Dedicated","server_os":"Linux","password":true,"vac":true,"version":"7757534","steam_id":85568392924469993,"keywords":["cp","nocrits","nodmgspread","uncletopia"],"game_id":440,"stv_port":27016,"stv_name":"Uncletopia | New York City | 1 | All Maps | STV","players":null},{"server_id":14,"name":"Uncletopia | New York City | 2 | All Maps","name_short":"nyc-2","host":"nyc-1.us.uncletopia.com","port":27025,"enabled":true,"region":"us-east","cc":"us","latitude":40.73061,"longitude":-73.93524,"reserved":0,"last_update":"0001-01-01T00:00:00Z","name_a2s":"Uncletopia | New York City | 2 | All Maps","protocol":17,"map":"pl_pier","folder":"tf","game":"Team Fortress","app_id":440,"player_count":0,"max_players":24,"Bots":0,"server_type":"Dedicated","server_os":"Linux","password":true,"vac":true,"version":"7757534","steam_id":85568392924469994,"keywords":["nocrits","nodmgspread","payload","uncletopia"],"game_id":440,"stv_port":27026,"stv_name":"Uncletopia | New York City | 2 | All Maps | STV","players":null},{"server_id":15,"name":"Uncletopia | New York City | 3 | Stopwatch Beta","name_short":"nyc-3","host":"nyc-1.us.uncletopia.com","port":27035,"enabled":true,"region":"us-east","cc":"us","latitude":40.73061,"longitude":-73.93524,"reserved":0,"last_update":"0001-01-01T00:00:00Z","name_a2s":"Uncletopia | New York City | 3 | Stopwatch Beta","protocol":17,"map":"pl_upward","folder":"tf","game":"Team Fortress","app_id":440,"player_count":0,"max_players":24,"Bots":0,"server_type":"Dedicated","server_os":"Linux","password":true,"vac":true,"version":"7757534","steam_id":85568392924742820,"keywords":["nocrits","nodmgspread","payload","uncletopia"],"game_id":440,"stv_port":27036,"stv_name":"Uncletopia | New York City | 3 | Stopwatch Beta | STV","players":null},{"server_id":16,"name":"Uncletopia | New York City | 4 | Community","name_short":"nyc-4","host":"nyc-1.us.uncletopia.com","port":27045,"enabled":true,"region":"us-east","cc":"us","latitude":40.73061,"longitude":-73.93524,"reserved":0,"last_update":"0001-01-01T00:00:00Z","name_a2s":"Uncletopia | New York City | 4 | Community","protocol":17,"map":"workshop/koth_kemptown_rc1.ugc767410655","folder":"tf","game":"Team Fortress","app_id":440,"player_count":0,"max_players":24,"Bots":0,"server_type":"Dedicated","server_os":"Linux","password":true,"vac":true,"version":"7757534","steam_id":85568392924742821,"keywords":["cp","nocrits","nodmgspread","uncletopia"],"game_id":440,"stv_port":27046,"stv_name":"Uncletopia | New York City | 4 | Community | STV","players":null},{"server_id":142,"name":"Uncletopia | São Paulo | 1 | All Maps","name_short":"sao-1","host":"sao-1.br.uncletopia.com","port":27015,"enabled":true,"region":"sa","cc":"br","latitude":-23.533773,"longitude":-46.62529,"reserved":0,"last_update":"0001-01-01T00:00:00Z","name_a2s":"Uncletopia | São Paulo | 1 | All Maps","protocol":17,"map":"koth_lakeside_final","folder":"tf","game":"Team Fortress","app_id":440,"player_count":0,"max_players":24,"Bots":0,"server_type":"Dedicated","server_os":"Linux","password":true,"vac":true,"version":"7757534","steam_id":85568392924469996,"keywords":["cp","nocrits","nodmgspread","uncletopia"],"game_id":440,"stv_port":27016,"stv_name":"Uncletopia | São Paulo | 1 | All Maps | STV","players":null},{"server_id":143,"name":"Uncletopia | São Paulo | 2 | All Maps","name_short":"sao-2","host":"sao-2.br.uncletopia.com","port":27015,"enabled":true,"region":"sa","cc":"br","latitude":-23.533773,"longitude":-46.62529,"reserved":0,"last_update":"0001-01-01T00:00:00Z","name_a2s":"Uncletopia | São Paulo | 2 | All Maps","protocol":17,"map":"pl_borneo","folder":"tf","game":"Team Fortress","app_id":440,"player_count":0,"max_players":24,"Bots":0,"server_type":"Dedicated","server_os":"Linux","password":true,"vac":true,"version":"7757534","steam_id":85568392924485349,"keywords":["nocrits","nodmgspread","payload","uncletopia"],"game_id":440,"stv_port":27016,"stv_name":"Uncletopia | São Paulo | 2 | All Maps | STV","players":null},{"server_id":7,"name":"Uncletopia | Seattle | 1 | All Maps","name_short":"sea-1","host":"sea-1.us.uncletopia.com","port":27015,"enabled":true,"region":"us-west","cc":"us","latitude":47.608013,"longitude":-122.33517,"reserved":0,"last_update":"0001-01-01T00:00:00Z","name_a2s":"Uncletopia | Seattle | 1 | All Maps","protocol":17,"map":"pl_goldrush","folder":"tf","game":"Team Fortress","app_id":440,"player_count":21,"max_players":24,"Bots":0,"server_type":"Dedicated","server_os":"Linux","password":true,"vac":true,"version":"7757534","steam_id":85568392924469997,"keywords":["nocrits","nodmgspread","payload","uncletopia"],"game_id":440,"stv_port":27016,"stv_name":"Uncletopia | Seattle | 1 | All Maps | STV","players":[{"user_id":3,"name":"Zetta","steam_id":76561198045710113,"connected_time":1975000000000,"state":"active","ping":101},{"user_id":40,"name":"CrackedSanity","steam_id":76561198279841251,"connected_time":359000000000,"state":"active","ping":75},{"user_id":41,"name":"Volumetrick","steam_id":76561199441031479,"connected_time":354000000000,"state":"active","ping":89},{"user_id":43,"name":"lol","steam_id":76561198026491738,"connected_time":187000000000,"state":"active","ping":77},{"user_id":33,"name":"-SL- Jeb Bush Liberation Army","steam_id":76561198046050045,"connected_time":676000000000,"state":"active","ping":119},{"user_id":42,"name":"Nutz On Yo Chin","steam_id":76561197962978554,"connected_time":324000000000,"state":"active","ping":128},{"user_id":21,"name":"5g horse","steam_id":76561198221295788,"connected_time":974000000000,"state":"active","ping":107},{"user_id":34,"name":"ShadyPun","steam_id":76561198044125968,"connected_time":555000000000,"state":"active","ping":97},{"user_id":12,"name":"mario","steam_id":76561198078041126,"connected_time":1687000000000,"state":"active","ping":82},{"user_id":35,"name":"Kitsune","steam_id":76561198241094670,"connected_time":507000000000,"state":"active","ping":112},{"user_id":36,"name":"Doctor Bear ʕ •ᴥ•ʔ","steam_id":76561197968103161,"connected_time":506000000000,"state":"active","ping":108},{"user_id":15,"name":"bobo","steam_id":76561198020268561,"connected_time":1608000000000,"state":"active","ping":111},{"user_id":44,"name":"Fishmonger","steam_id":76561198372237027,"connected_time":165000000000,"state":"active","ping":43},{"user_id":45,"name":"Eosson","steam_id":76561198108642113,"connected_time":163000000000,"state":"active","ping":61},{"user_id":22,"name":"Crotonga","steam_id":76561198077178900,"connected_time":953000000000,"state":"active","ping":100},{"user_id":23,"name":"sniper fucker","steam_id":76561199311893910,"connected_time":948000000000,"state":"active","ping":98},{"user_id":24,"name":"Sora Halomon","steam_id":76561198081873916,"connected_time":918000000000,"state":"active","ping":137},{"user_id":25,"name":"Sakisano","steam_id":76561198245814880,"connected_time":884000000000,"state":"active","ping":82},{"user_id":46,"name":"Eliteiment","steam_id":76561198215476517,"connected_time":2000000000,"state":"spawning","ping":109},{"user_id":31,"name":"Neo Kojiro","steam_id":76561198000967076,"connected_time":767000000000,"state":"active","ping":131},{"user_id":32,"name":"god doesnt here me","steam_id":76561198125328737,"connected_time":741000000000,"state":"active","ping":116}]},{"server_id":119,"name":"Uncletopia | Seattle | 2 | All Maps","name_short":"sea-2","host":"sea-1.us.uncletopia.com","port":27025,"enabled":true,"region":"us-west","cc":"us","latitude":47.608013,"longitude":-122.33517,"reserved":0,"last_update":"0001-01-01T00:00:00Z","name_a2s":"Uncletopia | Seattle | 2 | All Maps","protocol":17,"map":"pl_badwater","folder":"tf","game":"Team Fortress","app_id":440,"player_count":0,"max_players":24,"Bots":0,"server_type":"Dedicated","server_os":"Linux","password":true,"vac":true,"version":"7757534","steam_id":85568392924469998,"keywords":["nocrits","nodmgspread","payload","uncletopia"],"game_id":440,"stv_port":27026,"stv_name":"Uncletopia | Seattle | 2 | All Maps | STV","players":null},{"server_id":406,"name":"Uncletopia | Seattle | 3 | Stopwatch Beta","name_short":"sea-3","host":"sea-1.us.uncletopia.com","port":27035,"enabled":true,"region":"us-west","cc":"us","latitude":47.608013,"longitude":-122.33517,"reserved":0,"last_update":"0001-01-01T00:00:00Z","name_a2s":"Uncletopia | Seattle | 3 | Stopwatch Beta","protocol":17,"map":"cp_dustbowl","folder":"tf","game":"Team Fortress","app_id":440,"player_count":0,"max_players":24,"Bots":0,"server_type":"Dedicated","server_os":"Linux","password":true,"vac":true,"version":"7757534","steam_id":85568392924515217,"keywords":["cp","nocrits","nodmgspread","uncletopia"],"game_id":440,"stv_port":27036,"stv_name":"Uncletopia | Seattle | 3 | Stopwatch Beta | STV","players":null},{"server_id":17,"name":"Uncletopia | San Francisco | 1 | All Maps","name_short":"sfo-1","host":"sfo-1.us.uncletopia.com","port":27015,"enabled":true,"region":"us-west","cc":"us","latitude":37.77397,"longitude":-122.4313,"reserved":0,"last_update":"0001-01-01T00:00:00Z","name_a2s":"Uncletopia | San Francisco | 1 | All Maps","protocol":17,"map":"cp_process_final","folder":"tf","game":"Team Fortress","app_id":440,"player_count":0,"max_players":24,"Bots":0,"server_type":"Dedicated","server_os":"Linux","password":true,"vac":true,"version":"7757534","steam_id":85568392924469999,"keywords":["cp","nocrits","nodmgspread","uncletopia"],"game_id":440,"stv_port":27016,"stv_name":"Uncletopia | San Francisco | 1 | All Maps | STV","players":null},{"server_id":18,"name":"Uncletopia | San Francisco | 2 | All Maps","name_short":"sfo-2","host":"sfo-1.us.uncletopia.com","port":27025,"enabled":true,"region":"us-west","cc":"us","latitude":37.77397,"longitude":-122.4313,"reserved":0,"last_update":"0001-01-01T00:00:00Z","name_a2s":"Uncletopia | San Francisco | 2 | All Maps","protocol":17,"map":"koth_highpass","folder":"tf","game":"Team Fortress","app_id":440,"player_count":0,"max_players":24,"Bots":0,"server_type":"Dedicated","server_os":"Linux","password":true,"vac":true,"version":"7757534","steam_id":85568392924470000,"keywords":["cp","nocrits","nodmgspread","uncletopia"],"game_id":440,"stv_port":27026,"stv_name":"Uncletopia | San Francisco | 2 | All Maps | STV","players":null},{"server_id":19,"name":"Uncletopia | San Francisco | 3 | Stopwatch Beta","name_short":"sfo-3","host":"sfo-1.us.uncletopia.com","port":27035,"enabled":true,"region":"us-west","cc":"us","latitude":37.77397,"longitude":-122.4313,"reserved":0,"last_update":"0001-01-01T00:00:00Z","name_a2s":"Uncletopia | San Francisco | 3 | Stopwatch Beta","protocol":17,"map":"koth_lakeside_final","folder":"tf","game":"Team Fortress","app_id":440,"player_count":0,"max_players":24,"Bots":0,"server_type":"Dedicated","server_os":"Linux","password":true,"vac":true,"version":"7757534","steam_id":85568392924742824,"keywords":["cp","nocrits","nodmgspread","uncletopia"],"game_id":440,"stv_port":27036,"stv_name":"Uncletopia | San Francisco | 3 | Stopwatch Beta | STV","players":null},{"server_id":20,"name":"Uncletopia | San Francisco | 4 | Community","name_short":"sfo-4","host":"sfo-1.us.uncletopia.com","port":27045,"enabled":true,"region":"us-west","cc":"us","latitude":37.77397,"longitude":-122.4313,"reserved":0,"last_update":"0001-01-01T00:00:00Z","name_a2s":"Uncletopia | San Francisco | 4 | Community","protocol":17,"map":"cp_altitude","folder":"tf","game":"Team Fortress","app_id":440,"player_count":0,"max_players":24,"Bots":0,"server_type":"Dedicated","server_os":"Linux","password":true,"vac":true,"version":"7757534","steam_id":85568392924742826,"keywords":["cp","nocrits","nodmgspread","uncletopia"],"game_id":440,"stv_port":27046,"stv_name":"Uncletopia | San Francisco | 4 | Community | STV","players":null},{"server_id":141,"name":"Uncletopia | Sydney | 1 | All Maps","name_short":"syd-1","host":"syd-1.au.uncletopia.com","port":27015,"enabled":true,"region":"au","cc":"au","latitude":-33.865143,"longitude":151.2099,"reserved":0,"last_update":"0001-01-01T00:00:00Z","name_a2s":"Uncletopia | Sydney | 1 | All Maps","protocol":17,"map":"koth_viaduct","folder":"tf","game":"Team Fortress","app_id":440,"player_count":0,"max_players":24,"Bots":0,"server_type":"Dedicated","server_os":"Linux","password":true,"vac":true,"version":"7757534","steam_id":85568392924470001,"keywords":["cp","nocrits","nodmgspread","uncletopia"],"game_id":440,"stv_port":27016,"stv_name":"Uncletopia | Sydney | 1 | All Maps | STV","players":null},{"server_id":123,"name":"Uncletopia | Sydney | 2 | All Maps","name_short":"syd-2","host":"syd-1.au.uncletopia.com","port":27025,"enabled":true,"region":"au","cc":"au","latitude":-33.865143,"longitude":151.2099,"reserved":0,"last_update":"0001-01-01T00:00:00Z","name_a2s":"Uncletopia | Sydney | 2 | All Maps","protocol":17,"map":"cp_snakewater_final1","folder":"tf","game":"Team Fortress","app_id":440,"player_count":0,"max_players":24,"Bots":0,"server_type":"Dedicated","server_os":"Linux","password":true,"vac":true,"version":"7757534","steam_id":85568392924470002,"keywords":["cp","nocrits","nodmgspread","uncletopia"],"game_id":440,"stv_port":27026,"stv_name":"Uncletopia | Sydney | 2 | All Maps | STV","players":null},{"server_id":395,"name":"Uncletopia | Sydney | 3 | All Maps","name_short":"syd-3","host":"syd-1.au.uncletopia.com","port":27035,"enabled":true,"region":"au","cc":"au","latitude":-33.865143,"longitude":151.2099,"reserved":0,"last_update":"0001-01-01T00:00:00Z","name_a2s":"Uncletopia | Sydney | 3 | All Maps","protocol":17,"map":"pl_barnblitz","folder":"tf","game":"Team Fortress","app_id":440,"player_count":18,"max_players":24,"Bots":0,"server_type":"Dedicated","server_os":"Linux","password":true,"vac":true,"version":"7757534","steam_id":85568392925194467,"keywords":["nocrits","nodmgspread","payload","uncletopia"],"game_id":440,"stv_port":27036,"stv_name":"Uncletopia | Sydney | 3 | All Maps | STV","players":[{"user_id":157,"name":"Hertog van Damme","steam_id":76561198152470958,"connected_time":10403000000000,"state":"active","ping":57},{"user_id":253,"name":"Branko","steam_id":76561199262196710,"connected_time":1536000000000,"state":"active","ping":35},{"user_id":223,"name":"Zzep_","steam_id":76561198059402662,"connected_time":4360000000000,"state":"active","ping":61},{"user_id":255,"name":"voxii","steam_id":76561198099698281,"connected_time":743000000000,"state":"active","ping":68},{"user_id":235,"name":"badmn","steam_id":76561198056462343,"connected_time":3107000000000,"state":"active","ping":54},{"user_id":257,"name":"xenon445","steam_id":76561198218867065,"connected_time":533000000000,"state":"active","ping":69},{"user_id":212,"name":"Dr Genghis Corn","steam_id":76561198078933176,"connected_time":4672000000000,"state":"active","ping":52},{"user_id":216,"name":"¿eTheRealMe?","steam_id":76561198033297147,"connected_time":4645000000000,"state":"active","ping":95},{"user_id":256,"name":"TrashBoat","steam_id":76561198161295900,"connected_time":691000000000,"state":"active","ping":87},{"user_id":270,"name":"Aswad The Great","steam_id":76561198123572130,"connected_time":20000000000,"state":"active","ping":265},{"user_id":258,"name":"Sentient Brick","steam_id":76561198087313688,"connected_time":461000000000,"state":"active","ping":54},{"user_id":259,"name":"General Bologna","steam_id":76561198059519598,"connected_time":460000000000,"state":"active","ping":52},{"user_id":249,"name":"MamyPokoPants","steam_id":76561198138054826,"connected_time":1811000000000,"state":"active","ping":145},{"user_id":260,"name":"gnarlygamer","steam_id":76561199478626913,"connected_time":452000000000,"state":"active","ping":59},{"user_id":261,"name":"Benskii","steam_id":76561198070130470,"connected_time":348000000000,"state":"active","ping":61},{"user_id":265,"name":"TheDoctor30","steam_id":76561198433686866,"connected_time":160000000000,"state":"active","ping":106},{"user_id":267,"name":"biff","steam_id":76561198069603865,"connected_time":130000000000,"state":"active","ping":55},{"user_id":268,"name":"THE LOCAL RAID SNITCH","steam_id":76561198199778195,"connected_time":119000000000,"state":"active","ping":97}]},{"server_id":396,"name":"Uncletopia | Sydney | 4 | All Maps","name_short":"syd-4","host":"syd-1.au.uncletopia.com","port":27045,"enabled":true,"region":"au","cc":"au","latitude":-33.865143,"longitude":151.2099,"reserved":0,"last_update":"0001-01-01T00:00:00Z","name_a2s":"Uncletopia | Sydney | 4 | All Maps","protocol":17,"map":"koth_highpass","folder":"tf","game":"Team Fortress","app_id":440,"player_count":0,"max_players":24,"Bots":0,"server_type":"Dedicated","server_os":"Linux","password":true,"vac":true,"version":"7757534","steam_id":85568392925397958,"keywords":["cp","nocrits","nodmgspread","uncletopia"],"game_id":440,"stv_port":27046,"stv_name":"Uncletopia | Sydney | 4 | All Maps | STV","players":null},{"server_id":58,"name":"Uncletopia | Sydney | 5 | Stopwatch Beta","name_short":"syd-5","host":"syd-1.au.uncletopia.com","port":27055,"enabled":true,"region":"au","cc":"au","latitude":-33.865143,"longitude":151.2099,"reserved":0,"last_update":"0001-01-01T00:00:00Z","name_a2s":"Uncletopia | Sydney | 5 | Stopwatch Beta","protocol":17,"map":"workshop/koth_product_final.ugc454272353","folder":"tf","game":"Team Fortress","app_id":440,"player_count":0,"max_players":24,"Bots":0,"server_type":"Dedicated","server_os":"Linux","password":true,"vac":true,"version":"7757534","steam_id":85568392925397959,"keywords":["cp","nocrits","nodmgspread","uncletopia"],"game_id":440,"stv_port":27056,"stv_name":"Uncletopia | Sydney | 5 | Stopwatch Beta | STV","players":null},{"server_id":59,"name":"Uncletopia | Sydney | 6 | Community","name_short":"syd-6","host":"syd-1.au.uncletopia.com","port":27065,"enabled":true,"region":"au","cc":"au","latitude":-33.865143,"longitude":151.2099,"reserved":0,"last_update":"0001-01-01T00:00:00Z","name_a2s":"Uncletopia | Sydney | 6 | Community","protocol":17,"map":"workshop/pl_corrode_rc2.ugc546577989","folder":"tf","game":"Team Fortress","app_id":440,"player_count":0,"max_players":24,"Bots":0,"server_type":"Dedicated","server_os":"Linux","password":true,"vac":true,"version":"7757534","steam_id":85568392925397960,"keywords":["nocrits","nodmgspread","payload","uncletopia"],"game_id":440,"stv_port":27066,"stv_name":"Uncletopia | Sydney | 6 | Community | STV","players":null},{"server_id":49,"name":"Uncletopia | Warsaw | 1 | All Maps","name_short":"waw-1","host":"waw-1.pl.uncletopia.com","port":27015,"enabled":true,"region":"eu","cc":"pl","latitude":52.2297,"longitude":21.017532,"reserved":0,"last_update":"0001-01-01T00:00:00Z","name_a2s":"","protocol":0,"map":"","folder":"","game":"","app_id":0,"player_count":0,"max_players":0,"Bots":0,"server_type":"","server_os":"","password":false,"vac":false,"version":"","steam_id":0,"keywords":null,"game_id":0,"stv_port":0,"stv_name":"","players":null},{"server_id":50,"name":"Uncletopia | Warsaw | 2 | All Maps","name_short":"waw-2","host":"waw-1.pl.uncletopia.com","port":27025,"enabled":true,"region":"eu","cc":"pl","latitude":52.2297,"longitude":21.017532,"reserved":0,"last_update":"0001-01-01T00:00:00Z","name_a2s":"Uncletopia | Warsaw | 2 | All Maps","protocol":17,"map":"koth_viaduct","folder":"tf","game":"Team Fortress","app_id":440,"player_count":0,"max_players":24,"Bots":0,"server_type":"Dedicated","server_os":"Linux","password":true,"vac":true,"version":"7757534","steam_id":85568392925397851,"keywords":["cp","nocrits","nodmgspread","uncletopia"],"game_id":440,"stv_port":27026,"stv_name":"Uncletopia | Warsaw | 2 | All Maps | STV","players":null},{"server_id":51,"name":"Uncletopia | Warsaw | 3 | All Maps","name_short":"waw-3","host":"waw-1.pl.uncletopia.com","port":27035,"enabled":true,"region":"eu","cc":"pl","latitude":52.2297,"longitude":21.017532,"reserved":0,"last_update":"0001-01-01T00:00:00Z","name_a2s":"Uncletopia | Warsaw | 3 | All Maps","protocol":17,"map":"koth_lakeside_final","folder":"tf","game":"Team Fortress","app_id":440,"player_count":0,"max_players":24,"Bots":0,"server_type":"Dedicated","server_os":"Linux","password":true,"vac":true,"version":"7757534","steam_id":85568392925397852,"keywords":["cp","nocrits","nodmgspread","uncletopia"],"game_id":440,"stv_port":27036,"stv_name":"Uncletopia | Warsaw | 3 | All Maps | STV","players":null},{"server_id":52,"name":"Uncletopia | Warsaw | 4 | All Maps","name_short":"waw-4","host":"waw-1.pl.uncletopia.com","port":27045,"enabled":true,"region":"eu","cc":"pl","latitude":52.2297,"longitude":21.017532,"reserved":0,"last_update":"0001-01-01T00:00:00Z","name_a2s":"Uncletopia | Warsaw | 4 | All Maps","protocol":17,"map":"koth_lakeside_final","folder":"tf","game":"Team Fortress","app_id":440,"player_count":0,"max_players":24,"Bots":0,"server_type":"Dedicated","server_os":"Linux","password":true,"vac":true,"version":"7757534","steam_id":85568392925397853,"keywords":["cp","nocrits","nodmgspread","uncletopia"],"game_id":440,"stv_port":27046,"stv_name":"Uncletopia | Warsaw | 4 | All Maps | STV","players":null},{"server_id":53,"name":"Uncletopia | Warsaw | 5 | Stopwatch Beta","name_short":"waw-5","host":"waw-1.pl.uncletopia.com","port":27055,"enabled":true,"region":"eu","cc":"pl","latitude":52.2297,"longitude":21.017532,"reserved":0,"last_update":"0001-01-01T00:00:00Z","name_a2s":"Uncletopia | Warsaw | 5 | Stopwatch Beta","protocol":17,"map":"pl_borneo","folder":"tf","game":"Team Fortress","app_id":440,"player_count":0,"max_players":24,"Bots":0,"server_type":"Dedicated","server_os":"Linux","password":true,"vac":true,"version":"7757534","steam_id":85568392925397854,"keywords":["nocrits","nodmgspread","payload","uncletopia"],"game_id":440,"stv_port":27056,"stv_name":"Uncletopia | Warsaw | 5 | Stopwatch Beta | STV","players":null},{"server_id":54,"name":"Uncletopia | Warsaw | 6 | Community","name_short":"waw-6","host":"waw-1.pl.uncletopia.com","port":27065,"enabled":true,"region":"eu","cc":"pl","latitude":52.2297,"longitude":21.017532,"reserved":0,"last_update":"0001-01-01T00:00:00Z","name_a2s":"Uncletopia | Warsaw | 6 | Community","protocol":17,"map":"koth_lakeside_final","folder":"tf","game":"Team Fortress","app_id":440,"player_count":0,"max_players":24,"Bots":0,"server_type":"Dedicated","server_os":"Linux","password":true,"vac":true,"version":"7757534","steam_id":85568392925397856,"keywords":["cp","nocrits","nodmgspread","uncletopia"],"game_id":440,"stv_port":27066,"stv_name":"Uncletopia | Warsaw | 6 | Community | STV","players":null}]}