{"status":true,"message":"","result":[{"server_id":9,"name":"Uncletopia | Atlanta | 1 | All Maps","name_short":"atl-1","host":"atl-1.us.uncletopia.com","port":27015,"enabled":true,"region":"us-east","cc":"us","latitude":33.753746,"longitude":-84.38633,"reserved":0,"last_update":"0001-01-01T00:00:00Z","name_a2s":"Uncletopia | Atlanta | 1 | All Maps","protocol":17,"map":"pl_snowycoast","folder":"tf","game":"Team Fortress","app_id":440,"player_count":24,"max_players":24,"Bots":0,"server_type":"Dedicated","server_os":"Linux","password":true,"vac":true,"version":"7961495","steam_id":85568392924469982,"keywords":["nocrits","nodmgspread","payload","uncletopia"],"game_id":440,"stv_port":27016,"stv_name":"Uncletopia | Atlanta | 1 | All Maps | STV","players":null},{"server_id":104,"name":"Uncletopia | Atlanta | 2 | All Maps","name_short":"atl-2","host":"atl-1.us.uncletopia.com","port":27025,"enabled":true,"region":"us-east","cc":"us","latitude":33.753746,"longitude":-84.38633,"reserved":0,"last_update":"0001-01-01T00:00:00Z","name_a2s":"Uncletopia | Atlanta | 2 | All Maps","protocol":17,"map":"ctf_2fort","folder":"tf","game":"Team Fortress","app_id":440,"player_count":23,"max_players":24,"Bots":0,"server_type":"Dedicated","server_os":"Linux","password":true,"vac":true,"version":"7961495","steam_id":85568392924469983,"keywords":["ctf","nocrits","nodmgspread","uncletopia"],"game_id":440,"stv_port":27026,"stv_name":"Uncletopia | Atlanta | 2 | All Maps | STV","players":null},{"server_id":400,"name":"Uncletopia | Atlanta | 3 | Stopwatch","name_short":"atl-3","host":"atl-1.us.uncletopia.com","port":27035,"enabled":true,"region":"us-east","cc":"us","latitude":33.753746,"longitude":-84.38633,"reserved":0,"last_update":"0001-01-01T00:00:00Z","name_a2s":"Uncletopia | Atlanta | 3 | Stopwatch","protocol":17,"map":"pl_badwater","folder":"tf","game":"Team Fortress","app_id":440,"player_count":0,"max_players":24,"Bots":0,"server_type":"Dedicated","server_os":"Linux","password":true,"vac":true,"version":"7961495","steam_id":85568392924515187,"keywords":["nocrits","nodmgspread","payload","uncletopia"],"game_id":440,"stv_port":27036,"stv_name":"Uncletopia | Atlanta | 3 | Stopwatch | STV","players":null},{"server_id":401,"name":"Uncletopia | Atlanta | 4 | Community","name_short":"atl-4","host":"atl-1.us.uncletopia.com","port":27045,"enabled":true,"region":"us-east","cc":"us","latitude":33.753746,"longitude":-84.38633,"reserved":0,"last_update":"0001-01-01T00:00:00Z","name_a2s":"Uncletopia | Atlanta | 4 | Community","protocol":17,"map":"pl_divulgence_b4b","folder":"tf","game":"Team Fortress","app_id":440,"player_count":15,"max_players":24,"Bots":0,"server_type":"Dedicated","server_os":"Linux","password":true,"vac":true,"version":"7961495","steam_id":85568392924515188,"keywords":["nocrits","nodmgspread","payload","uncletopia"],"game_id":440,"stv_port":27046,"stv_name":"Uncletopia | Atlanta | 4 | Community | STV","players":null},{"server_id":2,"name":"Uncletopia | Chicago | 1 | All Maps","name_short":"chi-1","host":"chi-1.us.uncletopia.com","port":27015,"enabled":true,"region":"us-central","cc":"us","latitude":41.881832,"longitude":-87.62318,"reserved":0,"last_update":"0001-01-01T00:00:00Z","name_a2s":"Uncletopia | Chicago | 1 | All Maps","protocol":17,"map":"pl_goldrush","folder":"tf","game":"Team Fortress","app_id":440,"player_count":24,"max_players":24,"Bots":0,"server_type":"Dedicated","server_os":"Linux","password":true,"vac":true,"version":"7961495","steam_id":85568392924469984,"keywords":["nocrits","nodmgspread","payload","uncletopia"],"game_id":440,"stv_port":27016,"stv_name":"Uncletopia | Chicago | 1 | All Maps | STV","players":[{"user_id":911,"name":"Lucky","steam_id":76561198418262145,"connected_time":5520000000000,"state":"active","ping":130},{"user_id":967,"name":"Astoriae!","steam_id":76561199090168858,"connected_time":1436000000000,"state":"active","ping":73},{"user_id":933,"name":"Thundermonkey (SMOKE)","steam_id":76561198017631728,"connected_time":4308000000000,"state":"active","ping":56},{"user_id":975,"name":"Bookmenot","steam_id":76561198153442084,"connected_time":211000000000,"state":"active","ping":59},{"user_id":968,"name":"arm ●","steam_id":76561198999217575,"connected_time":838000000000,"state":"active","ping":71},{"user_id":889,"name":"fried rice","steam_id":76561198928939100,"connected_time":7289000000000,"state":"active","ping":83},{"user_id":976,"name":"`o2","steam_id":76561197992030936,"connected_time":174000000000,"state":"active","ping":70},{"user_id":969,"name":"Panda","steam_id":76561198397291137,"connected_time":804000000000,"state":"active","ping":68},{"user_id":970,"name":"DrD","steam_id":76561198067266383,"connected_time":740000000000,"state":"active","ping":87},{"user_id":977,"name":"leumas","steam_id":76561198240408540,"connected_time":156000000000,"state":"active","ping":65},{"user_id":979,"name":"choi","steam_id":76561198053669887,"connected_time":114000000000,"state":"active","ping":113},{"user_id":923,"name":"PitocoHery","steam_id":76561198814499824,"connected_time":4644000000000,"state":"active","ping":197},{"user_id":961,"name":"Lia_Rein","steam_id":76561198151569597,"connected_time":2142000000000,"state":"active","ping":137},{"user_id":980,"name":"Soladach","steam_id":76561198091616441,"connected_time":109000000000,"state":"active","ping":74},{"user_id":962,"name":"Space","steam_id":76561198350489754,"connected_time":2137000000000,"state":"active","ping":54},{"user_id":981,"name":"Kañul","steam_id":76561198977359464,"connected_time":99000000000,"state":"active","ping":119},{"user_id":919,"name":"Praise_to_the_Flashlight!","steam_id":76561199001728789,"connected_time":4687000000000,"state":"active","ping":66},{"user_id":972,"name":"ameritech","steam_id":76561198064769089,"connected_time":228000000000,"state":"active","ping":59},{"user_id":931,"name":"TheOneZoot","steam_id":76561198121944243,"connected_time":4352000000000,"state":"active","ping":70},{"user_id":982,"name":"Treader","steam_id":76561198096555885,"connected_time":80000000000,"state":"active","ping":64},{"user_id":973,"name":"stormfoam","steam_id":76561198936871387,"connected_time":226000000000,"state":"active","ping":60},{"user_id":965,"name":"Squiliam","steam_id":76561198025278006,"connected_time":1839000000000,"state":"active","ping":65},{"user_id":983,"name":"K9 Kid","steam_id":76561198078740641,"connected_time":48000000000,"state":"active","ping":92},{"user_id":974,"name":"Word To Your Mothership","steam_id":76561198034329138,"connected_time":226000000000,"state":"active","ping":98}]},{"server_id":106,"name":"Uncletopia | Chicago | 2 | All Maps","name_short":"chi-2","host":"chi-1.us.uncletopia.com","port":27025,"enabled":true,"region":"us-central","cc":"us","latitude":41.881832,"longitude":-87.62318,"reserved":0,"last_update":"0001-01-01T00:00:00Z","name_a2s":"Uncletopia | Chicago | 2 | All Maps","protocol":17,"map":"pl_barnblitz","folder":"tf","game":"Team Fortress","app_id":440,"player_count":22,"max_players":24,"Bots":0,"server_type":"Dedicated","server_os":"Linux","password":true,"vac":true,"version":"7961495","steam_id":85568392924469985,"keywords":["nocrits","nodmgspread","payload","uncletopia"],"game_id":440,"stv_port":27026,"stv_name":"Uncletopia | Chicago | 2 | All Maps | STV","players":[{"user_id":394,"name":"the222attacker","steam_id":76561198969690191,"connected_time":6307000000000,"state":"active","ping":61},{"user_id":478,"name":"dirk's dirty dingleberry dining","steam_id":76561197972601902,"connected_time":56000000000,"state":"active","ping":85},{"user_id":472,"name":"killerkirby96","steam_id":76561198004537318,"connected_time":823000000000,"state":"active","ping":85},{"user_id":465,"name":"Garrosh Hellscream","steam_id":76561198127534492,"connected_time":1253000000000,"state":"active","ping":41},{"user_id":450,"name":"๖ۣۜMagic","steam_id":76561199272962550,"connected_time":2745000000000,"state":"active","ping":67},{"user_id":466,"name":"storyboard","steam_id":76561199088496817,"connected_time":1250000000000,"state":"active","ping":85},{"user_id":469,"name":"Aaron","steam_id":76561198091157802,"connected_time":1061000000000,"state":"active","ping":66},{"user_id":422,"name":"feudal","steam_id":76561198057374871,"connected_time":4001000000000,"state":"active","ping":55},{"user_id":471,"name":"The Law","steam_id":76561198202209948,"connected_time":868000000000,"state":"active","ping":47},{"user_id":451,"name":"mwee machine","steam_id":76561198047126327,"connected_time":2700000000000,"state":"active","ping":60},{"user_id":462,"name":"Ninjoth","steam_id":76561198038611753,"connected_time":1385000000000,"state":"active","ping":83},{"user_id":410,"name":"Ninetees","steam_id":76561198119483989,"connected_time":5522000000000,"state":"active","ping":188},{"user_id":473,"name":"my name jeff","steam_id":76561198179816898,"connected_time":461000000000,"state":"active","ping":65},{"user_id":406,"name":"Obama F. Kennedy","steam_id":76561198282499318,"connected_time":5618000000000,"state":"active","ping":65},{"user_id":481,"name":"lionel messi","steam_id":76561198138455706,"connected_time":1000000000,"state":"spawning","ping":62},{"user_id":454,"name":"Mr. DeLarge","steam_id":76561198336820066,"connected_time":2612000000000,"state":"active","ping":104},{"user_id":479,"name":"Mentlegen","steam_id":76561198028209157,"connected_time":18000000000,"state":"active","ping":62},{"user_id":452,"name":"definitely (not) a twink","steam_id":76561199208833695,"connected_time":2680000000000,"state":"active","ping":94},{"user_id":412,"name":"stoppit","steam_id":76561198353292787,"connected_time":5065000000000,"state":"active","ping":74},{"user_id":482,"name":"♥ alixei! ♥","steam_id":76561198014557455,"connected_time":1000000000,"state":"spawning","ping":36},{"user_id":477,"name":"Smelly","steam_id":76561198380507370,"connected_time":119000000000,"state":"active","ping":78},{"user_id":456,"name":"c00kie","steam_id":76561198418178297,"connected_time":2594000000000,"state":"active","ping":39}]},{"server_id":402,"name":"Uncletopia | Chicago | 3 | All Maps","name_short":"chi-3","host":"chi-1.us.uncletopia.com","port":27035,"enabled":true,"region":"us-central","cc":"us","latitude":41.881832,"longitude":-87.62318,"reserved":0,"last_update":"0001-01-01T00:00:00Z","name_a2s":"Uncletopia | Chicago | 3 | All Maps","protocol":17,"map":"pl_thundermountain","folder":"tf","game":"Team Fortress","app_id":440,"player_count":24,"max_players":24,"Bots":0,"server_type":"Dedicated","server_os":"Linux","password":true,"vac":true,"version":"7961495","steam_id":85568392924515191,"keywords":["nocrits","nodmgspread","payload","uncletopia"],"game_id":440,"stv_port":27036,"stv_name":"Uncletopia | Chicago | 3 | All Maps | STV","players":[{"user_id":443,"name":"Flowers","steam_id":76561198031669899,"connected_time":1692000000000,"state":"active","ping":83},{"user_id":452,"name":"Nefy","steam_id":76561198030017316,"connected_time":739000000000,"state":"active","ping":88},{"user_id":349,"name":"Letters","steam_id":76561198035508148,"connected_time":5259000000000,"state":"active","ping":66},{"user_id":354,"name":"SpockASD","steam_id":76561198307516731,"connected_time":4892000000000,"state":"active","ping":83},{"user_id":447,"name":"Sigmar Male","steam_id":76561198067584440,"connected_time":1038000000000,"state":"active","ping":77},{"user_id":440,"name":"clamfunny","steam_id":76561198834323868,"connected_time":1723000000000,"state":"active","ping":84},{"user_id":460,"name":"DEA Agent Hank Schrader","steam_id":76561198061014043,"connected_time":259000000000,"state":"active","ping":44},{"user_id":450,"name":"SKETCHPUNK","steam_id":76561198092249249,"connected_time":995000000000,"state":"active","ping":47},{"user_id":436,"name":"Hertz","steam_id":76561198310927351,"connected_time":1920000000000,"state":"active","ping":146},{"user_id":437,"name":"Retro Phoenix","steam_id":76561198077176271,"connected_time":1908000000000,"state":"active","ping":56},{"user_id":454,"name":"Maxxycat","steam_id":76561198194062681,"connected_time":490000000000,"state":"active","ping":64},{"user_id":361,"name":"AJTarcza","steam_id":76561198070800190,"connected_time":4437000000000,"state":"active","ping":80},{"user_id":386,"name":"thecal","steam_id":76561198307893384,"connected_time":3510000000000,"state":"active","ping":55},{"user_id":456,"name":"Bitterbrush117 #JustPlay","steam_id":76561198093251141,"connected_time":386000000000,"state":"active","ping":59},{"user_id":364,"name":"j4miecl4rk","steam_id":76561198404312721,"connected_time":4402000000000,"state":"active","ping":54},{"user_id":439,"name":"Poyo","steam_id":76561198280424107,"connected_time":1858000000000,"state":"active","ping":66},{"user_id":461,"name":"Flow of Consciousness gaming","steam_id":76561198069735882,"connected_time":165000000000,"state":"active","ping":74},{"user_id":463,"name":"Grop Noise","steam_id":76561198145445403,"connected_time":14000000000,"state":"active","ping":59},{"user_id":350,"name":"sooty","steam_id":76561198830243167,"connected_time":5185000000000,"state":"active","ping":65},{"user_id":445,"name":"LCGPhantom","steam_id":76561199052145044,"connected_time":1516000000000,"state":"active","ping":75},{"user_id":376,"name":"lalalemons","steam_id":76561198243965308,"connected_time":3785000000000,"state":"active","ping":75},{"user_id":455,"name":"raya","steam_id":76561198051504581,"connected_time":471000000000,"state":"active","ping":73},{"user_id":459,"name":"Claybae","steam_id":76561198064290179,"connected_time":297000000000,"state":"active","ping":84},{"user_id":363,"name":"Shoeshocker","steam_id":76561198174302467,"connected_time":4431000000000,"state":"active","ping":90}]},{"server_id":403,"name":"Uncletopia | Chicago | 4 | All Maps","name_short":"chi-4","host":"chi-1.us.uncletopia.com","port":27045,"enabled":true,"region":"us-central","cc":"us","latitude":41.881832,"longitude":-87.62318,"reserved":0,"last_update":"0001-01-01T00:00:00Z","name_a2s":"Uncletopia | Chicago | 4 | All Maps","protocol":17,"map":"ctf_2fort","folder":"tf","game":"Team Fortress","app_id":440,"player_count":24,"max_players":24,"Bots":0,"server_type":"Dedicated","server_os":"Linux","password":true,"vac":true,"version":"7961495","steam_id":85568392924515193,"keywords":["ctf","nocrits","nodmgspread","uncletopia"],"game_id":440,"stv_port":27046,"stv_name":"Uncletopia | Chicago | 4 | All Maps | STV","players":[{"user_id":232,"name":"Boomerish","steam_id":76561198083946878,"connected_time":589000000000,"state":"active","ping":72},{"user_id":185,"name":"Ibrahim","steam_id":76561198028320625,"connected_time":3630000000000,"state":"active","ping":69},{"user_id":190,"name":"♕ Cicero ♕","steam_id":76561198056056983,"connected_time":2915000000000,"state":"active","ping":77},{"user_id":242,"name":"CORSAIR Vengeance RGB RT 32GB","steam_id":76561199144340440,"connected_time":28000000000,"state":"active","ping":68},{"user_id":220,"name":"Orakcaj","steam_id":76561198080563935,"connected_time":993000000000,"state":"active","ping":44},{"user_id":219,"name":"Your Local NPR Station","steam_id":76561198143830279,"connected_time":1042000000000,"state":"active","ping":60},{"user_id":234,"name":"Vik","steam_id":76561198837007820,"connected_time":449000000000,"state":"active","ping":153},{"user_id":240,"name":"orphan slayer","steam_id":76561199476198856,"connected_time":155000000000,"state":"active","ping":89},{"user_id":235,"name":"CerealLover8","steam_id":76561199127196546,"connected_time":401000000000,"state":"active","ping":76},{"user_id":192,"name":"Astral","steam_id":76561198037771700,"connected_time":2896000000000,"state":"active","ping":96},{"user_id":210,"name":"C/Spoons","steam_id":76561198019227661,"connected_time":1839000000000,"state":"active","ping":53},{"user_id":200,"name":"Holol","steam_id":76561198010179474,"connected_time":2715000000000,"state":"active","ping":95},{"user_id":241,"name":"Urbanzpinapple","steam_id":76561198115426938,"connected_time":146000000000,"state":"active","ping":63},{"user_id":223,"name":"berserker_tf2 yt","steam_id":76561198303464488,"connected_time":952000000000,"state":"active","ping":63},{"user_id":224,"name":"NUt","steam_id":76561198031007966,"connected_time":825000000000,"state":"active","ping":74},{"user_id":124,"name":"big steve","steam_id":76561199037050183,"connected_time":7425000000000,"state":"active","ping":109},{"user_id":201,"name":"ChillyJones","steam_id":76561198017658702,"connected_time":2632000000000,"state":"active","ping":84},{"user_id":225,"name":"Ludens","steam_id":76561198044423822,"connected_time":813000000000,"state":"active","ping":76},{"user_id":227,"name":"Esoteric Death","steam_id":76561198168686614,"connected_time":622000000000,"state":"active","ping":69},{"user_id":229,"name":"legowizdude","steam_id":76561198086688058,"connected_time":616000000000,"state":"active","ping":59},{"user_id":230,"name":"clippy","steam_id":76561199101412758,"connected_time":616000000000,"state":"active","ping":120},{"user_id":204,"name":"BarrowBaron","steam_id":76561198013633236,"connected_time":2446000000000,"state":"active","ping":58},{"user_id":231,"name":"dave","steam_id":76561198135961731,"connected_time":615000000000,"state":"active","ping":72},{"user_id":238,"name":"Medici","steam_id":76561198310130481,"connected_time":300000000000,"state":"active","ping":64}]},{"server_id":36,"name":"Uncletopia | Chicago | 5 | All Maps","name_short":"chi-5","host":"chi-2.us.uncletopia.com","port":27015,"enabled":true,"region":"us-central","cc":"us","latitude":41.881832,"longitude":-87.62318,"reserved":0,"last_update":"0001-01-01T00:00:00Z","name_a2s":"Uncletopia | Chicago | 5 | All Maps","protocol":17,"map":"pl_barnblitz","folder":"tf","game":"Team Fortress","app_id":440,"player_count":24,"max_players":24,"Bots":0,"server_type":"Dedicated","server_os":"Linux","password":true,"vac":true,"version":"7961495","steam_id":85568392924866362,"keywords":["nocrits","nodmgspread","payload","uncletopia"],"game_id":440,"stv_port":27016,"stv_name":"Uncletopia | Chicago | 5 | All Maps | STV","players":[{"user_id":251,"name":"muck","steam_id":76561198120437909,"connected_time":334000000000,"state":"active","ping":63},{"user_id":252,"name":"ѕυ【ʕ•ᴥ•ʔ】","steam_id":76561198071233302,"connected_time":275000000000,"state":"active","ping":95},{"user_id":253,"name":"SpiceFox","steam_id":76561198049567786,"connected_time":267000000000,"state":"active","ping":65},{"user_id":254,"name":"Ligmus Sigmus","steam_id":76561198168946002,"connected_time":242000000000,"state":"active","ping":61},{"user_id":231,"name":"kopatta","steam_id":76561198064773037,"connected_time":1683000000000,"state":"active","ping":73},{"user_id":249,"name":"avg rainbow dash fan","steam_id":76561198424954118,"connected_time":452000000000,"state":"active","ping":79},{"user_id":222,"name":"hart","steam_id":76561198094780633,"connected_time":2314000000000,"state":"active","ping":55},{"user_id":255,"name":"emily nymph","steam_id":76561199249569889,"connected_time":241000000000,"state":"active","ping":152},{"user_id":256,"name":"The_Skull_boy","steam_id":76561198227692664,"connected_time":238000000000,"state":"active","ping":116},{"user_id":234,"name":"genius of love","steam_id":76561198282764599,"connected_time":1651000000000,"state":"active","ping":49},{"user_id":257,"name":"w a o w","steam_id":76561198060769385,"connected_time":227000000000,"state":"active","ping":112},{"user_id":242,"name":"Thunder","steam_id":76561198097721532,"connected_time":924000000000,"state":"active","ping":106},{"user_id":209,"name":"jose.gonzales.2003","steam_id":76561199217620385,"connected_time":3389000000000,"state":"active","ping":81},{"user_id":243,"name":"Dusken","steam_id":76561198020696265,"connected_time":810000000000,"state":"active","ping":66},{"user_id":180,"name":"A Shiny Meat Bicycle","steam_id":76561198358757709,"connected_time":5438000000000,"state":"active","ping":106},{"user_id":230,"name":"CUSTOMA ON THA GRILL","steam_id":76561198165303806,"connected_time":2105000000000,"state":"active","ping":86},{"user_id":259,"name":"AADDAAMM","steam_id":76561198068584852,"connected_time":213000000000,"state":"active","ping":88},{"user_id":240,"name":"Shapeshiftertrue","steam_id":76561198440835095,"connected_time":1433000000000,"state":"active","ping":91},{"user_id":260,"name":"ImmortalProphet","steam_id":76561198012352477,"connected_time":202000000000,"state":"active","ping":46},{"user_id":226,"name":"SpunkyNuggs","steam_id":76561198046401833,"connected_time":2306000000000,"state":"active","ping":69},{"user_id":262,"name":"The Caretaker","steam_id":76561198125241411,"connected_time":31000000000,"state":"spawning","ping":111},{"user_id":227,"name":"We Go Crazy","steam_id":76561198209641359,"connected_time":2304000000000,"state":"active","ping":66},{"user_id":183,"name":"totally not a pile of beans","steam_id":76561198119851931,"connected_time":5378000000000,"state":"active","ping":84},{"user_id":229,"name":"mid IT guy","steam_id":76561198061552103,"connected_time":2239000000000,"state":"active","ping":48}]},{"server_id":37,"name":"Uncletopia | Chicago | 6 | All Maps","name_short":"chi-6","host":"chi-2.us.uncletopia.com","port":27025,"enabled":true,"region":"us-central","cc":"us","latitude":41.881832,"longitude":-87.62318,"reserved":0,"last_update":"0001-01-01T00:00:00Z","name_a2s":"Uncletopia | Chicago | 6 | All Maps","protocol":17,"map":"cp_egypt_final","folder":"tf","game":"Team Fortress","app_id":440,"player_count":24,"max_players":24,"Bots":0,"server_type":"Dedicated","server_os":"Linux","password":true,"vac":true,"version":"7961495","steam_id":85568392924866363,"keywords":["cp","nocrits","nodmgspread","uncletopia"],"game_id":440,"stv_port":27026,"stv_name":"Uncletopia | Chicago | 6 | All Maps | STV","players":[{"user_id":298,"name":"Architect","steam_id":76561198015242016,"connected_time":1110000000000,"state":"active","ping":39},{"user_id":280,"name":"D.E.O","steam_id":76561198096992957,"connected_time":2991000000000,"state":"active","ping":116},{"user_id":320,"name":"Some_Arse","steam_id":76561198039095394,"connected_time":283000000000,"state":"active","ping":60},{"user_id":276,"name":"H2OBourne","steam_id":76561198396293109,"connected_time":3050000000000,"state":"active","ping":94},{"user_id":299,"name":"Capt.Swag","steam_id":76561198088340994,"connected_time":1107000000000,"state":"active","ping":80},{"user_id":321,"name":"Nammu","steam_id":76561198067778161,"connected_time":271000000000,"state":"active","ping":60},{"user_id":294,"name":"BoopingBears","steam_id":76561198346929455,"connected_time":1914000000000,"state":"active","ping":88},{"user_id":322,"name":"TTV Hunter","steam_id":76561198115812405,"connected_time":247000000000,"state":"active","ping":74},{"user_id":323,"name":"Hovg9000","steam_id":76561199191556710,"connected_time":239000000000,"state":"active","ping":80},{"user_id":301,"name":"⊰Aero⊱","steam_id":76561198084648457,"connected_time":1048000000000,"state":"active","ping":64},{"user_id":302,"name":"Lore","steam_id":76561198098407538,"connected_time":1041000000000,"state":"active","ping":59},{"user_id":324,"name":"Amazingamerhawk","steam_id":76561199064935924,"connected_time":207000000000,"state":"active","ping":71},{"user_id":306,"name":"El Güey","steam_id":76561197970450546,"connected_time":972000000000,"state":"active","ping":110},{"user_id":307,"name":"teegs","steam_id":76561198067905221,"connected_time":938000000000,"state":"active","ping":53},{"user_id":269,"name":"Patriot Pills","steam_id":76561198381647349,"connected_time":4156000000000,"state":"active","ping":79},{"user_id":325,"name":"La Tabda","steam_id":76561198120364620,"connected_time":181000000000,"state":"active","ping":90},{"user_id":326,"name":"Windup Monkey in a Human Suit","steam_id":76561198119501444,"connected_time":164000000000,"state":"active","ping":101},{"user_id":263,"name":"Mint Jelly","steam_id":76561197991286751,"connected_time":4716000000000,"state":"active","ping":47},{"user_id":311,"name":"Xebbey","steam_id":76561198880415976,"connected_time":813000000000,"state":"active","ping":61},{"user_id":277,"name":"Theory-LOL","steam_id":76561198116419931,"connected_time":3045000000000,"state":"active","ping":107},{"user_id":317,"name":"avik","steam_id":76561198387717978,"connected_time":556000000000,"state":"active","ping":45},{"user_id":327,"name":"(ultra)DiViNe","steam_id":76561198109084485,"connected_time":153000000000,"state":"active","ping":68},{"user_id":293,"name":"Elias","steam_id":76561198106431732,"connected_time":1947000000000,"state":"active","ping":35},{"user_id":312,"name":"floom","steam_id":76561198387571809,"connected_time":809000000000,"state":"active","ping":71}]},{"server_id":38,"name":"Uncletopia | Chicago | 7 | Stopwatch","name_short":"chi-7","host":"chi-2.us.uncletopia.com","port":27035,"enabled":true,"region":"us-central","cc":"us","latitude":41.881832,"longitude":-87.62318,"reserved":0,"last_update":"0001-01-01T00:00:00Z","name_a2s":"Uncletopia | Chicago | 7 | Stopwatch","protocol":17,"map":"workshop/cp_reckoner_rc6.ugc674719999","folder":"tf","game":"Team Fortress","app_id":440,"player_count":0,"max_players":24,"Bots":0,"server_type":"Dedicated","server_os":"Linux","password":true,"vac":true,"version":"7961495","steam_id":85568392924866364,"keywords":["cp","nocrits","nodmgspread","uncletopia"],"game_id":440,"stv_port":27036,"stv_name":"Uncletopia | Chicago | 7 | Stopwatch | STV","players":null},{"server_id":39,"name":"Uncletopia | Chicago | 8 | Community","name_short":"chi-8","host":"chi-2.us.uncletopia.com","port":27045,"enabled":true,"region":"us-central","cc":"us","latitude":41.881832,"longitude":-87.62318,"reserved":0,"last_update":"0001-01-01T00:00:00Z","name_a2s":"Uncletopia | Chicago | 8 | Community","protocol":17,"map":"workshop/pl_vigil_rc10.ugc1266210012","folder":"tf","game":"Team Fortress","app_id":440,"player_count":14,"max_players":24,"Bots":0,"server_type":"Dedicated","server_os":"Linux","password":true,"vac":true,"version":"7961495","steam_id":85568392924866365,"keywords":["nocrits","nodmgspread","payload","uncletopia"],"game_id":440,"stv_port":27046,"stv_name":"Uncletopia | Chicago | 8 | Community | STV","players":[{"user_id":123,"name":"Evolution","steam_id":76561198144767370,"connected_time":3702000000000,"state":"active","ping":57},{"user_id":175,"name":"Caboose","steam_id":76561198119221840,"connected_time":156000000000,"state":"active","ping":87},{"user_id":109,"name":"oblivionxcess","steam_id":76561198055328607,"connected_time":4671000000000,"state":"active","ping":90},{"user_id":176,"name":"Phi","steam_id":76561198808932522,"connected_time":152000000000,"state":"active","ping":69},{"user_id":158,"name":"jimmz","steam_id":76561199076776118,"connected_time":1510000000000,"state":"active","ping":62},{"user_id":177,"name":"Toxicmonkeydude","steam_id":76561198045071056,"connected_time":132000000000,"state":"active","ping":120},{"user_id":166,"name":"Sora Halomon","steam_id":76561198081873916,"connected_time":788000000000,"state":"active","ping":92},{"user_id":125,"name":"Spare(8)Ball","steam_id":76561197982432995,"connected_time":3598000000000,"state":"active","ping":94},{"user_id":122,"name":"RexCreeper456","steam_id":76561199319578396,"connected_time":3710000000000,"state":"active","ping":65},{"user_id":179,"name":"DELTRON ZERO","steam_id":76561198081123470,"connected_time":8000000000,"state":"spawning","ping":60},{"user_id":173,"name":"Black Mesa Security","steam_id":76561198161608111,"connected_time":407000000000,"state":"active","ping":71},{"user_id":156,"name":"BroBama","steam_id":76561198203732587,"connected_time":1599000000000,"state":"active","ping":75},{"user_id":128,"name":"SuperEnderGuy","steam_id":76561198352732164,"connected_time":3487000000000,"state":"active","ping":110},{"user_id":164,"name":"gnome zone","steam_id":76561198883349445,"connected_time":1373000000000,"state":"active","ping":103}]},{"server_id":8,"name":"Uncletopia | Dallas | 1 | All Maps","name_short":"dal-1","host":"dal-1.us.uncletopia.com","port":27015,"enabled":true,"region":"us-central","cc":"us","latitude":32.779167,"longitude":-96.80889,"reserved":0,"last_update":"0001-01-01T00:00:00Z","name_a2s":"Uncletopia | Dallas | 1 | All Maps","protocol":17,"map":"cp_metalworks","folder":"tf","game":"Team Fortress","app_id":440,"player_count":24,"max_players":24,"Bots":0,"server_type":"Dedicated","server_os":"Linux","password":true,"vac":true,"version":"7961495","steam_id":85568392924469986,"keywords":["cp","nocrits","nodmgspread","uncletopia"],"game_id":440,"stv_port":27016,"stv_name":"Uncletopia | Dallas | 1 | All Maps | STV","players":[{"user_id":412,"name":"John16Mark","steam_id":76561198119445407,"connected_time":674000000000,"state":"active","ping":60},{"user_id":395,"name":"BULLSHIT MATADOR","steam_id":76561198044488913,"connected_time":1727000000000,"state":"active","ping":67},{"user_id":377,"name":"Charles","steam_id":76561198155322277,"connected_time":2863000000000,"state":"active","ping":90},{"user_id":407,"name":"frankywek","steam_id":76561199287092833,"connected_time":1151000000000,"state":"active","ping":70},{"user_id":365,"name":"Cargo","steam_id":76561198065535025,"connected_time":3407000000000,"state":"active","ping":89},{"user_id":413,"name":"ZILICON","steam_id":76561199044705592,"connected_time":605000000000,"state":"active","ping":109},{"user_id":398,"name":"Necronoxide","steam_id":76561197997856321,"connected_time":1540000000000,"state":"active","ping":98},{"user_id":367,"name":"Frank Horrigan","steam_id":76561198066504831,"connected_time":3371000000000,"state":"active","ping":81},{"user_id":391,"name":"leonardo doujinshi","steam_id":76561198025810326,"connected_time":2036000000000,"state":"active","ping":59},{"user_id":424,"name":"Sink","steam_id":76561198192420249,"connected_time":212000000000,"state":"active","ping":80},{"user_id":419,"name":"Bacon","steam_id":76561199078407152,"connected_time":417000000000,"state":"active","ping":81},{"user_id":309,"name":"Boingo","steam_id":76561199086931535,"connected_time":6017000000000,"state":"active","ping":56},{"user_id":422,"name":"leaving lunar orbit","steam_id":76561199085974120,"connected_time":235000000000,"state":"active","ping":92},{"user_id":416,"name":"Leeloo9","steam_id":76561198864126773,"connected_time":549000000000,"state":"active","ping":66},{"user_id":405,"name":"floor_is_floor","steam_id":76561199084436824,"connected_time":1175000000000,"state":"active","ping":115},{"user_id":423,"name":"☂Bliffenstimmers☂","steam_id":76561198059984896,"connected_time":224000000000,"state":"active","ping":59},{"user_id":370,"name":"BADWOLF42","steam_id":76561198055447523,"connected_time":3224000000000,"state":"active","ping":52},{"user_id":418,"name":"wizorb","steam_id":76561198002172674,"connected_time":447000000000,"state":"active","ping":69},{"user_id":384,"name":"Extome","steam_id":76561198097801342,"connected_time":2455000000000,"state":"active","ping":82},{"user_id":402,"name":"如願","steam_id":76561198038486613,"connected_time":1219000000000,"state":"active","ping":89},{"user_id":411,"name":"Myrkur","steam_id":76561198062448431,"connected_time":1014000000000,"state":"active","ping":96},{"user_id":394,"name":"lil homie gay ass","steam_id":76561198044804626,"connected_time":1842000000000,"state":"active","ping":60},{"user_id":298,"name":"barker bill","steam_id":76561198018451994,"connected_time":6604000000000,"state":"active","ping":59},{"user_id":410,"name":"LampMan","steam_id":76561198079857527,"connected_time":1078000000000,"state":"active","ping":60}]},{"server_id":108,"name":"Uncletopia | Dallas | 2 | All Maps","name_short":"dal-2","host":"dal-1.us.uncletopia.com","port":27025,"enabled":true,"region":"us-central","cc":"us","latitude":32.779167,"longitude":-96.80889,"reserved":0,"last_update":"0001-01-01T00:00:00Z","name_a2s":"Uncletopia | Dallas | 2 | All Maps","protocol":17,"map":"koth_lakeside_final","folder":"tf","game":"Team Fortress","app_id":440,"player_count":24,"max_players":24,"Bots":0,"server_type":"Dedicated","server_os":"Linux","password":true,"vac":true,"version":"7961495","steam_id":85568392924469988,"keywords":["cp","nocrits","nodmgspread","uncletopia"],"game_id":440,"stv_port":27026,"stv_name":"Uncletopia | Dallas | 2 | All Maps | STV","players":[{"user_id":257,"name":"skegeton","steam_id":76561198095581099,"connected_time":3548000000000,"state":"active","ping":56},{"user_id":281,"name":"b-dot","steam_id":76561198160786631,"connected_time":2114000000000,"state":"active","ping":61},{"user_id":303,"name":"DrippySloth","steam_id":76561198199083811,"connected_time":121000000000,"state":"active","ping":106},{"user_id":300,"name":"artichoke","steam_id":76561198980994364,"connected_time":316000000000,"state":"active","ping":98},{"user_id":227,"name":"MrEdman4","steam_id":76561198062233923,"connected_time":5161000000000,"state":"active","ping":89},{"user_id":290,"name":"BehindYou","steam_id":76561198987222560,"connected_time":726000000000,"state":"active","ping":64},{"user_id":284,"name":"Tommy Salami","steam_id":76561198210206347,"connected_time":2055000000000,"state":"active","ping":68},{"user_id":282,"name":"Tr1pleA","steam_id":76561198028848587,"connected_time":2086000000000,"state":"active","ping":71},{"user_id":267,"name":"DeckofDragons","steam_id":76561198057398213,"connected_time":2876000000000,"state":"active","ping":71},{"user_id":268,"name":"chill koi","steam_id":76561198451516389,"connected_time":2833000000000,"state":"active","ping":45},{"user_id":291,"name":"Lorberry","steam_id":76561198023706058,"connected_time":693000000000,"state":"active","ping":50},{"user_id":263,"name":"dirty30","steam_id":76561198021226566,"connected_time":3094000000000,"state":"active","ping":96},{"user_id":279,"name":"vareh","steam_id":76561197993190926,"connected_time":2560000000000,"state":"active","ping":111},{"user_id":215,"name":"chiswola","steam_id":76561198046920142,"connected_time":5990000000000,"state":"active","ping":94},{"user_id":292,"name":"Goblin","steam_id":76561199384665653,"connected_time":688000000000,"state":"active","ping":76},{"user_id":298,"name":"GreekYogurt","steam_id":76561198037671890,"connected_time":378000000000,"state":"active","ping":92},{"user_id":288,"name":"Sentient Plaid Shirt","steam_id":76561198073338999,"connected_time":1293000000000,"state":"active","ping":62},{"user_id":262,"name":"unlikelycure","steam_id":76561199174450788,"connected_time":3168000000000,"state":"active","ping":98},{"user_id":293,"name":"captain red","steam_id":76561198191587983,"connected_time":686000000000,"state":"active","ping":75},{"user_id":260,"name":"soof","steam_id":76561198043762955,"connected_time":3457000000000,"state":"active","ping":80},{"user_id":304,"name":"Oxbell","steam_id":76561198448173562,"connected_time":42000000000,"state":"active","ping":147},{"user_id":274,"name":"Wahaha hee","steam_id":76561198098017157,"connected_time":2713000000000,"state":"active","ping":70},{"user_id":294,"name":"Locke","steam_id":76561197988245513,"connected_time":646000000000,"state":"active","ping":52},{"user_id":302,"name":"GlingGlop95","steam_id":76561198386865528,"connected_time":152000000000,"state":"active","ping":85}]},{"server_id":404,"name":"Uncletopia | Dallas | 3 | All Maps","name_short":"dal-3","host":"dal-1.us.uncletopia.com","port":27035,"enabled":true,"region":"us-central","cc":"us","latitude":32.779167,"longitude":-96.80889,"reserved":0,"last_update":"0001-01-01T00:00:00Z","name_a2s":"Uncletopia | Dallas | 3 | All Maps","protocol":17,"map":"koth_viaduct","folder":"tf","game":"Team Fortress","app_id":440,"player_count":14,"max_players":24,"Bots":0,"server_type":"Dedicated","server_os":"Linux","password":true,"vac":true,"version":"7961495","steam_id":85568392924515219,"keywords":["cp","nocrits","nodmgspread","uncletopia"],"game_id":440,"stv_port":27036,"stv_name":"Uncletopia | Dallas | 3 | All Maps | STV","players":[{"user_id":643,"name":"Mom","steam_id":76561198207936000,"connected_time":633000000000,"state":"active","ping":66},{"user_id":484,"name":"CoffeeZombee","steam_id":76561198172708053,"connected_time":9453000000000,"state":"active","ping":93},{"user_id":651,"name":"Awesome Biscuit :0","steam_id":76561199123614910,"connected_time":60000000000,"state":"active","ping":79},{"user_id":646,"name":"reymundo","steam_id":76561197989412830,"connected_time":308000000000,"state":"active","ping":90},{"user_id":647,"name":"freeze9","steam_id":76561198062856371,"connected_time":276000000000,"state":"active","ping":170},{"user_id":648,"name":"Biscipline","steam_id":76561198019206178,"connected_time":225000000000,"state":"active","ping":80},{"user_id":574,"name":"Carl Wheezer","steam_id":76561198272109430,"connected_time":2627000000000,"state":"active","ping":100},{"user_id":575,"name":"Crappy","steam_id":76561198116167639,"connected_time":2614000000000,"state":"active","ping":97},{"user_id":649,"name":"You Don't Nomi.","steam_id":76561197969137836,"connected_time":204000000000,"state":"active","ping":86},{"user_id":652,"name":"NexFrost","steam_id":76561197985774837,"connected_time":9000000000,"state":"spawning","ping":44},{"user_id":555,"name":"♦♣Quadric♥♠","steam_id":76561198061003853,"connected_time":4768000000000,"state":"active","ping":89},{"user_id":581,"name":"40000 bees in a trench coat","steam_id":76561198240919690,"connected_time":2475000000000,"state":"active","ping":68},{"user_id":611,"name":"JtsRes","steam_id":76561197994809241,"connected_time":1644000000000,"state":"active","ping":60},{"user_id":622,"name":"steel is like a donut","steam_id":76561198074624639,"connected_time":1303000000000,"state":"active","ping":74}]},{"server_id":405,"name":"Uncletopia | Dallas | 4 | Community","name_short":"dal-4","host":"dal-1.us.uncletopia.com","port":27045,"enabled":true,"region":"us-central","cc":"us","latitude":32.779167,"longitude":-96.80889,"reserved":0,"last_update":"0001-01-01T00:00:00Z","name_a2s":"Uncletopia | Dallas | 4 | Community","protocol":17,"map":"workshop/pl_corrode_rc2.ugc546577989","folder":"tf","game":"Team Fortress","app_id":440,"player_count":0,"max_players":24,"Bots":0,"server_type":"Dedicated","server_os":"Linux","password":true,"vac":true,"version":"7961495","steam_id":85568392924515220,"keywords":["nocrits","nodmgspread","payload","uncletopia"],"game_id":440,"stv_port":27046,"stv_name":"Uncletopia | Dallas | 4 | Community | STV","players":null},{"server_id":5,"name":"Uncletopia | Frankfurt | 1 | All Maps","name_short":"frk-1","host":"frk-1.de.uncletopia.com","port":27015,"enabled":true,"region":"eu","cc":"de","latitude":50.110924,"longitude":8.682127,"reserved":0,"last_update":"0001-01-01T00:00:00Z","name_a2s":"Uncletopia | Frankfurt | 1 | All Maps","protocol":17,"map":"koth_highpass","folder":"tf","game":"Team Fortress","app_id":440,"player_count":0,"max_players":24,"Bots":0,"server_type":"Dedicated","server_os":"Linux","password":true,"vac":true,"version":"7961495","steam_id":85568392924469989,"keywords":["cp","nocrits","nodmgspread","uncletopia"],"game_id":440,"stv_port":27016,"stv_name":"Uncletopia | Frankfurt | 1 | All Maps | STV","players":null},{"server_id":110,"name":"Uncletopia | Frankfurt | 2 | All Maps","name_short":"frk-2","host":"frk-1.de.uncletopia.com","port":27025,"enabled":true,"region":"eu","cc":"de","latitude":50.110924,"longitude":8.682127,"reserved":0,"last_update":"0001-01-01T00:00:00Z","name_a2s":"Uncletopia | Frankfurt | 2 | All Maps","protocol":17,"map":"cp_dustbowl","folder":"tf","game":"Team Fortress","app_id":440,"player_count":0,"max_players":24,"Bots":0,"server_type":"Dedicated","server_os":"Linux","password":true,"vac":true,"version":"7961495","steam_id":85568392924469990,"keywords":["cp","nocrits","nodmgspread","uncletopia"],"game_id":440,"stv_port":27026,"stv_name":"Uncletopia | Frankfurt | 2 | All Maps | STV","players":null},{"server_id":308,"name":"Uncletopia | Frankfurt | 3 | All Maps","name_short":"frk-3","host":"frk-1.de.uncletopia.com","port":27035,"enabled":true,"region":"eu","cc":"de","latitude":50.110924,"longitude":8.682127,"reserved":0,"last_update":"0001-01-01T00:00:00Z","name_a2s":"Uncletopia | Frankfurt | 3 | All Maps","protocol":17,"map":"pl_barnblitz","folder":"tf","game":"Team Fortress","app_id":440,"player_count":0,"max_players":24,"Bots":0,"server_type":"Dedicated","server_os":"Linux","password":true,"vac":true,"version":"7961495","steam_id":85568392924504274,"keywords":["nocrits","nodmgspread","payload","uncletopia"],"game_id":440,"stv_port":27036,"stv_name":"Uncletopia | Frankfurt | 3 | All Maps | STV","players":null},{"server_id":309,"name":"Uncletopia | Frankfurt | 4 | All Maps","name_short":"frk-4","host":"frk-1.de.uncletopia.com","port":27045,"enabled":true,"region":"eu","cc":"de","latitude":50.110924,"longitude":8.682127,"reserved":0,"last_update":"0001-01-01T00:00:00Z","name_a2s":"Uncletopia | Frankfurt | 4 | All Maps","protocol":17,"map":"koth_highpass","folder":"tf","game":"Team Fortress","app_id":440,"player_count":0,"max_players":24,"Bots":0,"server_type":"Dedicated","server_os":"Linux","password":true,"vac":true,"version":"7961495","steam_id":85568392924504275,"keywords":["cp","nocrits","nodmgspread","uncletopia"],"game_id":440,"stv_port":27046,"stv_name":"Uncletopia | Frankfurt | 4 | All Maps | STV","players":null},{"server_id":310,"name":"Uncletopia | Frankfurt | 5 | All Maps","name_short":"frk-5","host":"frk-1.de.uncletopia.com","port":27055,"enabled":true,"region":"eu","cc":"de","latitude":50.110924,"longitude":8.682127,"reserved":0,"last_update":"0001-01-01T00:00:00Z","name_a2s":"Uncletopia | Frankfurt | 5 | All Maps","protocol":17,"map":"pl_badwater","folder":"tf","game":"Team Fortress","app_id":440,"player_count":0,"max_players":24,"Bots":0,"server_type":"Dedicated","server_os":"Linux","password":true,"vac":true,"version":"7961495","steam_id":85568392924504277,"keywords":["nocrits","nodmgspread","payload","uncletopia"],"game_id":440,"stv_port":27056,"stv_name":"Uncletopia | Frankfurt | 5 | All Maps | STV","players":null},{"server_id":311,"name":"Uncletopia | Frankfurt | 6 | All Maps","name_short":"frk-6","host":"frk-1.de.uncletopia.com","port":27065,"enabled":true,"region":"eu","cc":"de","latitude":50.110924,"longitude":8.682127,"reserved":0,"last_update":"0001-01-01T00:00:00Z","name_a2s":"Uncletopia | Frankfurt | 6 | All Maps","protocol":17,"map":"cp_altitude","folder":"tf","game":"Team Fortress","app_id":440,"player_count":0,"max_players":24,"Bots":0,"server_type":"Dedicated","server_os":"Linux","password":true,"vac":true,"version":"7961495","steam_id":85568392924504278,"keywords":["cp","nocrits","nodmgspread","uncletopia"],"game_id":440,"stv_port":27066,"stv_name":"Uncletopia | Frankfurt | 6 | All Maps | STV","players":null},{"server_id":23,"name":"Uncletopia | Frankfurt | 7 | Stopwatch","name_short":"frk-7","host":"frk-1.de.uncletopia.com","port":27075,"enabled":true,"region":"eu","cc":"de","latitude":50.110924,"longitude":8.682127,"reserved":0,"last_update":"0001-01-01T00:00:00Z","name_a2s":"Uncletopia | Frankfurt | 7 | Stopwatch","protocol":17,"map":"pl_frontier_final","folder":"tf","game":"Team Fortress","app_id":440,"player_count":0,"max_players":24,"Bots":0,"server_type":"Dedicated","server_os":"Linux","password":true,"vac":true,"version":"7961495","steam_id":85568392924742827,"keywords":["nocrits","nodmgspread","payload","uncletopia"],"game_id":440,"stv_port":27076,"stv_name":"Uncletopia | Frankfurt | 7 | Stopwatch | STV","players":null},{"server_id":24,"name":"Uncletopia | Frankfurt | 8 | Community","name_short":"frk-8","host":"frk-1.de.uncletopia.com","port":27085,"enabled":true,"region":"eu","cc":"de","latitude":50.110924,"longitude":8.682127,"reserved":0,"last_update":"0001-01-01T00:00:00Z","name_a2s":"Uncletopia | Frankfurt | 8 | Community","protocol":17,"map":"cp_mountainlab","folder":"tf","game":"Team Fortress","app_id":440,"player_count":0,"max_players":24,"Bots":0,"server_type":"Dedicated","server_os":"Linux","password":true,"vac":true,"version":"7961495","steam_id":85568392924742828,"keywords":["cp","nocrits","nodmgspread","uncletopia"],"game_id":440,"stv_port":27086,"stv_name":"Uncletopia | Frankfurt | 8 | Community | STV","players":null},{"server_id":202,"name":"Uncletopia | Hong Kong | 1 | All Maps","name_short":"hgk-1","host":"hgk-1.hk.uncletopia.com","port":27015,"enabled":true,"region":"asia","cc":"hk","latitude":22.302711,"longitude":114.177216,"reserved":0,"last_update":"0001-01-01T00:00:00Z","name_a2s":"Uncletopia | Hong Kong | 1 | All Maps","protocol":17,"map":"pl_borneo","folder":"tf","game":"Team Fortress","app_id":440,"player_count":24,"max_players":24,"Bots":0,"server_type":"Dedicated","server_os":"Linux","password":true,"vac":true,"version":"7961495","steam_id":85568392924494504,"keywords":["nocrits","nodmgspread","payload","uncletopia"],"game_id":440,"stv_port":27016,"stv_name":"Uncletopia | Hong Kong | 1 | All Maps | STV","players":[{"user_id":69,"name":"derek.patriarca30","steam_id":76561199427230206,"connected_time":65000000000,"state":"active","ping":68},{"user_id":42,"name":"3wfFbdrjEze5d2G","steam_id":76561198435900451,"connected_time":2227000000000,"state":"active","ping":162},{"user_id":39,"name":"DegenerateWeeb","steam_id":76561199230196794,"connected_time":2895000000000,"state":"active","ping":159},{"user_id":43,"name":"seekre of sede","steam_id":76561198152152640,"connected_time":2014000000000,"state":"active","ping":116},{"user_id":44,"name":"Niko F2P","steam_id":76561199079307895,"connected_time":1913000000000,"state":"active","ping":63},{"user_id":68,"name":"hakos balls","steam_id":76561198074339034,"connected_time":92000000000,"state":"active","ping":69},{"user_id":46,"name":"pldt internet","steam_id":76561198870774355,"connected_time":1660000000000,"state":"active","ping":94},{"user_id":60,"name":"Windmill","steam_id":76561199230997986,"connected_time":367000000000,"state":"active","ping":69},{"user_id":70,"name":"m1kha1l","steam_id":76561198313036074,"connected_time":59000000000,"state":"active","ping":58},{"user_id":71,"name":"MeetTeMedic99","steam_id":76561199208706868,"connected_time":33000000000,"state":"spawning","ping":75},{"user_id":51,"name":"V :3","steam_id":76561199034546642,"connected_time":1147000000000,"state":"active","ping":101},{"user_id":52,"name":"Lateralbeef","steam_id":76561199143243135,"connected_time":1096000000000,"state":"active","ping":142},{"user_id":53,"name":"REAL","steam_id":76561199228640079,"connected_time":843000000000,"state":"active","ping":126},{"user_id":54,"name":"左 辙","steam_id":76561198202460529,"connected_time":808000000000,"state":"active","ping":97},{"user_id":55,"name":"Barbecue Bacon Burger","steam_id":76561198867869631,"connected_time":784000000000,"state":"active","ping":114},{"user_id":56,"name":"Teampangit","steam_id":76561198087774626,"connected_time":701000000000,"state":"active","ping":178},{"user_id":57,"name":"telly chubby","steam_id":76561199413302850,"connected_time":473000000000,"state":"active","ping":61},{"user_id":58,"name":"human696982","steam_id":76561199496222946,"connected_time":457000000000,"state":"active","ping":102},{"user_id":59,"name":"wom","steam_id":76561199375834537,"connected_time":440000000000,"state":"active","ping":81},{"user_id":62,"name":"a musian","steam_id":76561198152588681,"connected_time":330000000000,"state":"active","ping":76},{"user_id":63,"name":"korioko_","steam_id":76561199062584421,"connected_time":289000000000,"state":"active","ping":144},{"user_id":64,"name":"Nephew Nate","steam_id":76561199137872034,"connected_time":287000000000,"state":"active","ping":92},{"user_id":72,"name":"THE J","steam_id":76561199195201443,"connected_time":21000000000,"state":"spawning","ping":114},{"user_id":67,"name":"Sushi","steam_id":76561199383469224,"connected_time":212000000000,"state":"active","ping":110}]},{"server_id":1,"name":"Uncletopia | Los Angeles | 1 | All Maps","name_short":"lax-1","host":"lax-1.us.uncletopia.com","port":27015,"enabled":true,"region":"us-west","cc":"us","latitude":33.94279,"longitude":-118.41004,"reserved":0,"last_update":"0001-01-01T00:00:00Z","name_a2s":"Uncletopia | Los Angeles | 1 | All Maps","protocol":17,"map":"pl_frontier_final","folder":"tf","game":"Team Fortress","app_id":440,"player_count":22,"max_players":24,"Bots":0,"server_type":"Dedicated","server_os":"Linux","password":true,"vac":true,"version":"7961495","steam_id":85568392924469991,"keywords":["nocrits","nodmgspread","payload","uncletopia"],"game_id":440,"stv_port":27016,"stv_name":"Uncletopia | Los Angeles | 1 | All Maps | STV","players":[{"user_id":316,"name":"vozz","steam_id":76561198242065410,"connected_time":293000000000,"state":"active","ping":48},{"user_id":305,"name":"JellyParrot","steam_id":76561199190990163,"connected_time":958000000000,"state":"active","ping":103},{"user_id":301,"name":"Main Opp","steam_id":76561198124910662,"connected_time":1207000000000,"state":"active","ping":63},{"user_id":267,"name":"Higuma","steam_id":76561198375229012,"connected_time":3636000000000,"state":"active","ping":65},{"user_id":269,"name":"hyazZaZa","steam_id":76561199100342013,"connected_time":3585000000000,"state":"active","ping":47},{"user_id":273,"name":"Dongus","steam_id":76561197979056451,"connected_time":2621000000000,"state":"active","ping":77},{"user_id":302,"name":"Bheem","steam_id":76561198170453459,"connected_time":1152000000000,"state":"active","ping":69},{"user_id":320,"name":"b2b","steam_id":76561198082601857,"connected_time":231000000000,"state":"active","ping":46},{"user_id":279,"name":"what're ya buyin","steam_id":76561199277633460,"connected_time":2380000000000,"state":"active","ping":44},{"user_id":311,"name":"octane infused rabies7","steam_id":76561198309010627,"connected_time":703000000000,"state":"active","ping":71},{"user_id":315,"name":"ceres fauna free use","steam_id":76561198097330521,"connected_time":303000000000,"state":"active","ping":96},{"user_id":244,"name":"❤ Ashley ❤","steam_id":76561198056428303,"connected_time":5200000000000,"state":"active","ping":48},{"user_id":319,"name":"ami","steam_id":76561198072781633,"connected_time":281000000000,"state":"active","ping":45},{"user_id":318,"name":"enhanced with disney's FastPlay","steam_id":76561198164134387,"connected_time":286000000000,"state":"active","ping":85},{"user_id":281,"name":"DiscoTraveler","steam_id":76561199240168088,"connected_time":2372000000000,"state":"active","ping":94},{"user_id":294,"name":"Socialist Warrior","steam_id":76561198085664421,"connected_time":1806000000000,"state":"active","ping":105},{"user_id":321,"name":"trackpad gaming | f2p","steam_id":76561198840414371,"connected_time":219000000000,"state":"active","ping":76},{"user_id":309,"name":"Scam Likely","steam_id":76561198044104178,"connected_time":880000000000,"state":"active","ping":73},{"user_id":249,"name":"self sufficient kitten","steam_id":76561197960592612,"connected_time":5041000000000,"state":"active","ping":84},{"user_id":310,"name":"westward (was/were)","steam_id":76561198805512350,"connected_time":760000000000,"state":"active","ping":84},{"user_id":290,"name":"kx","steam_id":76561198088952425,"connected_time":2104000000000,"state":"active","ping":55},{"user_id":297,"name":"nella","steam_id":76561198079349621,"connected_time":1626000000000,"state":"active","ping":51}]},{"server_id":112,"name":"Uncletopia | Los Angeles | 2 | All Maps","name_short":"lax-2","host":"lax-1.us.uncletopia.com","port":27025,"enabled":true,"region":"us-west","cc":"us","latitude":33.94279,"longitude":-118.41004,"reserved":0,"last_update":"0001-01-01T00:00:00Z","name_a2s":"Uncletopia | Los Angeles | 2 | All Maps","protocol":17,"map":"koth_lakeside_final","folder":"tf","game":"Team Fortress","app_id":440,"player_count":0,"max_players":24,"Bots":0,"server_type":"Dedicated","server_os":"Linux","password":true,"vac":true,"version":"7961495","steam_id":85568392924469992,"keywords":["cp","nocrits","nodmgspread","uncletopia"],"game_id":440,"stv_port":27026,"stv_name":"Uncletopia | Los Angeles | 2 | All Maps | STV","players":null},{"server_id":324,"name":"Uncletopia | Los Angeles | 3 | All Maps","name_short":"lax-3","host":"lax-1.us.uncletopia.com","port":27035,"enabled":true,"region":"us-west","cc":"us","latitude":33.94279,"longitude":-118.41004,"reserved":0,"last_update":"0001-01-01T00:00:00Z","name_a2s":"Uncletopia | Los Angeles | 3 | All Maps","protocol":17,"map":"pl_goldrush","folder":"tf","game":"Team Fortress","app_id":440,"player_count":22,"max_players":24,"Bots":0,"server_type":"Dedicated","server_os":"Linux","password":true,"vac":true,"version":"7961495","steam_id":85568392924510198,"keywords":["nocrits","nodmgspread","payload","uncletopia"],"game_id":440,"stv_port":27036,"stv_name":"Uncletopia | Los Angeles | 3 | All Maps | STV","players":[{"user_id":53,"name":"fertile moist and well drained","steam_id":76561198031409921,"connected_time":3693000000000,"state":"active","ping":45},{"user_id":124,"name":"Crutchlover's Crutchnai","steam_id":76561198046526036,"connected_time":37000000000,"state":"active","ping":49},{"user_id":109,"name":"Putnamehere:","steam_id":76561198210276349,"connected_time":1260000000000,"state":"active","ping":47},{"user_id":95,"name":"TwoForFlinching","steam_id":76561198073814209,"connected_time":1484000000000,"state":"active","ping":91},{"user_id":119,"name":"Henway","steam_id":76561198998561104,"connected_time":532000000000,"state":"active","ping":71},{"user_id":116,"name":"vvitch","steam_id":76561198279661941,"connected_time":683000000000,"state":"active","ping":41},{"user_id":125,"name":"BOUNTY HUNGER","steam_id":76561198862691742,"connected_time":27000000000,"state":"spawning","ping":81},{"user_id":85,"name":"Fireheart888","steam_id":76561198044555953,"connected_time":2024000000000,"state":"active","ping":145},{"user_id":68,"name":"Gugomo","steam_id":76561198121428316,"connected_time":2895000000000,"state":"active","ping":31},{"user_id":102,"name":"rise","steam_id":76561198452312880,"connected_time":1335000000000,"state":"active","ping":61},{"user_id":87,"name":"Mr.Nostalgic","steam_id":76561198083240822,"connected_time":1959000000000,"state":"active","ping":86},{"user_id":114,"name":"Saint Heavy","steam_id":76561199121671647,"connected_time":1074000000000,"state":"active","ping":59},{"user_id":97,"name":"GoofyGoober","steam_id":76561199209004430,"connected_time":1425000000000,"state":"active","ping":69},{"user_id":118,"name":"canakblasteran","steam_id":76561199472518822,"connected_time":621000000000,"state":"active","ping":68},{"user_id":126,"name":"MayKaye","steam_id":76561199016092265,"connected_time":16000000000,"state":"spawning","ping":45},{"user_id":81,"name":"The Foolish Samurai","steam_id":76561198094494945,"connected_time":2105000000000,"state":"active","ping":73},{"user_id":82,"name":"Rock Kickass","steam_id":76561198450510841,"connected_time":2101000000000,"state":"active","ping":81},{"user_id":86,"name":"exx","steam_id":76561198090552145,"connected_time":2009000000000,"state":"active","ping":49},{"user_id":107,"name":"Banithor","steam_id":76561198158541036,"connected_time":1296000000000,"state":"active","ping":49},{"user_id":72,"name":"Nova Academy of Salmon Action","steam_id":76561198021842526,"connected_time":2495000000000,"state":"active","ping":65},{"user_id":110,"name":"gloobis","steam_id":76561198146046768,"connected_time":1257000000000,"state":"active","ping":52},{"user_id":112,"name":"CheddarChap46","steam_id":76561198290025113,"connected_time":1224000000000,"state":"active","ping":114}]},{"server_id":25,"name":"Uncletopia | Los Angeles | 4 | Stopwatch","name_short":"lax-4","host":"lax-1.us.uncletopia.com","port":27045,"enabled":true,"region":"us-west","cc":"us","latitude":33.94279,"longitude":-118.41004,"reserved":0,"last_update":"0001-01-01T00:00:00Z","name_a2s":"Uncletopia | Los Angeles | 4 | Stopwatch","protocol":17,"map":"cp_granary","folder":"tf","game":"Team Fortress","app_id":440,"player_count":0,"max_players":24,"Bots":0,"server_type":"Dedicated","server_os":"Linux","password":true,"vac":true,"version":"7961495","steam_id":85568392924510199,"keywords":["cp","nocrits","nodmgspread","uncletopia"],"game_id":440,"stv_port":27046,"stv_name":"Uncletopia | Los Angeles | 4 | Stopwatch | STV","players":null},{"server_id":11,"name":"Uncletopia | London | 1 | All Maps","name_short":"lon-1","host":"lon-1.uk.uncletopia.com","port":27015,"enabled":true,"region":"eu","cc":"gb","latitude":51.509865,"longitude":-0.118092,"reserved":0,"last_update":"0001-01-01T00:00:00Z","name_a2s":"Uncletopia | London | 1 | All Maps","protocol":17,"map":"cp_powerhouse","folder":"tf","game":"Team Fortress","app_id":440,"player_count":2,"max_players":24,"Bots":0,"server_type":"Dedicated","server_os":"Linux","password":true,"vac":true,"version":"7961495","steam_id":85568392924367362,"keywords":["cp","nocrits","nodmgspread","uncletopia"],"game_id":440,"stv_port":27016,"stv_name":"Uncletopia | London | 1 | All Maps | STV","players":[{"user_id":595,"name":"ℓ","steam_id":76561199099057716,"connected_time":1575000000000,"state":"active","ping":95},{"user_id":588,"name":"snowycoast","steam_id":76561198346638308,"connected_time":2575000000000,"state":"active","ping":56}]},{"server_id":114,"name":"Uncletopia | London | 2 | All Maps","name_short":"lon-2","host":"lon-1.uk.uncletopia.com","port":27025,"enabled":true,"region":"eu","cc":"gb","latitude":51.509865,"longitude":-0.118092,"reserved":0,"last_update":"0001-01-01T00:00:00Z","name_a2s":"Uncletopia | London | 2 | All Maps","protocol":17,"map":"koth_highpass","folder":"tf","game":"Team Fortress","app_id":440,"player_count":0,"max_players":24,"Bots":0,"server_type":"Dedicated","server_os":"Linux","password":true,"vac":true,"version":"7961495","steam_id":85568392924470941,"keywords":["cp","nocrits","nodmgspread","uncletopia"],"game_id":440,"stv_port":27026,"stv_name":"Uncletopia | London | 2 | All Maps | STV","players":null},{"server_id":320,"name":"Uncletopia | London | 3 | All Maps","name_short":"lon-3","host":"lon-1.uk.uncletopia.com","port":27035,"enabled":true,"region":"eu","cc":"gb","latitude":51.509865,"longitude":-0.118092,"reserved":0,"last_update":"0001-01-01T00:00:00Z","name_a2s":"Uncletopia | London | 3 | All Maps","protocol":17,"map":"pl_barnblitz","folder":"tf","game":"Team Fortress","app_id":440,"player_count":0,"max_players":24,"Bots":0,"server_type":"Dedicated","server_os":"Linux","password":true,"vac":true,"version":"7961495","steam_id":85568392924510192,"keywords":["nocrits","nodmgspread","payload","uncletopia"],"game_id":440,"stv_port":27036,"stv_name":"Uncletopia | London | 3 | All Maps | STV","players":null},{"server_id":321,"name":"Uncletopia | London | 4 | All Maps","name_short":"lon-4","host":"lon-1.uk.uncletopia.com","port":27045,"enabled":true,"region":"eu","cc":"gb","latitude":51.509865,"longitude":-0.118092,"reserved":0,"last_update":"0001-01-01T00:00:00Z","name_a2s":"Uncletopia | London | 4 | All Maps","protocol":17,"map":"cp_sunshine","folder":"tf","game":"Team Fortress","app_id":440,"player_count":0,"max_players":24,"Bots":0,"server_type":"Dedicated","server_os":"Linux","password":true,"vac":true,"version":"7961495","steam_id":85568392924510193,"keywords":["cp","nocrits","nodmgspread","uncletopia"],"game_id":440,"stv_port":27046,"stv_name":"Uncletopia | London | 4 | All Maps | STV","players":null},{"server_id":21,"name":"Uncletopia | London | 5 | All Maps","name_short":"lon-5","host":"lon-1.uk.uncletopia.com","port":27055,"enabled":true,"region":"eu","cc":"gb","latitude":51.509865,"longitude":-0.118092,"reserved":0,"last_update":"0001-01-01T00:00:00Z","name_a2s":"Uncletopia | London | 5 | All Maps","protocol":17,"map":"koth_lakeside_final","folder":"tf","game":"Team Fortress","app_id":440,"player_count":0,"max_players":24,"Bots":0,"server_type":"Dedicated","server_os":"Linux","password":true,"vac":true,"version":"7961495","steam_id":85568392924742829,"keywords":["cp","nocrits","nodmgspread","uncletopia"],"game_id":440,"stv_port":27056,"stv_name":"Uncletopia | London | 5 | All Maps | STV","players":null},{"server_id":22,"name":"Uncletopia | London | 6 | All Maps","name_short":"lon-6","host":"lon-1.uk.uncletopia.com","port":27065,"enabled":true,"region":"eu","cc":"gb","latitude":51.509865,"longitude":-0.118092,"reserved":0,"last_update":"0001-01-01T00:00:00Z","name_a2s":"Uncletopia | London | 6 | All Maps","protocol":17,"map":"koth_viaduct","folder":"tf","game":"Team Fortress","app_id":440,"player_count":0,"max_players":24,"Bots":0,"server_type":"Dedicated","server_os":"Linux","password":true,"vac":true,"version":"7961495","steam_id":85568392924742830,"keywords":["cp","nocrits","nodmgspread","uncletopia"],"game_id":440,"stv_port":27066,"stv_name":"Uncletopia | London | 6 | All Maps | STV","players":null},{"server_id":40,"name":"Uncletopia | London | 7 | Stopwatch","name_short":"lon-7","host":"lon-1.uk.uncletopia.com","port":27075,"enabled":true,"region":"eu","cc":"gb","latitude":51.509865,"longitude":-0.118092,"reserved":0,"last_update":"0001-01-01T00:00:00Z","name_a2s":"Uncletopia | London | 7 | Stopwatch","protocol":17,"map":"pl_swiftwater_final1","folder":"tf","game":"Team Fortress","app_id":440,"player_count":0,"max_players":24,"Bots":0,"server_type":"Dedicated","server_os":"Linux","password":true,"vac":true,"version":"7961495","steam_id":85568392924964314,"keywords":["nocrits","nodmgspread","payload","uncletopia"],"game_id":440,"stv_port":27076,"stv_name":"Uncletopia | London | 7 | Stopwatch | STV","players":null},{"server_id":41,"name":"Uncletopia | London | 8 | Community","name_short":"lon-8","host":"lon-1.uk.uncletopia.com","port":27085,"enabled":true,"region":"eu","cc":"gb","latitude":51.509865,"longitude":-0.118092,"reserved":0,"last_update":"0001-01-01T00:00:00Z","name_a2s":"Uncletopia | London | 8 | Community","protocol":17,"map":"workshop/cp_glacier_rc6.ugc2905735376","folder":"tf","game":"Team Fortress","app_id":440,"player_count":0,"max_players":24,"Bots":0,"server_type":"Dedicated","server_os":"Linux","password":true,"vac":true,"version":"7961495","steam_id":85568392924964315,"keywords":["cp","nocrits","nodmgspread","uncletopia"],"game_id":440,"stv_port":27086,"stv_name":"Uncletopia | London | 8 | Community | STV","players":null},{"server_id":300,"name":"Uncletopia | Montréal | 1 | One Thousand Uncles","name_short":"mtl-1","host":"mtl-1.ca.uncletopia.com","port":27015,"enabled":true,"region":"us-east","cc":"ca","latitude":45.50889,"longitude":-73.56167,"reserved":0,"last_update":"0001-01-01T00:00:00Z","name_a2s":"","protocol":0,"map":"","folder":"","game":"","app_id":0,"player_count":7,"max_players":0,"Bots":0,"server_type":"","server_os":"","password":false,"vac":false,"version":"","steam_id":0,"keywords":null,"game_id":0,"stv_port":0,"stv_name":"","players":[{"user_id":339,"name":"WHAT IF I WANTED THEM TO TRY","steam_id":76561198088131563,"connected_time":765000000000,"state":"active","ping":125},{"user_id":312,"name":"yeeye","steam_id":76561198094306054,"connected_time":2972000000000,"state":"active","ping":99},{"user_id":337,"name":"A Terrible Shot","steam_id":76561198045523833,"connected_time":1232000000000,"state":"active","ping":79},{"user_id":340,"name":"NickoDeeBz","steam_id":76561198294657867,"connected_time":762000000000,"state":"active","ping":100},{"user_id":341,"name":"Vess","steam_id":76561197972587155,"connected_time":175000000000,"state":"active","ping":89},{"user_id":294,"name":"manbearswineflu","steam_id":76561198083945137,"connected_time":4497000000000,"state":"active","ping":75},{"user_id":338,"name":"PieSpie","steam_id":76561198054531169,"connected_time":1107000000000,"state":"active","ping":85}]},{"server_id":301,"name":"Uncletopia | Montréal | 2 | One Thousand Uncles","name_short":"mtl-2","host":"mtl-1.ca.uncletopia.com","port":27025,"enabled":true,"region":"us-east","cc":"ca","latitude":45.50889,"longitude":-73.56167,"reserved":0,"last_update":"0001-01-01T00:00:00Z","name_a2s":"","protocol":0,"map":"","folder":"","game":"","app_id":0,"player_count":9,"max_players":0,"Bots":0,"server_type":"","server_os":"","password":false,"vac":false,"version":"","steam_id":0,"keywords":null,"game_id":0,"stv_port":0,"stv_name":"","players":[{"user_id":72,"name":"hl3 hot gay sex","steam_id":76561199122281764,"connected_time":841000000000,"state":"active","ping":94},{"user_id":4,"name":"Ellis McGruber","steam_id":76561198060739536,"connected_time":4337000000000,"state":"active","ping":47},{"user_id":89,"name":"Sgt. Pepper","steam_id":76561198063674627,"connected_time":508000000000,"state":"active","ping":98},{"user_id":21,"name":"VisibleForce","steam_id":76561198104178938,"connected_time":4327000000000,"state":"active","ping":56},{"user_id":48,"name":"space paranoids","steam_id":76561198085010959,"connected_time":2368000000000,"state":"active","ping":72},{"user_id":23,"name":"Invis","steam_id":76561198054546884,"connected_time":4326000000000,"state":"active","ping":60},{"user_id":67,"name":"Robocrate007","steam_id":76561198085096788,"connected_time":1947000000000,"state":"active","ping":78},{"user_id":41,"name":"I just joined","steam_id":76561198057999536,"connected_time":4197000000000,"state":"active","ping":112},{"user_id":91,"name":"MilkPls","steam_id":76561198047139956,"connected_time":380000000000,"state":"active","ping":267}]},{"server_id":302,"name":"Uncletopia | Montréal | 3 | One Thousand Uncles","name_short":"mtl-3","host":"mtl-1.ca.uncletopia.com","port":27035,"enabled":true,"region":"us-east","cc":"ca","latitude":45.50889,"longitude":-73.56167,"reserved":0,"last_update":"0001-01-01T00:00:00Z","name_a2s":"","protocol":0,"map":"","folder":"","game":"","app_id":0,"player_count":6,"max_players":0,"Bots":0,"server_type":"","server_os":"","password":false,"vac":false,"version":"","steam_id":0,"keywords":null,"game_id":0,"stv_port":0,"stv_name":"","players":[{"user_id":194,"name":"Krunkle","steam_id":76561198144260455,"connected_time":4774000000000,"state":"active","ping":69},{"user_id":206,"name":"Calypso","steam_id":76561198082939544,"connected_time":1092000000000,"state":"active","ping":94},{"user_id":198,"name":"ʕ•ᴥ•ʔ the bear","steam_id":76561197989591976,"connected_time":4092000000000,"state":"active","ping":58},{"user_id":202,"name":"Master Of Whales","steam_id":76561198349104889,"connected_time":2565000000000,"state":"active","ping":117},{"user_id":200,"name":"BIG LION","steam_id":76561198091880358,"connected_time":3039000000000,"state":"active","ping":61},{"user_id":199,"name":"RacoonGamer","steam_id":76561198100907657,"connected_time":3737000000000,"state":"active","ping":37}]},{"server_id":13,"name":"Uncletopia | New York City | 1 | All Maps","name_short":"nyc-1","host":"nyc-1.us.uncletopia.com","port":27015,"enabled":true,"region":"us-east","cc":"us","latitude":40.73061,"longitude":-73.93524,"reserved":0,"last_update":"0001-01-01T00:00:00Z","name_a2s":"Uncletopia | New York City | 1 | All Maps","protocol":17,"map":"pl_swiftwater_final1","folder":"tf","game":"Team Fortress","app_id":440,"player_count":24,"max_players":24,"Bots":0,"server_type":"Dedicated","server_os":"Linux","password":true,"vac":true,"version":"7961495","steam_id":85568392924469993,"keywords":["nocrits","nodmgspread","payload","uncletopia"],"game_id":440,"stv_port":27016,"stv_name":"Uncletopia | New York City | 1 | All Maps | STV","players":[{"user_id":447,"name":"Glennithy","steam_id":76561198339332079,"connected_time":8608000000000,"state":"active","ping":84},{"user_id":477,"name":"space man","steam_id":76561198066333670,"connected_time":6475000000000,"state":"active","ping":73},{"user_id":517,"name":"Herdez Hot Salsa","steam_id":76561197991740906,"connected_time":1139000000000,"state":"active","ping":70},{"user_id":432,"name":"Juan Pablo Gonzalez 2023","steam_id":76561199197961413,"connected_time":10143000000000,"state":"active","ping":38},{"user_id":521,"name":"snart","steam_id":76561198096730752,"connected_time":450000000000,"state":"active","ping":101},{"user_id":518,"name":"K\u0026S Beverages","steam_id":76561198058378081,"connected_time":778000000000,"state":"active","ping":61},{"user_id":516,"name":"ndvr","steam_id":76561199379200102,"connected_time":1376000000000,"state":"active","ping":55},{"user_id":459,"name":"hearttron","steam_id":76561198994842331,"connected_time":7773000000000,"state":"active","ping":126},{"user_id":485,"name":"Obelix","steam_id":76561198274715109,"connected_time":4521000000000,"state":"active","ping":46},{"user_id":461,"name":"MemoxJota (F2P)","steam_id":76561198862661338,"connected_time":7697000000000,"state":"active","ping":130},{"user_id":481,"name":"Queso2469","steam_id":76561197993024580,"connected_time":4857000000000,"state":"active","ping":49},{"user_id":509,"name":"Raine","steam_id":76561198055761141,"connected_time":2758000000000,"state":"active","ping":75},{"user_id":522,"name":"Nobody","steam_id":76561198286486517,"connected_time":132000000000,"state":"active","ping":71},{"user_id":515,"name":"ansmew","steam_id":76561198075200670,"connected_time":1666000000000,"state":"active","ping":60},{"user_id":503,"name":"saurhead","steam_id":76561198132937722,"connected_time":3144000000000,"state":"active","ping":56},{"user_id":514,"name":"Porcupine's Revenge!","steam_id":76561199121615234,"connected_time":1688000000000,"state":"active","ping":44},{"user_id":508,"name":"Yuzu","steam_id":76561198417913035,"connected_time":2774000000000,"state":"active","ping":68},{"user_id":410,"name":"A Puppy","steam_id":76561198828184456,"connected_time":11628000000000,"state":"active","ping":45},{"user_id":435,"name":"Bee_Pirate","steam_id":76561199000599111,"connected_time":9760000000000,"state":"active","ping":63},{"user_id":501,"name":"chill guy","steam_id":76561198322479866,"connected_time":3418000000000,"state":"active","ping":41},{"user_id":479,"name":"High School Nudical","steam_id":76561198172120615,"connected_time":5765000000000,"state":"active","ping":38},{"user_id":520,"name":"Bluedime","steam_id":76561198123181025,"connected_time":701000000000,"state":"active","ping":47},{"user_id":464,"name":"Bad Medic Buddy","steam_id":76561198093222632,"connected_time":7632000000000,"state":"active","ping":80}]},{"server_id":14,"name":"Uncletopia | New York City | 2 | All Maps","name_short":"nyc-2","host":"nyc-1.us.uncletopia.com","port":27025,"enabled":true,"region":"us-east","cc":"us","latitude":40.73061,"longitude":-73.93524,"reserved":0,"last_update":"0001-01-01T00:00:00Z","name_a2s":"Uncletopia | New York City | 2 | All Maps","protocol":17,"map":"cp_steel","folder":"tf","game":"Team Fortress","app_id":440,"player_count":24,"max_players":24,"Bots":0,"server_type":"Dedicated","server_os":"Linux","password":true,"vac":true,"version":"7961495","steam_id":85568392924469994,"keywords":["cp","nocrits","nodmgspread","uncletopia"],"game_id":440,"stv_port":27026,"stv_name":"Uncletopia | New York City | 2 | All Maps | STV","players":[{"user_id":702,"name":"Wafflehead","steam_id":76561198053539741,"connected_time":1570000000000,"state":"active","ping":66},{"user_id":682,"name":"hopdon","steam_id":76561198051616613,"connected_time":3334000000000,"state":"active","ping":93},{"user_id":699,"name":"that's showbiz, baybee","steam_id":76561197998258233,"connected_time":1603000000000,"state":"active","ping":80},{"user_id":715,"name":"˗ˏˋNima´ˎ˗","steam_id":76561198102045762,"connected_time":548000000000,"state":"active","ping":73},{"user_id":668,"name":"Coop","steam_id":76561198042839356,"connected_time":4517000000000,"state":"active","ping":65},{"user_id":671,"name":"YummerBummer","steam_id":76561198094773987,"connected_time":4332000000000,"state":"active","ping":54},{"user_id":696,"name":"saturn eating his own ass","steam_id":76561198016826181,"connected_time":2775000000000,"state":"active","ping":67},{"user_id":676,"name":"ceo of pl_pier","steam_id":76561198085696816,"connected_time":3853000000000,"state":"active","ping":70},{"user_id":700,"name":"Sky","steam_id":76561198043549371,"connected_time":1601000000000,"state":"active","ping":41},{"user_id":714,"name":"JJames","steam_id":76561198055687973,"connected_time":667000000000,"state":"active","ping":68},{"user_id":713,"name":"Wan Shi Tong","steam_id":76561198076441225,"connected_time":702000000000,"state":"active","ping":45},{"user_id":718,"name":"super sanirik","steam_id":76561199211275254,"connected_time":313000000000,"state":"active","ping":104},{"user_id":717,"name":"Sammy Slamma Jamma","steam_id":76561198079430934,"connected_time":371000000000,"state":"active","ping":49},{"user_id":651,"name":"dcqwerty","steam_id":76561198964101426,"connected_time":5262000000000,"state":"active","ping":42},{"user_id":710,"name":"AbbyRoads","steam_id":76561198868564212,"connected_time":1164000000000,"state":"active","ping":74},{"user_id":711,"name":"hashmap","steam_id":76561198043794014,"connected_time":908000000000,"state":"active","ping":61},{"user_id":712,"name":"Bored Barred Owl","steam_id":76561198263895597,"connected_time":711000000000,"state":"active","ping":62},{"user_id":694,"name":"Sud","steam_id":76561197974116747,"connected_time":2877000000000,"state":"active","ping":107},{"user_id":647,"name":"Sableye","steam_id":76561198061247147,"connected_time":5630000000000,"state":"active","ping":76},{"user_id":706,"name":"Yongle","steam_id":76561198068591156,"connected_time":1469000000000,"state":"active","ping":73},{"user_id":687,"name":"Egg","steam_id":76561198028157625,"connected_time":3227000000000,"state":"active","ping":99},{"user_id":719,"name":"Five","steam_id":76561198026640473,"connected_time":285000000000,"state":"active","ping":89},{"user_id":707,"name":"MILF Gaming","steam_id":76561198155378170,"connected_time":1447000000000,"state":"active","ping":42},{"user_id":614,"name":"flamingcookies","steam_id":76561198280864779,"connected_time":8523000000000,"state":"active","ping":69}]},{"server_id":15,"name":"Uncletopia | New York City | 3 | Stopwatch","name_short":"nyc-3","host":"nyc-1.us.uncletopia.com","port":27035,"enabled":true,"region":"us-east","cc":"us","latitude":40.73061,"longitude":-73.93524,"reserved":0,"last_update":"0001-01-01T00:00:00Z","name_a2s":"Uncletopia | New York City | 3 | Stopwatch","protocol":17,"map":"cp_snakewater_final1","folder":"tf","game":"Team Fortress","app_id":440,"player_count":24,"max_players":24,"Bots":0,"server_type":"Dedicated","server_os":"Linux","password":true,"vac":true,"version":"7961495","steam_id":85568392924742820,"keywords":["cp","nocrits","nodmgspread","uncletopia"],"game_id":440,"stv_port":27036,"stv_name":"Uncletopia | New York City | 3 | Stopwatch | STV","players":[{"user_id":19,"name":"SpaceSanctum","steam_id":76561198805242305,"connected_time":6185000000000,"state":"active","ping":45},{"user_id":20,"name":"googa","steam_id":76561198133130452,"connected_time":6141000000000,"state":"active","ping":43},{"user_id":55,"name":"Felwo3","steam_id":76561199217352978,"connected_time":702000000000,"state":"active","ping":176},{"user_id":64,"name":"Squope","steam_id":76561198983129293,"connected_time":498000000000,"state":"active","ping":54},{"user_id":70,"name":"Squiddysquibbles","steam_id":76561198268476001,"connected_time":190000000000,"state":"active","ping":48},{"user_id":41,"name":"minihoog","steam_id":76561198102156780,"connected_time":1252000000000,"state":"active","ping":73},{"user_id":53,"name":"Stonks","steam_id":76561199490085068,"connected_time":744000000000,"state":"active","ping":64},{"user_id":37,"name":"CloakedString17","steam_id":76561198443573586,"connected_time":1457000000000,"state":"active","ping":86},{"user_id":71,"name":"Rodrick Knee","steam_id":76561198283021062,"connected_time":184000000000,"state":"active","ping":73},{"user_id":63,"name":"[Blank]","steam_id":76561198179466187,"connected_time":529000000000,"state":"active","ping":71},{"user_id":43,"name":"Fifthcrusade1","steam_id":76561198142136640,"connected_time":1228000000000,"state":"active","ping":85},{"user_id":44,"name":"Mooksie","steam_id":76561198073074064,"connected_time":1092000000000,"state":"active","ping":75},{"user_id":45,"name":"Cheeseburger","steam_id":76561198044131927,"connected_time":1055000000000,"state":"active","ping":59},{"user_id":46,"name":"Smiley_R5 ringme","steam_id":76561198113083770,"connected_time":1038000000000,"state":"active","ping":49},{"user_id":57,"name":"Medicinal Significant Other","steam_id":76561198239771532,"connected_time":603000000000,"state":"active","ping":61},{"user_id":62,"name":"st3shk4a","steam_id":76561198025322638,"connected_time":557000000000,"state":"active","ping":75},{"user_id":50,"name":"ducc","steam_id":76561198284178076,"connected_time":927000000000,"state":"active","ping":45},{"user_id":73,"name":"Justice","steam_id":76561198044735930,"connected_time":126000000000,"state":"active","ping":60},{"user_id":56,"name":"Exetior","steam_id":76561198978688451,"connected_time":639000000000,"state":"active","ping":72},{"user_id":58,"name":"Galaxy","steam_id":76561197997354354,"connected_time":598000000000,"state":"active","ping":69},{"user_id":72,"name":"lord of cinder","steam_id":76561198421249296,"connected_time":181000000000,"state":"active","ping":76},{"user_id":60,"name":"Mr_SoulSlasher","steam_id":76561198936267613,"connected_time":580000000000,"state":"active","ping":132},{"user_id":74,"name":"FnordyFiend182","steam_id":76561198362154222,"connected_time":88000000000,"state":"active","ping":82},{"user_id":69,"name":"Vivi","steam_id":76561198132698345,"connected_time":343000000000,"state":"active","ping":32}]},{"server_id":16,"name":"Uncletopia | New York City | 4 | Community","name_short":"nyc-4","host":"nyc-1.us.uncletopia.com","port":27045,"enabled":true,"region":"us-east","cc":"us","latitude":40.73061,"longitude":-73.93524,"reserved":0,"last_update":"0001-01-01T00:00:00Z","name_a2s":"Uncletopia | New York City | 4 | Community","protocol":17,"map":"workshop/cp_sulfur_rc2.ugc619869471","folder":"tf","game":"Team Fortress","app_id":440,"player_count":0,"max_players":24,"Bots":0,"server_type":"Dedicated","server_os":"Linux","password":true,"vac":true,"version":"7961495","steam_id":85568392924742821,"keywords":["cp","nocrits","nodmgspread","uncletopia"],"game_id":440,"stv_port":27046,"stv_name":"Uncletopia | New York City | 4 | Community | STV","players":null},{"server_id":142,"name":"Uncletopia | São Paulo | 1 | All Maps","name_short":"sao-1","host":"sao-1.br.uncletopia.com","port":27015,"enabled":true,"region":"sa","cc":"br","latitude":-23.533773,"longitude":-46.62529,"reserved":0,"last_update":"0001-01-01T00:00:00Z","name_a2s":"Uncletopia | São Paulo | 1 | All Maps","protocol":17,"map":"koth_harvest_final","folder":"tf","game":"Team Fortress","app_id":440,"player_count":0,"max_players":24,"Bots":0,"server_type":"Dedicated","server_os":"Linux","password":true,"vac":true,"version":"7961495","steam_id":85568392924469996,"keywords":["cp","nocrits","nodmgspread","uncletopia"],"game_id":440,"stv_port":27016,"stv_name":"Uncletopia | São Paulo | 1 | All Maps | STV","players":null},{"server_id":143,"name":"Uncletopia | São Paulo | 2 | Community","name_short":"sao-2","host":"sao-2.br.uncletopia.com","port":27015,"enabled":true,"region":"sa","cc":"br","latitude":-23.533773,"longitude":-46.62529,"reserved":0,"last_update":"0001-01-01T00:00:00Z","name_a2s":"Uncletopia | São Paulo | 2 | Community","protocol":17,"map":"workshop/rd_asteroid_redux_b1.ugc2154902912","folder":"tf","game":"Team Fortress","app_id":440,"player_count":4,"max_players":24,"Bots":0,"server_type":"Dedicated","server_os":"Linux","password":true,"vac":true,"version":"7961495","steam_id":85568392924485349,"keywords":["beta","nocrits","nodmgspread","rd","uncletopia"],"game_id":440,"stv_port":27016,"stv_name":"Uncletopia | São Paulo | 2 | Community | STV","players":[{"user_id":168,"name":"ydev","steam_id":76561198965538287,"connected_time":1219000000000,"state":"active","ping":45},{"user_id":157,"name":"Mad Hagrid","steam_id":76561198272705539,"connected_time":3736000000000,"state":"active","ping":69},{"user_id":123,"name":"shiva","steam_id":76561198276113571,"connected_time":6942000000000,"state":"active","ping":32},{"user_id":119,"name":"drenn","steam_id":76561198272594616,"connected_time":7009000000000,"state":"active","ping":46}]},{"server_id":7,"name":"Uncletopia | Seattle | 1 | All Maps","name_short":"sea-1","host":"sea-1.us.uncletopia.com","port":27015,"enabled":true,"region":"us-west","cc":"us","latitude":47.608013,"longitude":-122.33517,"reserved":0,"last_update":"0001-01-01T00:00:00Z","name_a2s":"Uncletopia | Seattle | 1 | All Maps","protocol":17,"map":"pl_snowycoast","folder":"tf","game":"Team Fortress","app_id":440,"player_count":24,"max_players":24,"Bots":0,"server_type":"Dedicated","server_os":"Linux","password":true,"vac":true,"version":"7961495","steam_id":85568392924469997,"keywords":["nocrits","nodmgspread","payload","uncletopia"],"game_id":440,"stv_port":27016,"stv_name":"Uncletopia | Seattle | 1 | All Maps | STV","players":[{"user_id":274,"name":"ilun","steam_id":76561198042913843,"connected_time":6901000000000,"state":"active","ping":51},{"user_id":352,"name":"William P. Ennis","steam_id":76561198073464877,"connected_time":1010000000000,"state":"active","ping":85},{"user_id":339,"name":"Angela :3","steam_id":76561198991101353,"connected_time":1774000000000,"state":"active","ping":45},{"user_id":353,"name":"Skabbety","steam_id":76561198168044257,"connected_time":749000000000,"state":"active","ping":30},{"user_id":287,"name":"scallop pigeon","steam_id":76561199488457138,"connected_time":6020000000000,"state":"active","ping":45},{"user_id":354,"name":"Level 3 hotdog enjoyer","steam_id":76561198870649125,"connected_time":731000000000,"state":"active","ping":77},{"user_id":355,"name":"Sweets","steam_id":76561198998446307,"connected_time":729000000000,"state":"active","ping":66},{"user_id":350,"name":"SnailYT","steam_id":76561198332040385,"connected_time":1116000000000,"state":"active","ping":57},{"user_id":338,"name":"Tom Skirrett","steam_id":76561198014600788,"connected_time":1786000000000,"state":"active","ping":61},{"user_id":361,"name":"Luca","steam_id":76561198125087140,"connected_time":42000000000,"state":"active","ping":52},{"user_id":360,"name":"gin","steam_id":76561198087557454,"connected_time":317000000000,"state":"active","ping":74},{"user_id":357,"name":"Daz","steam_id":76561198041431938,"connected_time":665000000000,"state":"active","ping":51},{"user_id":349,"name":"rat who can kickflip","steam_id":76561198073620027,"connected_time":1197000000000,"state":"active","ping":40},{"user_id":342,"name":"weed lesbian","steam_id":76561198042263805,"connected_time":1415000000000,"state":"active","ping":48},{"user_id":358,"name":"5869","steam_id":76561198799616739,"connected_time":644000000000,"state":"active","ping":97},{"user_id":323,"name":"hazel","steam_id":76561198037292232,"connected_time":2806000000000,"state":"active","ping":108},{"user_id":363,"name":"Jodi Engwyrn","steam_id":76561198131833567,"connected_time":35000000000,"state":"active","ping":65},{"user_id":359,"name":"Drapph","steam_id":76561199384213314,"connected_time":368000000000,"state":"active","ping":116},{"user_id":312,"name":"Username","steam_id":76561199033122306,"connected_time":4314000000000,"state":"active","ping":151},{"user_id":343,"name":"TeriyakiDynamite","steam_id":76561198050049346,"connected_time":1412000000000,"state":"active","ping":82},{"user_id":362,"name":"blest!","steam_id":76561198966232220,"connected_time":42000000000,"state":"active","ping":65},{"user_id":348,"name":"a cat plushie","steam_id":76561198080046542,"connected_time":1260000000000,"state":"active","ping":46},{"user_id":332,"name":"Ayayayayayahuasca","steam_id":76561199002906056,"connected_time":2304000000000,"state":"active","ping":45},{"user_id":335,"name":"Rev","steam_id":76561199060355036,"connected_time":2159000000000,"state":"active","ping":52}]},{"server_id":119,"name":"Uncletopia | Seattle | 2 | All Maps","name_short":"sea-2","host":"sea-1.us.uncletopia.com","port":27025,"enabled":true,"region":"us-west","cc":"us","latitude":47.608013,"longitude":-122.33517,"reserved":0,"last_update":"0001-01-01T00:00:00Z","name_a2s":"Uncletopia | Seattle | 2 | All Maps","protocol":17,"map":"cp_sunshine","folder":"tf","game":"Team Fortress","app_id":440,"player_count":24,"max_players":24,"Bots":0,"server_type":"Dedicated","server_os":"Linux","password":true,"vac":true,"version":"7961495","steam_id":85568392924469998,"keywords":["cp","nocrits","nodmgspread","uncletopia"],"game_id":440,"stv_port":27026,"stv_name":"Uncletopia | Seattle | 2 | All Maps | STV","players":[{"user_id":665,"name":"Santicules","steam_id":76561198209373536,"connected_time":3414000000000,"state":"active","ping":104},{"user_id":678,"name":"General Fisticuffs","steam_id":76561198255721392,"connected_time":1252000000000,"state":"active","ping":111},{"user_id":668,"name":"TüCold","steam_id":76561198111278197,"connected_time":3264000000000,"state":"active","ping":49},{"user_id":666,"name":"BlazedBunny","steam_id":76561198243610560,"connected_time":3288000000000,"state":"active","ping":62},{"user_id":679,"name":"Gloomy","steam_id":76561198053742522,"connected_time":1247000000000,"state":"active","ping":47},{"user_id":593,"name":"Paradon","steam_id":76561198242214772,"connected_time":8705000000000,"state":"active","ping":73},{"user_id":669,"name":"19th century nut vid","steam_id":76561198134309750,"connected_time":3222000000000,"state":"active","ping":94},{"user_id":670,"name":"jayeskae","steam_id":76561198144220801,"connected_time":3210000000000,"state":"active","ping":51},{"user_id":687,"name":"laggy mcstab","steam_id":76561198106379962,"connected_time":817000000000,"state":"active","ping":96},{"user_id":688,"name":"SaltyFlump","steam_id":76561199379601288,"connected_time":302000000000,"state":"active","ping":48},{"user_id":591,"name":"Marzbee115","steam_id":76561198095821025,"connected_time":8848000000000,"state":"active","ping":77},{"user_id":661,"name":"oil","steam_id":76561198099980149,"connected_time":3558000000000,"state":"active","ping":84},{"user_id":676,"name":"Y△▽△","steam_id":76561198050770818,"connected_time":1526000000000,"state":"active","ping":54},{"user_id":681,"name":"Hero Smasher","steam_id":76561198150681669,"connected_time":1183000000000,"state":"active","ping":74},{"user_id":643,"name":"fungi bowie.gg","steam_id":76561198169755734,"connected_time":4923000000000,"state":"active","ping":67},{"user_id":673,"name":"↟ ↟ callie ↟ ↟","steam_id":76561198058199952,"connected_time":2553000000000,"state":"active","ping":40},{"user_id":656,"name":"CashGordon","steam_id":76561197975594096,"connected_time":4184000000000,"state":"active","ping":44},{"user_id":685,"name":"O","steam_id":76561198450073779,"connected_time":1089000000000,"state":"active","ping":44},{"user_id":682,"name":"jorts (zoot)","steam_id":76561199041179985,"connected_time":1167000000000,"state":"active","ping":52},{"user_id":671,"name":"blunterous prophet","steam_id":76561198131166135,"connected_time":2788000000000,"state":"active","ping":41},{"user_id":655,"name":"Mainyx","steam_id":76561198811844438,"connected_time":4276000000000,"state":"active","ping":57},{"user_id":686,"name":"Guerito550hp","steam_id":76561198019028544,"connected_time":1088000000000,"state":"active","ping":117},{"user_id":662,"name":"yowhatupitk","steam_id":76561199224530901,"connected_time":3547000000000,"state":"active","ping":47},{"user_id":677,"name":"camp3r","steam_id":76561197992870439,"connected_time":1444000000000,"state":"active","ping":34}]},{"server_id":406,"name":"Uncletopia | Seattle | 3 | Stopwatch","name_short":"sea-3","host":"sea-1.us.uncletopia.com","port":27035,"enabled":true,"region":"us-west","cc":"us","latitude":47.608013,"longitude":-122.33517,"reserved":0,"last_update":"0001-01-01T00:00:00Z","name_a2s":"Uncletopia | Seattle | 3 | Stopwatch","protocol":17,"map":"workshop/koth_product_final.ugc454272353","folder":"tf","game":"Team Fortress","app_id":440,"player_count":0,"max_players":24,"Bots":0,"server_type":"Dedicated","server_os":"Linux","password":true,"vac":true,"version":"7961495","steam_id":85568392924515217,"keywords":["cp","nocrits","nodmgspread","uncletopia"],"game_id":440,"stv_port":27036,"stv_name":"Uncletopia | Seattle | 3 | Stopwatch | STV","players":null},{"server_id":17,"name":"Uncletopia | San Francisco | 1 | All Maps","name_short":"sfo-1","host":"sfo-1.us.uncletopia.com","port":27015,"enabled":true,"region":"us-west","cc":"us","latitude":37.77397,"longitude":-122.4313,"reserved":0,"last_update":"0001-01-01T00:00:00Z","name_a2s":"Uncletopia | San Francisco | 1 | All Maps","protocol":17,"map":"pl_frontier_final","folder":"tf","game":"Team Fortress","app_id":440,"player_count":20,"max_players":24,"Bots":0,"server_type":"Dedicated","server_os":"Linux","password":true,"vac":true,"version":"7961495","steam_id":85568392924469999,"keywords":["nocrits","nodmgspread","payload","uncletopia"],"game_id":440,"stv_port":27016,"stv_name":"Uncletopia | San Francisco | 1 | All Maps | STV","players":[{"user_id":81,"name":"don't get mad","steam_id":76561198064662875,"connected_time":52000000000,"state":"active","ping":44},{"user_id":80,"name":"PizzaMuncher89","steam_id":76561199121856753,"connected_time":159000000000,"state":"active","ping":91},{"user_id":58,"name":"FI LO","steam_id":76561198976530881,"connected_time":1651000000000,"state":"active","ping":45},{"user_id":28,"name":"Sketchdude","steam_id":76561198428554205,"connected_time":3125000000000,"state":"active","ping":93},{"user_id":62,"name":"NuclearPotato","steam_id":76561198144492000,"connected_time":825000000000,"state":"active","ping":73},{"user_id":36,"name":"boner man","steam_id":76561199200468258,"connected_time":2805000000000,"state":"active","ping":69},{"user_id":82,"name":"Stapler","steam_id":76561198099295077,"connected_time":44000000000,"state":"active","ping":45},{"user_id":47,"name":"omnislime","steam_id":76561199382475668,"connected_time":2124000000000,"state":"active","ping":100},{"user_id":83,"name":"Ronnie Pickering!","steam_id":76561198041842118,"connected_time":13000000000,"state":"active","ping":66},{"user_id":63,"name":"SwearWord","steam_id":76561199131184237,"connected_time":817000000000,"state":"active","ping":58},{"user_id":35,"name":"bluntmasterflex","steam_id":76561199332203587,"connected_time":2856000000000,"state":"active","ping":68},{"user_id":69,"name":"Karg","steam_id":76561198091387866,"connected_time":473000000000,"state":"active","ping":64},{"user_id":70,"name":"CHIEF_JUSTICE_FUCKASS","steam_id":76561199261675844,"connected_time":459000000000,"state":"active","ping":77},{"user_id":73,"name":"I THINK COOLSVILLE SUCKS","steam_id":76561198066855998,"connected_time":415000000000,"state":"active","ping":73},{"user_id":45,"name":"WoodsRunner","steam_id":76561198121812870,"connected_time":2241000000000,"state":"active","ping":96},{"user_id":60,"name":"Sleezy","steam_id":76561198839500707,"connected_time":1222000000000,"state":"active","ping":61},{"user_id":74,"name":"luigiclub","steam_id":76561198180548194,"connected_time":397000000000,"state":"active","ping":86},{"user_id":77,"name":"iFunny user","steam_id":76561198988499660,"connected_time":292000000000,"state":"active","ping":78},{"user_id":78,"name":"Average Car Seat Headrest Fan","steam_id":76561199208183499,"connected_time":288000000000,"state":"active","ping":63},{"user_id":56,"name":"_Ati","steam_id":76561198339777801,"connected_time":1880000000000,"state":"active","ping":84}]},{"server_id":18,"name":"Uncletopia | San Francisco | 2 | All Maps","name_short":"sfo-2","host":"sfo-1.us.uncletopia.com","port":27025,"enabled":true,"region":"us-west","cc":"us","latitude":37.77397,"longitude":-122.4313,"reserved":0,"last_update":"0001-01-01T00:00:00Z","name_a2s":"Uncletopia | San Francisco | 2 | All Maps","protocol":17,"map":"pl_snowycoast","folder":"tf","game":"Team Fortress","app_id":440,"player_count":24,"max_players":24,"Bots":0,"server_type":"Dedicated","server_os":"Linux","password":true,"vac":true,"version":"7961495","steam_id":85568392924470000,"keywords":["nocrits","nodmgspread","payload","uncletopia"],"game_id":440,"stv_port":27026,"stv_name":"Uncletopia | San Francisco | 2 | All Maps | STV","players":[{"user_id":124,"name":"Oops","steam_id":76561198015032646,"connected_time":1769000000000,"state":"active","ping":46},{"user_id":139,"name":"dyyd7706","steam_id":76561199230461523,"connected_time":227000000000,"state":"active","ping":121},{"user_id":145,"name":"ant5678910","steam_id":76561199036142684,"connected_time":174000000000,"state":"active","ping":63},{"user_id":130,"name":"Lemur","steam_id":76561198056693287,"connected_time":1130000000000,"state":"active","ping":60},{"user_id":141,"name":"RatLord69","steam_id":76561199116799872,"connected_time":217000000000,"state":"active","ping":73},{"user_id":142,"name":"mn","steam_id":76561198042357436,"connected_time":217000000000,"state":"active","ping":50},{"user_id":110,"name":"StockLlama","steam_id":76561199155283653,"connected_time":3091000000000,"state":"active","ping":82},{"user_id":61,"name":"fear me","steam_id":76561198159334435,"connected_time":7889000000000,"state":"active","ping":170},{"user_id":126,"name":"MechanizedContortion","steam_id":76561199146092247,"connected_time":1747000000000,"state":"active","ping":55},{"user_id":131,"name":"what da dog doin","steam_id":76561198090573639,"connected_time":1087000000000,"state":"active","ping":58},{"user_id":143,"name":"Moot (She/Her)","steam_id":76561198081530179,"connected_time":216000000000,"state":"active","ping":116},{"user_id":144,"name":"josehammerfoot","steam_id":76561198865994784,"connected_time":176000000000,"state":"active","ping":110},{"user_id":146,"name":"Dr. Bubs","steam_id":76561198011696595,"connected_time":117000000000,"state":"active","ping":53},{"user_id":89,"name":"Whatsapp Spy","steam_id":76561198085410969,"connected_time":4922000000000,"state":"active","ping":137},{"user_id":111,"name":"Bolbi","steam_id":76561198051811597,"connected_time":2995000000000,"state":"active","ping":68},{"user_id":128,"name":"Chemzo","steam_id":76561199092858118,"connected_time":1524000000000,"state":"active","ping":115},{"user_id":147,"name":"CPTforever","steam_id":76561198237767198,"connected_time":75000000000,"state":"active","ping":60},{"user_id":132,"name":"Scoops M'Gooch","steam_id":76561198048423812,"connected_time":1052000000000,"state":"active","ping":70},{"user_id":148,"name":"chef-boy-R.G","steam_id":76561198335094703,"connected_time":73000000000,"state":"active","ping":67},{"user_id":149,"name":"moe","steam_id":76561198929586245,"connected_time":69000000000,"state":"active","ping":56},{"user_id":136,"name":"mewtek","steam_id":76561198138599995,"connected_time":576000000000,"state":"active","ping":75},{"user_id":118,"name":"C^a^L","steam_id":76561198241124222,"connected_time":2591000000000,"state":"active","ping":56},{"user_id":121,"name":"sillyjack","steam_id":76561198844273999,"connected_time":2412000000000,"state":"active","ping":70}]},{"server_id":19,"name":"Uncletopia | San Francisco | 3 | Stopwatch","name_short":"sfo-3","host":"sfo-1.us.uncletopia.com","port":27035,"enabled":true,"region":"us-west","cc":"us","latitude":37.77397,"longitude":-122.4313,"reserved":0,"last_update":"0001-01-01T00:00:00Z","name_a2s":"Uncletopia | San Francisco | 3 | Stopwatch","protocol":17,"map":"workshop/pl_vigil_rc10.ugc1266210012","folder":"tf","game":"Team Fortress","app_id":440,"player_count":0,"max_players":24,"Bots":0,"server_type":"Dedicated","server_os":"Linux","password":true,"vac":true,"version":"7961495","steam_id":85568392924742824,"keywords":["nocrits","nodmgspread","payload","uncletopia"],"game_id":440,"stv_port":27036,"stv_name":"Uncletopia | San Francisco | 3 | Stopwatch | STV","players":null},{"server_id":20,"name":"Uncletopia | San Francisco | 4 | Community","name_short":"sfo-4","host":"sfo-1.us.uncletopia.com","port":27045,"enabled":true,"region":"us-west","cc":"us","latitude":37.77397,"longitude":-122.4313,"reserved":0,"last_update":"0001-01-01T00:00:00Z","name_a2s":"Uncletopia | San Francisco | 4 | Community","protocol":17,"map":"pl_pier","folder":"tf","game":"Team Fortress","app_id":440,"player_count":0,"max_players":24,"Bots":0,"server_type":"Dedicated","server_os":"Linux","password":true,"vac":true,"version":"7961495","steam_id":85568392924742826,"keywords":["nocrits","nodmgspread","payload","uncletopia"],"game_id":440,"stv_port":27046,"stv_name":"Uncletopia | San Francisco | 4 | Community | STV","players":null},{"server_id":141,"name":"Uncletopia | Sydney | 1 | All Maps","name_short":"syd-1","host":"syd-1.au.uncletopia.com","port":27015,"enabled":true,"region":"au","cc":"au","latitude":-33.865143,"longitude":151.2099,"reserved":0,"last_update":"0001-01-01T00:00:00Z","name_a2s":"Uncletopia | Sydney | 1 | All Maps","protocol":17,"map":"koth_viaduct","folder":"tf","game":"Team Fortress","app_id":440,"player_count":0,"max_players":24,"Bots":0,"server_type":"Dedicated","server_os":"Linux","password":true,"vac":true,"version":"7961495","steam_id":85568392924470001,"keywords":["cp","nocrits","nodmgspread","uncletopia"],"game_id":440,"stv_port":27016,"stv_name":"Uncletopia | Sydney | 1 | All Maps | STV","players":null},{"server_id":123,"name":"Uncletopia | Sydney | 2 | All Maps","name_short":"syd-2","host":"syd-1.au.uncletopia.com","port":27025,"enabled":true,"region":"au","cc":"au","latitude":-33.865143,"longitude":151.2099,"reserved":0,"last_update":"0001-01-01T00:00:00Z","name_a2s":"Uncletopia | Sydney | 2 | All Maps","protocol":17,"map":"koth_lakeside_final","folder":"tf","game":"Team Fortress","app_id":440,"player_count":0,"max_players":24,"Bots":0,"server_type":"Dedicated","server_os":"Linux","password":true,"vac":true,"version":"7961495","steam_id":85568392924470002,"keywords":["cp","nocrits","nodmgspread","uncletopia"],"game_id":440,"stv_port":27026,"stv_name":"Uncletopia | Sydney | 2 | All Maps | STV","players":null},{"server_id":395,"name":"Uncletopia | Sydney | 3 | All Maps","name_short":"syd-3","host":"syd-1.au.uncletopia.com","port":27035,"enabled":true,"region":"au","cc":"au","latitude":-33.865143,"longitude":151.2099,"reserved":0,"last_update":"0001-01-01T00:00:00Z","name_a2s":"Uncletopia | Sydney | 3 | All Maps","protocol":17,"map":"pl_frontier_final","folder":"tf","game":"Team Fortress","app_id":440,"player_count":0,"max_players":24,"Bots":0,"server_type":"Dedicated","server_os":"Linux","password":true,"vac":true,"version":"7961495","steam_id":85568392925194467,"keywords":["nocrits","nodmgspread","payload","uncletopia"],"game_id":440,"stv_port":27036,"stv_name":"Uncletopia | Sydney | 3 | All Maps | STV","players":null},{"server_id":396,"name":"Uncletopia | Sydney | 4 | All Maps","name_short":"syd-4","host":"syd-1.au.uncletopia.com","port":27045,"enabled":true,"region":"au","cc":"au","latitude":-33.865143,"longitude":151.2099,"reserved":0,"last_update":"0001-01-01T00:00:00Z","name_a2s":"Uncletopia | Sydney | 4 | All Maps","protocol":17,"map":"cp_process_final","folder":"tf","game":"Team Fortress","app_id":440,"player_count":0,"max_players":24,"Bots":0,"server_type":"Dedicated","server_os":"Linux","password":true,"vac":true,"version":"7961495","steam_id":85568392925397958,"keywords":["cp","nocrits","nodmgspread","uncletopia"],"game_id":440,"stv_port":27046,"stv_name":"Uncletopia | Sydney | 4 | All Maps | STV","players":null},{"server_id":58,"name":"Uncletopia | Sydney | 5 | Stopwatch","name_short":"syd-5","host":"syd-1.au.uncletopia.com","port":27055,"enabled":true,"region":"au","cc":"au","latitude":-33.865143,"longitude":151.2099,"reserved":0,"last_update":"0001-01-01T00:00:00Z","name_a2s":"Uncletopia | Sydney | 5 | Stopwatch","protocol":17,"map":"pl_frontier_final","folder":"tf","game":"Team Fortress","app_id":440,"player_count":0,"max_players":24,"Bots":0,"server_type":"Dedicated","server_os":"Linux","password":true,"vac":true,"version":"7961495","steam_id":85568392925397959,"keywords":["nocrits","nodmgspread","payload","uncletopia"],"game_id":440,"stv_port":27056,"stv_name":"Uncletopia | Sydney | 5 | Stopwatch | STV","players":null},{"server_id":59,"name":"Uncletopia | Sydney | 6 | Community","name_short":"syd-6","host":"syd-1.au.uncletopia.com","port":27065,"enabled":true,"region":"au","cc":"au","latitude":-33.865143,"longitude":151.2099,"reserved":0,"last_update":"0001-01-01T00:00:00Z","name_a2s":"Uncletopia | Sydney | 6 | Community","protocol":17,"map":"cp_sunshine","folder":"tf","game":"Team Fortress","app_id":440,"player_count":0,"max_players":24,"Bots":0,"server_type":"Dedicated","server_os":"Linux","password":true,"vac":true,"version":"7961495","steam_id":85568392925397960,"keywords":["cp","nocrits","nodmgspread","uncletopia"],"game_id":440,"stv_port":27066,"stv_name":"Uncletopia | Sydney | 6 | Community | STV","players":null},{"server_id":49,"name":"Uncletopia | Warsaw | 1 | One Thousand Uncles","name_short":"waw-1","host":"waw-1.pl.uncletopia.com","port":27015,"enabled":true,"region":"eu","cc":"pl","latitude":52.2297,"longitude":21.017532,"reserved":0,"last_update":"0001-01-01T00:00:00Z","name_a2s":"Uncletopia | Warsaw | 1 | One Thousand Uncles","protocol":17,"map":"pl_pier","folder":"tf","game":"Team Fortress","app_id":440,"player_count":0,"max_players":32,"Bots":0,"server_type":"Dedicated","server_os":"Linux","password":true,"vac":true,"version":"7961495","steam_id":85568392925397850,"keywords":["alltalk","danepve","increased_maxplayers","nocrits","norespawntime","payload","uncletopia"],"game_id":440,"stv_port":0,"stv_name":"","players":null},{"server_id":50,"name":"Uncletopia | Warsaw | 2 | One Thousand Uncles","name_short":"waw-2","host":"waw-1.pl.uncletopia.com","port":27025,"enabled":true,"region":"eu","cc":"pl","latitude":52.2297,"longitude":21.017532,"reserved":0,"last_update":"0001-01-01T00:00:00Z","name_a2s":"Uncletopia | Warsaw | 2 | One Thousand Uncles","protocol":17,"map":"pl_upward","folder":"tf","game":"Team Fortress","app_id":440,"player_count":0,"max_players":32,"Bots":0,"server_type":"Dedicated","server_os":"Linux","password":true,"vac":true,"version":"7961495","steam_id":85568392925397851,"keywords":["alltalk","danepve","increased_maxplayers","nocrits","norespawntime","payload","uncletopia"],"game_id":440,"stv_port":0,"stv_name":"","players":null},{"server_id":51,"name":"Uncletopia | Warsaw | 3 | All Maps","name_short":"waw-3","host":"waw-1.pl.uncletopia.com","port":27035,"enabled":true,"region":"eu","cc":"pl","latitude":52.2297,"longitude":21.017532,"reserved":0,"last_update":"0001-01-01T00:00:00Z","name_a2s":"Uncletopia | Warsaw | 3 | All Maps","protocol":17,"map":"plr_pipeline","folder":"tf","game":"Team Fortress","app_id":440,"player_count":0,"max_players":24,"Bots":0,"server_type":"Dedicated","server_os":"Linux","password":true,"vac":true,"version":"7961495","steam_id":85568392925397852,"keywords":["nocrits","nodmgspread","payload","uncletopia"],"game_id":440,"stv_port":27036,"stv_name":"Uncletopia | Warsaw | 3 | All Maps | STV","players":null},{"server_id":52,"name":"Uncletopia | Warsaw | 4 | All Maps","name_short":"waw-4","host":"waw-1.pl.uncletopia.com","port":27045,"enabled":true,"region":"eu","cc":"pl","latitude":52.2297,"longitude":21.017532,"reserved":0,"last_update":"0001-01-01T00:00:00Z","name_a2s":"Uncletopia | Warsaw | 4 | All Maps","protocol":17,"map":"koth_cascade","folder":"tf","game":"Team Fortress","app_id":440,"player_count":0,"max_players":24,"Bots":0,"server_type":"Dedicated","server_os":"Linux","password":true,"vac":true,"version":"7961495","steam_id":85568392925397853,"keywords":["cp","nocrits","nodmgspread","uncletopia"],"game_id":440,"stv_port":27046,"stv_name":"Uncletopia | Warsaw | 4 | All Maps | STV","players":null},{"server_id":53,"name":"Uncletopia | Warsaw | 5 | Stopwatch","name_short":"waw-5","host":"waw-1.pl.uncletopia.com","port":27055,"enabled":true,"region":"eu","cc":"pl","latitude":52.2297,"longitude":21.017532,"reserved":0,"last_update":"0001-01-01T00:00:00Z","name_a2s":"Uncletopia | Warsaw | 5 | Stopwatch","protocol":17,"map":"workshop/koth_ashville_final.ugc2130459942","folder":"tf","game":"Team Fortress","app_id":440,"player_count":0,"max_players":24,"Bots":0,"server_type":"Dedicated","server_os":"Linux","password":true,"vac":true,"version":"7961495","steam_id":85568392925397854,"keywords":["cp","nocrits","nodmgspread","uncletopia"],"game_id":440,"stv_port":27056,"stv_name":"Uncletopia | Warsaw | 5 | Stopwatch | STV","players":null},{"server_id":54,"name":"Uncletopia | Warsaw | 6 | Community","name_short":"waw-6","host":"waw-1.pl.uncletopia.com","port":27065,"enabled":true,"region":"eu","cc":"pl","latitude":52.2297,"longitude":21.017532,"reserved":0,"last_update":"0001-01-01T00:00:00Z","name_a2s":"Uncletopia | Warsaw | 6 | Community","protocol":17,"map":"workshop/cp_propaganda_b18.ugc1603743849","folder":"tf","game":"Team Fortress","app_id":440,"player_count":0,"max_players":24,"Bots":0,"server_type":"Dedicated","server_os":"Linux","password":true,"vac":true,"version":"7961495","steam_id":85568392925397856,"keywords":["cp","nocrits","nodmgspread","uncletopia"],"game_id":440,"stv_port":27066,"stv_name":"Uncletopia | Warsaw | 6 | Community | STV","players":null}]}