{"status":true,"message":"","result":[{"server_id":9,"name":"Uncletopia | Atlanta | 1 | All Maps","name_short":"atl-1","host":"atl-1.us.uncletopia.com","port":27015,"enabled":true,"region":"us-east","cc":"us","latitude":33.753746,"longitude":-84.38633,"reserved":0,"last_update":"0001-01-01T00:00:00Z","name_a2s":"Uncletopia | Atlanta | 1 | All Maps","protocol":17,"map":"pl_snowycoast","folder":"tf","game":"Team Fortress","app_id":440,"player_count":24,"max_players":24,"Bots":0,"server_type":"Dedicated","server_os":"Linux","password":true,"vac":true,"version":"7757534","steam_id":85568392924469982,"keywords":["nocrits","nodmgspread","payload","uncletopia"],"game_id":440,"stv_port":27016,"stv_name":"Uncletopia | Atlanta | 1 | All Maps | STV","players":[{"user_id":723,"name":"eepy buppy","steam_id":76561199157846537,"connected_time":122000000000,"state":"active","ping":82},{"user_id":705,"name":"Remember Buscemi","steam_id":76561198141832292,"connected_time":1547000000000,"state":"active","ping":111},{"user_id":692,"name":"Tough Puffin","steam_id":76561198024011010,"connected_time":2243000000000,"state":"active","ping":91},{"user_id":706,"name":"marijuanero","steam_id":76561199061380038,"connected_time":1532000000000,"state":"active","ping":59},{"user_id":713,"name":"xthyl","steam_id":76561199361299006,"connected_time":1091000000000,"state":"active","ping":101},{"user_id":715,"name":"dzcreeper","steam_id":76561198072250723,"connected_time":1010000000000,"state":"active","ping":120},{"user_id":693,"name":"Dr.BendyBones","steam_id":76561198048846641,"connected_time":2200000000000,"state":"active","ping":70},{"user_id":716,"name":"oomoo","steam_id":76561198328618417,"connected_time":971000000000,"state":"active","ping":100},{"user_id":709,"name":"lucas","steam_id":76561198067751541,"connected_time":1485000000000,"state":"active","ping":56},{"user_id":724,"name":"Letter \"1\"","steam_id":76561198295280927,"connected_time":5000000000,"state":"spawning","ping":81},{"user_id":687,"name":"Training Arc","steam_id":76561198038832034,"connected_time":2406000000000,"state":"active","ping":112},{"user_id":714,"name":"SkrubWrecker","steam_id":76561198044717015,"connected_time":1089000000000,"state":"active","ping":53},{"user_id":691,"name":"abomination","steam_id":76561198167974713,"connected_time":2260000000000,"state":"active","ping":50},{"user_id":689,"name":"singular brain celled organism","steam_id":76561198042508469,"connected_time":2342000000000,"state":"active","ping":105},{"user_id":711,"name":"phfez","steam_id":76561198046150386,"connected_time":1373000000000,"state":"active","ping":60},{"user_id":717,"name":"Monster","steam_id":76561198189429665,"connected_time":924000000000,"state":"active","ping":59},{"user_id":702,"name":"lil hog","steam_id":76561199230929836,"connected_time":1719000000000,"state":"active","ping":83},{"user_id":696,"name":"IMM0RTAL","steam_id":76561198013747901,"connected_time":2064000000000,"state":"active","ping":67},{"user_id":721,"name":"ESS Cinderace:)","steam_id":76561198132899671,"connected_time":589000000000,"state":"active","ping":80},{"user_id":670,"name":"2 silly 2 care","steam_id":76561198112457732,"connected_time":3827000000000,"state":"active","ping":63},{"user_id":697,"name":"chexo4","steam_id":76561198150532531,"connected_time":2052000000000,"state":"active","ping":51},{"user_id":704,"name":"BIG HOG","steam_id":76561198079923652,"connected_time":1592000000000,"state":"active","ping":69},{"user_id":722,"name":"Mr.Phil","steam_id":76561198042801033,"connected_time":177000000000,"state":"active","ping":74},{"user_id":720,"name":"autistic enby","steam_id":76561198440145948,"connected_time":708000000000,"state":"active","ping":63}]},{"server_id":104,"name":"Uncletopia | Atlanta | 2 | All Maps","name_short":"atl-2","host":"atl-1.us.uncletopia.com","port":27025,"enabled":true,"region":"us-east","cc":"us","latitude":33.753746,"longitude":-84.38633,"reserved":0,"last_update":"0001-01-01T00:00:00Z","name_a2s":"Uncletopia | Atlanta | 2 | All Maps","protocol":17,"map":"pl_barnblitz","folder":"tf","game":"Team Fortress","app_id":440,"player_count":0,"max_players":24,"Bots":0,"server_type":"Dedicated","server_os":"Linux","password":true,"vac":true,"version":"7757534","steam_id":85568392924469983,"keywords":["nocrits","nodmgspread","payload","uncletopia"],"game_id":440,"stv_port":27026,"stv_name":"Uncletopia | Atlanta | 2 | All Maps | STV","players":null},{"server_id":400,"name":"Uncletopia | Atlanta | 3 | Community","name_short":"atl-3","host":"atl-1.us.uncletopia.com","port":27035,"enabled":true,"region":"us-east","cc":"us","latitude":33.753746,"longitude":-84.38633,"reserved":0,"last_update":"0001-01-01T00:00:00Z","name_a2s":"Uncletopia | Atlanta | 3 | Community","protocol":17,"map":"workshop/cp_reckoner_rc6.ugc674719999","folder":"tf","game":"Team Fortress","app_id":440,"player_count":0,"max_players":24,"Bots":0,"server_type":"Dedicated","server_os":"Linux","password":true,"vac":true,"version":"7757534","steam_id":85568392924515187,"keywords":["cp","nocrits","nodmgspread","uncletopia"],"game_id":440,"stv_port":27036,"stv_name":"Uncletopia | Atlanta | 3 | Community | STV","players":null},{"server_id":401,"name":"Uncletopia | Atlanta | 4 | No Payload","name_short":"atl-4","host":"atl-1.us.uncletopia.com","port":27045,"enabled":true,"region":"us-east","cc":"us","latitude":33.753746,"longitude":-84.38633,"reserved":0,"last_update":"0001-01-01T00:00:00Z","name_a2s":"","protocol":0,"map":"","folder":"","game":"","app_id":0,"player_count":0,"max_players":0,"Bots":0,"server_type":"","server_os":"","password":false,"vac":false,"version":"","steam_id":0,"keywords":null,"game_id":0,"stv_port":0,"stv_name":"","players":null},{"server_id":2,"name":"Uncletopia | Chicago | 1 | All Maps","name_short":"chi-1","host":"chi-1.us.uncletopia.com","port":27015,"enabled":true,"region":"us-central","cc":"us","latitude":41.881832,"longitude":-87.62318,"reserved":0,"last_update":"0001-01-01T00:00:00Z","name_a2s":"Uncletopia | Chicago | 1 | All Maps","protocol":17,"map":"cp_sunshine","folder":"tf","game":"Team Fortress","app_id":440,"player_count":0,"max_players":24,"Bots":0,"server_type":"Dedicated","server_os":"Linux","password":true,"vac":true,"version":"7757534","steam_id":85568392924469984,"keywords":["cp","nocrits","nodmgspread","uncletopia"],"game_id":440,"stv_port":27016,"stv_name":"Uncletopia | Chicago | 1 | All Maps | STV","players":null},{"server_id":106,"name":"Uncletopia | Chicago | 2 | All Maps","name_short":"chi-2","host":"chi-1.us.uncletopia.com","port":27025,"enabled":true,"region":"us-central","cc":"us","latitude":41.881832,"longitude":-87.62318,"reserved":0,"last_update":"0001-01-01T00:00:00Z","name_a2s":"Uncletopia | Chicago | 2 | All Maps","protocol":17,"map":"pl_snowycoast","folder":"tf","game":"Team Fortress","app_id":440,"player_count":24,"max_players":24,"Bots":0,"server_type":"Dedicated","server_os":"Linux","password":true,"vac":true,"version":"7757534","steam_id":85568392924469985,"keywords":["nocrits","nodmgspread","payload","uncletopia"],"game_id":440,"stv_port":27026,"stv_name":"Uncletopia | Chicago | 2 | All Maps | STV","players":[{"user_id":530,"name":"Venom","steam_id":76561198067770671,"connected_time":864000000000,"state":"active","ping":86},{"user_id":534,"name":"Kayen","steam_id":76561199052353511,"connected_time":513000000000,"state":"active","ping":174},{"user_id":531,"name":"Tito","steam_id":76561198041702529,"connected_time":816000000000,"state":"active","ping":82},{"user_id":522,"name":"sweaterfan","steam_id":76561199389567214,"connected_time":1329000000000,"state":"active","ping":62},{"user_id":490,"name":"ansoonii","steam_id":76561198092494136,"connected_time":3302000000000,"state":"active","ping":61},{"user_id":511,"name":"indec","steam_id":76561198978404397,"connected_time":2268000000000,"state":"active","ping":115},{"user_id":532,"name":"Arrythmia","steam_id":76561198093748123,"connected_time":776000000000,"state":"active","ping":98},{"user_id":452,"name":"GPG me,ow #handsfree","steam_id":76561198056158882,"connected_time":6454000000000,"state":"active","ping":81},{"user_id":474,"name":"reis","steam_id":76561199232952016,"connected_time":4545000000000,"state":"active","ping":180},{"user_id":533,"name":"rad","steam_id":76561198413125750,"connected_time":601000000000,"state":"active","ping":66},{"user_id":526,"name":"Jarlpy","steam_id":76561198193905778,"connected_time":1114000000000,"state":"active","ping":76},{"user_id":520,"name":"LilJonny","steam_id":76561198185250439,"connected_time":1701000000000,"state":"active","ping":114},{"user_id":516,"name":"worldclass.DEMON","steam_id":76561199467227500,"connected_time":1931000000000,"state":"active","ping":92},{"user_id":509,"name":"BootleG_Bill","steam_id":76561198197197163,"connected_time":2386000000000,"state":"active","ping":77},{"user_id":529,"name":"Cuphead","steam_id":76561198211892779,"connected_time":1019000000000,"state":"active","ping":60},{"user_id":535,"name":"juntsmoka","steam_id":76561198056950607,"connected_time":379000000000,"state":"active","ping":87},{"user_id":537,"name":"THE FUN RUNNER","steam_id":76561198001000995,"connected_time":230000000000,"state":"active","ping":58},{"user_id":498,"name":"lucil3 on Bandcamp","steam_id":76561198149063013,"connected_time":3173000000000,"state":"active","ping":64},{"user_id":528,"name":"LUNTKICCER","steam_id":76561198019740347,"connected_time":1067000000000,"state":"active","ping":78},{"user_id":521,"name":"SLOPPY BLOWJOB DEVIL","steam_id":76561198819545533,"connected_time":1336000000000,"state":"active","ping":54},{"user_id":456,"name":"meowp #handsfree","steam_id":76561198328824242,"connected_time":6387000000000,"state":"active","ping":142},{"user_id":464,"name":"kiseek","steam_id":76561198075474088,"connected_time":5856000000000,"state":"active","ping":88},{"user_id":536,"name":"Faraday","steam_id":76561198089928357,"connected_time":274000000000,"state":"active","ping":74},{"user_id":508,"name":"Resistance","steam_id":76561198146782074,"connected_time":2503000000000,"state":"active","ping":59}]},{"server_id":402,"name":"Uncletopia | Chicago | 3 | All Maps","name_short":"chi-3","host":"chi-1.us.uncletopia.com","port":27035,"enabled":true,"region":"us-central","cc":"us","latitude":41.881832,"longitude":-87.62318,"reserved":0,"last_update":"0001-01-01T00:00:00Z","name_a2s":"Uncletopia | Chicago | 3 | All Maps","protocol":17,"map":"cp_mountainlab","folder":"tf","game":"Team Fortress","app_id":440,"player_count":0,"max_players":24,"Bots":0,"server_type":"Dedicated","server_os":"Linux","password":true,"vac":true,"version":"7757534","steam_id":85568392924515191,"keywords":["cp","nocrits","nodmgspread","uncletopia"],"game_id":440,"stv_port":27036,"stv_name":"Uncletopia | Chicago | 3 | All Maps | STV","players":null},{"server_id":403,"name":"Uncletopia | Chicago | 4 | All Maps","name_short":"chi-4","host":"chi-1.us.uncletopia.com","port":27045,"enabled":true,"region":"us-central","cc":"us","latitude":41.881832,"longitude":-87.62318,"reserved":0,"last_update":"0001-01-01T00:00:00Z","name_a2s":"Uncletopia | Chicago | 4 | All Maps","protocol":17,"map":"koth_highpass","folder":"tf","game":"Team Fortress","app_id":440,"player_count":0,"max_players":24,"Bots":0,"server_type":"Dedicated","server_os":"Linux","password":true,"vac":true,"version":"7757534","steam_id":85568392924515193,"keywords":["cp","nocrits","nodmgspread","uncletopia"],"game_id":440,"stv_port":27046,"stv_name":"Uncletopia | Chicago | 4 | All Maps | STV","players":null},{"server_id":36,"name":"Uncletopia | Chicago | 5 | All Maps","name_short":"chi-5","host":"chi-2.us.uncletopia.com","port":27015,"enabled":true,"region":"us-central","cc":"us","latitude":41.881832,"longitude":-87.62318,"reserved":0,"last_update":"0001-01-01T00:00:00Z","name_a2s":"Uncletopia | Chicago | 5 | All Maps","protocol":17,"map":"pl_frontier_final","folder":"tf","game":"Team Fortress","app_id":440,"player_count":0,"max_players":24,"Bots":0,"server_type":"Dedicated","server_os":"Linux","password":true,"vac":true,"version":"7757534","steam_id":85568392924866362,"keywords":["nocrits","nodmgspread","payload","uncletopia"],"game_id":440,"stv_port":27016,"stv_name":"Uncletopia | Chicago | 5 | All Maps | STV","players":null},{"server_id":37,"name":"Uncletopia | Chicago | 6 | All Maps","name_short":"chi-6","host":"chi-2.us.uncletopia.com","port":27025,"enabled":true,"region":"us-central","cc":"us","latitude":41.881832,"longitude":-87.62318,"reserved":0,"last_update":"0001-01-01T00:00:00Z","name_a2s":"Uncletopia | Chicago | 6 | All Maps","protocol":17,"map":"koth_viaduct","folder":"tf","game":"Team Fortress","app_id":440,"player_count":0,"max_players":24,"Bots":0,"server_type":"Dedicated","server_os":"Linux","password":true,"vac":true,"version":"7757534","steam_id":85568392924866363,"keywords":["cp","nocrits","nodmgspread","uncletopia"],"game_id":440,"stv_port":27026,"stv_name":"Uncletopia | Chicago | 6 | All Maps | STV","players":null},{"server_id":38,"name":"Uncletopia | Chicago | 7 | Stopwatch Beta","name_short":"chi-7","host":"chi-2.us.uncletopia.com","port":27035,"enabled":true,"region":"us-central","cc":"us","latitude":41.881832,"longitude":-87.62318,"reserved":0,"last_update":"0001-01-01T00:00:00Z","name_a2s":"Uncletopia | Chicago | 7 | Stopwatch Beta","protocol":17,"map":"pl_borneo","folder":"tf","game":"Team Fortress","app_id":440,"player_count":0,"max_players":24,"Bots":0,"server_type":"Dedicated","server_os":"Linux","password":true,"vac":true,"version":"7757534","steam_id":85568392924866364,"keywords":["nocrits","nodmgspread","payload","uncletopia"],"game_id":440,"stv_port":27036,"stv_name":"Uncletopia | Chicago | 7 | Stopwatch Beta | STV","players":null},{"server_id":39,"name":"Uncletopia | Chicago | 8 | Community","name_short":"chi-8","host":"chi-2.us.uncletopia.com","port":27045,"enabled":true,"region":"us-central","cc":"us","latitude":41.881832,"longitude":-87.62318,"reserved":0,"last_update":"0001-01-01T00:00:00Z","name_a2s":"Uncletopia | Chicago | 8 | Community","protocol":17,"map":"workshop/pl_divulgence_b4b.ugc2884808746","folder":"tf","game":"Team Fortress","app_id":440,"player_count":0,"max_players":24,"Bots":0,"server_type":"Dedicated","server_os":"Linux","password":true,"vac":true,"version":"7757534","steam_id":85568392924866365,"keywords":["nocrits","nodmgspread","payload","uncletopia"],"game_id":440,"stv_port":27046,"stv_name":"Uncletopia | Chicago | 8 | Community | STV","players":null},{"server_id":8,"name":"Uncletopia | Dallas | 1 | All Maps","name_short":"dal-1","host":"dal-1.us.uncletopia.com","port":27015,"enabled":true,"region":"us-central","cc":"us","latitude":32.779167,"longitude":-96.80889,"reserved":0,"last_update":"0001-01-01T00:00:00Z","name_a2s":"Uncletopia | Dallas | 1 | All Maps","protocol":17,"map":"plr_pipeline","folder":"tf","game":"Team Fortress","app_id":440,"player_count":22,"max_players":24,"Bots":0,"server_type":"Dedicated","server_os":"Linux","password":true,"vac":true,"version":"7757534","steam_id":85568392924469986,"keywords":["nocrits","nodmgspread","payload","uncletopia"],"game_id":440,"stv_port":27016,"stv_name":"Uncletopia | Dallas | 1 | All Maps | STV","players":[{"user_id":565,"name":"Buck","steam_id":76561198176738551,"connected_time":168000000000,"state":"active","ping":72},{"user_id":538,"name":"Bee's","steam_id":76561198041888432,"connected_time":1989000000000,"state":"active","ping":104},{"user_id":547,"name":"Kidjays","steam_id":76561198124941901,"connected_time":1590000000000,"state":"active","ping":83},{"user_id":561,"name":"Rin","steam_id":76561198151519157,"connected_time":610000000000,"state":"active","ping":41},{"user_id":492,"name":"Grink \"V.F\" da Boy","steam_id":76561197985230768,"connected_time":6439000000000,"state":"active","ping":95},{"user_id":524,"name":"kingofTOAST/ttv","steam_id":76561198079994110,"connected_time":3470000000000,"state":"active","ping":125},{"user_id":549,"name":"Barack Obama","steam_id":76561198214594128,"connected_time":1524000000000,"state":"active","ping":82},{"user_id":566,"name":"bosshead","steam_id":76561198104217565,"connected_time":141000000000,"state":"active","ping":62},{"user_id":498,"name":"cyal","steam_id":76561198080957000,"connected_time":5846000000000,"state":"active","ping":84},{"user_id":440,"name":"‡πñ€£€ú‚â´√ê!œü‚òæ‚òâ‚Ñõ√ê","steam_id":76561198095974361,"connected_time":9673000000000,"state":"active","ping":80},{"user_id":441,"name":"Devon","steam_id":76561198151801996,"connected_time":9650000000000,"state":"active","ping":76},{"user_id":554,"name":"Fart Smella","steam_id":76561198419066993,"connected_time":1180000000000,"state":"active","ping":114},{"user_id":536,"name":"seats","steam_id":76561197998756039,"connected_time":2088000000000,"state":"active","ping":74},{"user_id":555,"name":"Buckzinga","steam_id":76561198203129748,"connected_time":1161000000000,"state":"active","ping":179},{"user_id":519,"name":"Kirbothebrony","steam_id":76561198971911330,"connected_time":3899000000000,"state":"active","ping":68},{"user_id":567,"name":"2006Microsoft Intellisense Mous","steam_id":76561198085401931,"connected_time":58000000000,"state":"active","ping":58},{"user_id":564,"name":"Minchin52","steam_id":76561198043859747,"connected_time":203000000000,"state":"active","ping":74},{"user_id":517,"name":"Fibly","steam_id":76561198139522952,"connected_time":3979000000000,"state":"active","ping":45},{"user_id":530,"name":"PaleMemories","steam_id":76561197990074942,"connected_time":2977000000000,"state":"active","ping":86},{"user_id":531,"name":"Alternativity","steam_id":76561198119583924,"connected_time":2926000000000,"state":"active","ping":74},{"user_id":490,"name":"Type Three Dabeetus","steam_id":76561198062710038,"connected_time":6625000000000,"state":"active","ping":87},{"user_id":513,"name":"Quiver Cakes ._.","steam_id":76561198243155576,"connected_time":4830000000000,"state":"active","ping":75}]},{"server_id":108,"name":"Uncletopia | Dallas | 2 | All Maps","name_short":"dal-2","host":"dal-1.us.uncletopia.com","port":27025,"enabled":true,"region":"us-central","cc":"us","latitude":32.779167,"longitude":-96.80889,"reserved":0,"last_update":"0001-01-01T00:00:00Z","name_a2s":"Uncletopia | Dallas | 2 | All Maps","protocol":17,"map":"pl_barnblitz","folder":"tf","game":"Team Fortress","app_id":440,"player_count":0,"max_players":24,"Bots":0,"server_type":"Dedicated","server_os":"Linux","password":true,"vac":true,"version":"7757534","steam_id":85568392924469988,"keywords":["nocrits","nodmgspread","payload","uncletopia"],"game_id":440,"stv_port":27026,"stv_name":"Uncletopia | Dallas | 2 | All Maps | STV","players":null},{"server_id":5,"name":"Uncletopia | Frankfurt | 1 | All Maps","name_short":"frk-1","host":"frk-1.de.uncletopia.com","port":27015,"enabled":true,"region":"eu","cc":"de","latitude":50.110924,"longitude":8.682127,"reserved":0,"last_update":"0001-01-01T00:00:00Z","name_a2s":"Uncletopia | Frankfurt | 1 | All Maps","protocol":17,"map":"cp_sunshine","folder":"tf","game":"Team Fortress","app_id":440,"player_count":24,"max_players":24,"Bots":0,"server_type":"Dedicated","server_os":"Linux","password":true,"vac":true,"version":"7757534","steam_id":85568392924469989,"keywords":["cp","nocrits","nodmgspread","uncletopia"],"game_id":440,"stv_port":27016,"stv_name":"Uncletopia | Frankfurt | 1 | All Maps | STV","players":[{"user_id":61,"name":"2D","steam_id":76561199113659141,"connected_time":541000000000,"state":"active","ping":129},{"user_id":28,"name":"Falamp‚Ñ¢","steam_id":76561198300127856,"connected_time":2873000000000,"state":"active","ping":83},{"user_id":30,"name":"Cocane Concho","steam_id":76561198139690063,"connected_time":2454000000000,"state":"active","ping":48},{"user_id":49,"name":"Piquesque","steam_id":76561198286763046,"connected_time":1204000000000,"state":"active","ping":118},{"user_id":19,"name":"Jakk","steam_id":76561198041537908,"connected_time":3401000000000,"state":"active","ping":88},{"user_id":21,"name":"Nickel","steam_id":76561199037745941,"connected_time":3281000000000,"state":"active","ping":132},{"user_id":23,"name":"Mowelic","steam_id":76561198873641222,"connected_time":3226000000000,"state":"active","ping":76},{"user_id":58,"name":"Economic crisis","steam_id":76561198063562843,"connected_time":861000000000,"state":"active","ping":50},{"user_id":56,"name":"–í–∞–¥–∏–º –ö–∞–∫–∞—à–∫–∏–Ω","steam_id":76561198383509320,"connected_time":947000000000,"state":"active","ping":73},{"user_id":26,"name":"DarkFady","steam_id":76561198179099523,"connected_time":3038000000000,"state":"active","ping":102},{"user_id":43,"name":"Klonken","steam_id":76561197997906805,"connected_time":1660000000000,"state":"active","ping":75},{"user_id":32,"name":"Tilty üë•","steam_id":76561198141834089,"connected_time":2444000000000,"state":"active","ping":54},{"user_id":55,"name":"kamekame","steam_id":76561198047108054,"connected_time":964000000000,"state":"active","ping":105},{"user_id":34,"name":"Ethical Cannibalism","steam_id":76561198060638325,"connected_time":2347000000000,"state":"active","ping":43},{"user_id":35,"name":"Shark Petter","steam_id":76561198358801819,"connected_time":2182000000000,"state":"active","ping":60},{"user_id":59,"name":"artdss","steam_id":76561198853485124,"connected_time":804000000000,"state":"active","ping":70},{"user_id":47,"name":"Joy","steam_id":76561198155314925,"connected_time":1503000000000,"state":"active","ping":65},{"user_id":64,"name":"AsuX","steam_id":76561197990333289,"connected_time":312000000000,"state":"active","ping":61},{"user_id":60,"name":"Kek meister 8 mil","steam_id":76561197989904384,"connected_time":691000000000,"state":"active","ping":69},{"user_id":40,"name":"GoCommitGibby","steam_id":76561198853933595,"connected_time":1932000000000,"state":"active","ping":86},{"user_id":41,"name":"Shawty","steam_id":76561198158631465,"connected_time":1913000000000,"state":"active","ping":61},{"user_id":52,"name":"Kedy","steam_id":76561198308990457,"connected_time":1147000000000,"state":"active","ping":95},{"user_id":44,"name":"on1on (julienned)","steam_id":76561197995304137,"connected_time":1650000000000,"state":"active","ping":58},{"user_id":46,"name":"piss‚Ñ¢","steam_id":76561198108098760,"connected_time":1551000000000,"state":"active","ping":56}]},{"server_id":110,"name":"Uncletopia | Frankfurt | 2 | All Maps","name_short":"frk-2","host":"frk-1.de.uncletopia.com","port":27025,"enabled":true,"region":"eu","cc":"de","latitude":50.110924,"longitude":8.682127,"reserved":0,"last_update":"0001-01-01T00:00:00Z","name_a2s":"Uncletopia | Frankfurt | 2 | All Maps","protocol":17,"map":"cp_dustbowl","folder":"tf","game":"Team Fortress","app_id":440,"player_count":0,"max_players":24,"Bots":0,"server_type":"Dedicated","server_os":"Linux","password":true,"vac":true,"version":"7757534","steam_id":85568392924469990,"keywords":["cp","nocrits","nodmgspread","uncletopia"],"game_id":440,"stv_port":27026,"stv_name":"Uncletopia | Frankfurt | 2 | All Maps | STV","players":null},{"server_id":308,"name":"Uncletopia | Frankfurt | 3 | All Maps","name_short":"frk-3","host":"frk-1.de.uncletopia.com","port":27035,"enabled":true,"region":"eu","cc":"de","latitude":50.110924,"longitude":8.682127,"reserved":0,"last_update":"0001-01-01T00:00:00Z","name_a2s":"Uncletopia | Frankfurt | 3 | All Maps","protocol":17,"map":"pl_frontier_final","folder":"tf","game":"Team Fortress","app_id":440,"player_count":0,"max_players":24,"Bots":0,"server_type":"Dedicated","server_os":"Linux","password":true,"vac":true,"version":"7757534","steam_id":85568392924504274,"keywords":["nocrits","nodmgspread","payload","uncletopia"],"game_id":440,"stv_port":27036,"stv_name":"Uncletopia | Frankfurt | 3 | All Maps | STV","players":null},{"server_id":309,"name":"Uncletopia | Frankfurt | 4 | All Maps","name_short":"frk-4","host":"frk-1.de.uncletopia.com","port":27045,"enabled":true,"region":"eu","cc":"de","latitude":50.110924,"longitude":8.682127,"reserved":0,"last_update":"0001-01-01T00:00:00Z","name_a2s":"Uncletopia | Frankfurt | 4 | All Maps","protocol":17,"map":"koth_viaduct","folder":"tf","game":"Team Fortress","app_id":440,"player_count":0,"max_players":24,"Bots":0,"server_type":"Dedicated","server_os":"Linux","password":true,"vac":true,"version":"7757534","steam_id":85568392924504275,"keywords":["cp","nocrits","nodmgspread","uncletopia"],"game_id":440,"stv_port":27046,"stv_name":"Uncletopia | Frankfurt | 4 | All Maps | STV","players":null},{"server_id":310,"name":"Uncletopia | Frankfurt | 5 | All Maps","name_short":"frk-5","host":"frk-1.de.uncletopia.com","port":27055,"enabled":true,"region":"eu","cc":"de","latitude":50.110924,"longitude":8.682127,"reserved":0,"last_update":"0001-01-01T00:00:00Z","name_a2s":"Uncletopia | Frankfurt | 5 | All Maps","protocol":17,"map":"koth_lakeside_final","folder":"tf","game":"Team Fortress","app_id":440,"player_count":0,"max_players":24,"Bots":0,"server_type":"Dedicated","server_os":"Linux","password":true,"vac":true,"version":"7757534","steam_id":85568392924504277,"keywords":["cp","nocrits","nodmgspread","uncletopia"],"game_id":440,"stv_port":27056,"stv_name":"Uncletopia | Frankfurt | 5 | All Maps | STV","players":null},{"server_id":311,"name":"Uncletopia | Frankfurt | 6 | All Maps","name_short":"frk-6","host":"frk-1.de.uncletopia.com","port":27065,"enabled":true,"region":"eu","cc":"de","latitude":50.110924,"longitude":8.682127,"reserved":0,"last_update":"0001-01-01T00:00:00Z","name_a2s":"Uncletopia | Frankfurt | 6 | All Maps","protocol":17,"map":"pl_frontier_final","folder":"tf","game":"Team Fortress","app_id":440,"player_count":0,"max_players":24,"Bots":0,"server_type":"Dedicated","server_os":"Linux","password":true,"vac":true,"version":"7757534","steam_id":85568392924504278,"keywords":["nocrits","nodmgspread","payload","uncletopia"],"game_id":440,"stv_port":27066,"stv_name":"Uncletopia | Frankfurt | 6 | All Maps | STV","players":null},{"server_id":23,"name":"Uncletopia | Frankfurt | 7 | Stopwatch Beta","name_short":"frk-7","host":"frk-1.de.uncletopia.com","port":27075,"enabled":true,"region":"eu","cc":"de","latitude":50.110924,"longitude":8.682127,"reserved":0,"last_update":"0001-01-01T00:00:00Z","name_a2s":"Uncletopia | Frankfurt | 7 | Stopwatch Beta","protocol":17,"map":"cp_sunshine","folder":"tf","game":"Team Fortress","app_id":440,"player_count":0,"max_players":24,"Bots":0,"server_type":"Dedicated","server_os":"Linux","password":true,"vac":true,"version":"7757534","steam_id":85568392924742827,"keywords":["cp","nocrits","nodmgspread","uncletopia"],"game_id":440,"stv_port":27076,"stv_name":"Uncletopia | Frankfurt | 7 | Stopwatch Beta | STV","players":null},{"server_id":24,"name":"Uncletopia | Frankfurt | 8 | Community","name_short":"frk-8","host":"frk-1.de.uncletopia.com","port":27085,"enabled":true,"region":"eu","cc":"de","latitude":50.110924,"longitude":8.682127,"reserved":0,"last_update":"0001-01-01T00:00:00Z","name_a2s":"Uncletopia | Frankfurt | 8 | Community","protocol":17,"map":"koth_lakeside_final","folder":"tf","game":"Team Fortress","app_id":440,"player_count":0,"max_players":24,"Bots":0,"server_type":"Dedicated","server_os":"Linux","password":true,"vac":true,"version":"7757534","steam_id":85568392924742828,"keywords":["cp","nocrits","nodmgspread","uncletopia"],"game_id":440,"stv_port":27086,"stv_name":"Uncletopia | Frankfurt | 8 | Community | STV","players":null},{"server_id":202,"name":"Uncletopia | Hong Kong | 1 | All Maps","name_short":"hgk-1","host":"hgk-1.hk.uncletopia.com","port":27015,"enabled":true,"region":"asia","cc":"hk","latitude":22.302711,"longitude":114.177216,"reserved":0,"last_update":"0001-01-01T00:00:00Z","name_a2s":"Uncletopia | Hong Kong | 1 | All Maps","protocol":17,"map":"koth_highpass","folder":"tf","game":"Team Fortress","app_id":440,"player_count":0,"max_players":24,"Bots":0,"server_type":"Dedicated","server_os":"Linux","password":true,"vac":true,"version":"7757534","steam_id":85568392924494504,"keywords":["cp","nocrits","nodmgspread","uncletopia"],"game_id":440,"stv_port":27016,"stv_name":"Uncletopia | Hong Kong | 1 | All Maps | STV","players":null},{"server_id":1,"name":"Uncletopia | Los Angeles | 1 | All Maps","name_short":"lax-1","host":"lax-1.us.uncletopia.com","port":27015,"enabled":true,"region":"us-west","cc":"us","latitude":33.94279,"longitude":-118.41004,"reserved":0,"last_update":"0001-01-01T00:00:00Z","name_a2s":"Uncletopia | Los Angeles | 1 | All Maps","protocol":17,"map":"cp_altitude","folder":"tf","game":"Team Fortress","app_id":440,"player_count":0,"max_players":24,"Bots":0,"server_type":"Dedicated","server_os":"Linux","password":true,"vac":true,"version":"7757534","steam_id":85568392924469991,"keywords":["cp","nocrits","nodmgspread","uncletopia"],"game_id":440,"stv_port":27016,"stv_name":"Uncletopia | Los Angeles | 1 | All Maps | STV","players":null},{"server_id":112,"name":"Uncletopia | Los Angeles | 2 | All Maps","name_short":"lax-2","host":"lax-1.us.uncletopia.com","port":27025,"enabled":true,"region":"us-west","cc":"us","latitude":33.94279,"longitude":-118.41004,"reserved":0,"last_update":"0001-01-01T00:00:00Z","name_a2s":"Uncletopia | Los Angeles | 2 | All Maps","protocol":17,"map":"pl_badwater","folder":"tf","game":"Team Fortress","app_id":440,"player_count":23,"max_players":24,"Bots":0,"server_type":"Dedicated","server_os":"Linux","password":true,"vac":true,"version":"7757534","steam_id":85568392924469992,"keywords":["nocrits","nodmgspread","payload","uncletopia"],"game_id":440,"stv_port":27026,"stv_name":"Uncletopia | Los Angeles | 2 | All Maps | STV","players":[{"user_id":556,"name":"Spinomite","steam_id":76561198247491242,"connected_time":4207000000000,"state":"active","ping":100},{"user_id":560,"name":"Rei Ayanami","steam_id":76561198853092631,"connected_time":3766000000000,"state":"active","ping":94},{"user_id":604,"name":"silvestrelops","steam_id":76561198275189720,"connected_time":204000000000,"state":"active","ping":106},{"user_id":581,"name":"oil","steam_id":76561198099980149,"connected_time":3075000000000,"state":"active","ping":49},{"user_id":584,"name":"[SpookyMedium]","steam_id":76561198367247492,"connected_time":2859000000000,"state":"active","ping":129},{"user_id":568,"name":"fonz!E","steam_id":76561197987165510,"connected_time":3373000000000,"state":"active","ping":45},{"user_id":554,"name":"blozet","steam_id":76561199120161035,"connected_time":4247000000000,"state":"active","ping":146},{"user_id":602,"name":"Star_Mann_Jr.","steam_id":76561198071148924,"connected_time":583000000000,"state":"active","ping":71},{"user_id":593,"name":"kite man","steam_id":76561198156336213,"connected_time":1386000000000,"state":"active","ping":60},{"user_id":588,"name":"DaBeatGoOff?","steam_id":76561198106507400,"connected_time":2155000000000,"state":"active","ping":47},{"user_id":595,"name":"the rizzard of oz","steam_id":76561198108196753,"connected_time":1289000000000,"state":"active","ping":45},{"user_id":590,"name":"iNGNORX","steam_id":76561198807649258,"connected_time":2077000000000,"state":"active","ping":92},{"user_id":597,"name":"Frodo T Baggins","steam_id":76561198048090297,"connected_time":1123000000000,"state":"active","ping":131},{"user_id":570,"name":"Slumpbuster23","steam_id":76561198890029912,"connected_time":3343000000000,"state":"active","ping":47},{"user_id":598,"name":"Remaru","steam_id":76561198324711734,"connected_time":1089000000000,"state":"active","ping":88},{"user_id":607,"name":"God's not dead, I am.","steam_id":76561198840484105,"connected_time":68000000000,"state":"active","ping":101},{"user_id":582,"name":"Jubilee","steam_id":76561198842463239,"connected_time":3062000000000,"state":"active","ping":76},{"user_id":605,"name":"[ The World Machine ]","steam_id":76561198194569737,"connected_time":129000000000,"state":"active","ping":124},{"user_id":567,"name":"MrMeister","steam_id":76561198307194213,"connected_time":3484000000000,"state":"active","ping":128},{"user_id":599,"name":"curly fries","steam_id":76561198307969698,"connected_time":1081000000000,"state":"active","ping":45},{"user_id":600,"name":"Octo","steam_id":76561198024056355,"connected_time":945000000000,"state":"active","ping":47},{"user_id":601,"name":"x1x","steam_id":76561198068672882,"connected_time":855000000000,"state":"active","ping":56},{"user_id":587,"name":"Pro Box","steam_id":76561198035990809,"connected_time":2847000000000,"state":"active","ping":137}]},{"server_id":324,"name":"Uncletopia | Los Angeles | 3 | All Maps","name_short":"lax-3","host":"lax-1.us.uncletopia.com","port":27035,"enabled":true,"region":"us-west","cc":"us","latitude":33.94279,"longitude":-118.41004,"reserved":0,"last_update":"0001-01-01T00:00:00Z","name_a2s":"Uncletopia | Los Angeles | 3 | All Maps","protocol":17,"map":"koth_lakeside_final","folder":"tf","game":"Team Fortress","app_id":440,"player_count":0,"max_players":24,"Bots":0,"server_type":"Dedicated","server_os":"Linux","password":true,"vac":true,"version":"7757534","steam_id":85568392924510198,"keywords":["cp","nocrits","nodmgspread","uncletopia"],"game_id":440,"stv_port":27036,"stv_name":"Uncletopia | Los Angeles | 3 | All Maps | STV","players":null},{"server_id":25,"name":"Uncletopia | Los Angeles | 4 | Stopwatch Beta","name_short":"lax-4","host":"lax-1.us.uncletopia.com","port":27045,"enabled":true,"region":"us-west","cc":"us","latitude":33.94279,"longitude":-118.41004,"reserved":0,"last_update":"0001-01-01T00:00:00Z","name_a2s":"Uncletopia | Los Angeles | 4 | Stopwatch Beta","protocol":17,"map":"pl_swiftwater_final1","folder":"tf","game":"Team Fortress","app_id":440,"player_count":0,"max_players":24,"Bots":0,"server_type":"Dedicated","server_os":"Linux","password":true,"vac":true,"version":"7757534","steam_id":85568392924510199,"keywords":["nocrits","nodmgspread","payload","uncletopia"],"game_id":440,"stv_port":27046,"stv_name":"Uncletopia | Los Angeles | 4 | Stopwatch Beta | STV","players":null},{"server_id":11,"name":"Uncletopia | London | 1 | All Maps","name_short":"lon-1","host":"lon-1.uk.uncletopia.com","port":27015,"enabled":true,"region":"eu","cc":"gb","latitude":51.509865,"longitude":-0.118092,"reserved":0,"last_update":"0001-01-01T00:00:00Z","name_a2s":"Uncletopia | London | 1 | All Maps","protocol":17,"map":"koth_highpass","folder":"tf","game":"Team Fortress","app_id":440,"player_count":0,"max_players":24,"Bots":0,"server_type":"Dedicated","server_os":"Linux","password":true,"vac":true,"version":"7757534","steam_id":85568392924367362,"keywords":["cp","nocrits","nodmgspread","uncletopia"],"game_id":440,"stv_port":27016,"stv_name":"Uncletopia | London | 1 | All Maps | STV","players":null},{"server_id":114,"name":"Uncletopia | London | 2 | All Maps","name_short":"lon-2","host":"lon-1.uk.uncletopia.com","port":27025,"enabled":true,"region":"eu","cc":"gb","latitude":51.509865,"longitude":-0.118092,"reserved":0,"last_update":"0001-01-01T00:00:00Z","name_a2s":"Uncletopia | London | 2 | All Maps","protocol":17,"map":"pl_borneo","folder":"tf","game":"Team Fortress","app_id":440,"player_count":9,"max_players":24,"Bots":0,"server_type":"Dedicated","server_os":"Linux","password":true,"vac":true,"version":"7757534","steam_id":85568392924470941,"keywords":["nocrits","nodmgspread","payload","uncletopia"],"game_id":440,"stv_port":27026,"stv_name":"Uncletopia | London | 2 | All Maps | STV","players":[{"user_id":5,"name":"AnonTron","steam_id":76561199031895493,"connected_time":4909000000000,"state":"active","ping":204},{"user_id":10,"name":"mayonnaise of the escalator","steam_id":76561199093477280,"connected_time":1454000000000,"state":"active","ping":81},{"user_id":11,"name":"poshtoo @_@","steam_id":76561198106182078,"connected_time":1288000000000,"state":"active","ping":104},{"user_id":12,"name":"quadr","steam_id":76561198871716755,"connected_time":1232000000000,"state":"active","ping":116},{"user_id":13,"name":"Raivo","steam_id":76561198388750592,"connected_time":1015000000000,"state":"active","ping":68},{"user_id":14,"name":"gneeda","steam_id":76561198147249160,"connected_time":930000000000,"state":"active","ping":107},{"user_id":16,"name":"Anniquilator","steam_id":76561198344952248,"connected_time":734000000000,"state":"active","ping":64},{"user_id":17,"name":"Fus in Boots","steam_id":76561198053897722,"connected_time":663000000000,"state":"active","ping":58},{"user_id":20,"name":"thekoolest88","steam_id":76561199022415672,"connected_time":35000000000,"state":"active","ping":142}]},{"server_id":320,"name":"Uncletopia | London | 3 | All Maps","name_short":"lon-3","host":"lon-1.uk.uncletopia.com","port":27035,"enabled":true,"region":"eu","cc":"gb","latitude":51.509865,"longitude":-0.118092,"reserved":0,"last_update":"0001-01-01T00:00:00Z","name_a2s":"Uncletopia | London | 3 | All Maps","protocol":17,"map":"cp_dustbowl","folder":"tf","game":"Team Fortress","app_id":440,"player_count":0,"max_players":24,"Bots":0,"server_type":"Dedicated","server_os":"Linux","password":true,"vac":true,"version":"7757534","steam_id":85568392924510192,"keywords":["cp","nocrits","nodmgspread","uncletopia"],"game_id":440,"stv_port":27036,"stv_name":"Uncletopia | London | 3 | All Maps | STV","players":null},{"server_id":321,"name":"Uncletopia | London | 4 | All Maps","name_short":"lon-4","host":"lon-1.uk.uncletopia.com","port":27045,"enabled":true,"region":"eu","cc":"gb","latitude":51.509865,"longitude":-0.118092,"reserved":0,"last_update":"0001-01-01T00:00:00Z","name_a2s":"Uncletopia | London | 4 | All Maps","protocol":17,"map":"pl_swiftwater_final1","folder":"tf","game":"Team Fortress","app_id":440,"player_count":0,"max_players":24,"Bots":0,"server_type":"Dedicated","server_os":"Linux","password":true,"vac":true,"version":"7757534","steam_id":85568392924510193,"keywords":["nocrits","nodmgspread","payload","uncletopia"],"game_id":440,"stv_port":27046,"stv_name":"Uncletopia | London | 4 | All Maps | STV","players":null},{"server_id":21,"name":"Uncletopia | London | 5 | All Maps","name_short":"lon-5","host":"lon-1.uk.uncletopia.com","port":27055,"enabled":true,"region":"eu","cc":"gb","latitude":51.509865,"longitude":-0.118092,"reserved":0,"last_update":"0001-01-01T00:00:00Z","name_a2s":"Uncletopia | London | 5 | All Maps","protocol":17,"map":"cp_altitude","folder":"tf","game":"Team Fortress","app_id":440,"player_count":0,"max_players":24,"Bots":0,"server_type":"Dedicated","server_os":"Linux","password":true,"vac":true,"version":"7757534","steam_id":85568392924742829,"keywords":["cp","nocrits","nodmgspread","uncletopia"],"game_id":440,"stv_port":27056,"stv_name":"Uncletopia | London | 5 | All Maps | STV","players":null},{"server_id":22,"name":"Uncletopia | London | 6 | All Maps","name_short":"lon-6","host":"lon-1.uk.uncletopia.com","port":27065,"enabled":true,"region":"eu","cc":"gb","latitude":51.509865,"longitude":-0.118092,"reserved":0,"last_update":"0001-01-01T00:00:00Z","name_a2s":"Uncletopia | London | 6 | All Maps","protocol":17,"map":"cp_mountainlab","folder":"tf","game":"Team Fortress","app_id":440,"player_count":0,"max_players":24,"Bots":0,"server_type":"Dedicated","server_os":"Linux","password":true,"vac":true,"version":"7757534","steam_id":85568392924742830,"keywords":["cp","nocrits","nodmgspread","uncletopia"],"game_id":440,"stv_port":27066,"stv_name":"Uncletopia | London | 6 | All Maps | STV","players":null},{"server_id":40,"name":"Uncletopia | London | 7 | No Payload","name_short":"lon-7","host":"lon-1.uk.uncletopia.com","port":27075,"enabled":true,"region":"eu","cc":"gb","latitude":51.509865,"longitude":-0.118092,"reserved":0,"last_update":"0001-01-01T00:00:00Z","name_a2s":"Uncletopia | London | 7 | No Payload","protocol":17,"map":"koth_lakeside_final","folder":"tf","game":"Team Fortress","app_id":440,"player_count":0,"max_players":24,"Bots":0,"server_type":"Dedicated","server_os":"Linux","password":true,"vac":true,"version":"7757534","steam_id":85568392924964314,"keywords":["cp","nocrits","nodmgspread","uncletopia"],"game_id":440,"stv_port":27076,"stv_name":"Uncletopia | London | 7 | No Payload | STV","players":null},{"server_id":41,"name":"Uncletopia | London | 8 | Community","name_short":"lon-8","host":"lon-1.uk.uncletopia.com","port":27085,"enabled":true,"region":"eu","cc":"gb","latitude":51.509865,"longitude":-0.118092,"reserved":0,"last_update":"0001-01-01T00:00:00Z","name_a2s":"Uncletopia | London | 8 | Community","protocol":17,"map":"workshop/cp_glassworks_rc6a.ugc454118349","folder":"tf","game":"Team Fortress","app_id":440,"player_count":0,"max_players":24,"Bots":0,"server_type":"Dedicated","server_os":"Linux","password":true,"vac":true,"version":"7757534","steam_id":85568392924964315,"keywords":["cp","nocrits","nodmgspread","uncletopia"],"game_id":440,"stv_port":27086,"stv_name":"Uncletopia | London | 8 | Community | STV","players":null},{"server_id":300,"name":"Uncletopia | Montr√©al | 1 | All Maps","name_short":"mtl-1","host":"mtl-1.ca.uncletopia.com","port":27015,"enabled":true,"region":"us-east","cc":"ca","latitude":45.50889,"longitude":-73.56167,"reserved":0,"last_update":"0001-01-01T00:00:00Z","name_a2s":"Uncletopia | Montr√©al | 1 | All Maps","protocol":17,"map":"pl_badwater","folder":"tf","game":"Team Fortress","app_id":440,"player_count":0,"max_players":24,"Bots":0,"server_type":"Dedicated","server_os":"Linux","password":true,"vac":true,"version":"7757534","steam_id":85568392924500087,"keywords":["nocrits","nodmgspread","payload","uncletopia"],"game_id":440,"stv_port":27016,"stv_name":"Uncletopia | Montr√©al | 1 | All Maps | STV","players":null},{"server_id":301,"name":"Uncletopia | Montr√©al | 2 | All Maps","name_short":"mtl-2","host":"mtl-1.ca.uncletopia.com","port":27025,"enabled":true,"region":"us-east","cc":"ca","latitude":45.50889,"longitude":-73.56167,"reserved":0,"last_update":"0001-01-01T00:00:00Z","name_a2s":"Uncletopia | Montr√©al | 2 | All Maps","protocol":17,"map":"cp_altitude","folder":"tf","game":"Team Fortress","app_id":440,"player_count":0,"max_players":24,"Bots":0,"server_type":"Dedicated","server_os":"Linux","password":true,"vac":true,"version":"7757534","steam_id":85568392924500088,"keywords":["cp","nocrits","nodmgspread","uncletopia"],"game_id":440,"stv_port":27026,"stv_name":"Uncletopia | Montr√©al | 2 | All Maps | STV","players":null},{"server_id":302,"name":"Uncletopia | Montr√©al | 3 | All Maps","name_short":"mtl-3","host":"mtl-1.ca.uncletopia.com","port":27035,"enabled":true,"region":"us-east","cc":"ca","latitude":45.50889,"longitude":-73.56167,"reserved":0,"last_update":"0001-01-01T00:00:00Z","name_a2s":"Uncletopia | Montr√©al | 3 | All Maps","protocol":17,"map":"cp_mountainlab","folder":"tf","game":"Team Fortress","app_id":440,"player_count":0,"max_players":24,"Bots":0,"server_type":"Dedicated","server_os":"Linux","password":true,"vac":true,"version":"7757534","steam_id":85568392924500089,"keywords":["cp","nocrits","nodmgspread","uncletopia"],"game_id":440,"stv_port":27036,"stv_name":"Uncletopia | Montr√©al | 3 | All Maps | STV","players":null},{"server_id":303,"name":"Uncletopia | Montr√©al | 4 | No Payload","name_short":"mtl-4","host":"mtl-1.ca.uncletopia.com","port":27045,"enabled":true,"region":"us-east","cc":"ca","latitude":45.50889,"longitude":-73.56167,"reserved":0,"last_update":"0001-01-01T00:00:00Z","name_a2s":"Uncletopia | Montr√©al | 4 | No Payload","protocol":17,"map":"cp_gravelpit","folder":"tf","game":"Team Fortress","app_id":440,"player_count":0,"max_players":24,"Bots":0,"server_type":"Dedicated","server_os":"Linux","password":true,"vac":true,"version":"7757534","steam_id":85568392924500090,"keywords":["cp","nocrits","nodmgspread","uncletopia"],"game_id":440,"stv_port":27046,"stv_name":"Uncletopia | Montr√©al | 4 | No Payload | STV","players":null},{"server_id":13,"name":"Uncletopia | New York City | 1 | All Maps","name_short":"nyc-1","host":"nyc-1.us.uncletopia.com","port":27015,"enabled":true,"region":"us-east","cc":"us","latitude":40.73061,"longitude":-73.93524,"reserved":0,"last_update":"0001-01-01T00:00:00Z","name_a2s":"Uncletopia | New York City | 1 | All Maps","protocol":17,"map":"koth_viaduct","folder":"tf","game":"Team Fortress","app_id":440,"player_count":0,"max_players":24,"Bots":0,"server_type":"Dedicated","server_os":"Linux","password":true,"vac":true,"version":"7757534","steam_id":85568392924469993,"keywords":["cp","nocrits","nodmgspread","uncletopia"],"game_id":440,"stv_port":27016,"stv_name":"Uncletopia | New York City | 1 | All Maps | STV","players":null},{"server_id":14,"name":"Uncletopia | New York City | 2 | All Maps","name_short":"nyc-2","host":"nyc-1.us.uncletopia.com","port":27025,"enabled":true,"region":"us-east","cc":"us","latitude":40.73061,"longitude":-73.93524,"reserved":0,"last_update":"0001-01-01T00:00:00Z","name_a2s":"Uncletopia | New York City | 2 | All Maps","protocol":17,"map":"pl_snowycoast","folder":"tf","game":"Team Fortress","app_id":440,"player_count":0,"max_players":24,"Bots":0,"server_type":"Dedicated","server_os":"Linux","password":true,"vac":true,"version":"7757534","steam_id":85568392924469994,"keywords":["nocrits","nodmgspread","payload","uncletopia"],"game_id":440,"stv_port":27026,"stv_name":"Uncletopia | New York City | 2 | All Maps | STV","players":null},{"server_id":15,"name":"Uncletopia | New York City | 3 | Stopwatch Beta","name_short":"nyc-3","host":"nyc-1.us.uncletopia.com","port":27035,"enabled":true,"region":"us-east","cc":"us","latitude":40.73061,"longitude":-73.93524,"reserved":0,"last_update":"0001-01-01T00:00:00Z","name_a2s":"Uncletopia | New York City | 3 | Stopwatch Beta","protocol":17,"map":"workshop/koth_clearcut_b15.ugc2107050255","folder":"tf","game":"Team Fortress","app_id":440,"player_count":0,"max_players":24,"Bots":0,"server_type":"Dedicated","server_os":"Linux","password":true,"vac":true,"version":"7757534","steam_id":85568392924742820,"keywords":["cp","nocrits","nodmgspread","uncletopia"],"game_id":440,"stv_port":27036,"stv_name":"Uncletopia | New York City | 3 | Stopwatch Beta | STV","players":null},{"server_id":16,"name":"Uncletopia | New York City | 4 | Community","name_short":"nyc-4","host":"nyc-1.us.uncletopia.com","port":27045,"enabled":true,"region":"us-east","cc":"us","latitude":40.73061,"longitude":-73.93524,"reserved":0,"last_update":"0001-01-01T00:00:00Z","name_a2s":"Uncletopia | New York City | 4 | Community","protocol":17,"map":"workshop/cp_reckoner_rc6.ugc674719999","folder":"tf","game":"Team Fortress","app_id":440,"player_count":0,"max_players":24,"Bots":0,"server_type":"Dedicated","server_os":"Linux","password":true,"vac":true,"version":"7757534","steam_id":85568392924742821,"keywords":["cp","nocrits","nodmgspread","uncletopia"],"game_id":440,"stv_port":27046,"stv_name":"Uncletopia | New York City | 4 | Community | STV","players":null},{"server_id":142,"name":"Uncletopia | S√£o Paulo | 1 | All Maps","name_short":"sao-1","host":"sao-1.br.uncletopia.com","port":27015,"enabled":true,"region":"sa","cc":"br","latitude":-23.533773,"longitude":-46.62529,"reserved":0,"last_update":"0001-01-01T00:00:00Z","name_a2s":"Uncletopia | S√£o Paulo | 1 | All Maps","protocol":17,"map":"koth_lakeside_final","folder":"tf","game":"Team Fortress","app_id":440,"player_count":0,"max_players":24,"Bots":0,"server_type":"Dedicated","server_os":"Linux","password":true,"vac":true,"version":"7757534","steam_id":85568392924469996,"keywords":["cp","nocrits","nodmgspread","uncletopia"],"game_id":440,"stv_port":27016,"stv_name":"Uncletopia | S√£o Paulo | 1 | All Maps | STV","players":null},{"server_id":143,"name":"Uncletopia | S√£o Paulo | 2 | All Maps","name_short":"sao-2","host":"sao-2.br.uncletopia.com","port":27015,"enabled":true,"region":"sa","cc":"br","latitude":-23.533773,"longitude":-46.62529,"reserved":0,"last_update":"0001-01-01T00:00:00Z","name_a2s":"Uncletopia | S√£o Paulo | 2 | All Maps","protocol":17,"map":"pl_borneo","folder":"tf","game":"Team Fortress","app_id":440,"player_count":0,"max_players":24,"Bots":0,"server_type":"Dedicated","server_os":"Linux","password":true,"vac":true,"version":"7757534","steam_id":85568392924485349,"keywords":["nocrits","nodmgspread","payload","uncletopia"],"game_id":440,"stv_port":27016,"stv_name":"Uncletopia | S√£o Paulo | 2 | All Maps | STV","players":null},{"server_id":7,"name":"Uncletopia | Seattle | 1 | All Maps","name_short":"sea-1","host":"sea-1.us.uncletopia.com","port":27015,"enabled":true,"region":"us-west","cc":"us","latitude":47.608013,"longitude":-122.33517,"reserved":0,"last_update":"0001-01-01T00:00:00Z","name_a2s":"Uncletopia | Seattle | 1 | All Maps","protocol":17,"map":"pl_swiftwater_final1","folder":"tf","game":"Team Fortress","app_id":440,"player_count":23,"max_players":24,"Bots":0,"server_type":"Dedicated","server_os":"Linux","password":true,"vac":true,"version":"7757534","steam_id":85568392924469997,"keywords":["nocrits","nodmgspread","payload","uncletopia"],"game_id":440,"stv_port":27016,"stv_name":"Uncletopia | Seattle | 1 | All Maps | STV","players":[{"user_id":803,"name":"SadFapping","steam_id":76561198076651049,"connected_time":5511000000000,"state":"active","ping":55},{"user_id":822,"name":"Raizen","steam_id":76561199092445367,"connected_time":2760000000000,"state":"active","ping":94},{"user_id":831,"name":"lavender","steam_id":76561199069518286,"connected_time":2241000000000,"state":"active","ping":66},{"user_id":845,"name":"Mormon Discoball","steam_id":76561198028006216,"connected_time":63000000000,"state":"active","ping":75},{"user_id":818,"name":"Chickey Cantor","steam_id":76561198028049904,"connected_time":3644000000000,"state":"active","ping":66},{"user_id":840,"name":"imtoofadedicantevendapuup","steam_id":76561198180372310,"connected_time":770000000000,"state":"active","ping":59},{"user_id":810,"name":"twitch.tv/abaddon_amog","steam_id":76561198268581959,"connected_time":4199000000000,"state":"active","ping":64},{"user_id":838,"name":"mike, buying 20 barefoots","steam_id":76561198225411004,"connected_time":804000000000,"state":"active","ping":69},{"user_id":802,"name":"skogg yenseii","steam_id":76561198304265800,"connected_time":5972000000000,"state":"active","ping":89},{"user_id":833,"name":"Puskinti","steam_id":76561198032120688,"connected_time":1604000000000,"state":"active","ping":64},{"user_id":832,"name":"kibben","steam_id":76561198222386220,"connected_time":2234000000000,"state":"active","ping":45},{"user_id":841,"name":"iivy","steam_id":76561198068464819,"connected_time":331000000000,"state":"active","ping":55},{"user_id":842,"name":"The unusually unusual demo","steam_id":76561198203262371,"connected_time":276000000000,"state":"active","ping":91},{"user_id":844,"name":"RURU","steam_id":76561198039758987,"connected_time":115000000000,"state":"active","ping":45},{"user_id":846,"name":"Jack Horner in a F-16","steam_id":76561198062438923,"connected_time":60000000000,"state":"spawning","ping":108},{"user_id":847,"name":"Cosmic","steam_id":76561199210717085,"connected_time":57000000000,"state":"active","ping":108},{"user_id":830,"name":"roryisonamobilehotspot","steam_id":76561198065825165,"connected_time":2245000000000,"state":"active","ping":117},{"user_id":848,"name":"walmart #DIGWIN","steam_id":76561198055089667,"connected_time":44000000000,"state":"active","ping":45},{"user_id":849,"name":"dAiLyGrInD","steam_id":76561198163531915,"connected_time":22000000000,"state":"active","ping":127},{"user_id":850,"name":"whammy","steam_id":76561198978665598,"connected_time":18000000000,"state":"spawning","ping":63},{"user_id":816,"name":"SideO'theHill","steam_id":76561198048613807,"connected_time":4087000000000,"state":"active","ping":58},{"user_id":817,"name":"hart","steam_id":76561198046073848,"connected_time":4080000000000,"state":"active","ping":46},{"user_id":724,"name":"p9 jorts weed syrup","steam_id":76561199041179985,"connected_time":14669000000000,"state":"active","ping":67}]},{"server_id":119,"name":"Uncletopia | Seattle | 2 | All Maps","name_short":"sea-2","host":"sea-1.us.uncletopia.com","port":27025,"enabled":true,"region":"us-west","cc":"us","latitude":47.608013,"longitude":-122.33517,"reserved":0,"last_update":"0001-01-01T00:00:00Z","name_a2s":"Uncletopia | Seattle | 2 | All Maps","protocol":17,"map":"pl_borneo","folder":"tf","game":"Team Fortress","app_id":440,"player_count":0,"max_players":24,"Bots":0,"server_type":"Dedicated","server_os":"Linux","password":true,"vac":true,"version":"7757534","steam_id":85568392924469998,"keywords":["nocrits","nodmgspread","payload","uncletopia"],"game_id":440,"stv_port":27026,"stv_name":"Uncletopia | Seattle | 2 | All Maps | STV","players":null},{"server_id":406,"name":"Uncletopia | Seattle | 3 | Stopwatch Beta","name_short":"sea-3","host":"sea-1.us.uncletopia.com","port":27035,"enabled":true,"region":"us-west","cc":"us","latitude":47.608013,"longitude":-122.33517,"reserved":0,"last_update":"0001-01-01T00:00:00Z","name_a2s":"Uncletopia | Seattle | 3 | Stopwatch Beta","protocol":17,"map":"pl_swiftwater_final1","folder":"tf","game":"Team Fortress","app_id":440,"player_count":0,"max_players":24,"Bots":0,"server_type":"Dedicated","server_os":"Linux","password":true,"vac":true,"version":"7757534","steam_id":85568392924515217,"keywords":["nocrits","nodmgspread","payload","uncletopia"],"game_id":440,"stv_port":27036,"stv_name":"Uncletopia | Seattle | 3 | Stopwatch Beta | STV","players":null},{"server_id":17,"name":"Uncletopia | San Francisco | 1 | All Maps","name_short":"sfo-1","host":"sfo-1.us.uncletopia.com","port":27015,"enabled":true,"region":"us-west","cc":"us","latitude":37.77397,"longitude":-122.4313,"reserved":0,"last_update":"0001-01-01T00:00:00Z","name_a2s":"Uncletopia | San Francisco | 1 | All Maps","protocol":17,"map":"pl_snowycoast","folder":"tf","game":"Team Fortress","app_id":440,"player_count":15,"max_players":24,"Bots":0,"server_type":"Dedicated","server_os":"Linux","password":true,"vac":true,"version":"7757534","steam_id":85568392924469999,"keywords":["nocrits","nodmgspread","payload","uncletopia"],"game_id":440,"stv_port":27016,"stv_name":"Uncletopia | San Francisco | 1 | All Maps | STV","players":[{"user_id":483,"name":"SpongeBucket","steam_id":76561198393553085,"connected_time":3309000000000,"state":"active","ping":61},{"user_id":524,"name":"‚öôNebula‚öô","steam_id":76561198093148959,"connected_time":32000000000,"state":"spawning","ping":101},{"user_id":525,"name":"Reagent","steam_id":76561198039663113,"connected_time":28000000000,"state":"active","ping":47},{"user_id":509,"name":"Barress","steam_id":76561198011728743,"connected_time":1201000000000,"state":"active","ping":46},{"user_id":522,"name":"ice cream (ÂÜ∞Ê∑áÊ∑ã)","steam_id":76561198976530881,"connected_time":211000000000,"state":"active","ping":35},{"user_id":394,"name":"Wacks","steam_id":76561198079476100,"connected_time":10107000000000,"state":"active","ping":50},{"user_id":511,"name":"One Horned Bitch Destroyer","steam_id":76561198045810191,"connected_time":1132000000000,"state":"active","ping":59},{"user_id":480,"name":"Kyrisuu","steam_id":76561198362711064,"connected_time":3463000000000,"state":"active","ping":124},{"user_id":495,"name":"thigh enjoyer","steam_id":76561198088003193,"connected_time":2003000000000,"state":"active","ping":128},{"user_id":502,"name":"loser","steam_id":76561198132182386,"connected_time":1720000000000,"state":"active","ping":60},{"user_id":489,"name":"pt","steam_id":76561198143023330,"connected_time":2750000000000,"state":"active","ping":61},{"user_id":474,"name":"VixianUwU","steam_id":76561198948815060,"connected_time":3993000000000,"state":"active","ping":77},{"user_id":491,"name":"Bald Rice","steam_id":76561199019142767,"connected_time":2059000000000,"state":"active","ping":61},{"user_id":516,"name":"Gangland Security Officer","steam_id":76561198081921488,"connected_time":821000000000,"state":"active","ping":60},{"user_id":481,"name":"yungevilbruh","steam_id":76561198127631900,"connected_time":3432000000000,"state":"active","ping":41}]},{"server_id":18,"name":"Uncletopia | San Francisco | 2 | All Maps","name_short":"sfo-2","host":"sfo-1.us.uncletopia.com","port":27025,"enabled":true,"region":"us-west","cc":"us","latitude":37.77397,"longitude":-122.4313,"reserved":0,"last_update":"0001-01-01T00:00:00Z","name_a2s":"Uncletopia | San Francisco | 2 | All Maps","protocol":17,"map":"koth_viaduct","folder":"tf","game":"Team Fortress","app_id":440,"player_count":4,"max_players":24,"Bots":0,"server_type":"Dedicated","server_os":"Linux","password":true,"vac":true,"version":"7757534","steam_id":85568392924470000,"keywords":["cp","nocrits","nodmgspread","uncletopia"],"game_id":440,"stv_port":27026,"stv_name":"Uncletopia | San Francisco | 2 | All Maps | STV","players":[{"user_id":436,"name":"Nahvee","steam_id":76561198119759695,"connected_time":5796000000000,"state":"active","ping":74},{"user_id":439,"name":"Resh420","steam_id":76561198066619792,"connected_time":5764000000000,"state":"active","ping":77},{"user_id":442,"name":"antlers@buglan23","steam_id":76561198072515851,"connected_time":5730000000000,"state":"active","ping":66},{"user_id":453,"name":"nic","steam_id":76561198030654668,"connected_time":5145000000000,"state":"active","ping":84}]},{"server_id":19,"name":"Uncletopia | San Francisco | 3 | Stopwatch Beta","name_short":"sfo-3","host":"sfo-1.us.uncletopia.com","port":27035,"enabled":true,"region":"us-west","cc":"us","latitude":37.77397,"longitude":-122.4313,"reserved":0,"last_update":"0001-01-01T00:00:00Z","name_a2s":"Uncletopia | San Francisco | 3 | Stopwatch Beta","protocol":17,"map":"koth_lakeside_final","folder":"tf","game":"Team Fortress","app_id":440,"player_count":0,"max_players":24,"Bots":0,"server_type":"Dedicated","server_os":"Linux","password":true,"vac":true,"version":"7757534","steam_id":85568392924742824,"keywords":["cp","nocrits","nodmgspread","uncletopia"],"game_id":440,"stv_port":27036,"stv_name":"Uncletopia | San Francisco | 3 | Stopwatch Beta | STV","players":null},{"server_id":20,"name":"Uncletopia | San Francisco | 4 | Community","name_short":"sfo-4","host":"sfo-1.us.uncletopia.com","port":27045,"enabled":true,"region":"us-west","cc":"us","latitude":37.77397,"longitude":-122.4313,"reserved":0,"last_update":"0001-01-01T00:00:00Z","name_a2s":"Uncletopia | San Francisco | 4 | Community","protocol":17,"map":"workshop/koth_slaughter_rc1.ugc1712845210","folder":"tf","game":"Team Fortress","app_id":440,"player_count":0,"max_players":24,"Bots":0,"server_type":"Dedicated","server_os":"Linux","password":true,"vac":true,"version":"7757534","steam_id":85568392924742826,"keywords":["cp","nocrits","nodmgspread","uncletopia"],"game_id":440,"stv_port":27046,"stv_name":"Uncletopia | San Francisco | 4 | Community | STV","players":null},{"server_id":141,"name":"Uncletopia | Sydney | 1 | All Maps","name_short":"syd-1","host":"syd-1.au.uncletopia.com","port":27015,"enabled":true,"region":"au","cc":"au","latitude":-33.865143,"longitude":151.2099,"reserved":0,"last_update":"0001-01-01T00:00:00Z","name_a2s":"Uncletopia | Sydney | 1 | All Maps","protocol":17,"map":"pl_upward","folder":"tf","game":"Team Fortress","app_id":440,"player_count":24,"max_players":24,"Bots":0,"server_type":"Dedicated","server_os":"Linux","password":true,"vac":true,"version":"7757534","steam_id":85568392924470001,"keywords":["nocrits","nodmgspread","payload","uncletopia"],"game_id":440,"stv_port":27016,"stv_name":"Uncletopia | Sydney | 1 | All Maps | STV","players":[{"user_id":139,"name":"KILLER WHALES","steam_id":76561198012422705,"connected_time":771000000000,"state":"active","ping":60},{"user_id":140,"name":"R\u0026R","steam_id":76561198318485462,"connected_time":687000000000,"state":"active","ping":53},{"user_id":121,"name":"Fleetfoot","steam_id":76561198072845816,"connected_time":2967000000000,"state":"active","ping":49},{"user_id":132,"name":"FIX","steam_id":76561197995157189,"connected_time":1284000000000,"state":"active","ping":51},{"user_id":150,"name":"modus","steam_id":76561198025099660,"connected_time":217000000000,"state":"active","ping":43},{"user_id":82,"name":"Charm","steam_id":76561198028891054,"connected_time":5247000000000,"state":"active","ping":58},{"user_id":141,"name":"Greg","steam_id":76561198133966374,"connected_time":584000000000,"state":"active","ping":56},{"user_id":122,"name":"alqwnq","steam_id":76561198133867907,"connected_time":2953000000000,"state":"active","ping":67},{"user_id":144,"name":"smoke","steam_id":76561198038401873,"connected_time":541000000000,"state":"active","ping":92},{"user_id":103,"name":"Jdn","steam_id":76561198293079232,"connected_time":3907000000000,"state":"active","ping":56},{"user_id":104,"name":"DragRiper","steam_id":76561198050917553,"connected_time":3906000000000,"state":"active","ping":59},{"user_id":112,"name":"Snowy","steam_id":76561198255720598,"connected_time":3629000000000,"state":"active","ping":44},{"user_id":63,"name":"Fixer","steam_id":76561199349854515,"connected_time":6085000000000,"state":"active","ping":59},{"user_id":76,"name":"itsjustmarvin77","steam_id":76561199375656301,"connected_time":5650000000000,"state":"active","ping":88},{"user_id":146,"name":"John Smith with the IRS","steam_id":76561198280925326,"connected_time":438000000000,"state":"active","ping":40},{"user_id":138,"name":"SoyBoy","steam_id":76561197992447102,"connected_time":885000000000,"state":"active","ping":50},{"user_id":149,"name":"zelt","steam_id":76561198157951684,"connected_time":303000000000,"state":"active","ping":34},{"user_id":106,"name":"4-Star Yelp Review","steam_id":76561197995258180,"connected_time":3820000000000,"state":"active","ping":51},{"user_id":142,"name":"cakey","steam_id":76561198173746761,"connected_time":573000000000,"state":"active","ping":47},{"user_id":126,"name":"Pompadouraus","steam_id":76561198327530525,"connected_time":2454000000000,"state":"active","ping":77},{"user_id":123,"name":"Livid","steam_id":76561198060024585,"connected_time":2953000000000,"state":"active","ping":40},{"user_id":125,"name":"xander","steam_id":76561198063481761,"connected_time":2851000000000,"state":"active","ping":44},{"user_id":108,"name":"NollReed","steam_id":76561198098501571,"connected_time":3807000000000,"state":"active","ping":77},{"user_id":145,"name":"Ashes","steam_id":76561198105820742,"connected_time":540000000000,"state":"active","ping":72}]},{"server_id":123,"name":"Uncletopia | Sydney | 2 | All Maps","name_short":"syd-2","host":"syd-1.au.uncletopia.com","port":27025,"enabled":true,"region":"au","cc":"au","latitude":-33.865143,"longitude":151.2099,"reserved":0,"last_update":"0001-01-01T00:00:00Z","name_a2s":"Uncletopia | Sydney | 2 | All Maps","protocol":17,"map":"cp_steel","folder":"tf","game":"Team Fortress","app_id":440,"player_count":24,"max_players":24,"Bots":0,"server_type":"Dedicated","server_os":"Linux","password":true,"vac":true,"version":"7757534","steam_id":85568392924470002,"keywords":["cp","nocrits","nodmgspread","uncletopia"],"game_id":440,"stv_port":27026,"stv_name":"Uncletopia | Sydney | 2 | All Maps | STV","players":[{"user_id":288,"name":"Piklz","steam_id":76561198043384139,"connected_time":1255000000000,"state":"active","ping":56},{"user_id":292,"name":"Fresh Produce Gaming","steam_id":76561198358483352,"connected_time":1107000000000,"state":"active","ping":62},{"user_id":260,"name":"Marisa Kirisame","steam_id":76561198320489890,"connected_time":2529000000000,"state":"active","ping":44},{"user_id":250,"name":"SaltierThanYou","steam_id":76561198444395188,"connected_time":3203000000000,"state":"active","ping":84},{"user_id":297,"name":"bonaparte napoleon","steam_id":76561199021649596,"connected_time":435000000000,"state":"active","ping":69},{"user_id":269,"name":"voxii","steam_id":76561198099698281,"connected_time":2008000000000,"state":"active","ping":64},{"user_id":290,"name":"‚ô• Sharpy \u003e v \u003c","steam_id":76561198091613743,"connected_time":1210000000000,"state":"active","ping":91},{"user_id":280,"name":"Diavolo Diablo","steam_id":76561198166295333,"connected_time":1482000000000,"state":"active","ping":157},{"user_id":233,"name":"the normoaner","steam_id":76561198082423230,"connected_time":4385000000000,"state":"active","ping":84},{"user_id":294,"name":"O'rangutan","steam_id":76561198095916681,"connected_time":553000000000,"state":"active","ping":40},{"user_id":234,"name":"seiran","steam_id":76561198880907232,"connected_time":4382000000000,"state":"active","ping":96},{"user_id":287,"name":"Crimson Aurora","steam_id":76561198157492747,"connected_time":1394000000000,"state":"active","ping":107},{"user_id":298,"name":"Soru","steam_id":76561198010844786,"connected_time":301000000000,"state":"active","ping":65},{"user_id":293,"name":"Doctor Zarlo","steam_id":76561198040635388,"connected_time":799000000000,"state":"active","ping":37},{"user_id":277,"name":"HeyHeyItsGreyGrey","steam_id":76561198047955263,"connected_time":1767000000000,"state":"active","ping":69},{"user_id":235,"name":"Harry \"TƒÅne-mahuta\" Richards","steam_id":76561198120997207,"connected_time":4377000000000,"state":"active","ping":70},{"user_id":225,"name":"Apteryx","steam_id":76561197976460834,"connected_time":5042000000000,"state":"active","ping":64},{"user_id":236,"name":"ùñòùñëùñÜùñôùñô","steam_id":76561198437037170,"connected_time":4360000000000,"state":"active","ping":93},{"user_id":278,"name":"Tiger_Tan","steam_id":76561198221733844,"connected_time":1737000000000,"state":"active","ping":69},{"user_id":253,"name":"Distilledrain41","steam_id":76561198272717119,"connected_time":3079000000000,"state":"active","ping":39},{"user_id":299,"name":"beth.cubitt","steam_id":76561198454733447,"connected_time":286000000000,"state":"active","ping":115},{"user_id":296,"name":"speed bomb","steam_id":76561198277363788,"connected_time":450000000000,"state":"active","ping":85},{"user_id":228,"name":"FyreFeat","steam_id":76561198068428930,"connected_time":4883000000000,"state":"active","ping":55},{"user_id":276,"name":"lemur","steam_id":76561198278239170,"connected_time":1832000000000,"state":"active","ping":85}]},{"server_id":395,"name":"Uncletopia | Sydney | 3 | All Maps","name_short":"syd-3","host":"syd-1.au.uncletopia.com","port":27035,"enabled":true,"region":"au","cc":"au","latitude":-33.865143,"longitude":151.2099,"reserved":0,"last_update":"0001-01-01T00:00:00Z","name_a2s":"Uncletopia | Sydney | 3 | All Maps","protocol":17,"map":"cp_mountainlab","folder":"tf","game":"Team Fortress","app_id":440,"player_count":5,"max_players":24,"Bots":0,"server_type":"Dedicated","server_os":"Linux","password":true,"vac":true,"version":"7757534","steam_id":85568392925194467,"keywords":["cp","nocrits","nodmgspread","uncletopia"],"game_id":440,"stv_port":27036,"stv_name":"Uncletopia | Sydney | 3 | All Maps | STV","players":[{"user_id":14,"name":"Lord Oink","steam_id":76561198125237921,"connected_time":1777000000000,"state":"active","ping":46},{"user_id":26,"name":"MinimumOfCat","steam_id":76561199179959908,"connected_time":358000000000,"state":"active","ping":281},{"user_id":21,"name":"Shiki Eiki","steam_id":76561198095744048,"connected_time":1227000000000,"state":"active","ping":97},{"user_id":22,"name":"Jacob","steam_id":76561198059341907,"connected_time":1005000000000,"state":"active","ping":34},{"user_id":24,"name":"manglemonster","steam_id":76561198155233607,"connected_time":738000000000,"state":"active","ping":52}]},{"server_id":396,"name":"Uncletopia | Sydney | 4 | All Maps","name_short":"syd-4","host":"syd-1.au.uncletopia.com","port":27045,"enabled":true,"region":"au","cc":"au","latitude":-33.865143,"longitude":151.2099,"reserved":0,"last_update":"0001-01-01T00:00:00Z","name_a2s":"Uncletopia | Sydney | 4 | All Maps","protocol":17,"map":"koth_highpass","folder":"tf","game":"Team Fortress","app_id":440,"player_count":0,"max_players":24,"Bots":0,"server_type":"Dedicated","server_os":"Linux","password":true,"vac":true,"version":"7757534","steam_id":85568392925397958,"keywords":["cp","nocrits","nodmgspread","uncletopia"],"game_id":440,"stv_port":27046,"stv_name":"Uncletopia | Sydney | 4 | All Maps | STV","players":null},{"server_id":58,"name":"Uncletopia | Sydney | 5 | Stopwatch Beta","name_short":"syd-5","host":"syd-1.au.uncletopia.com","port":27055,"enabled":true,"region":"au","cc":"au","latitude":-33.865143,"longitude":151.2099,"reserved":0,"last_update":"0001-01-01T00:00:00Z","name_a2s":"Uncletopia | Sydney | 5 | Stopwatch Beta","protocol":17,"map":"koth_cascade","folder":"tf","game":"Team Fortress","app_id":440,"player_count":0,"max_players":24,"Bots":0,"server_type":"Dedicated","server_os":"Linux","password":true,"vac":true,"version":"7757534","steam_id":85568392925397959,"keywords":["cp","nocrits","nodmgspread","uncletopia"],"game_id":440,"stv_port":27056,"stv_name":"Uncletopia | Sydney | 5 | Stopwatch Beta | STV","players":null},{"server_id":59,"name":"Uncletopia | Sydney | 6 | Community","name_short":"syd-6","host":"syd-1.au.uncletopia.com","port":27065,"enabled":true,"region":"au","cc":"au","latitude":-33.865143,"longitude":151.2099,"reserved":0,"last_update":"0001-01-01T00:00:00Z","name_a2s":"Uncletopia | Sydney | 6 | Community","protocol":17,"map":"workshop/pl_eruption_b9a.ugc2807898013","folder":"tf","game":"Team Fortress","app_id":440,"player_count":0,"max_players":24,"Bots":0,"server_type":"Dedicated","server_os":"Linux","password":true,"vac":true,"version":"7757534","steam_id":85568392925397960,"keywords":["nocrits","nodmgspread","payload","uncletopia"],"game_id":440,"stv_port":27066,"stv_name":"Uncletopia | Sydney | 6 | Community | STV","players":null},{"server_id":49,"name":"Uncletopia | Warsaw | 1 | All Maps","name_short":"waw-1","host":"waw-1.pl.uncletopia.com","port":27015,"enabled":true,"region":"eu","cc":"pl","latitude":52.2297,"longitude":21.017532,"reserved":0,"last_update":"0001-01-01T00:00:00Z","name_a2s":"","protocol":0,"map":"","folder":"","game":"","app_id":0,"player_count":0,"max_players":0,"Bots":0,"server_type":"","server_os":"","password":false,"vac":false,"version":"","steam_id":0,"keywords":null,"game_id":0,"stv_port":0,"stv_name":"","players":null},{"server_id":50,"name":"Uncletopia | Warsaw | 2 | All Maps","name_short":"waw-2","host":"waw-1.pl.uncletopia.com","port":27025,"enabled":true,"region":"eu","cc":"pl","latitude":52.2297,"longitude":21.017532,"reserved":0,"last_update":"0001-01-01T00:00:00Z","name_a2s":"Uncletopia | Warsaw | 2 | All Maps","protocol":17,"map":"koth_viaduct","folder":"tf","game":"Team Fortress","app_id":440,"player_count":0,"max_players":24,"Bots":0,"server_type":"Dedicated","server_os":"Linux","password":true,"vac":true,"version":"7757534","steam_id":85568392925397851,"keywords":["cp","nocrits","nodmgspread","uncletopia"],"game_id":440,"stv_port":27026,"stv_name":"Uncletopia | Warsaw | 2 | All Maps | STV","players":null},{"server_id":51,"name":"Uncletopia | Warsaw | 3 | All Maps","name_short":"waw-3","host":"waw-1.pl.uncletopia.com","port":27035,"enabled":true,"region":"eu","cc":"pl","latitude":52.2297,"longitude":21.017532,"reserved":0,"last_update":"0001-01-01T00:00:00Z","name_a2s":"Uncletopia | Warsaw | 3 | All Maps","protocol":17,"map":"pl_badwater","folder":"tf","game":"Team Fortress","app_id":440,"player_count":0,"max_players":24,"Bots":0,"server_type":"Dedicated","server_os":"Linux","password":true,"vac":true,"version":"7757534","steam_id":85568392925397852,"keywords":["nocrits","nodmgspread","payload","uncletopia"],"game_id":440,"stv_port":27036,"stv_name":"Uncletopia | Warsaw | 3 | All Maps | STV","players":null},{"server_id":52,"name":"Uncletopia | Warsaw | 4 | All Maps","name_short":"waw-4","host":"waw-1.pl.uncletopia.com","port":27045,"enabled":true,"region":"eu","cc":"pl","latitude":52.2297,"longitude":21.017532,"reserved":0,"last_update":"0001-01-01T00:00:00Z","name_a2s":"Uncletopia | Warsaw | 4 | All Maps","protocol":17,"map":"koth_lakeside_final","folder":"tf","game":"Team Fortress","app_id":440,"player_count":0,"max_players":24,"Bots":0,"server_type":"Dedicated","server_os":"Linux","password":true,"vac":true,"version":"7757534","steam_id":85568392925397853,"keywords":["cp","nocrits","nodmgspread","uncletopia"],"game_id":440,"stv_port":27046,"stv_name":"Uncletopia | Warsaw | 4 | All Maps | STV","players":null},{"server_id":53,"name":"Uncletopia | Warsaw | 5 | Stopwatch Beta","name_short":"waw-5","host":"waw-1.pl.uncletopia.com","port":27055,"enabled":true,"region":"eu","cc":"pl","latitude":52.2297,"longitude":21.017532,"reserved":0,"last_update":"0001-01-01T00:00:00Z","name_a2s":"Uncletopia | Warsaw | 5 | Stopwatch Beta","protocol":17,"map":"pl_borneo","folder":"tf","game":"Team Fortress","app_id":440,"player_count":0,"max_players":24,"Bots":0,"server_type":"Dedicated","server_os":"Linux","password":true,"vac":true,"version":"7757534","steam_id":85568392925397854,"keywords":["nocrits","nodmgspread","payload","uncletopia"],"game_id":440,"stv_port":27056,"stv_name":"Uncletopia | Warsaw | 5 | Stopwatch Beta | STV","players":null},{"server_id":54,"name":"Uncletopia | Warsaw | 6 | Community","name_short":"waw-6","host":"waw-1.pl.uncletopia.com","port":27065,"enabled":true,"region":"eu","cc":"pl","latitude":52.2297,"longitude":21.017532,"reserved":0,"last_update":"0001-01-01T00:00:00Z","name_a2s":"Uncletopia | Warsaw | 6 | Community","protocol":17,"map":"workshop/koth_kemptown_rc1.ugc767410655","folder":"tf","game":"Team Fortress","app_id":440,"player_count":0,"max_players":24,"Bots":0,"server_type":"Dedicated","server_os":"Linux","password":true,"vac":true,"version":"7757534","steam_id":85568392925397856,"keywords":["cp","nocrits","nodmgspread","uncletopia"],"game_id":440,"stv_port":27066,"stv_name":"Uncletopia | Warsaw | 6 | Community | STV","players":null}]}