{"status":true,"message":"","result":[{"server_id":9,"name":"Uncletopia | Atlanta | 1 | All Maps","name_short":"atl-1","host":"atl-1.us.uncletopia.com","port":27015,"enabled":true,"region":"us-east","cc":"us","latitude":33.753746,"longitude":-84.38633,"reserved":0,"last_update":"0001-01-01T00:00:00Z","name_a2s":"Uncletopia | Atlanta | 1 | All Maps","protocol":17,"map":"pl_upward","folder":"tf","game":"Team Fortress","app_id":440,"player_count":24,"max_players":24,"Bots":0,"server_type":"Dedicated","server_os":"Linux","password":true,"vac":true,"version":"7961495","steam_id":85568392924469982,"keywords":["nocrits","nodmgspread","payload","uncletopia"],"game_id":440,"stv_port":27016,"stv_name":"Uncletopia | Atlanta | 1 | All Maps | STV","players":null},{"server_id":104,"name":"Uncletopia | Atlanta | 2 | All Maps","name_short":"atl-2","host":"atl-1.us.uncletopia.com","port":27025,"enabled":true,"region":"us-east","cc":"us","latitude":33.753746,"longitude":-84.38633,"reserved":0,"last_update":"0001-01-01T00:00:00Z","name_a2s":"Uncletopia | Atlanta | 2 | All Maps","protocol":17,"map":"koth_cascade","folder":"tf","game":"Team Fortress","app_id":440,"player_count":0,"max_players":24,"Bots":0,"server_type":"Dedicated","server_os":"Linux","password":true,"vac":true,"version":"7961495","steam_id":85568392924469983,"keywords":["cp","nocrits","nodmgspread","uncletopia"],"game_id":440,"stv_port":27026,"stv_name":"Uncletopia | Atlanta | 2 | All Maps | STV","players":null},{"server_id":400,"name":"Uncletopia | Atlanta | 3 | Stopwatch","name_short":"atl-3","host":"atl-1.us.uncletopia.com","port":27035,"enabled":true,"region":"us-east","cc":"us","latitude":33.753746,"longitude":-84.38633,"reserved":0,"last_update":"0001-01-01T00:00:00Z","name_a2s":"Uncletopia | Atlanta | 3 | Stopwatch","protocol":17,"map":"koth_clearcut_b15","folder":"tf","game":"Team Fortress","app_id":440,"player_count":0,"max_players":24,"Bots":0,"server_type":"Dedicated","server_os":"Linux","password":true,"vac":true,"version":"7961495","steam_id":85568392924515187,"keywords":["cp","nocrits","nodmgspread","uncletopia"],"game_id":440,"stv_port":27036,"stv_name":"Uncletopia | Atlanta | 3 | Stopwatch | STV","players":null},{"server_id":401,"name":"Uncletopia | Atlanta | 4 | Community","name_short":"atl-4","host":"atl-1.us.uncletopia.com","port":27045,"enabled":true,"region":"us-east","cc":"us","latitude":33.753746,"longitude":-84.38633,"reserved":0,"last_update":"0001-01-01T00:00:00Z","name_a2s":"Uncletopia | Atlanta | 4 | Community","protocol":17,"map":"pl_cactuscanyon_redux_final2","folder":"tf","game":"Team Fortress","app_id":440,"player_count":0,"max_players":24,"Bots":0,"server_type":"Dedicated","server_os":"Linux","password":true,"vac":true,"version":"7961495","steam_id":85568392924515188,"keywords":["nocrits","nodmgspread","payload","uncletopia"],"game_id":440,"stv_port":27046,"stv_name":"Uncletopia | Atlanta | 4 | Community | STV","players":null},{"server_id":2,"name":"Uncletopia | Chicago | 1 | All Maps","name_short":"chi-1","host":"chi-1.us.uncletopia.com","port":27015,"enabled":true,"region":"us-central","cc":"us","latitude":41.881832,"longitude":-87.62318,"reserved":0,"last_update":"0001-01-01T00:00:00Z","name_a2s":"Uncletopia | Chicago | 1 | All Maps","protocol":17,"map":"pl_pier","folder":"tf","game":"Team Fortress","app_id":440,"player_count":24,"max_players":24,"Bots":0,"server_type":"Dedicated","server_os":"Linux","password":true,"vac":true,"version":"7961495","steam_id":85568392924469984,"keywords":["nocrits","nodmgspread","payload","uncletopia"],"game_id":440,"stv_port":27016,"stv_name":"Uncletopia | Chicago | 1 | All Maps | STV","players":[{"user_id":203,"name":"Oni","steam_id":76561198112066584,"connected_time":3456000000000,"state":"active","ping":60},{"user_id":238,"name":"Quartzalcoatl","steam_id":76561198044944584,"connected_time":714000000000,"state":"active","ping":87},{"user_id":185,"name":"Window Licker #pride","steam_id":76561198386717007,"connected_time":4777000000000,"state":"active","ping":47},{"user_id":236,"name":"Poppet","steam_id":76561198012301951,"connected_time":766000000000,"state":"active","ping":59},{"user_id":219,"name":"monstertimescary","steam_id":76561198079303767,"connected_time":2044000000000,"state":"active","ping":63},{"user_id":234,"name":"Chicanery","steam_id":76561199132214008,"connected_time":971000000000,"state":"active","ping":97},{"user_id":172,"name":"vv","steam_id":76561198134813102,"connected_time":6434000000000,"state":"active","ping":65},{"user_id":225,"name":"Hello World","steam_id":76561199093925982,"connected_time":1798000000000,"state":"active","ping":95},{"user_id":213,"name":"BradB.","steam_id":76561199163905036,"connected_time":2358000000000,"state":"active","ping":77},{"user_id":221,"name":"MMAD","steam_id":76561198026446420,"connected_time":1977000000000,"state":"active","ping":83},{"user_id":222,"name":"Gluppo","steam_id":76561198060016004,"connected_time":1944000000000,"state":"active","ping":88},{"user_id":24,"name":"fuck it, we mald","steam_id":76561198083276946,"connected_time":12227000000000,"state":"active","ping":68},{"user_id":229,"name":"Kestrel","steam_id":76561198093706171,"connected_time":1638000000000,"state":"active","ping":59},{"user_id":237,"name":"Keymaster","steam_id":76561198881514228,"connected_time":739000000000,"state":"active","ping":84},{"user_id":231,"name":"TacoMan","steam_id":76561198049405741,"connected_time":1554000000000,"state":"active","ping":91},{"user_id":232,"name":"Halo CE Elite","steam_id":76561198181208478,"connected_time":1077000000000,"state":"active","ping":81},{"user_id":202,"name":"cuddles","steam_id":76561199471390987,"connected_time":3682000000000,"state":"active","ping":82},{"user_id":209,"name":"beta central","steam_id":76561198301876831,"connected_time":2373000000000,"state":"active","ping":60},{"user_id":235,"name":"Jaja_Mario","steam_id":76561198394353889,"connected_time":864000000000,"state":"active","ping":74},{"user_id":239,"name":"axfty","steam_id":76561198000359738,"connected_time":699000000000,"state":"active","ping":68},{"user_id":226,"name":"Freestyle Brapper#savehiphop","steam_id":76561198090074621,"connected_time":1787000000000,"state":"active","ping":45},{"user_id":241,"name":"gulch","steam_id":76561199227946025,"connected_time":539000000000,"state":"active","ping":71},{"user_id":211,"name":"JimmySquid","steam_id":76561198254242530,"connected_time":2371000000000,"state":"active","ping":67},{"user_id":71,"name":"Lexi uwu","steam_id":76561198003037190,"connected_time":9973000000000,"state":"active","ping":83}]},{"server_id":106,"name":"Uncletopia | Chicago | 2 | All Maps","name_short":"chi-2","host":"chi-1.us.uncletopia.com","port":27025,"enabled":true,"region":"us-central","cc":"us","latitude":41.881832,"longitude":-87.62318,"reserved":0,"last_update":"0001-01-01T00:00:00Z","name_a2s":"Uncletopia | Chicago | 2 | All Maps","protocol":17,"map":"pl_pier","folder":"tf","game":"Team Fortress","app_id":440,"player_count":24,"max_players":24,"Bots":0,"server_type":"Dedicated","server_os":"Linux","password":true,"vac":true,"version":"7961495","steam_id":85568392924469985,"keywords":["nocrits","nodmgspread","payload","uncletopia"],"game_id":440,"stv_port":27026,"stv_name":"Uncletopia | Chicago | 2 | All Maps | STV","players":[{"user_id":170,"name":"acid","steam_id":76561198055855408,"connected_time":567000000000,"state":"active","ping":76},{"user_id":168,"name":"JoeFalco","steam_id":76561198064005012,"connected_time":655000000000,"state":"active","ping":84},{"user_id":160,"name":"Ejaculation Zach","steam_id":76561198203765200,"connected_time":1000000000000,"state":"active","ping":57},{"user_id":136,"name":"the soldier","steam_id":76561199046667189,"connected_time":3400000000000,"state":"active","ping":62},{"user_id":165,"name":"charm quark","steam_id":76561198098770777,"connected_time":899000000000,"state":"active","ping":104},{"user_id":162,"name":"twizted","steam_id":76561197960407274,"connected_time":951000000000,"state":"active","ping":66},{"user_id":156,"name":"gnoll filth","steam_id":76561198066123607,"connected_time":1087000000000,"state":"active","ping":45},{"user_id":151,"name":"Mr. Tickle","steam_id":76561198126684647,"connected_time":1971000000000,"state":"active","ping":55},{"user_id":166,"name":"Jus71n","steam_id":76561198133487430,"connected_time":677000000000,"state":"active","ping":71},{"user_id":153,"name":"Lord jellyfish","steam_id":76561198099255487,"connected_time":1950000000000,"state":"active","ping":61},{"user_id":148,"name":"Sputnuts","steam_id":76561198236857310,"connected_time":2194000000000,"state":"active","ping":60},{"user_id":122,"name":"Schmupp","steam_id":76561198150928115,"connected_time":4365000000000,"state":"active","ping":91},{"user_id":98,"name":"FIJI","steam_id":76561198126087725,"connected_time":5525000000000,"state":"active","ping":72},{"user_id":154,"name":"mOoOoOoO","steam_id":76561198145615363,"connected_time":1204000000000,"state":"active","ping":75},{"user_id":119,"name":"Nasatron7","steam_id":76561198217185169,"connected_time":4527000000000,"state":"active","ping":84},{"user_id":158,"name":"CantaloupeKing","steam_id":76561198041949472,"connected_time":1021000000000,"state":"active","ping":101},{"user_id":58,"name":"Rornir","steam_id":76561198081829615,"connected_time":7815000000000,"state":"active","ping":37},{"user_id":161,"name":"Level 1 Crook","steam_id":76561198441098132,"connected_time":991000000000,"state":"active","ping":45},{"user_id":164,"name":"Rein","steam_id":76561198300340427,"connected_time":927000000000,"state":"active","ping":61},{"user_id":157,"name":"Rafl","steam_id":76561198055222756,"connected_time":1067000000000,"state":"active","ping":71},{"user_id":171,"name":"FazeCumShot69‚Ñ¢","steam_id":76561199248475270,"connected_time":191000000000,"state":"active","ping":85},{"user_id":133,"name":"Ras","steam_id":76561198123546775,"connected_time":4070000000000,"state":"active","ping":74},{"user_id":71,"name":"bear","steam_id":76561198909415646,"connected_time":7613000000000,"state":"active","ping":78},{"user_id":105,"name":"hussein","steam_id":76561199061380038,"connected_time":5095000000000,"state":"active","ping":72}]},{"server_id":402,"name":"Uncletopia | Chicago | 3 | All Maps","name_short":"chi-3","host":"chi-1.us.uncletopia.com","port":27035,"enabled":true,"region":"us-central","cc":"us","latitude":41.881832,"longitude":-87.62318,"reserved":0,"last_update":"0001-01-01T00:00:00Z","name_a2s":"Uncletopia | Chicago | 3 | All Maps","protocol":17,"map":"ctf_well","folder":"tf","game":"Team Fortress","app_id":440,"player_count":1,"max_players":24,"Bots":0,"server_type":"Dedicated","server_os":"Linux","password":true,"vac":true,"version":"7961495","steam_id":85568392924515191,"keywords":["ctf","nocrits","nodmgspread","uncletopia"],"game_id":440,"stv_port":27036,"stv_name":"Uncletopia | Chicago | 3 | All Maps | STV","players":[{"user_id":281,"name":"Mirai Asamii","steam_id":76561198272673386,"connected_time":85000000000,"state":"active","ping":104}]},{"server_id":403,"name":"Uncletopia | Chicago | 4 | All Maps","name_short":"chi-4","host":"chi-1.us.uncletopia.com","port":27045,"enabled":true,"region":"us-central","cc":"us","latitude":41.881832,"longitude":-87.62318,"reserved":0,"last_update":"0001-01-01T00:00:00Z","name_a2s":"Uncletopia | Chicago | 4 | All Maps","protocol":17,"map":"koth_cascade","folder":"tf","game":"Team Fortress","app_id":440,"player_count":0,"max_players":24,"Bots":0,"server_type":"Dedicated","server_os":"Linux","password":true,"vac":true,"version":"7961495","steam_id":85568392924515193,"keywords":["cp","nocrits","nodmgspread","uncletopia"],"game_id":440,"stv_port":27046,"stv_name":"Uncletopia | Chicago | 4 | All Maps | STV","players":null},{"server_id":36,"name":"Uncletopia | Chicago | 5 | All Maps","name_short":"chi-5","host":"chi-2.us.uncletopia.com","port":27015,"enabled":true,"region":"us-central","cc":"us","latitude":41.881832,"longitude":-87.62318,"reserved":0,"last_update":"0001-01-01T00:00:00Z","name_a2s":"Uncletopia | Chicago | 5 | All Maps","protocol":17,"map":"cp_mountainlab","folder":"tf","game":"Team Fortress","app_id":440,"player_count":24,"max_players":24,"Bots":0,"server_type":"Dedicated","server_os":"Linux","password":true,"vac":true,"version":"7961495","steam_id":85568392924866362,"keywords":["cp","nocrits","nodmgspread","uncletopia"],"game_id":440,"stv_port":27016,"stv_name":"Uncletopia | Chicago | 5 | All Maps | STV","players":[{"user_id":52,"name":"leumas","steam_id":76561198240408540,"connected_time":964000000000,"state":"active","ping":57},{"user_id":37,"name":"TTVPlumSmug","steam_id":76561198103960265,"connected_time":1682000000000,"state":"active","ping":70},{"user_id":41,"name":"Lucas","steam_id":76561198399704604,"connected_time":1520000000000,"state":"active","ping":111},{"user_id":12,"name":"ThatScarfDude #NekoIsLife","steam_id":76561198140963271,"connected_time":2563000000000,"state":"active","ping":77},{"user_id":49,"name":"Whoa","steam_id":76561197970353496,"connected_time":1148000000000,"state":"active","ping":75},{"user_id":42,"name":"Heren","steam_id":76561198339110269,"connected_time":1470000000000,"state":"active","ping":116},{"user_id":43,"name":"J - Protostar","steam_id":76561198085028904,"connected_time":1420000000000,"state":"active","ping":98},{"user_id":16,"name":"The Hose on Upward","steam_id":76561197965092192,"connected_time":2136000000000,"state":"active","ping":86},{"user_id":19,"name":"Zelumie","steam_id":76561198147335801,"connected_time":1909000000000,"state":"active","ping":55},{"user_id":20,"name":"Kermit","steam_id":76561198034559979,"connected_time":1905000000000,"state":"active","ping":91},{"user_id":21,"name":"dolph","steam_id":76561198341304816,"connected_time":1881000000000,"state":"active","ping":99},{"user_id":22,"name":"Sunflower","steam_id":76561198081223793,"connected_time":1877000000000,"state":"active","ping":59},{"user_id":48,"name":"Melin","steam_id":76561198346578920,"connected_time":1315000000000,"state":"active","ping":99},{"user_id":24,"name":"malarkeyman","steam_id":76561198844473584,"connected_time":1847000000000,"state":"active","ping":46},{"user_id":25,"name":"Thequirka","steam_id":76561198968058652,"connected_time":1839000000000,"state":"active","ping":97},{"user_id":38,"name":"anonion","steam_id":76561198056477584,"connected_time":1667000000000,"state":"active","ping":86},{"user_id":55,"name":"Bee","steam_id":76561198074681324,"connected_time":325000000000,"state":"active","ping":60},{"user_id":29,"name":"Xida","steam_id":76561198273471095,"connected_time":1786000000000,"state":"active","ping":101},{"user_id":51,"name":"drux","steam_id":76561199074522961,"connected_time":1067000000000,"state":"active","ping":145},{"user_id":44,"name":"Wan Shi Tong","steam_id":76561198076441225,"connected_time":1404000000000,"state":"active","ping":63},{"user_id":32,"name":"CynForSin","steam_id":76561198094739849,"connected_time":1761000000000,"state":"active","ping":76},{"user_id":33,"name":"Bobby","steam_id":76561198037803087,"connected_time":1731000000000,"state":"active","ping":75},{"user_id":54,"name":"pinky","steam_id":76561199109784776,"connected_time":579000000000,"state":"active","ping":55},{"user_id":56,"name":"kman_kangaroo","steam_id":76561199379271462,"connected_time":195000000000,"state":"active","ping":87}]},{"server_id":37,"name":"Uncletopia | Chicago | 6 | All Maps","name_short":"chi-6","host":"chi-2.us.uncletopia.com","port":27025,"enabled":true,"region":"us-central","cc":"us","latitude":41.881832,"longitude":-87.62318,"reserved":0,"last_update":"0001-01-01T00:00:00Z","name_a2s":"Uncletopia | Chicago | 6 | All Maps","protocol":17,"map":"pl_pier","folder":"tf","game":"Team Fortress","app_id":440,"player_count":0,"max_players":24,"Bots":0,"server_type":"Dedicated","server_os":"Linux","password":true,"vac":true,"version":"7961495","steam_id":85568392924866363,"keywords":["nocrits","nodmgspread","payload","uncletopia"],"game_id":440,"stv_port":27026,"stv_name":"Uncletopia | Chicago | 6 | All Maps | STV","players":null},{"server_id":38,"name":"Uncletopia | Chicago | 7 | Stopwatch","name_short":"chi-7","host":"chi-2.us.uncletopia.com","port":27035,"enabled":true,"region":"us-central","cc":"us","latitude":41.881832,"longitude":-87.62318,"reserved":0,"last_update":"0001-01-01T00:00:00Z","name_a2s":"Uncletopia | Chicago | 7 | Stopwatch","protocol":17,"map":"pl_borneo","folder":"tf","game":"Team Fortress","app_id":440,"player_count":0,"max_players":24,"Bots":0,"server_type":"Dedicated","server_os":"Linux","password":true,"vac":true,"version":"7961495","steam_id":85568392924866364,"keywords":["nocrits","nodmgspread","payload","uncletopia"],"game_id":440,"stv_port":27036,"stv_name":"Uncletopia | Chicago | 7 | Stopwatch | STV","players":null},{"server_id":39,"name":"Uncletopia | Chicago | 8 | Community","name_short":"chi-8","host":"chi-2.us.uncletopia.com","port":27045,"enabled":true,"region":"us-central","cc":"us","latitude":41.881832,"longitude":-87.62318,"reserved":0,"last_update":"0001-01-01T00:00:00Z","name_a2s":"Uncletopia | Chicago | 8 | Community","protocol":17,"map":"pl_pier","folder":"tf","game":"Team Fortress","app_id":440,"player_count":0,"max_players":24,"Bots":0,"server_type":"Dedicated","server_os":"Linux","password":true,"vac":true,"version":"7961495","steam_id":85568392924866365,"keywords":["nocrits","nodmgspread","payload","uncletopia"],"game_id":440,"stv_port":27046,"stv_name":"Uncletopia | Chicago | 8 | Community | STV","players":null},{"server_id":8,"name":"Uncletopia | Dallas | 1 | All Maps","name_short":"dal-1","host":"dal-1.us.uncletopia.com","port":27015,"enabled":true,"region":"us-central","cc":"us","latitude":32.779167,"longitude":-96.80889,"reserved":0,"last_update":"0001-01-01T00:00:00Z","name_a2s":"Uncletopia | Dallas | 1 | All Maps","protocol":17,"map":"plr_bananabay","folder":"tf","game":"Team Fortress","app_id":440,"player_count":24,"max_players":24,"Bots":0,"server_type":"Dedicated","server_os":"Linux","password":true,"vac":true,"version":"7961495","steam_id":85568392924469986,"keywords":["nocrits","nodmgspread","payload","uncletopia"],"game_id":440,"stv_port":27016,"stv_name":"Uncletopia | Dallas | 1 | All Maps | STV","players":[{"user_id":149,"name":"sobaka","steam_id":76561198116008934,"connected_time":68000000000,"state":"spawning","ping":81},{"user_id":107,"name":"California Friday","steam_id":76561198185424382,"connected_time":1785000000000,"state":"active","ping":86},{"user_id":130,"name":"Tresthebest360","steam_id":76561198965347175,"connected_time":922000000000,"state":"active","ping":67},{"user_id":135,"name":"Coup de Grass","steam_id":76561198011643226,"connected_time":843000000000,"state":"active","ping":97},{"user_id":86,"name":"mkl","steam_id":76561197986401685,"connected_time":2623000000000,"state":"active","ping":56},{"user_id":122,"name":"chiswola","steam_id":76561198046920142,"connected_time":1265000000000,"state":"active","ping":95},{"user_id":21,"name":"small meth pouch","steam_id":76561198130412963,"connected_time":5342000000000,"state":"active","ping":66},{"user_id":136,"name":"the keebler","steam_id":76561199486326945,"connected_time":799000000000,"state":"active","ping":76},{"user_id":142,"name":"Artincendies","steam_id":76561198242373456,"connected_time":394000000000,"state":"active","ping":66},{"user_id":119,"name":"Rex","steam_id":76561198138365053,"connected_time":1351000000000,"state":"active","ping":125},{"user_id":144,"name":"TechnoBear2099","steam_id":76561198238863596,"connected_time":201000000000,"state":"active","ping":46},{"user_id":76,"name":"Kerpal45","steam_id":76561198153340350,"connected_time":3381000000000,"state":"active","ping":88},{"user_id":95,"name":"Sammich Slinger","steam_id":76561198007644532,"connected_time":2330000000000,"state":"active","ping":74},{"user_id":137,"name":"Turbocat","steam_id":76561198145431353,"connected_time":798000000000,"state":"active","ping":91},{"user_id":146,"name":"Johnson","steam_id":76561198051905342,"connected_time":145000000000,"state":"active","ping":87},{"user_id":116,"name":"ThatFrog","steam_id":76561198437198904,"connected_time":1488000000000,"state":"active","ping":85},{"user_id":141,"name":"Transgender Spider Priestess","steam_id":76561198111286397,"connected_time":428000000000,"state":"active","ping":99},{"user_id":132,"name":"SaaxoM","steam_id":76561198208256603,"connected_time":883000000000,"state":"active","ping":71},{"user_id":78,"name":"Tyler Joseph","steam_id":76561199128170888,"connected_time":3323000000000,"state":"active","ping":92},{"user_id":118,"name":"Living_Kamikaze","steam_id":76561198147522181,"connected_time":1404000000000,"state":"active","ping":59},{"user_id":42,"name":"Soy King","steam_id":76561198263025614,"connected_time":4466000000000,"state":"active","ping":131},{"user_id":148,"name":"alleeop43","steam_id":76561199029390266,"connected_time":127000000000,"state":"active","ping":101},{"user_id":150,"name":"üÖúüÖîüÖîüÖöüÖ¢üÖ£üÖî\ufffd\ufffd\ufffd","steam_id":76561197999748343,"connected_time":38000000000,"state":"active","ping":43},{"user_id":138,"name":"doughboy","steam_id":76561198219012928,"connected_time":750000000000,"state":"active","ping":78}]},{"server_id":108,"name":"Uncletopia | Dallas | 2 | All Maps","name_short":"dal-2","host":"dal-1.us.uncletopia.com","port":27025,"enabled":true,"region":"us-central","cc":"us","latitude":32.779167,"longitude":-96.80889,"reserved":0,"last_update":"0001-01-01T00:00:00Z","name_a2s":"Uncletopia | Dallas | 2 | All Maps","protocol":17,"map":"pl_upward","folder":"tf","game":"Team Fortress","app_id":440,"player_count":24,"max_players":24,"Bots":0,"server_type":"Dedicated","server_os":"Linux","password":true,"vac":true,"version":"7961495","steam_id":85568392924469988,"keywords":["nocrits","nodmgspread","payload","uncletopia"],"game_id":440,"stv_port":27026,"stv_name":"Uncletopia | Dallas | 2 | All Maps | STV","players":[{"user_id":16,"name":"Big hams","steam_id":76561198253391039,"connected_time":1282000000000,"state":"active","ping":45},{"user_id":17,"name":"nevermind","steam_id":76561198152614537,"connected_time":1250000000000,"state":"active","ping":45},{"user_id":18,"name":"Bedazzlebub","steam_id":76561198123068494,"connected_time":1240000000000,"state":"active","ping":101},{"user_id":44,"name":"NFL.com","steam_id":76561198113405376,"connected_time":93000000000,"state":"active","ping":74},{"user_id":28,"name":"Mrs Moth\u003c3","steam_id":76561198356567287,"connected_time":609000000000,"state":"active","ping":76},{"user_id":21,"name":"Poop Deck Joe","steam_id":76561198271397568,"connected_time":728000000000,"state":"active","ping":59},{"user_id":49,"name":"Doctor Emerald(Bison Emperor)","steam_id":76561199123003872,"connected_time":14000000000,"state":"spawning","ping":66},{"user_id":23,"name":"xLilyth","steam_id":76561198078806934,"connected_time":712000000000,"state":"active","ping":61},{"user_id":24,"name":"ewp","steam_id":76561199148289271,"connected_time":683000000000,"state":"active","ping":141},{"user_id":25,"name":"lpk","steam_id":76561198025478698,"connected_time":668000000000,"state":"active","ping":64},{"user_id":26,"name":"Female Gamer","steam_id":76561199366482682,"connected_time":664000000000,"state":"active","ping":104},{"user_id":27,"name":"roflstomper","steam_id":76561199483951635,"connected_time":626000000000,"state":"active","ping":92},{"user_id":29,"name":"Transgender Guy Fieri","steam_id":76561198801467075,"connected_time":506000000000,"state":"active","ping":55},{"user_id":30,"name":"paypur -rng","steam_id":76561198214370515,"connected_time":473000000000,"state":"active","ping":75},{"user_id":31,"name":"Buswolley","steam_id":76561197995205571,"connected_time":439000000000,"state":"active","ping":90},{"user_id":34,"name":"Scuba Steve","steam_id":76561198313018251,"connected_time":403000000000,"state":"active","ping":71},{"user_id":46,"name":"walrus","steam_id":76561198057853319,"connected_time":40000000000,"state":"active","ping":88},{"user_id":47,"name":"Hoovy","steam_id":76561198409907417,"connected_time":39000000000,"state":"active","ping":86},{"user_id":36,"name":"Anyar","steam_id":76561198160174097,"connected_time":401000000000,"state":"active","ping":74},{"user_id":37,"name":"Definitely Not A Cat","steam_id":76561198123464621,"connected_time":393000000000,"state":"active","ping":91},{"user_id":38,"name":"Darling","steam_id":76561198127525888,"connected_time":392000000000,"state":"active","ping":43},{"user_id":39,"name":"caRat","steam_id":76561198859267372,"connected_time":392000000000,"state":"active","ping":74},{"user_id":41,"name":"Tired","steam_id":76561198072620682,"connected_time":363000000000,"state":"active","ping":76},{"user_id":43,"name":"Kzjytsugn","steam_id":76561198130241974,"connected_time":206000000000,"state":"active","ping":90}]},{"server_id":404,"name":"Uncletopia | Dallas | 3 | All Maps","name_short":"dal-3","host":"dal-1.us.uncletopia.com","port":27035,"enabled":true,"region":"us-central","cc":"us","latitude":32.779167,"longitude":-96.80889,"reserved":0,"last_update":"0001-01-01T00:00:00Z","name_a2s":"Uncletopia | Dallas | 3 | All Maps","protocol":17,"map":"pl_badwater","folder":"tf","game":"Team Fortress","app_id":440,"player_count":0,"max_players":24,"Bots":0,"server_type":"Dedicated","server_os":"Linux","password":true,"vac":true,"version":"7961495","steam_id":85568392924515219,"keywords":["nocrits","nodmgspread","payload","uncletopia"],"game_id":440,"stv_port":27036,"stv_name":"Uncletopia | Dallas | 3 | All Maps | STV","players":null},{"server_id":405,"name":"Uncletopia | Dallas | 4 | Community","name_short":"dal-4","host":"dal-1.us.uncletopia.com","port":27045,"enabled":true,"region":"us-central","cc":"us","latitude":32.779167,"longitude":-96.80889,"reserved":0,"last_update":"0001-01-01T00:00:00Z","name_a2s":"Uncletopia | Dallas | 4 | Community","protocol":17,"map":"workshop/cp_sulfur_rc2.ugc619869471","folder":"tf","game":"Team Fortress","app_id":440,"player_count":0,"max_players":24,"Bots":0,"server_type":"Dedicated","server_os":"Linux","password":true,"vac":true,"version":"7961495","steam_id":85568392924515220,"keywords":["cp","nocrits","nodmgspread","uncletopia"],"game_id":440,"stv_port":27046,"stv_name":"Uncletopia | Dallas | 4 | Community | STV","players":null},{"server_id":5,"name":"Uncletopia | Frankfurt | 1 | All Maps","name_short":"frk-1","host":"frk-1.de.uncletopia.com","port":27015,"enabled":true,"region":"eu","cc":"de","latitude":50.110924,"longitude":8.682127,"reserved":0,"last_update":"0001-01-01T00:00:00Z","name_a2s":"Uncletopia | Frankfurt | 1 | All Maps","protocol":17,"map":"cp_mountainlab","folder":"tf","game":"Team Fortress","app_id":440,"player_count":24,"max_players":24,"Bots":0,"server_type":"Dedicated","server_os":"Linux","password":true,"vac":true,"version":"7961495","steam_id":85568392924469989,"keywords":["cp","nocrits","nodmgspread","uncletopia"],"game_id":440,"stv_port":27016,"stv_name":"Uncletopia | Frankfurt | 1 | All Maps | STV","players":[{"user_id":318,"name":"selkie","steam_id":76561198329321007,"connected_time":4442000000000,"state":"active","ping":104},{"user_id":394,"name":"Janis","steam_id":76561198415397745,"connected_time":45000000000,"state":"active","ping":68},{"user_id":357,"name":"mr freeman","steam_id":76561199466019231,"connected_time":2632000000000,"state":"active","ping":63},{"user_id":327,"name":"Poppy Stingray","steam_id":76561198049673783,"connected_time":3982000000000,"state":"active","ping":73},{"user_id":393,"name":"Se√±or Capybara","steam_id":76561198967668081,"connected_time":58000000000,"state":"active","ping":43},{"user_id":381,"name":"Ghost11","steam_id":76561198068892992,"connected_time":841000000000,"state":"active","ping":104},{"user_id":314,"name":"–≤a—Ñe–ª—å–Ωoe –ºo—Äo–∂e–Ωoe","steam_id":76561199074883856,"connected_time":4583000000000,"state":"active","ping":50},{"user_id":347,"name":"12345_0098","steam_id":76561199108021499,"connected_time":3360000000000,"state":"active","ping":104},{"user_id":368,"name":"Michal Jordan (real)","steam_id":76561199106262610,"connected_time":1578000000000,"state":"active","ping":50},{"user_id":363,"name":"Umme","steam_id":76561198053809566,"connected_time":2233000000000,"state":"active","ping":84},{"user_id":377,"name":"[Sheep] Tomco","steam_id":76561198388549261,"connected_time":972000000000,"state":"active","ping":73},{"user_id":370,"name":"Renolox","steam_id":76561198036590182,"connected_time":1201000000000,"state":"active","ping":76},{"user_id":331,"name":"Joejee","steam_id":76561199122423976,"connected_time":3799000000000,"state":"active","ping":77},{"user_id":349,"name":"Jesus","steam_id":76561198055998828,"connected_time":3292000000000,"state":"active","ping":69},{"user_id":378,"name":"Jojoo","steam_id":76561198364897356,"connected_time":942000000000,"state":"active","ping":44},{"user_id":395,"name":"Lieutenant Porky","steam_id":76561198076939947,"connected_time":22000000000,"state":"active","ping":63},{"user_id":391,"name":"EndZR0","steam_id":76561198207649880,"connected_time":348000000000,"state":"active","ping":89},{"user_id":337,"name":"Giga–°had Pyro","steam_id":76561198140742485,"connected_time":3526000000000,"state":"active","ping":100},{"user_id":322,"name":"PLSNO (RYAN)","steam_id":76561198086542505,"connected_time":4375000000000,"state":"active","ping":63},{"user_id":379,"name":"Breastmaster","steam_id":76561198315696990,"connected_time":940000000000,"state":"active","ping":93},{"user_id":396,"name":"Travorski","steam_id":76561198072493142,"connected_time":13000000000,"state":"spawning","ping":179},{"user_id":384,"name":"Sorry","steam_id":76561198040722720,"connected_time":775000000000,"state":"active","ping":160},{"user_id":324,"name":"Finnish Farmer","steam_id":76561198205366043,"connected_time":4343000000000,"state":"active","ping":80},{"user_id":360,"name":"I'm past the point of insanity","steam_id":76561198800954471,"connected_time":2565000000000,"state":"active","ping":75}]},{"server_id":110,"name":"Uncletopia | Frankfurt | 2 | All Maps","name_short":"frk-2","host":"frk-1.de.uncletopia.com","port":27025,"enabled":true,"region":"eu","cc":"de","latitude":50.110924,"longitude":8.682127,"reserved":0,"last_update":"0001-01-01T00:00:00Z","name_a2s":"Uncletopia | Frankfurt | 2 | All Maps","protocol":17,"map":"pl_barnblitz","folder":"tf","game":"Team Fortress","app_id":440,"player_count":21,"max_players":24,"Bots":0,"server_type":"Dedicated","server_os":"Linux","password":true,"vac":true,"version":"7961495","steam_id":85568392924469990,"keywords":["nocrits","nodmgspread","payload","uncletopia"],"game_id":440,"stv_port":27026,"stv_name":"Uncletopia | Frankfurt | 2 | All Maps | STV","players":[{"user_id":114,"name":"CzechMate #SaveTF2","steam_id":76561198012687703,"connected_time":9245000000000,"state":"active","ping":46},{"user_id":210,"name":"Doriian","steam_id":76561198071438810,"connected_time":3386000000000,"state":"active","ping":74},{"user_id":230,"name":"Mind Fuzz","steam_id":76561198050079428,"connected_time":2311000000000,"state":"active","ping":91},{"user_id":208,"name":"mat987","steam_id":76561198152125214,"connected_time":3480000000000,"state":"active","ping":33},{"user_id":238,"name":"janga","steam_id":76561197977643629,"connected_time":1843000000000,"state":"active","ping":47},{"user_id":260,"name":"Special Agent Big Smoke","steam_id":76561198154468827,"connected_time":3000000000,"state":"spawning","ping":87},{"user_id":256,"name":"emir","steam_id":76561198113089831,"connected_time":357000000000,"state":"active","ping":83},{"user_id":220,"name":"Watermelon","steam_id":76561198078349914,"connected_time":2996000000000,"state":"active","ping":58},{"user_id":251,"name":"St. Pablo","steam_id":76561199009805208,"connected_time":1129000000000,"state":"active","ping":94},{"user_id":259,"name":"very_cool_gamer","steam_id":76561199376433147,"connected_time":58000000000,"state":"spawning","ping":47},{"user_id":232,"name":"Industrial Revolution","steam_id":76561198230811124,"connected_time":2250000000000,"state":"active","ping":53},{"user_id":242,"name":"void monad","steam_id":76561198117012334,"connected_time":1700000000000,"state":"active","ping":86},{"user_id":253,"name":"bAdmon","steam_id":76561197961785793,"connected_time":558000000000,"state":"active","ping":61},{"user_id":250,"name":"1couver","steam_id":76561198168553215,"connected_time":1219000000000,"state":"active","ping":89},{"user_id":216,"name":"Syd","steam_id":76561198020515027,"connected_time":3212000000000,"state":"active","ping":81},{"user_id":235,"name":"tallen","steam_id":76561198061708595,"connected_time":2112000000000,"state":"active","ping":72},{"user_id":245,"name":"stegosaurus rex","steam_id":76561199120843402,"connected_time":1644000000000,"state":"active","ping":53},{"user_id":246,"name":"_Alonso","steam_id":76561198041893314,"connected_time":1537000000000,"state":"active","ping":50},{"user_id":209,"name":"Darkf065","steam_id":76561199029257202,"connected_time":3425000000000,"state":"active","ping":108},{"user_id":240,"name":"Jackie Horn(y)er","steam_id":76561198136591319,"connected_time":1835000000000,"state":"active","ping":77},{"user_id":255,"name":"the least schizo John Pork cook","steam_id":76561198048530109,"connected_time":545000000000,"state":"active","ping":69}]},{"server_id":308,"name":"Uncletopia | Frankfurt | 3 | All Maps","name_short":"frk-3","host":"frk-1.de.uncletopia.com","port":27035,"enabled":true,"region":"eu","cc":"de","latitude":50.110924,"longitude":8.682127,"reserved":0,"last_update":"0001-01-01T00:00:00Z","name_a2s":"Uncletopia | Frankfurt | 3 | All Maps","protocol":17,"map":"koth_sawmill","folder":"tf","game":"Team Fortress","app_id":440,"player_count":23,"max_players":24,"Bots":0,"server_type":"Dedicated","server_os":"Linux","password":true,"vac":true,"version":"7961495","steam_id":85568392924504274,"keywords":["cp","nocrits","nodmgspread","uncletopia"],"game_id":440,"stv_port":27036,"stv_name":"Uncletopia | Frankfurt | 3 | All Maps | STV","players":[{"user_id":236,"name":"Archive","steam_id":76561198071255385,"connected_time":3825000000000,"state":"active","ping":86},{"user_id":254,"name":"Kfer :3","steam_id":76561198809708638,"connected_time":2948000000000,"state":"active","ping":81},{"user_id":259,"name":"Ketich","steam_id":76561198021772703,"connected_time":2768000000000,"state":"active","ping":70},{"user_id":288,"name":"Lanz","steam_id":76561198126356394,"connected_time":418000000000,"state":"active","ping":52},{"user_id":271,"name":"Lukas","steam_id":76561198454286820,"connected_time":1365000000000,"state":"active","ping":150},{"user_id":284,"name":"Jesus Cristi","steam_id":76561198884383604,"connected_time":522000000000,"state":"active","ping":90},{"user_id":223,"name":"Toasty5050","steam_id":76561198073540881,"connected_time":4542000000000,"state":"active","ping":41},{"user_id":276,"name":"Bunnygirl Stalin","steam_id":76561199044101274,"connected_time":676000000000,"state":"active","ping":59},{"user_id":222,"name":"Rimx","steam_id":76561198053034840,"connected_time":4651000000000,"state":"active","ping":89},{"user_id":231,"name":"Tuosan","steam_id":76561198062611429,"connected_time":4061000000000,"state":"active","ping":75},{"user_id":291,"name":"Raul","steam_id":76561199454842303,"connected_time":180000000000,"state":"active","ping":187},{"user_id":240,"name":"‚ù§Speedbump‚ù§","steam_id":76561198388690313,"connected_time":3525000000000,"state":"active","ping":58},{"user_id":287,"name":"Dandolive","steam_id":76561199436592277,"connected_time":462000000000,"state":"active","ping":70},{"user_id":269,"name":"Nikt Wa≈ºny (F2P)","steam_id":76561199273293257,"connected_time":1540000000000,"state":"active","ping":202},{"user_id":282,"name":"BingusDingus","steam_id":76561198310983903,"connected_time":594000000000,"state":"active","ping":61},{"user_id":292,"name":"RattaGams","steam_id":76561198866259365,"connected_time":93000000000,"state":"active","ping":117},{"user_id":264,"name":"azzy","steam_id":76561198061293740,"connected_time":2323000000000,"state":"active","ping":83},{"user_id":289,"name":"‚ò≠TheDevilsEye‚ò≠","steam_id":76561198017379398,"connected_time":308000000000,"state":"active","ping":71},{"user_id":266,"name":"≈úensei Quack","steam_id":76561198375446077,"connected_time":2002000000000,"state":"active","ping":99},{"user_id":290,"name":"Maddox","steam_id":76561198026419869,"connected_time":299000000000,"state":"active","ping":71},{"user_id":247,"name":"A Cat","steam_id":76561199015740181,"connected_time":3438000000000,"state":"active","ping":93},{"user_id":286,"name":"rets_","steam_id":76561198061551392,"connected_time":469000000000,"state":"active","ping":47},{"user_id":270,"name":"Floris","steam_id":76561198001717422,"connected_time":1480000000000,"state":"active","ping":66}]},{"server_id":309,"name":"Uncletopia | Frankfurt | 4 | All Maps","name_short":"frk-4","host":"frk-1.de.uncletopia.com","port":27045,"enabled":true,"region":"eu","cc":"de","latitude":50.110924,"longitude":8.682127,"reserved":0,"last_update":"0001-01-01T00:00:00Z","name_a2s":"Uncletopia | Frankfurt | 4 | All Maps","protocol":17,"map":"pl_borneo","folder":"tf","game":"Team Fortress","app_id":440,"player_count":24,"max_players":24,"Bots":0,"server_type":"Dedicated","server_os":"Linux","password":true,"vac":true,"version":"7961495","steam_id":85568392924504275,"keywords":["nocrits","nodmgspread","payload","uncletopia"],"game_id":440,"stv_port":27046,"stv_name":"Uncletopia | Frankfurt | 4 | All Maps | STV","players":[{"user_id":309,"name":"Mr. Mundy","steam_id":76561198132008918,"connected_time":2994000000000,"state":"active","ping":72},{"user_id":357,"name":"Neeeiks","steam_id":76561198009156801,"connected_time":284000000000,"state":"active","ping":88},{"user_id":360,"name":"Peat","steam_id":76561197992168067,"connected_time":64000000000,"state":"active","ping":69},{"user_id":361,"name":"Collie","steam_id":76561198149072785,"connected_time":52000000000,"state":"active","ping":109},{"user_id":337,"name":"Solar","steam_id":76561199121361391,"connected_time":1422000000000,"state":"active","ping":73},{"user_id":238,"name":"Hexakosioihexekontahexaphobia","steam_id":76561198070805240,"connected_time":7528000000000,"state":"active","ping":117},{"user_id":313,"name":"magnos62564","steam_id":76561198356968225,"connected_time":2907000000000,"state":"active","ping":60},{"user_id":340,"name":"Dot","steam_id":76561198047299145,"connected_time":1018000000000,"state":"active","ping":82},{"user_id":362,"name":"etc","steam_id":76561197998394797,"connected_time":40000000000,"state":"active","ping":54},{"user_id":324,"name":"I'm fucking insane","steam_id":76561198151860627,"connected_time":2229000000000,"state":"active","ping":78},{"user_id":348,"name":"‚ô•‚ô•TGA‚ô•‚ô•","steam_id":76561198853016656,"connected_time":455000000000,"state":"active","ping":57},{"user_id":349,"name":"Ple3venged","steam_id":76561199128528323,"connected_time":451000000000,"state":"active","ping":46},{"user_id":352,"name":"Salagahadin","steam_id":76561198111709509,"connected_time":362000000000,"state":"active","ping":69},{"user_id":332,"name":"HuHD3—è_B_Ad1dAsE","steam_id":76561198110470565,"connected_time":1914000000000,"state":"active","ping":92},{"user_id":297,"name":"Hexagon","steam_id":76561198151205758,"connected_time":3329000000000,"state":"active","ping":45},{"user_id":350,"name":"jayden","steam_id":76561198803745807,"connected_time":434000000000,"state":"active","ping":71},{"user_id":359,"name":"Vytuzas","steam_id":76561198012868436,"connected_time":248000000000,"state":"active","ping":75},{"user_id":351,"name":"V·¥Ä ü·¥ÄÍú∞·¥Ä Ä","steam_id":76561198069723799,"connected_time":413000000000,"state":"active","ping":49},{"user_id":344,"name":"Righty","steam_id":76561199224705434,"connected_time":639000000000,"state":"active","ping":116},{"user_id":355,"name":"marko","steam_id":76561198274165935,"connected_time":330000000000,"state":"active","ping":72},{"user_id":334,"name":"Rock..","steam_id":76561198004641963,"connected_time":1721000000000,"state":"active","ping":87},{"user_id":358,"name":"Chester the Molester","steam_id":76561198345733731,"connected_time":268000000000,"state":"active","ping":87},{"user_id":331,"name":"mp1mp2mp3","steam_id":76561198088967665,"connected_time":2056000000000,"state":"active","ping":91}]},{"server_id":310,"name":"Uncletopia | Frankfurt | 5 | All Maps","name_short":"frk-5","host":"frk-1.de.uncletopia.com","port":27055,"enabled":true,"region":"eu","cc":"de","latitude":50.110924,"longitude":8.682127,"reserved":0,"last_update":"0001-01-01T00:00:00Z","name_a2s":"Uncletopia | Frankfurt | 5 | All Maps","protocol":17,"map":"koth_cascade","folder":"tf","game":"Team Fortress","app_id":440,"player_count":21,"max_players":24,"Bots":0,"server_type":"Dedicated","server_os":"Linux","password":true,"vac":true,"version":"7961495","steam_id":85568392924504277,"keywords":["cp","nocrits","nodmgspread","uncletopia"],"game_id":440,"stv_port":27056,"stv_name":"Uncletopia | Frankfurt | 5 | All Maps | STV","players":[{"user_id":22,"name":"Kekkonen","steam_id":76561198944072942,"connected_time":2499000000000,"state":"active","ping":87},{"user_id":28,"name":"stefanbejenari","steam_id":76561199466718294,"connected_time":1632000000000,"state":"active","ping":71},{"user_id":50,"name":"Fridge","steam_id":76561198071665589,"connected_time":403000000000,"state":"active","ping":89},{"user_id":27,"name":"BurningJoke","steam_id":76561199014358707,"connected_time":1751000000000,"state":"active","ping":49},{"user_id":38,"name":"sex toilet","steam_id":76561198412197820,"connected_time":1266000000000,"state":"active","ping":85},{"user_id":47,"name":"Dr.CandyCane","steam_id":76561199238207915,"connected_time":796000000000,"state":"active","ping":93},{"user_id":48,"name":"nemelex","steam_id":76561198958005865,"connected_time":615000000000,"state":"active","ping":59},{"user_id":58,"name":"Ethylbenzene Consumer","steam_id":76561198170150914,"connected_time":103000000000,"state":"active","ping":65},{"user_id":51,"name":"Dragonfly","steam_id":76561198154350231,"connected_time":359000000000,"state":"active","ping":81},{"user_id":53,"name":"Glw","steam_id":76561198012410589,"connected_time":207000000000,"state":"active","ping":55},{"user_id":36,"name":"Duktigafred","steam_id":76561199211222396,"connected_time":1370000000000,"state":"active","ping":64},{"user_id":37,"name":"Yuzu","steam_id":76561198121694613,"connected_time":1361000000000,"state":"active","ping":49},{"user_id":54,"name":"Hopeless","steam_id":76561198113921161,"connected_time":206000000000,"state":"active","ping":50},{"user_id":44,"name":"JVLIVS","steam_id":76561198366167099,"connected_time":913000000000,"state":"active","ping":45},{"user_id":45,"name":"Bodalika","steam_id":76561199238644230,"connected_time":882000000000,"state":"active","ping":100},{"user_id":46,"name":"‚≠êKukalooka‚≠ê","steam_id":76561198188983945,"connected_time":860000000000,"state":"active","ping":75},{"user_id":55,"name":"Pinkchup","steam_id":76561198106802803,"connected_time":145000000000,"state":"active","ping":77},{"user_id":56,"name":"Ineanto","steam_id":76561198067247630,"connected_time":119000000000,"state":"active","ping":59},{"user_id":57,"name":"eevee","steam_id":76561198447072392,"connected_time":111000000000,"state":"active","ping":78},{"user_id":59,"name":"chlpatysirak","steam_id":76561198166477552,"connected_time":14000000000,"state":"spawning","ping":56},{"user_id":60,"name":"Well, off to hang myself","steam_id":76561198053374944,"connected_time":8000000000,"state":"spawning","ping":58}]},{"server_id":311,"name":"Uncletopia | Frankfurt | 6 | All Maps","name_short":"frk-6","host":"frk-1.de.uncletopia.com","port":27065,"enabled":true,"region":"eu","cc":"de","latitude":50.110924,"longitude":8.682127,"reserved":0,"last_update":"0001-01-01T00:00:00Z","name_a2s":"Uncletopia | Frankfurt | 6 | All Maps","protocol":17,"map":"koth_lakeside_final","folder":"tf","game":"Team Fortress","app_id":440,"player_count":0,"max_players":24,"Bots":0,"server_type":"Dedicated","server_os":"Linux","password":true,"vac":true,"version":"7961495","steam_id":85568392924504278,"keywords":["cp","nocrits","nodmgspread","uncletopia"],"game_id":440,"stv_port":27066,"stv_name":"Uncletopia | Frankfurt | 6 | All Maps | STV","players":null},{"server_id":23,"name":"Uncletopia | Frankfurt | 7 | Stopwatch","name_short":"frk-7","host":"frk-1.de.uncletopia.com","port":27075,"enabled":true,"region":"eu","cc":"de","latitude":50.110924,"longitude":8.682127,"reserved":0,"last_update":"0001-01-01T00:00:00Z","name_a2s":"Uncletopia | Frankfurt | 7 | Stopwatch","protocol":17,"map":"workshop/pl_barnblitz_pro7.ugc582280235","folder":"tf","game":"Team Fortress","app_id":440,"player_count":24,"max_players":24,"Bots":0,"server_type":"Dedicated","server_os":"Linux","password":true,"vac":true,"version":"7961495","steam_id":85568392924742827,"keywords":["nocrits","nodmgspread","payload","uncletopia"],"game_id":440,"stv_port":27076,"stv_name":"Uncletopia | Frankfurt | 7 | Stopwatch | STV","players":[{"user_id":82,"name":"Jnet","steam_id":76561198001282720,"connected_time":2833000000000,"state":"active","ping":100},{"user_id":123,"name":"grigobno","steam_id":76561198037018719,"connected_time":136000000000,"state":"active","ping":105},{"user_id":110,"name":"tired","steam_id":76561198046838168,"connected_time":732000000000,"state":"active","ping":47},{"user_id":124,"name":"Nozzo","steam_id":76561198012367783,"connected_time":133000000000,"state":"active","ping":74},{"user_id":103,"name":"[ESP]_RuffuS","steam_id":76561199089344686,"connected_time":1291000000000,"state":"active","ping":86},{"user_id":106,"name":"1ankelaa [CSBRO]","steam_id":76561199084693841,"connected_time":1004000000000,"state":"active","ping":56},{"user_id":97,"name":"kingmax","steam_id":76561199379221929,"connected_time":1604000000000,"state":"active","ping":45},{"user_id":98,"name":"ran is running","steam_id":76561199443185667,"connected_time":1596000000000,"state":"active","ping":130},{"user_id":118,"name":"NothingMan","steam_id":76561198051284446,"connected_time":286000000000,"state":"active","ping":40},{"user_id":99,"name":"Kenny","steam_id":76561198994898206,"connected_time":1595000000000,"state":"active","ping":73},{"user_id":91,"name":"jovi_","steam_id":76561198449280552,"connected_time":1955000000000,"state":"active","ping":56},{"user_id":108,"name":"Your Local Pybro","steam_id":76561198801472157,"connected_time":921000000000,"state":"active","ping":41},{"user_id":93,"name":"Boxtrot","steam_id":76561198026321441,"connected_time":1813000000000,"state":"active","ping":68},{"user_id":86,"name":"the beesknees;-;","steam_id":76561198924118328,"connected_time":2713000000000,"state":"active","ping":36},{"user_id":109,"name":"A Wild Cunt","steam_id":76561198838391565,"connected_time":895000000000,"state":"active","ping":149},{"user_id":114,"name":"JohnTraveltime","steam_id":76561199244281754,"connected_time":524000000000,"state":"active","ping":64},{"user_id":73,"name":"joachym","steam_id":76561198428579761,"connected_time":3156000000000,"state":"active","ping":65},{"user_id":125,"name":"CheesingBond","steam_id":76561198034939270,"connected_time":92000000000,"state":"active","ping":110},{"user_id":115,"name":"Akira_tenjo","steam_id":76561199497289723,"connected_time":451000000000,"state":"active","ping":111},{"user_id":65,"name":"hey STUPID! I'm over here...","steam_id":76561198056388702,"connected_time":3655000000000,"state":"active","ping":89},{"user_id":100,"name":"tem","steam_id":76561198354890792,"connected_time":1591000000000,"state":"active","ping":60},{"user_id":111,"name":"BIGTRAX","steam_id":76561198044331958,"connected_time":707000000000,"state":"active","ping":92},{"user_id":112,"name":"Japive","steam_id":76561198046099739,"connected_time":693000000000,"state":"active","ping":55},{"user_id":122,"name":"not a nihilist","steam_id":76561198004340466,"connected_time":190000000000,"state":"active","ping":47}]},{"server_id":24,"name":"Uncletopia | Frankfurt | 8 | Community","name_short":"frk-8","host":"frk-1.de.uncletopia.com","port":27085,"enabled":true,"region":"eu","cc":"de","latitude":50.110924,"longitude":8.682127,"reserved":0,"last_update":"0001-01-01T00:00:00Z","name_a2s":"Uncletopia | Frankfurt | 8 | Community","protocol":17,"map":"workshop/koth_slaughter_rc1.ugc1712845210","folder":"tf","game":"Team Fortress","app_id":440,"player_count":0,"max_players":24,"Bots":0,"server_type":"Dedicated","server_os":"Linux","password":true,"vac":true,"version":"7961495","steam_id":85568392924742828,"keywords":["cp","nocrits","nodmgspread","uncletopia"],"game_id":440,"stv_port":27086,"stv_name":"Uncletopia | Frankfurt | 8 | Community | STV","players":null},{"server_id":202,"name":"Uncletopia | Hong Kong | 1 | All Maps","name_short":"hgk-1","host":"hgk-1.hk.uncletopia.com","port":27015,"enabled":true,"region":"asia","cc":"hk","latitude":22.302711,"longitude":114.177216,"reserved":0,"last_update":"0001-01-01T00:00:00Z","name_a2s":"Uncletopia | Hong Kong | 1 | All Maps","protocol":17,"map":"cp_snakewater_final1","folder":"tf","game":"Team Fortress","app_id":440,"player_count":0,"max_players":24,"Bots":0,"server_type":"Dedicated","server_os":"Linux","password":true,"vac":true,"version":"7961495","steam_id":85568392924494504,"keywords":["cp","nocrits","nodmgspread","uncletopia"],"game_id":440,"stv_port":27016,"stv_name":"Uncletopia | Hong Kong | 1 | All Maps | STV","players":null},{"server_id":1,"name":"Uncletopia | Los Angeles | 1 | All Maps","name_short":"lax-1","host":"lax-1.us.uncletopia.com","port":27015,"enabled":true,"region":"us-west","cc":"us","latitude":33.94279,"longitude":-118.41004,"reserved":0,"last_update":"0001-01-01T00:00:00Z","name_a2s":"Uncletopia | Los Angeles | 1 | All Maps","protocol":17,"map":"cp_process_final","folder":"tf","game":"Team Fortress","app_id":440,"player_count":0,"max_players":24,"Bots":0,"server_type":"Dedicated","server_os":"Linux","password":true,"vac":true,"version":"7961495","steam_id":85568392924469991,"keywords":["cp","nocrits","nodmgspread","uncletopia"],"game_id":440,"stv_port":27016,"stv_name":"Uncletopia | Los Angeles | 1 | All Maps | STV","players":null},{"server_id":112,"name":"Uncletopia | Los Angeles | 2 | All Maps","name_short":"lax-2","host":"lax-1.us.uncletopia.com","port":27025,"enabled":true,"region":"us-west","cc":"us","latitude":33.94279,"longitude":-118.41004,"reserved":0,"last_update":"0001-01-01T00:00:00Z","name_a2s":"Uncletopia | Los Angeles | 2 | All Maps","protocol":17,"map":"koth_cascade","folder":"tf","game":"Team Fortress","app_id":440,"player_count":0,"max_players":24,"Bots":0,"server_type":"Dedicated","server_os":"Linux","password":true,"vac":true,"version":"7961495","steam_id":85568392924469992,"keywords":["cp","nocrits","nodmgspread","uncletopia"],"game_id":440,"stv_port":27026,"stv_name":"Uncletopia | Los Angeles | 2 | All Maps | STV","players":null},{"server_id":324,"name":"Uncletopia | Los Angeles | 3 | All Maps","name_short":"lax-3","host":"lax-1.us.uncletopia.com","port":27035,"enabled":true,"region":"us-west","cc":"us","latitude":33.94279,"longitude":-118.41004,"reserved":0,"last_update":"0001-01-01T00:00:00Z","name_a2s":"Uncletopia | Los Angeles | 3 | All Maps","protocol":17,"map":"pl_frontier_final","folder":"tf","game":"Team Fortress","app_id":440,"player_count":0,"max_players":24,"Bots":0,"server_type":"Dedicated","server_os":"Linux","password":true,"vac":true,"version":"7961495","steam_id":85568392924510198,"keywords":["nocrits","nodmgspread","payload","uncletopia"],"game_id":440,"stv_port":27036,"stv_name":"Uncletopia | Los Angeles | 3 | All Maps | STV","players":null},{"server_id":25,"name":"Uncletopia | Los Angeles | 4 | Stopwatch","name_short":"lax-4","host":"lax-1.us.uncletopia.com","port":27045,"enabled":true,"region":"us-west","cc":"us","latitude":33.94279,"longitude":-118.41004,"reserved":0,"last_update":"0001-01-01T00:00:00Z","name_a2s":"Uncletopia | Los Angeles | 4 | Stopwatch","protocol":17,"map":"pl_barnblitz","folder":"tf","game":"Team Fortress","app_id":440,"player_count":0,"max_players":24,"Bots":0,"server_type":"Dedicated","server_os":"Linux","password":true,"vac":true,"version":"7961495","steam_id":85568392924510199,"keywords":["nocrits","nodmgspread","payload","uncletopia"],"game_id":440,"stv_port":27046,"stv_name":"Uncletopia | Los Angeles | 4 | Stopwatch | STV","players":null},{"server_id":11,"name":"Uncletopia | London | 1 | All Maps","name_short":"lon-1","host":"lon-1.uk.uncletopia.com","port":27015,"enabled":true,"region":"eu","cc":"gb","latitude":51.509865,"longitude":-0.118092,"reserved":0,"last_update":"0001-01-01T00:00:00Z","name_a2s":"Uncletopia | London | 1 | All Maps","protocol":17,"map":"cp_sunshine","folder":"tf","game":"Team Fortress","app_id":440,"player_count":24,"max_players":24,"Bots":0,"server_type":"Dedicated","server_os":"Linux","password":true,"vac":true,"version":"7961495","steam_id":85568392924367362,"keywords":["cp","nocrits","nodmgspread","uncletopia"],"game_id":440,"stv_port":27016,"stv_name":"Uncletopia | London | 1 | All Maps | STV","players":[{"user_id":509,"name":"shooer!","steam_id":76561198110531281,"connected_time":12505000000000,"state":"active","ping":70},{"user_id":601,"name":"helps me helps me why7 yuo no h","steam_id":76561198190583242,"connected_time":4889000000000,"state":"active","ping":81},{"user_id":647,"name":"Brrpstr","steam_id":76561198394221491,"connected_time":957000000000,"state":"active","ping":69},{"user_id":639,"name":"Remyie","steam_id":76561198131031404,"connected_time":1089000000000,"state":"active","ping":91},{"user_id":599,"name":"jimmy bob","steam_id":76561198319583692,"connected_time":5389000000000,"state":"active","ping":60},{"user_id":649,"name":"asa004","steam_id":76561198160323444,"connected_time":741000000000,"state":"active","ping":75},{"user_id":607,"name":"Caruzon - Obismal","steam_id":76561198036211170,"connected_time":4617000000000,"state":"active","ping":87},{"user_id":656,"name":"‚Ä¢ Siigz","steam_id":76561198433041663,"connected_time":9000000000,"state":"spawning","ping":48},{"user_id":608,"name":"DHD - Obismal","steam_id":76561198000356530,"connected_time":4611000000000,"state":"active","ping":75},{"user_id":630,"name":"Judicator Slifer","steam_id":76561198062255803,"connected_time":2938000000000,"state":"active","ping":73},{"user_id":609,"name":"R8N - Obismal","steam_id":76561198007482714,"connected_time":4598000000000,"state":"active","ping":78},{"user_id":568,"name":"testing","steam_id":76561199383437138,"connected_time":8056000000000,"state":"active","ping":125},{"user_id":631,"name":"im jelqing","steam_id":76561198236015392,"connected_time":2698000000000,"state":"active","ping":119},{"user_id":611,"name":"BigDikNRJ - Obismal","steam_id":76561198055309521,"connected_time":4562000000000,"state":"active","ping":79},{"user_id":627,"name":"Sinnamonsters","steam_id":76561198423422354,"connected_time":3079000000000,"state":"active","ping":143},{"user_id":654,"name":"\u003e\u003c\u003e","steam_id":76561198152392309,"connected_time":427000000000,"state":"active","ping":51},{"user_id":566,"name":"gibb (official)","steam_id":76561198074097655,"connected_time":8201000000000,"state":"active","ping":65},{"user_id":655,"name":"KnugenIV","steam_id":76561198127091993,"connected_time":299000000000,"state":"active","ping":62},{"user_id":652,"name":"row","steam_id":76561198053400769,"connected_time":559000000000,"state":"active","ping":47},{"user_id":636,"name":"trite","steam_id":76561197983765323,"connected_time":1694000000000,"state":"active","ping":56},{"user_id":653,"name":"I Love Filtered Water","steam_id":76561198016042113,"connected_time":541000000000,"state":"active","ping":83},{"user_id":643,"name":"Purple Soup :D","steam_id":76561198985100366,"connected_time":1038000000000,"state":"active","ping":94},{"user_id":634,"name":"Plep","steam_id":76561198840259819,"connected_time":2112000000000,"state":"active","ping":51},{"user_id":646,"name":"Andreus","steam_id":76561199403926001,"connected_time":988000000000,"state":"active","ping":73}]},{"server_id":114,"name":"Uncletopia | London | 2 | All Maps","name_short":"lon-2","host":"lon-1.uk.uncletopia.com","port":27025,"enabled":true,"region":"eu","cc":"gb","latitude":51.509865,"longitude":-0.118092,"reserved":0,"last_update":"0001-01-01T00:00:00Z","name_a2s":"Uncletopia | London | 2 | All Maps","protocol":17,"map":"cp_foundry","folder":"tf","game":"Team Fortress","app_id":440,"player_count":19,"max_players":24,"Bots":0,"server_type":"Dedicated","server_os":"Linux","password":true,"vac":true,"version":"7961495","steam_id":85568392924470941,"keywords":["cp","nocrits","nodmgspread","uncletopia"],"game_id":440,"stv_port":27026,"stv_name":"Uncletopia | London | 2 | All Maps | STV","players":[{"user_id":502,"name":"Fidacha","steam_id":76561198003060881,"connected_time":491000000000,"state":"active","ping":74},{"user_id":413,"name":"d u k k i","steam_id":76561198071807437,"connected_time":6938000000000,"state":"active","ping":90},{"user_id":499,"name":"cant find waldo. HELP","steam_id":76561198017114970,"connected_time":657000000000,"state":"active","ping":45},{"user_id":452,"name":"dash.","steam_id":76561198084796149,"connected_time":4183000000000,"state":"active","ping":45},{"user_id":497,"name":"FrostyBob","steam_id":76561197997161148,"connected_time":709000000000,"state":"active","ping":74},{"user_id":474,"name":"Gruset","steam_id":76561198327512432,"connected_time":2613000000000,"state":"active","ping":75},{"user_id":478,"name":"Bob D","steam_id":76561198026375630,"connected_time":2346000000000,"state":"active","ping":45},{"user_id":479,"name":"t_g","steam_id":76561198057028649,"connected_time":2340000000000,"state":"active","ping":51},{"user_id":498,"name":"RSeph‚Ñ¢","steam_id":76561198107908797,"connected_time":683000000000,"state":"active","ping":62},{"user_id":503,"name":"cez","steam_id":76561198361380956,"connected_time":418000000000,"state":"active","ping":38},{"user_id":446,"name":"hananamanna","steam_id":76561198006570285,"connected_time":4589000000000,"state":"active","ping":110},{"user_id":485,"name":"just_adhenz1284 #SaveTF2","steam_id":76561198293654671,"connected_time":2275000000000,"state":"active","ping":166},{"user_id":469,"name":"Big Basti","steam_id":76561198261804144,"connected_time":2879000000000,"state":"active","ping":66},{"user_id":500,"name":"Akis—è–Ω","steam_id":76561198078706435,"connected_time":648000000000,"state":"active","ping":69},{"user_id":468,"name":"Mono","steam_id":76561198114569493,"connected_time":3134000000000,"state":"active","ping":40},{"user_id":486,"name":"GregerUlander","steam_id":76561198152375055,"connected_time":2182000000000,"state":"active","ping":86},{"user_id":501,"name":"hectyrpotato","steam_id":76561198875018376,"connected_time":609000000000,"state":"active","ping":86},{"user_id":374,"name":"finbar","steam_id":76561198056812396,"connected_time":10570000000000,"state":"active","ping":83},{"user_id":473,"name":"Diane","steam_id":76561197981149859,"connected_time":2708000000000,"state":"active","ping":90}]},{"server_id":320,"name":"Uncletopia | London | 3 | All Maps","name_short":"lon-3","host":"lon-1.uk.uncletopia.com","port":27035,"enabled":true,"region":"eu","cc":"gb","latitude":51.509865,"longitude":-0.118092,"reserved":0,"last_update":"0001-01-01T00:00:00Z","name_a2s":"Uncletopia | London | 3 | All Maps","protocol":17,"map":"pl_barnblitz","folder":"tf","game":"Team Fortress","app_id":440,"player_count":24,"max_players":24,"Bots":0,"server_type":"Dedicated","server_os":"Linux","password":true,"vac":true,"version":"7961495","steam_id":85568392924510192,"keywords":["nocrits","nodmgspread","payload","uncletopia"],"game_id":440,"stv_port":27036,"stv_name":"Uncletopia | London | 3 | All Maps | STV","players":[{"user_id":129,"name":"A Very Disappointing Salad","steam_id":76561198020277939,"connected_time":2171000000000,"state":"active","ping":60},{"user_id":18,"name":"Ixsus\u003c3","steam_id":76561198094756869,"connected_time":8738000000000,"state":"active","ping":62},{"user_id":123,"name":"dumdum","steam_id":76561198069430083,"connected_time":2656000000000,"state":"active","ping":84},{"user_id":143,"name":"Favi","steam_id":76561198013236935,"connected_time":1375000000000,"state":"active","ping":87},{"user_id":98,"name":"Balls","steam_id":76561198086400484,"connected_time":4663000000000,"state":"active","ping":68},{"user_id":106,"name":"Jeffrey Harpen","steam_id":76561199073314677,"connected_time":4190000000000,"state":"active","ping":78},{"user_id":130,"name":"Economic crisis","steam_id":76561198063562843,"connected_time":2151000000000,"state":"active","ping":75},{"user_id":147,"name":"Child Mangler 5000","steam_id":76561199490118091,"connected_time":1030000000000,"state":"active","ping":98},{"user_id":121,"name":"Jahlil D'armequanius Finglenut","steam_id":76561198855897385,"connected_time":2899000000000,"state":"active","ping":69},{"user_id":52,"name":"Realuser30","steam_id":76561198077550318,"connected_time":7590000000000,"state":"active","ping":72},{"user_id":142,"name":"r^f nyanezt","steam_id":76561198253734265,"connected_time":1702000000000,"state":"active","ping":120},{"user_id":152,"name":"Qdarks","steam_id":76561198013391340,"connected_time":411000000000,"state":"active","ping":135},{"user_id":153,"name":"The Engineer","steam_id":76561199437330739,"connected_time":408000000000,"state":"active","ping":66},{"user_id":156,"name":"Michael","steam_id":76561198003146906,"connected_time":271000000000,"state":"active","ping":42},{"user_id":128,"name":"Supercoxylac","steam_id":76561198376300138,"connected_time":2387000000000,"state":"active","ping":65},{"user_id":154,"name":"deeazz","steam_id":76561199401283123,"connected_time":382000000000,"state":"active","ping":53},{"user_id":63,"name":"GunGuy","steam_id":76561198124510978,"connected_time":6334000000000,"state":"active","ping":42},{"user_id":108,"name":"Arc21Flames","steam_id":76561199105131558,"connected_time":4016000000000,"state":"active","ping":112},{"user_id":146,"name":"Oki (Bon)","steam_id":76561199047748534,"connected_time":1148000000000,"state":"active","ping":55},{"user_id":149,"name":"volkiano","steam_id":76561198319802031,"connected_time":990000000000,"state":"active","ping":47},{"user_id":92,"name":"Dr. Funkenstein","steam_id":76561197977816210,"connected_time":4945000000000,"state":"active","ping":65},{"user_id":73,"name":"Vilmukas","steam_id":76561199106648396,"connected_time":5988000000000,"state":"active","ping":75},{"user_id":155,"name":"White Boy For Hire","steam_id":76561198079558264,"connected_time":290000000000,"state":"active","ping":45},{"user_id":145,"name":"HUGO","steam_id":76561198317134996,"connected_time":1182000000000,"state":"active","ping":83}]},{"server_id":321,"name":"Uncletopia | London | 4 | All Maps","name_short":"lon-4","host":"lon-1.uk.uncletopia.com","port":27045,"enabled":true,"region":"eu","cc":"gb","latitude":51.509865,"longitude":-0.118092,"reserved":0,"last_update":"0001-01-01T00:00:00Z","name_a2s":"Uncletopia | London | 4 | All Maps","protocol":17,"map":"pl_pier","folder":"tf","game":"Team Fortress","app_id":440,"player_count":23,"max_players":24,"Bots":0,"server_type":"Dedicated","server_os":"Linux","password":true,"vac":true,"version":"7961495","steam_id":85568392924510193,"keywords":["nocrits","nodmgspread","payload","uncletopia"],"game_id":440,"stv_port":27046,"stv_name":"Uncletopia | London | 4 | All Maps | STV","players":[{"user_id":212,"name":"Fizik","steam_id":76561198065548086,"connected_time":1292000000000,"state":"active","ping":60},{"user_id":238,"name":"XuMuK","steam_id":76561198102102340,"connected_time":192000000000,"state":"active","ping":81},{"user_id":213,"name":"GeniousPancake","steam_id":76561198170015638,"connected_time":1227000000000,"state":"active","ping":54},{"user_id":206,"name":"Doctor Mobius","steam_id":76561197971281806,"connected_time":1552000000000,"state":"active","ping":74},{"user_id":230,"name":"Pineapple Bench","steam_id":76561198934925305,"connected_time":700000000000,"state":"active","ping":67},{"user_id":239,"name":"Sixie","steam_id":76561198251675360,"connected_time":190000000000,"state":"active","ping":51},{"user_id":237,"name":"Mr_Draegoth","steam_id":76561198045226420,"connected_time":621000000000,"state":"active","ping":44},{"user_id":218,"name":"Squidiot","steam_id":76561198042754907,"connected_time":1152000000000,"state":"active","ping":69},{"user_id":231,"name":"Dozer","steam_id":76561197998742338,"connected_time":689000000000,"state":"active","ping":63},{"user_id":235,"name":"Teacup","steam_id":76561198320623274,"connected_time":641000000000,"state":"active","ping":69},{"user_id":240,"name":"LeonIsMooi","steam_id":76561198041524085,"connected_time":183000000000,"state":"active","ping":69},{"user_id":222,"name":"thefrenchfry","steam_id":76561198088945198,"connected_time":1128000000000,"state":"active","ping":124},{"user_id":202,"name":"Washburne","steam_id":76561198032810579,"connected_time":2011000000000,"state":"active","ping":44},{"user_id":233,"name":"Dr. Hannibal Erekter","steam_id":76561198256093319,"connected_time":668000000000,"state":"active","ping":91},{"user_id":196,"name":"Skuld","steam_id":76561198064734905,"connected_time":2833000000000,"state":"active","ping":98},{"user_id":241,"name":"godmodule","steam_id":76561198165995444,"connected_time":164000000000,"state":"active","ping":80},{"user_id":193,"name":"twitch.tv/vision515","steam_id":76561198065293729,"connected_time":2930000000000,"state":"active","ping":175},{"user_id":234,"name":"Yodas Brother","steam_id":76561197970375663,"connected_time":665000000000,"state":"active","ping":76},{"user_id":227,"name":"Jezal dan Luthar","steam_id":76561198989449047,"connected_time":876000000000,"state":"active","ping":154},{"user_id":243,"name":"Rjay","steam_id":76561198026151229,"connected_time":90000000000,"state":"active","ping":115},{"user_id":170,"name":"It's a me Malario","steam_id":76561198176546013,"connected_time":4877000000000,"state":"active","ping":49},{"user_id":242,"name":"Burak","steam_id":76561198441622971,"connected_time":152000000000,"state":"active","ping":104},{"user_id":226,"name":"Henry Fonda","steam_id":76561199378865926,"connected_time":1008000000000,"state":"active","ping":136}]},{"server_id":21,"name":"Uncletopia | London | 5 | All Maps","name_short":"lon-5","host":"lon-1.uk.uncletopia.com","port":27055,"enabled":true,"region":"eu","cc":"gb","latitude":51.509865,"longitude":-0.118092,"reserved":0,"last_update":"0001-01-01T00:00:00Z","name_a2s":"Uncletopia | London | 5 | All Maps","protocol":17,"map":"pl_borneo","folder":"tf","game":"Team Fortress","app_id":440,"player_count":24,"max_players":24,"Bots":0,"server_type":"Dedicated","server_os":"Linux","password":true,"vac":true,"version":"7961495","steam_id":85568392924742829,"keywords":["nocrits","nodmgspread","payload","uncletopia"],"game_id":440,"stv_port":27056,"stv_name":"Uncletopia | London | 5 | All Maps | STV","players":[{"user_id":360,"name":"the babadook","steam_id":76561198040168682,"connected_time":359000000000,"state":"active","ping":45},{"user_id":327,"name":"CarbonPan","steam_id":76561198072169983,"connected_time":2996000000000,"state":"active","ping":105},{"user_id":361,"name":"Oak","steam_id":76561198067315672,"connected_time":210000000000,"state":"active","ping":46},{"user_id":351,"name":"capybara","steam_id":76561199028136749,"connected_time":606000000000,"state":"active","ping":66},{"user_id":296,"name":"Penis Contortionist","steam_id":76561198073663784,"connected_time":5630000000000,"state":"active","ping":39},{"user_id":312,"name":"Chris","steam_id":76561198179791702,"connected_time":3957000000000,"state":"active","ping":181},{"user_id":239,"name":"Dangerous Andrew","steam_id":76561198067218981,"connected_time":9397000000000,"state":"active","ping":102},{"user_id":347,"name":"ThatTFguy","steam_id":76561198056794321,"connected_time":1351000000000,"state":"active","ping":58},{"user_id":355,"name":"powej","steam_id":76561198056381418,"connected_time":516000000000,"state":"active","ping":44},{"user_id":332,"name":"heavyweaponsguy","steam_id":76561198137778097,"connected_time":2485000000000,"state":"active","ping":61},{"user_id":306,"name":"wheelie bin","steam_id":76561198040040328,"connected_time":4643000000000,"state":"active","ping":44},{"user_id":354,"name":"Dolcelatte","steam_id":76561198038501770,"connected_time":537000000000,"state":"active","ping":61},{"user_id":291,"name":"Kraftlos","steam_id":76561198074350350,"connected_time":6071000000000,"state":"active","ping":134},{"user_id":331,"name":"Flight of the Blonde Giraffes","steam_id":76561198451585571,"connected_time":2533000000000,"state":"active","ping":72},{"user_id":353,"name":"Woman (Real)","steam_id":76561199151823932,"connected_time":573000000000,"state":"active","ping":87},{"user_id":323,"name":"Ferro","steam_id":76561198253471602,"connected_time":3237000000000,"state":"active","ping":75},{"user_id":356,"name":"Metrwo!","steam_id":76561199204954862,"connected_time":500000000000,"state":"active","ping":90},{"user_id":345,"name":"Walle","steam_id":76561197995148937,"connected_time":1376000000000,"state":"active","ping":76},{"user_id":335,"name":"Coca162","steam_id":76561198230656540,"connected_time":2461000000000,"state":"active","ping":43},{"user_id":362,"name":"snowball","steam_id":76561198026525289,"connected_time":113000000000,"state":"active","ping":93},{"user_id":341,"name":"Chitovka","steam_id":76561198253508638,"connected_time":1556000000000,"state":"active","ping":112},{"user_id":357,"name":"Ezekiel","steam_id":76561198094758336,"connected_time":476000000000,"state":"active","ping":44},{"user_id":359,"name":"nefariousevilsorcerermoonGrass","steam_id":76561198799519725,"connected_time":443000000000,"state":"active","ping":103},{"user_id":326,"name":"yuno appreciator","steam_id":76561198083286511,"connected_time":3101000000000,"state":"active","ping":43}]},{"server_id":22,"name":"Uncletopia | London | 6 | All Maps","name_short":"lon-6","host":"lon-1.uk.uncletopia.com","port":27065,"enabled":true,"region":"eu","cc":"gb","latitude":51.509865,"longitude":-0.118092,"reserved":0,"last_update":"0001-01-01T00:00:00Z","name_a2s":"Uncletopia | London | 6 | All Maps","protocol":17,"map":"pl_swiftwater_final1","folder":"tf","game":"Team Fortress","app_id":440,"player_count":20,"max_players":24,"Bots":0,"server_type":"Dedicated","server_os":"Linux","password":true,"vac":true,"version":"7961495","steam_id":85568392924742830,"keywords":["nocrits","nodmgspread","payload","uncletopia"],"game_id":440,"stv_port":27066,"stv_name":"Uncletopia | London | 6 | All Maps | STV","players":[{"user_id":147,"name":"Ôº¨ÔΩïÔΩéÔΩÑÔΩÖÔΩíÔΩìÂÑö","steam_id":76561198001599722,"connected_time":1945000000000,"state":"active","ping":87},{"user_id":156,"name":"Palex","steam_id":76561198093219465,"connected_time":1702000000000,"state":"active","ping":41},{"user_id":149,"name":"Hugh","steam_id":76561198976348754,"connected_time":1899000000000,"state":"active","ping":47},{"user_id":117,"name":"Max Andrew","steam_id":76561198158955194,"connected_time":3850000000000,"state":"active","ping":74},{"user_id":107,"name":"morbius (a lenda da marvel)","steam_id":76561198156198125,"connected_time":4286000000000,"state":"active","ping":83},{"user_id":157,"name":"Optimist 50","steam_id":76561198039631442,"connected_time":1661000000000,"state":"active","ping":79},{"user_id":163,"name":"P7nball","steam_id":76561198382749493,"connected_time":752000000000,"state":"active","ping":103},{"user_id":138,"name":"DSL","steam_id":76561198186770547,"connected_time":2696000000000,"state":"active","ping":95},{"user_id":160,"name":"speancer","steam_id":76561198260705251,"connected_time":1436000000000,"state":"active","ping":86},{"user_id":158,"name":"FPFP","steam_id":76561198026073059,"connected_time":1649000000000,"state":"active","ping":87},{"user_id":103,"name":"goop","steam_id":76561198190073005,"connected_time":4909000000000,"state":"active","ping":34},{"user_id":153,"name":"Dromeka","steam_id":76561198963557200,"connected_time":1835000000000,"state":"active","ping":58},{"user_id":92,"name":"Solymr ibn Wali Barad","steam_id":76561198044008976,"connected_time":5461000000000,"state":"active","ping":69},{"user_id":121,"name":"Marl Karx","steam_id":76561198396797516,"connected_time":3775000000000,"state":"active","ping":65},{"user_id":162,"name":"pothes1","steam_id":76561198195058302,"connected_time":815000000000,"state":"active","ping":76},{"user_id":93,"name":"ASSEMBLE FROYO BROS","steam_id":76561198116223995,"connected_time":5393000000000,"state":"active","ping":60},{"user_id":154,"name":"Soulman25 (FIN)","steam_id":76561198103611974,"connected_time":1832000000000,"state":"active","ping":90},{"user_id":161,"name":"LivEssense","steam_id":76561198052476979,"connected_time":1087000000000,"state":"active","ping":95},{"user_id":140,"name":"TheBeardedM1G","steam_id":76561198040208946,"connected_time":2677000000000,"state":"active","ping":44},{"user_id":114,"name":"Chish n' Fips","steam_id":76561198012300440,"connected_time":3889000000000,"state":"active","ping":45}]},{"server_id":40,"name":"Uncletopia | London | 7 | Stopwatch","name_short":"lon-7","host":"lon-1.uk.uncletopia.com","port":27075,"enabled":true,"region":"eu","cc":"gb","latitude":51.509865,"longitude":-0.118092,"reserved":0,"last_update":"0001-01-01T00:00:00Z","name_a2s":"Uncletopia | London | 7 | Stopwatch","protocol":17,"map":"workshop/koth_product_final.ugc454272353","folder":"tf","game":"Team Fortress","app_id":440,"player_count":0,"max_players":24,"Bots":0,"server_type":"Dedicated","server_os":"Linux","password":true,"vac":true,"version":"7961495","steam_id":85568392924964314,"keywords":["cp","nocrits","nodmgspread","uncletopia"],"game_id":440,"stv_port":27076,"stv_name":"Uncletopia | London | 7 | Stopwatch | STV","players":null},{"server_id":41,"name":"Uncletopia | London | 8 | Community","name_short":"lon-8","host":"lon-1.uk.uncletopia.com","port":27085,"enabled":true,"region":"eu","cc":"gb","latitude":51.509865,"longitude":-0.118092,"reserved":0,"last_update":"0001-01-01T00:00:00Z","name_a2s":"Uncletopia | London | 8 | Community","protocol":17,"map":"workshop/pl_fifthcurve_rc1.ugc648227046","folder":"tf","game":"Team Fortress","app_id":440,"player_count":0,"max_players":24,"Bots":0,"server_type":"Dedicated","server_os":"Linux","password":true,"vac":true,"version":"7961495","steam_id":85568392924964315,"keywords":["nocrits","nodmgspread","payload","uncletopia"],"game_id":440,"stv_port":27086,"stv_name":"Uncletopia | London | 8 | Community | STV","players":null},{"server_id":300,"name":"Uncletopia | Montr√©al | 1 | One Thousand Uncles","name_short":"mtl-1","host":"mtl-1.ca.uncletopia.com","port":27015,"enabled":true,"region":"us-east","cc":"ca","latitude":45.50889,"longitude":-73.56167,"reserved":0,"last_update":"0001-01-01T00:00:00Z","name_a2s":"","protocol":0,"map":"","folder":"","game":"","app_id":0,"player_count":0,"max_players":0,"Bots":0,"server_type":"","server_os":"","password":false,"vac":false,"version":"","steam_id":0,"keywords":null,"game_id":0,"stv_port":0,"stv_name":"","players":null},{"server_id":301,"name":"Uncletopia | Montr√©al | 2 | One Thousand Uncles","name_short":"mtl-2","host":"mtl-1.ca.uncletopia.com","port":27025,"enabled":true,"region":"us-east","cc":"ca","latitude":45.50889,"longitude":-73.56167,"reserved":0,"last_update":"0001-01-01T00:00:00Z","name_a2s":"","protocol":0,"map":"","folder":"","game":"","app_id":0,"player_count":7,"max_players":0,"Bots":0,"server_type":"","server_os":"","password":false,"vac":false,"version":"","steam_id":0,"keywords":null,"game_id":0,"stv_port":0,"stv_name":"","players":[{"user_id":71,"name":"MuchoSexo123","steam_id":76561199096630569,"connected_time":6517000000000,"state":"active","ping":154},{"user_id":88,"name":"BinaryBitGamer[They/Them]","steam_id":76561198140761006,"connected_time":5264000000000,"state":"active","ping":60},{"user_id":118,"name":"Uncle Majic the Hip Hop Magicia","steam_id":76561198107924303,"connected_time":764000000000,"state":"active","ping":40},{"user_id":111,"name":"BeautifulDeer","steam_id":76561198119588300,"connected_time":1637000000000,"state":"active","ping":75},{"user_id":119,"name":"JuJuMann","steam_id":76561198289461028,"connected_time":582000000000,"state":"active","ping":114},{"user_id":120,"name":"Gul'dan","steam_id":76561198240466940,"connected_time":363000000000,"state":"active","ping":137},{"user_id":122,"name":"2002 Toyota Corolla VE","steam_id":76561198149172070,"connected_time":109000000000,"state":"active","ping":89}]},{"server_id":302,"name":"Uncletopia | Montr√©al | 3 | One Thousand Uncles","name_short":"mtl-3","host":"mtl-1.ca.uncletopia.com","port":27035,"enabled":true,"region":"us-east","cc":"ca","latitude":45.50889,"longitude":-73.56167,"reserved":0,"last_update":"0001-01-01T00:00:00Z","name_a2s":"","protocol":0,"map":"","folder":"","game":"","app_id":0,"player_count":6,"max_players":0,"Bots":0,"server_type":"","server_os":"","password":false,"vac":false,"version":"","steam_id":0,"keywords":null,"game_id":0,"stv_port":0,"stv_name":"","players":[{"user_id":71,"name":"KeinNameVorhanden","steam_id":76561199028307677,"connected_time":4274000000000,"state":"active","ping":146},{"user_id":88,"name":".FRUCADE","steam_id":76561198415785034,"connected_time":4231000000000,"state":"active","ping":150},{"user_id":89,"name":"joaolaratait","steam_id":76561199075783585,"connected_time":2774000000000,"state":"active","ping":218},{"user_id":92,"name":"bundykeats","steam_id":76561199214099646,"connected_time":1317000000000,"state":"active","ping":75},{"user_id":94,"name":"elaine","steam_id":76561198864260756,"connected_time":429000000000,"state":"active","ping":85},{"user_id":95,"name":"God's Drunkest Driver","steam_id":76561199174579733,"connected_time":324000000000,"state":"active","ping":62}]},{"server_id":13,"name":"Uncletopia | New York City | 1 | All Maps","name_short":"nyc-1","host":"nyc-1.us.uncletopia.com","port":27015,"enabled":true,"region":"us-east","cc":"us","latitude":40.73061,"longitude":-73.93524,"reserved":0,"last_update":"0001-01-01T00:00:00Z","name_a2s":"Uncletopia | New York City | 1 | All Maps","protocol":17,"map":"pl_badwater","folder":"tf","game":"Team Fortress","app_id":440,"player_count":24,"max_players":24,"Bots":0,"server_type":"Dedicated","server_os":"Linux","password":true,"vac":true,"version":"7961495","steam_id":85568392924469993,"keywords":["nocrits","nodmgspread","payload","uncletopia"],"game_id":440,"stv_port":27016,"stv_name":"Uncletopia | New York City | 1 | All Maps | STV","players":[{"user_id":318,"name":"UnlivingSkunk","steam_id":76561198324517387,"connected_time":2061000000000,"state":"active","ping":53},{"user_id":330,"name":"you forgot the sauce","steam_id":76561198387016713,"connected_time":843000000000,"state":"active","ping":65},{"user_id":310,"name":"France","steam_id":76561198250066610,"connected_time":2325000000000,"state":"active","ping":76},{"user_id":227,"name":"spaghetti","steam_id":76561198069600113,"connected_time":8834000000000,"state":"active","ping":49},{"user_id":326,"name":"Swiig1ty","steam_id":76561198163402355,"connected_time":1110000000000,"state":"active","ping":38},{"user_id":249,"name":"The Cavalry Is Almost Here","steam_id":76561198044856349,"connected_time":7224000000000,"state":"active","ping":63},{"user_id":272,"name":"get scrongled, idiot","steam_id":76561198115874625,"connected_time":5356000000000,"state":"active","ping":95},{"user_id":335,"name":"Virtual Insanity","steam_id":76561198095245223,"connected_time":540000000000,"state":"active","ping":50},{"user_id":320,"name":"SHPEE","steam_id":76561198091611460,"connected_time":1547000000000,"state":"active","ping":85},{"user_id":336,"name":"Meiji","steam_id":76561198971753591,"connected_time":528000000000,"state":"active","ping":40},{"user_id":328,"name":"Arbiter","steam_id":76561198072605849,"connected_time":853000000000,"state":"active","ping":80},{"user_id":333,"name":"y!","steam_id":76561199342162423,"connected_time":647000000000,"state":"active","ping":74},{"user_id":337,"name":"Puwnter","steam_id":76561198127821062,"connected_time":527000000000,"state":"active","ping":62},{"user_id":218,"name":"Psychobells","steam_id":76561197995620232,"connected_time":9630000000000,"state":"active","ping":42},{"user_id":311,"name":"AMogus Chicken nugget BeAn toas","steam_id":76561198167224218,"connected_time":2325000000000,"state":"active","ping":75},{"user_id":312,"name":"totally not a pile of beans","steam_id":76561198119851931,"connected_time":2314000000000,"state":"active","ping":69},{"user_id":325,"name":"Yayifications","steam_id":76561198066227208,"connected_time":1185000000000,"state":"active","ping":45},{"user_id":266,"name":"fart shitson","steam_id":76561198986534519,"connected_time":5930000000000,"state":"active","ping":111},{"user_id":315,"name":"Kartyac","steam_id":76561197991069005,"connected_time":2141000000000,"state":"active","ping":70},{"user_id":324,"name":"jebs strognest soljer","steam_id":76561198056622157,"connected_time":1305000000000,"state":"active","ping":51},{"user_id":334,"name":"Aur√©lien Tchouam√©ni","steam_id":76561199499931123,"connected_time":593000000000,"state":"active","ping":38},{"user_id":327,"name":"Artgrendadier","steam_id":76561198063305359,"connected_time":1022000000000,"state":"active","ping":63},{"user_id":323,"name":"FAKE TAXI PRANKS","steam_id":76561198136746987,"connected_time":1485000000000,"state":"active","ping":80},{"user_id":317,"name":"dipp","steam_id":76561198395577807,"connected_time":2106000000000,"state":"active","ping":56}]},{"server_id":14,"name":"Uncletopia | New York City | 2 | All Maps","name_short":"nyc-2","host":"nyc-1.us.uncletopia.com","port":27025,"enabled":true,"region":"us-east","cc":"us","latitude":40.73061,"longitude":-73.93524,"reserved":0,"last_update":"0001-01-01T00:00:00Z","name_a2s":"Uncletopia | New York City | 2 | All Maps","protocol":17,"map":"cp_mountainlab","folder":"tf","game":"Team Fortress","app_id":440,"player_count":0,"max_players":24,"Bots":0,"server_type":"Dedicated","server_os":"Linux","password":true,"vac":true,"version":"7961495","steam_id":85568392924469994,"keywords":["cp","nocrits","nodmgspread","uncletopia"],"game_id":440,"stv_port":27026,"stv_name":"Uncletopia | New York City | 2 | All Maps | STV","players":null},{"server_id":15,"name":"Uncletopia | New York City | 3 | Stopwatch","name_short":"nyc-3","host":"nyc-1.us.uncletopia.com","port":27035,"enabled":true,"region":"us-east","cc":"us","latitude":40.73061,"longitude":-73.93524,"reserved":0,"last_update":"0001-01-01T00:00:00Z","name_a2s":"Uncletopia | New York City | 3 | Stopwatch","protocol":17,"map":"workshop/koth_product_final.ugc454272353","folder":"tf","game":"Team Fortress","app_id":440,"player_count":0,"max_players":24,"Bots":0,"server_type":"Dedicated","server_os":"Linux","password":true,"vac":true,"version":"7961495","steam_id":85568392924742820,"keywords":["cp","nocrits","nodmgspread","uncletopia"],"game_id":440,"stv_port":27036,"stv_name":"Uncletopia | New York City | 3 | Stopwatch | STV","players":null},{"server_id":16,"name":"Uncletopia | New York City | 4 | Community","name_short":"nyc-4","host":"nyc-1.us.uncletopia.com","port":27045,"enabled":true,"region":"us-east","cc":"us","latitude":40.73061,"longitude":-73.93524,"reserved":0,"last_update":"0001-01-01T00:00:00Z","name_a2s":"Uncletopia | New York City | 4 | Community","protocol":17,"map":"cp_altitude","folder":"tf","game":"Team Fortress","app_id":440,"player_count":0,"max_players":24,"Bots":0,"server_type":"Dedicated","server_os":"Linux","password":true,"vac":true,"version":"7961495","steam_id":85568392924742821,"keywords":["cp","nocrits","nodmgspread","uncletopia"],"game_id":440,"stv_port":27046,"stv_name":"Uncletopia | New York City | 4 | Community | STV","players":null},{"server_id":142,"name":"Uncletopia | S√£o Paulo | 1 | All Maps","name_short":"sao-1","host":"sao-1.br.uncletopia.com","port":27015,"enabled":true,"region":"sa","cc":"br","latitude":-23.533773,"longitude":-46.62529,"reserved":0,"last_update":"0001-01-01T00:00:00Z","name_a2s":"Uncletopia | S√£o Paulo | 1 | All Maps","protocol":17,"map":"pl_pier","folder":"tf","game":"Team Fortress","app_id":440,"player_count":0,"max_players":24,"Bots":0,"server_type":"Dedicated","server_os":"Linux","password":true,"vac":true,"version":"7961495","steam_id":85568392924469996,"keywords":["nocrits","nodmgspread","payload","uncletopia"],"game_id":440,"stv_port":27016,"stv_name":"Uncletopia | S√£o Paulo | 1 | All Maps | STV","players":null},{"server_id":143,"name":"Uncletopia | S√£o Paulo | 2 | Community","name_short":"sao-2","host":"sao-2.br.uncletopia.com","port":27015,"enabled":true,"region":"sa","cc":"br","latitude":-23.533773,"longitude":-46.62529,"reserved":0,"last_update":"0001-01-01T00:00:00Z","name_a2s":"Uncletopia | S√£o Paulo | 2 | Community","protocol":17,"map":"workshop/pl_vigil_rc10.ugc1266210012","folder":"tf","game":"Team Fortress","app_id":440,"player_count":0,"max_players":24,"Bots":0,"server_type":"Dedicated","server_os":"Linux","password":true,"vac":true,"version":"7961495","steam_id":85568392924485349,"keywords":["nocrits","nodmgspread","payload","uncletopia"],"game_id":440,"stv_port":27016,"stv_name":"Uncletopia | S√£o Paulo | 2 | Community | STV","players":null},{"server_id":7,"name":"Uncletopia | Seattle | 1 | All Maps","name_short":"sea-1","host":"sea-1.us.uncletopia.com","port":27015,"enabled":true,"region":"us-west","cc":"us","latitude":47.608013,"longitude":-122.33517,"reserved":0,"last_update":"0001-01-01T00:00:00Z","name_a2s":"Uncletopia | Seattle | 1 | All Maps","protocol":17,"map":"pl_snowycoast","folder":"tf","game":"Team Fortress","app_id":440,"player_count":24,"max_players":24,"Bots":0,"server_type":"Dedicated","server_os":"Linux","password":true,"vac":true,"version":"7961495","steam_id":85568392924469997,"keywords":["nocrits","nodmgspread","payload","uncletopia"],"game_id":440,"stv_port":27016,"stv_name":"Uncletopia | Seattle | 1 | All Maps | STV","players":[{"user_id":202,"name":"Zhukov","steam_id":76561199006602717,"connected_time":167000000000,"state":"active","ping":115},{"user_id":196,"name":"Closed.","steam_id":76561198212598967,"connected_time":380000000000,"state":"active","ping":78},{"user_id":169,"name":"TheMagicMrWaffle","steam_id":76561198104357256,"connected_time":2266000000000,"state":"active","ping":61},{"user_id":195,"name":"[BBC] myr","steam_id":76561198200786939,"connected_time":424000000000,"state":"active","ping":45},{"user_id":201,"name":"mike","steam_id":76561198163265338,"connected_time":175000000000,"state":"active","ping":51},{"user_id":164,"name":"ShackerJack","steam_id":76561198118017448,"connected_time":2584000000000,"state":"active","ping":52},{"user_id":198,"name":"sleepy","steam_id":76561198288663776,"connected_time":200000000000,"state":"active","ping":55},{"user_id":192,"name":"Can of Oranges","steam_id":76561199121813529,"connected_time":675000000000,"state":"active","ping":44},{"user_id":23,"name":"The Great Eagle Scourge of 1822","steam_id":76561198325086209,"connected_time":9736000000000,"state":"active","ping":65},{"user_id":156,"name":"Lili","steam_id":76561199488457138,"connected_time":3483000000000,"state":"active","ping":51},{"user_id":197,"name":"Ovat","steam_id":76561198009371525,"connected_time":274000000000,"state":"active","ping":105},{"user_id":183,"name":"goofy goober","steam_id":76561199024079388,"connected_time":1149000000000,"state":"active","ping":49},{"user_id":178,"name":"monkey squirts","steam_id":76561197983101644,"connected_time":1206000000000,"state":"active","ping":71},{"user_id":193,"name":"BlazedBunny","steam_id":76561198243610560,"connected_time":620000000000,"state":"active","ping":80},{"user_id":172,"name":"Genius Meme","steam_id":76561198162911254,"connected_time":1866000000000,"state":"active","ping":84},{"user_id":203,"name":"Nibotshooter","steam_id":76561199284825579,"connected_time":134000000000,"state":"active","ping":82},{"user_id":190,"name":"roach","steam_id":76561198354811369,"connected_time":913000000000,"state":"active","ping":78},{"user_id":76,"name":"Silverman_Cam","steam_id":76561198936168937,"connected_time":6265000000000,"state":"active","ping":77},{"user_id":199,"name":"Tyth","steam_id":76561198062543298,"connected_time":200000000000,"state":"active","ping":41},{"user_id":180,"name":"fwoov","steam_id":76561198129166260,"connected_time":1172000000000,"state":"active","ping":80},{"user_id":200,"name":"KellyKapoor","steam_id":76561198040828123,"connected_time":198000000000,"state":"active","ping":53},{"user_id":206,"name":"Meownsterhunter","steam_id":76561198319992602,"connected_time":69000000000,"state":"active","ping":120},{"user_id":53,"name":"charlie pudding","steam_id":76561198073587145,"connected_time":8792000000000,"state":"active","ping":103},{"user_id":205,"name":"SK","steam_id":76561198133360797,"connected_time":93000000000,"state":"active","ping":89}]},{"server_id":119,"name":"Uncletopia | Seattle | 2 | All Maps","name_short":"sea-2","host":"sea-1.us.uncletopia.com","port":27025,"enabled":true,"region":"us-west","cc":"us","latitude":47.608013,"longitude":-122.33517,"reserved":0,"last_update":"0001-01-01T00:00:00Z","name_a2s":"Uncletopia | Seattle | 2 | All Maps","protocol":17,"map":"pl_badwater","folder":"tf","game":"Team Fortress","app_id":440,"player_count":2,"max_players":24,"Bots":0,"server_type":"Dedicated","server_os":"Linux","password":true,"vac":true,"version":"7961495","steam_id":85568392924469998,"keywords":["nocrits","nodmgspread","payload","uncletopia"],"game_id":440,"stv_port":27026,"stv_name":"Uncletopia | Seattle | 2 | All Maps | STV","players":[{"user_id":14,"name":"tiny chimp","steam_id":76561199009589097,"connected_time":116000000000,"state":"active","ping":61},{"user_id":15,"name":"GuyWhoLikesMeat5","steam_id":76561199009735184,"connected_time":72000000000,"state":"active","ping":60}]},{"server_id":406,"name":"Uncletopia | Seattle | 3 | Stopwatch","name_short":"sea-3","host":"sea-1.us.uncletopia.com","port":27035,"enabled":true,"region":"us-west","cc":"us","latitude":47.608013,"longitude":-122.33517,"reserved":0,"last_update":"0001-01-01T00:00:00Z","name_a2s":"Uncletopia | Seattle | 3 | Stopwatch","protocol":17,"map":"workshop/koth_clearcut_b15.ugc2107050255","folder":"tf","game":"Team Fortress","app_id":440,"player_count":3,"max_players":24,"Bots":0,"server_type":"Dedicated","server_os":"Linux","password":true,"vac":true,"version":"7961495","steam_id":85568392924515217,"keywords":["cp","nocrits","nodmgspread","uncletopia"],"game_id":440,"stv_port":27036,"stv_name":"Uncletopia | Seattle | 3 | Stopwatch | STV","players":[{"user_id":5,"name":"yij1g8i","steam_id":76561199490665951,"connected_time":553000000000,"state":"active","ping":72},{"user_id":4,"name":"Seth The Echidna","steam_id":76561199204502165,"connected_time":721000000000,"state":"active","ping":148},{"user_id":6,"name":"Boot Mcstink","steam_id":76561199226873917,"connected_time":314000000000,"state":"active","ping":147}]},{"server_id":17,"name":"Uncletopia | San Francisco | 1 | All Maps","name_short":"sfo-1","host":"sfo-1.us.uncletopia.com","port":27015,"enabled":true,"region":"us-west","cc":"us","latitude":37.77397,"longitude":-122.4313,"reserved":0,"last_update":"0001-01-01T00:00:00Z","name_a2s":"Uncletopia | San Francisco | 1 | All Maps","protocol":17,"map":"koth_cascade","folder":"tf","game":"Team Fortress","app_id":440,"player_count":0,"max_players":24,"Bots":0,"server_type":"Dedicated","server_os":"Linux","password":true,"vac":true,"version":"7961495","steam_id":85568392924469999,"keywords":["cp","nocrits","nodmgspread","uncletopia"],"game_id":440,"stv_port":27016,"stv_name":"Uncletopia | San Francisco | 1 | All Maps | STV","players":null},{"server_id":18,"name":"Uncletopia | San Francisco | 2 | All Maps","name_short":"sfo-2","host":"sfo-1.us.uncletopia.com","port":27025,"enabled":true,"region":"us-west","cc":"us","latitude":37.77397,"longitude":-122.4313,"reserved":0,"last_update":"0001-01-01T00:00:00Z","name_a2s":"Uncletopia | San Francisco | 2 | All Maps","protocol":17,"map":"pl_frontier_final","folder":"tf","game":"Team Fortress","app_id":440,"player_count":0,"max_players":24,"Bots":0,"server_type":"Dedicated","server_os":"Linux","password":true,"vac":true,"version":"7961495","steam_id":85568392924470000,"keywords":["nocrits","nodmgspread","payload","uncletopia"],"game_id":440,"stv_port":27026,"stv_name":"Uncletopia | San Francisco | 2 | All Maps | STV","players":null},{"server_id":19,"name":"Uncletopia | San Francisco | 3 | Stopwatch","name_short":"sfo-3","host":"sfo-1.us.uncletopia.com","port":27035,"enabled":true,"region":"us-west","cc":"us","latitude":37.77397,"longitude":-122.4313,"reserved":0,"last_update":"0001-01-01T00:00:00Z","name_a2s":"Uncletopia | San Francisco | 3 | Stopwatch","protocol":17,"map":"pl_pier","folder":"tf","game":"Team Fortress","app_id":440,"player_count":0,"max_players":24,"Bots":0,"server_type":"Dedicated","server_os":"Linux","password":true,"vac":true,"version":"7961495","steam_id":85568392924742824,"keywords":["nocrits","nodmgspread","payload","uncletopia"],"game_id":440,"stv_port":27036,"stv_name":"Uncletopia | San Francisco | 3 | Stopwatch | STV","players":null},{"server_id":20,"name":"Uncletopia | San Francisco | 4 | Community","name_short":"sfo-4","host":"sfo-1.us.uncletopia.com","port":27045,"enabled":true,"region":"us-west","cc":"us","latitude":37.77397,"longitude":-122.4313,"reserved":0,"last_update":"0001-01-01T00:00:00Z","name_a2s":"Uncletopia | San Francisco | 4 | Community","protocol":17,"map":"pl_pier","folder":"tf","game":"Team Fortress","app_id":440,"player_count":0,"max_players":24,"Bots":0,"server_type":"Dedicated","server_os":"Linux","password":true,"vac":true,"version":"7961495","steam_id":85568392924742826,"keywords":["nocrits","nodmgspread","payload","uncletopia"],"game_id":440,"stv_port":27046,"stv_name":"Uncletopia | San Francisco | 4 | Community | STV","players":null},{"server_id":141,"name":"Uncletopia | Sydney | 1 | All Maps","name_short":"syd-1","host":"syd-1.au.uncletopia.com","port":27015,"enabled":true,"region":"au","cc":"au","latitude":-33.865143,"longitude":151.2099,"reserved":0,"last_update":"0001-01-01T00:00:00Z","name_a2s":"Uncletopia | Sydney | 1 | All Maps","protocol":17,"map":"pl_borneo","folder":"tf","game":"Team Fortress","app_id":440,"player_count":3,"max_players":24,"Bots":0,"server_type":"Dedicated","server_os":"Linux","password":true,"vac":true,"version":"7961495","steam_id":85568392924470001,"keywords":["nocrits","nodmgspread","payload","uncletopia"],"game_id":440,"stv_port":27016,"stv_name":"Uncletopia | Sydney | 1 | All Maps | STV","players":[{"user_id":510,"name":"chiche","steam_id":76561199353868571,"connected_time":935000000000,"state":"active","ping":518},{"user_id":508,"name":"BIGNATE","steam_id":76561199207791519,"connected_time":5541000000000,"state":"active","ping":109},{"user_id":496,"name":"Turret","steam_id":76561198054728921,"connected_time":11681000000000,"state":"active","ping":41}]},{"server_id":123,"name":"Uncletopia | Sydney | 2 | All Maps","name_short":"syd-2","host":"syd-1.au.uncletopia.com","port":27025,"enabled":true,"region":"au","cc":"au","latitude":-33.865143,"longitude":151.2099,"reserved":0,"last_update":"0001-01-01T00:00:00Z","name_a2s":"Uncletopia | Sydney | 2 | All Maps","protocol":17,"map":"koth_cascade","folder":"tf","game":"Team Fortress","app_id":440,"player_count":0,"max_players":24,"Bots":0,"server_type":"Dedicated","server_os":"Linux","password":true,"vac":true,"version":"7961495","steam_id":85568392924470002,"keywords":["cp","nocrits","nodmgspread","uncletopia"],"game_id":440,"stv_port":27026,"stv_name":"Uncletopia | Sydney | 2 | All Maps | STV","players":null},{"server_id":395,"name":"Uncletopia | Sydney | 3 | All Maps","name_short":"syd-3","host":"syd-1.au.uncletopia.com","port":27035,"enabled":true,"region":"au","cc":"au","latitude":-33.865143,"longitude":151.2099,"reserved":0,"last_update":"0001-01-01T00:00:00Z","name_a2s":"Uncletopia | Sydney | 3 | All Maps","protocol":17,"map":"koth_viaduct","folder":"tf","game":"Team Fortress","app_id":440,"player_count":0,"max_players":24,"Bots":0,"server_type":"Dedicated","server_os":"Linux","password":true,"vac":true,"version":"7961495","steam_id":85568392925194467,"keywords":["cp","nocrits","nodmgspread","uncletopia"],"game_id":440,"stv_port":27036,"stv_name":"Uncletopia | Sydney | 3 | All Maps | STV","players":null},{"server_id":396,"name":"Uncletopia | Sydney | 4 | All Maps","name_short":"syd-4","host":"syd-1.au.uncletopia.com","port":27045,"enabled":true,"region":"au","cc":"au","latitude":-33.865143,"longitude":151.2099,"reserved":0,"last_update":"0001-01-01T00:00:00Z","name_a2s":"Uncletopia | Sydney | 4 | All Maps","protocol":17,"map":"koth_lakeside_final","folder":"tf","game":"Team Fortress","app_id":440,"player_count":0,"max_players":24,"Bots":0,"server_type":"Dedicated","server_os":"Linux","password":true,"vac":true,"version":"7961495","steam_id":85568392925397958,"keywords":["cp","nocrits","nodmgspread","uncletopia"],"game_id":440,"stv_port":27046,"stv_name":"Uncletopia | Sydney | 4 | All Maps | STV","players":null},{"server_id":58,"name":"Uncletopia | Sydney | 5 | Stopwatch","name_short":"syd-5","host":"syd-1.au.uncletopia.com","port":27055,"enabled":true,"region":"au","cc":"au","latitude":-33.865143,"longitude":151.2099,"reserved":0,"last_update":"0001-01-01T00:00:00Z","name_a2s":"Uncletopia | Sydney | 5 | Stopwatch","protocol":17,"map":"pl_frontier_final","folder":"tf","game":"Team Fortress","app_id":440,"player_count":0,"max_players":24,"Bots":0,"server_type":"Dedicated","server_os":"Linux","password":true,"vac":true,"version":"7961495","steam_id":85568392925397959,"keywords":["nocrits","nodmgspread","payload","uncletopia"],"game_id":440,"stv_port":27056,"stv_name":"Uncletopia | Sydney | 5 | Stopwatch | STV","players":null},{"server_id":59,"name":"Uncletopia | Sydney | 6 | Community","name_short":"syd-6","host":"syd-1.au.uncletopia.com","port":27065,"enabled":true,"region":"au","cc":"au","latitude":-33.865143,"longitude":151.2099,"reserved":0,"last_update":"0001-01-01T00:00:00Z","name_a2s":"Uncletopia | Sydney | 6 | Community","protocol":17,"map":"workshop/rd_asteroid_redux_b1.ugc2154902912","folder":"tf","game":"Team Fortress","app_id":440,"player_count":0,"max_players":24,"Bots":0,"server_type":"Dedicated","server_os":"Linux","password":true,"vac":true,"version":"7961495","steam_id":85568392925397960,"keywords":["beta","nocrits","nodmgspread","rd","uncletopia"],"game_id":440,"stv_port":27066,"stv_name":"Uncletopia | Sydney | 6 | Community | STV","players":null},{"server_id":49,"name":"Uncletopia | Warsaw | 1 | One Thousand Uncles","name_short":"waw-1","host":"waw-1.pl.uncletopia.com","port":27015,"enabled":true,"region":"eu","cc":"pl","latitude":52.2297,"longitude":21.017532,"reserved":0,"last_update":"0001-01-01T00:00:00Z","name_a2s":"Uncletopia | Warsaw | 1 | One Thousand Uncles","protocol":17,"map":"cp_dustbowl","folder":"tf","game":"Team Fortress","app_id":440,"player_count":29,"max_players":32,"Bots":16,"server_type":"Dedicated","server_os":"Linux","password":true,"vac":true,"version":"7961495","steam_id":85568392925397850,"keywords":["alltalk","bots","cp","danepve","increased_maxplayers","nocrits","norespawntime","uncletopia"],"game_id":440,"stv_port":0,"stv_name":"","players":[{"user_id":300,"name":"venus","steam_id":76561199491520050,"connected_time":2507000000000,"state":"active","ping":50},{"user_id":299,"name":"Pixar Cars on the PS2","steam_id":76561198079386295,"connected_time":2674000000000,"state":"active","ping":75},{"user_id":295,"name":"The","steam_id":76561198359311605,"connected_time":3846000000000,"state":"active","ping":45},{"user_id":323,"name":"nibsÓÑ∏","steam_id":76561198040099538,"connected_time":376000000000,"state":"active","ping":89},{"user_id":319,"name":"Shelly1052","steam_id":76561199043551053,"connected_time":545000000000,"state":"active","ping":57},{"user_id":324,"name":"Istari","steam_id":76561199029051300,"connected_time":78000000000,"state":"active","ping":93},{"user_id":306,"name":"ChrisLuckycharm","steam_id":76561199490969322,"connected_time":1390000000000,"state":"active","ping":88},{"user_id":310,"name":"Scientific Triumph","steam_id":76561198815127418,"connected_time":1248000000000,"state":"active","ping":94},{"user_id":316,"name":"Torttu","steam_id":76561198013980029,"connected_time":629000000000,"state":"active","ping":76},{"user_id":326,"name":"Skleton","steam_id":76561198238097290,"connected_time":74000000000,"state":"active","ping":98},{"user_id":312,"name":"Voks_","steam_id":76561198159687785,"connected_time":1185000000000,"state":"active","ping":66},{"user_id":313,"name":"Wilgowskii","steam_id":76561198192008655,"connected_time":1106000000000,"state":"active","ping":62},{"user_id":314,"name":"P00TIS","steam_id":76561199239780769,"connected_time":1106000000000,"state":"active","ping":71}]},{"server_id":50,"name":"Uncletopia | Warsaw | 2 | One Thousand Uncles","name_short":"waw-2","host":"waw-1.pl.uncletopia.com","port":27025,"enabled":true,"region":"eu","cc":"pl","latitude":52.2297,"longitude":21.017532,"reserved":0,"last_update":"0001-01-01T00:00:00Z","name_a2s":"Uncletopia | Warsaw | 2 | One Thousand Uncles","protocol":17,"map":"cp_dustbowl","folder":"tf","game":"Team Fortress","app_id":440,"player_count":25,"max_players":32,"Bots":16,"server_type":"Dedicated","server_os":"Linux","password":true,"vac":true,"version":"7961495","steam_id":85568392925397851,"keywords":["alltalk","bots","cp","danepve","increased_maxplayers","nocrits","norespawntime","uncletopia"],"game_id":440,"stv_port":0,"stv_name":"","players":[{"user_id":627,"name":"Treasons","steam_id":76561198340845498,"connected_time":967000000000,"state":"active","ping":83},{"user_id":628,"name":"please do not the cat","steam_id":76561198089003514,"connected_time":475000000000,"state":"active","ping":56},{"user_id":445,"name":"adv6","steam_id":76561198029789989,"connected_time":12688000000000,"state":"active","ping":88},{"user_id":603,"name":"Mane","steam_id":76561198351821610,"connected_time":1914000000000,"state":"active","ping":70},{"user_id":567,"name":"Cynical","steam_id":76561198077084694,"connected_time":4492000000000,"state":"active","ping":81},{"user_id":604,"name":"bp","steam_id":76561197988192258,"connected_time":1712000000000,"state":"active","ping":62},{"user_id":606,"name":"Nag","steam_id":76561197970488206,"connected_time":1461000000000,"state":"active","ping":99},{"user_id":593,"name":"Doctor Sex","steam_id":76561198078714118,"connected_time":3301000000000,"state":"active","ping":70},{"user_id":608,"name":"smashermh","steam_id":76561199212033829,"connected_time":1423000000000,"state":"active","ping":207}]},{"server_id":51,"name":"Uncletopia | Warsaw | 3 | All Maps","name_short":"waw-3","host":"waw-1.pl.uncletopia.com","port":27035,"enabled":true,"region":"eu","cc":"pl","latitude":52.2297,"longitude":21.017532,"reserved":0,"last_update":"0001-01-01T00:00:00Z","name_a2s":"Uncletopia | Warsaw | 3 | All Maps","protocol":17,"map":"plr_pipeline","folder":"tf","game":"Team Fortress","app_id":440,"player_count":0,"max_players":24,"Bots":0,"server_type":"Dedicated","server_os":"Linux","password":true,"vac":true,"version":"7961495","steam_id":85568392925397852,"keywords":["nocrits","nodmgspread","payload","uncletopia"],"game_id":440,"stv_port":27036,"stv_name":"Uncletopia | Warsaw | 3 | All Maps | STV","players":null},{"server_id":52,"name":"Uncletopia | Warsaw | 4 | All Maps","name_short":"waw-4","host":"waw-1.pl.uncletopia.com","port":27045,"enabled":true,"region":"eu","cc":"pl","latitude":52.2297,"longitude":21.017532,"reserved":0,"last_update":"0001-01-01T00:00:00Z","name_a2s":"Uncletopia | Warsaw | 4 | All Maps","protocol":17,"map":"koth_viaduct","folder":"tf","game":"Team Fortress","app_id":440,"player_count":5,"max_players":24,"Bots":0,"server_type":"Dedicated","server_os":"Linux","password":true,"vac":true,"version":"7961495","steam_id":85568392925397853,"keywords":["cp","nocrits","nodmgspread","uncletopia"],"game_id":440,"stv_port":27046,"stv_name":"Uncletopia | Warsaw | 4 | All Maps | STV","players":[{"user_id":4,"name":"bogdan.pro.roblox.biodegradable","steam_id":76561199489020776,"connected_time":1435000000000,"state":"active","ping":50},{"user_id":5,"name":"samo.kekso","steam_id":76561199466963086,"connected_time":1411000000000,"state":"active","ping":67},{"user_id":6,"name":"Mark","steam_id":76561198342451759,"connected_time":1402000000000,"state":"active","ping":71},{"user_id":10,"name":"tresh boy","steam_id":76561199398837277,"connected_time":93000000000,"state":"active","ping":108},{"user_id":8,"name":"Spaghetaa","steam_id":76561198134128569,"connected_time":1115000000000,"state":"active","ping":56}]},{"server_id":53,"name":"Uncletopia | Warsaw | 5 | Stopwatch","name_short":"waw-5","host":"waw-1.pl.uncletopia.com","port":27055,"enabled":true,"region":"eu","cc":"pl","latitude":52.2297,"longitude":21.017532,"reserved":0,"last_update":"0001-01-01T00:00:00Z","name_a2s":"Uncletopia | Warsaw | 5 | Stopwatch","protocol":17,"map":"workshop/cp_reckoner_rc6.ugc674719999","folder":"tf","game":"Team Fortress","app_id":440,"player_count":0,"max_players":24,"Bots":0,"server_type":"Dedicated","server_os":"Linux","password":true,"vac":true,"version":"7961495","steam_id":85568392925397854,"keywords":["cp","nocrits","nodmgspread","uncletopia"],"game_id":440,"stv_port":27056,"stv_name":"Uncletopia | Warsaw | 5 | Stopwatch | STV","players":null},{"server_id":54,"name":"Uncletopia | Warsaw | 6 | Community","name_short":"waw-6","host":"waw-1.pl.uncletopia.com","port":27065,"enabled":true,"region":"eu","cc":"pl","latitude":52.2297,"longitude":21.017532,"reserved":0,"last_update":"0001-01-01T00:00:00Z","name_a2s":"Uncletopia | Warsaw | 6 | Community","protocol":17,"map":"workshop/pl_badwater_pro_v12.ugc2142942074","folder":"tf","game":"Team Fortress","app_id":440,"player_count":0,"max_players":24,"Bots":0,"server_type":"Dedicated","server_os":"Linux","password":true,"vac":true,"version":"7961495","steam_id":85568392925397856,"keywords":["nocrits","nodmgspread","payload","uncletopia"],"game_id":440,"stv_port":27066,"stv_name":"Uncletopia | Warsaw | 6 | Community | STV","players":null}]}