{"status":true,"message":"","result":[{"server_id":9,"name":"Uncletopia | Atlanta | 1 | All Maps","name_short":"atl-1","host":"atl-1.us.uncletopia.com","port":27015,"enabled":true,"region":"us-east","cc":"us","latitude":33.753746,"longitude":-84.38633,"reserved":0,"last_update":"0001-01-01T00:00:00Z","name_a2s":"Uncletopia | Atlanta | 1 | All Maps","protocol":17,"map":"pl_swiftwater_final1","folder":"tf","game":"Team Fortress","app_id":440,"player_count":13,"max_players":24,"Bots":0,"server_type":"Dedicated","server_os":"Linux","password":true,"vac":true,"version":"7882260","steam_id":85568392924469982,"keywords":["nocrits","nodmgspread","payload","uncletopia"],"game_id":440,"stv_port":27016,"stv_name":"Uncletopia | Atlanta | 1 | All Maps | STV","players":[{"user_id":242,"name":"[BBW] Justario","steam_id":76561198016095410,"connected_time":20000000000,"state":"active","ping":72},{"user_id":14,"name":"icm2008","steam_id":76561199277408836,"connected_time":6376000000000,"state":"active","ping":78},{"user_id":228,"name":"marjan f2p civilnetworks.net","steam_id":76561199164288322,"connected_time":454000000000,"state":"active","ping":164},{"user_id":241,"name":"Galaxy_42","steam_id":76561198845514831,"connected_time":89000000000,"state":"active","ping":63},{"user_id":233,"name":"I'm a stone","steam_id":76561198414300607,"connected_time":303000000000,"state":"active","ping":125},{"user_id":170,"name":"Skipluff","steam_id":76561198084734554,"connected_time":1851000000000,"state":"active","ping":60},{"user_id":219,"name":"fdsarewqqqqq","steam_id":76561199216983585,"connected_time":739000000000,"state":"active","ping":76},{"user_id":179,"name":"Rattled‚Ñ¢","steam_id":76561198064142285,"connected_time":1681000000000,"state":"active","ping":100},{"user_id":123,"name":"SnazzyCelestial","steam_id":76561198328763813,"connected_time":2896000000000,"state":"active","ping":73},{"user_id":138,"name":"Ulrich Stern","steam_id":76561198101739682,"connected_time":2595000000000,"state":"active","ping":96},{"user_id":212,"name":"Mask","steam_id":76561198877649728,"connected_time":979000000000,"state":"active","ping":136},{"user_id":159,"name":"Cubelantis","steam_id":76561198262604936,"connected_time":2143000000000,"state":"active","ping":101},{"user_id":174,"name":"andyiscolorless","steam_id":76561199239870921,"connected_time":1841000000000,"state":"active","ping":144}]},{"server_id":104,"name":"Uncletopia | Atlanta | 2 | All Maps","name_short":"atl-2","host":"atl-1.us.uncletopia.com","port":27025,"enabled":true,"region":"us-east","cc":"us","latitude":33.753746,"longitude":-84.38633,"reserved":0,"last_update":"0001-01-01T00:00:00Z","name_a2s":"Uncletopia | Atlanta | 2 | All Maps","protocol":17,"map":"koth_cascade","folder":"tf","game":"Team Fortress","app_id":440,"player_count":0,"max_players":24,"Bots":0,"server_type":"Dedicated","server_os":"Linux","password":true,"vac":true,"version":"7882260","steam_id":85568392924469983,"keywords":["cp","nocrits","nodmgspread","uncletopia"],"game_id":440,"stv_port":27026,"stv_name":"Uncletopia | Atlanta | 2 | All Maps | STV","players":null},{"server_id":400,"name":"Uncletopia | Atlanta | 3 | Community","name_short":"atl-3","host":"atl-1.us.uncletopia.com","port":27035,"enabled":true,"region":"us-east","cc":"us","latitude":33.753746,"longitude":-84.38633,"reserved":0,"last_update":"0001-01-01T00:00:00Z","name_a2s":"Uncletopia | Atlanta | 3 | Community","protocol":17,"map":"workshop/koth_slaughter_rc1.ugc1712845210","folder":"tf","game":"Team Fortress","app_id":440,"player_count":0,"max_players":24,"Bots":0,"server_type":"Dedicated","server_os":"Linux","password":true,"vac":true,"version":"7882260","steam_id":85568392924515187,"keywords":["cp","nocrits","nodmgspread","uncletopia"],"game_id":440,"stv_port":27036,"stv_name":"Uncletopia | Atlanta | 3 | Community | STV","players":null},{"server_id":401,"name":"Uncletopia | Atlanta | 4 | No Payload","name_short":"atl-4","host":"atl-1.us.uncletopia.com","port":27045,"enabled":true,"region":"us-east","cc":"us","latitude":33.753746,"longitude":-84.38633,"reserved":0,"last_update":"0001-01-01T00:00:00Z","name_a2s":"","protocol":0,"map":"","folder":"","game":"","app_id":0,"player_count":0,"max_players":0,"Bots":0,"server_type":"","server_os":"","password":false,"vac":false,"version":"","steam_id":0,"keywords":null,"game_id":0,"stv_port":0,"stv_name":"","players":null},{"server_id":2,"name":"Uncletopia | Chicago | 1 | All Maps","name_short":"chi-1","host":"chi-1.us.uncletopia.com","port":27015,"enabled":true,"region":"us-central","cc":"us","latitude":41.881832,"longitude":-87.62318,"reserved":0,"last_update":"0001-01-01T00:00:00Z","name_a2s":"Uncletopia | Chicago | 1 | All Maps","protocol":17,"map":"cp_mountainlab","folder":"tf","game":"Team Fortress","app_id":440,"player_count":24,"max_players":24,"Bots":0,"server_type":"Dedicated","server_os":"Linux","password":true,"vac":true,"version":"7882260","steam_id":85568392924469984,"keywords":["cp","nocrits","nodmgspread","uncletopia"],"game_id":440,"stv_port":27016,"stv_name":"Uncletopia | Chicago | 1 | All Maps | STV","players":[{"user_id":162,"name":"TYRANNOFUNGUSREX","steam_id":76561198171744846,"connected_time":2426000000000,"state":"active","ping":97},{"user_id":197,"name":"Skully","steam_id":76561198147130680,"connected_time":716000000000,"state":"active","ping":113},{"user_id":173,"name":"Duckywinner","steam_id":76561198254828139,"connected_time":2193000000000,"state":"active","ping":87},{"user_id":182,"name":"JD","steam_id":76561198202669250,"connected_time":1844000000000,"state":"active","ping":60},{"user_id":184,"name":"Echo","steam_id":76561199165491231,"connected_time":1745000000000,"state":"active","ping":53},{"user_id":196,"name":"Mist","steam_id":76561198984335753,"connected_time":794000000000,"state":"active","ping":87},{"user_id":177,"name":"ADRIEN BRODY","steam_id":76561198009299473,"connected_time":2118000000000,"state":"active","ping":68},{"user_id":161,"name":"Giorno Giovanna","steam_id":76561198044106874,"connected_time":2427000000000,"state":"active","ping":90},{"user_id":187,"name":"meowfang","steam_id":76561198123056791,"connected_time":1507000000000,"state":"active","ping":61},{"user_id":136,"name":"kiaan","steam_id":76561198060819695,"connected_time":4195000000000,"state":"active","ping":74},{"user_id":190,"name":"Mog","steam_id":76561198025575870,"connected_time":952000000000,"state":"active","ping":60},{"user_id":160,"name":"blazzeh","steam_id":76561198053407069,"connected_time":2611000000000,"state":"active","ping":116},{"user_id":189,"name":"A Fool","steam_id":76561198029853893,"connected_time":992000000000,"state":"active","ping":48},{"user_id":199,"name":"Hank","steam_id":76561198351906124,"connected_time":387000000000,"state":"active","ping":56},{"user_id":192,"name":"FloydianSystem","steam_id":76561198081987191,"connected_time":909000000000,"state":"active","ping":85},{"user_id":159,"name":"Queen Frau the Round","steam_id":76561197999942134,"connected_time":2826000000000,"state":"active","ping":45},{"user_id":171,"name":"Trippy","steam_id":76561199090730294,"connected_time":2281000000000,"state":"active","ping":60},{"user_id":198,"name":"wack","steam_id":76561198095697330,"connected_time":451000000000,"state":"active","ping":86},{"user_id":183,"name":"Nuts Berserk","steam_id":76561198145709870,"connected_time":1817000000000,"state":"active","ping":99},{"user_id":193,"name":"PlasmaCharge","steam_id":76561198113548413,"connected_time":892000000000,"state":"active","ping":55},{"user_id":140,"name":"foxxo","steam_id":76561198451014982,"connected_time":4093000000000,"state":"active","ping":67},{"user_id":194,"name":"Lee","steam_id":76561198353670939,"connected_time":851000000000,"state":"active","ping":61},{"user_id":175,"name":"Ranger Plague","steam_id":76561198174647666,"connected_time":2182000000000,"state":"active","ping":85},{"user_id":195,"name":"Halibard","steam_id":76561198011239659,"connected_time":850000000000,"state":"active","ping":68}]},{"server_id":106,"name":"Uncletopia | Chicago | 2 | All Maps","name_short":"chi-2","host":"chi-1.us.uncletopia.com","port":27025,"enabled":true,"region":"us-central","cc":"us","latitude":41.881832,"longitude":-87.62318,"reserved":0,"last_update":"0001-01-01T00:00:00Z","name_a2s":"Uncletopia | Chicago | 2 | All Maps","protocol":17,"map":"pl_badwater","folder":"tf","game":"Team Fortress","app_id":440,"player_count":24,"max_players":24,"Bots":0,"server_type":"Dedicated","server_os":"Linux","password":true,"vac":true,"version":"7882260","steam_id":85568392924469985,"keywords":["nocrits","nodmgspread","payload","uncletopia"],"game_id":440,"stv_port":27026,"stv_name":"Uncletopia | Chicago | 2 | All Maps | STV","players":[{"user_id":267,"name":"gulch","steam_id":76561199227946025,"connected_time":1390000000000,"state":"active","ping":68},{"user_id":221,"name":"0","steam_id":76561198046055673,"connected_time":3993000000000,"state":"active","ping":75},{"user_id":288,"name":"i'm sure i'll find it","steam_id":76561198328618417,"connected_time":339000000000,"state":"active","ping":106},{"user_id":266,"name":"SHADOW (he/him)","steam_id":76561198207768148,"connected_time":1447000000000,"state":"active","ping":102},{"user_id":232,"name":"Warfarin","steam_id":76561198348354629,"connected_time":3197000000000,"state":"active","ping":103},{"user_id":257,"name":"Speedy","steam_id":76561198080761661,"connected_time":2507000000000,"state":"active","ping":83},{"user_id":218,"name":"Frog","steam_id":76561198170199881,"connected_time":4019000000000,"state":"active","ping":75},{"user_id":281,"name":"Malevo","steam_id":76561198148606522,"connected_time":823000000000,"state":"active","ping":83},{"user_id":285,"name":"Also Known As Assteeth","steam_id":76561198049837377,"connected_time":433000000000,"state":"active","ping":47},{"user_id":258,"name":"Rornir","steam_id":76561198081829615,"connected_time":2339000000000,"state":"active","ping":34},{"user_id":259,"name":"bingle fantano 2","steam_id":76561197997139225,"connected_time":2305000000000,"state":"active","ping":56},{"user_id":112,"name":"Lyra","steam_id":76561198128428048,"connected_time":12295000000000,"state":"active","ping":78},{"user_id":202,"name":"bocaJ","steam_id":76561198374535092,"connected_time":5157000000000,"state":"active","ping":78},{"user_id":275,"name":"richarven","steam_id":76561198189429665,"connected_time":980000000000,"state":"active","ping":76},{"user_id":289,"name":"SpamTheAlien","steam_id":76561199122290968,"connected_time":322000000000,"state":"active","ping":97},{"user_id":276,"name":"vv","steam_id":76561198134813102,"connected_time":975000000000,"state":"active","ping":62},{"user_id":234,"name":"Ooodleglobs·É¶","steam_id":76561198360201222,"connected_time":3194000000000,"state":"active","ping":92},{"user_id":272,"name":"Swedish Crowbar","steam_id":76561199105488936,"connected_time":1160000000000,"state":"active","ping":147},{"user_id":274,"name":"Mug Moment Gaming","steam_id":76561198233098136,"connected_time":1042000000000,"state":"active","ping":72},{"user_id":283,"name":"H C N","steam_id":76561198106290021,"connected_time":627000000000,"state":"active","ping":67},{"user_id":290,"name":"Kaluka","steam_id":76561198036861445,"connected_time":246000000000,"state":"active","ping":65},{"user_id":282,"name":"crumbles","steam_id":76561198168707036,"connected_time":820000000000,"state":"active","ping":104},{"user_id":291,"name":"TF3.aflyingmouse","steam_id":76561198058134934,"connected_time":151000000000,"state":"active","ping":125},{"user_id":263,"name":"BrainCell-Hazard","steam_id":76561199038566105,"connected_time":2001000000000,"state":"active","ping":114}]},{"server_id":402,"name":"Uncletopia | Chicago | 3 | All Maps","name_short":"chi-3","host":"chi-1.us.uncletopia.com","port":27035,"enabled":true,"region":"us-central","cc":"us","latitude":41.881832,"longitude":-87.62318,"reserved":0,"last_update":"0001-01-01T00:00:00Z","name_a2s":"Uncletopia | Chicago | 3 | All Maps","protocol":17,"map":"koth_cascade","folder":"tf","game":"Team Fortress","app_id":440,"player_count":1,"max_players":24,"Bots":0,"server_type":"Dedicated","server_os":"Linux","password":true,"vac":true,"version":"7882260","steam_id":85568392924515191,"keywords":["cp","nocrits","nodmgspread","uncletopia"],"game_id":440,"stv_port":27036,"stv_name":"Uncletopia | Chicago | 3 | All Maps | STV","players":[{"user_id":6,"name":"Katy","steam_id":76561198079395814,"connected_time":501000000000,"state":"active","ping":64}]},{"server_id":403,"name":"Uncletopia | Chicago | 4 | All Maps","name_short":"chi-4","host":"chi-1.us.uncletopia.com","port":27045,"enabled":true,"region":"us-central","cc":"us","latitude":41.881832,"longitude":-87.62318,"reserved":0,"last_update":"0001-01-01T00:00:00Z","name_a2s":"Uncletopia | Chicago | 4 | All Maps","protocol":17,"map":"pl_pier","folder":"tf","game":"Team Fortress","app_id":440,"player_count":24,"max_players":24,"Bots":0,"server_type":"Dedicated","server_os":"Linux","password":true,"vac":true,"version":"7882260","steam_id":85568392924515193,"keywords":["nocrits","nodmgspread","payload","uncletopia"],"game_id":440,"stv_port":27046,"stv_name":"Uncletopia | Chicago | 4 | All Maps | STV","players":[{"user_id":331,"name":"Silly Shark","steam_id":76561198130714378,"connected_time":2907000000000,"state":"active","ping":120},{"user_id":284,"name":"Siren","steam_id":76561198047395823,"connected_time":4112000000000,"state":"active","ping":87},{"user_id":397,"name":"crittr","steam_id":76561198014302068,"connected_time":537000000000,"state":"active","ping":75},{"user_id":382,"name":"Blitzy","steam_id":76561198149472890,"connected_time":1311000000000,"state":"active","ping":73},{"user_id":398,"name":"ElChuchoXf","steam_id":76561199235124146,"connected_time":514000000000,"state":"active","ping":152},{"user_id":377,"name":"Garfield Expert","steam_id":76561198092452824,"connected_time":1412000000000,"state":"active","ping":70},{"user_id":324,"name":"Chiki","steam_id":76561198063590320,"connected_time":3068000000000,"state":"active","ping":72},{"user_id":342,"name":"Rick","steam_id":76561198090393125,"connected_time":2421000000000,"state":"active","ping":73},{"user_id":260,"name":"üÖúüÖîüÖîüÖöüÖ¢üÖ£üÖî\ufffd\ufffd\ufffd","steam_id":76561197999748343,"connected_time":5059000000000,"state":"active","ping":67},{"user_id":207,"name":"RIP DUNK. #NotMyDunkin","steam_id":76561198111259720,"connected_time":9212000000000,"state":"active","ping":68},{"user_id":391,"name":"Mr Bones","steam_id":76561198148667535,"connected_time":1067000000000,"state":"active","ping":105},{"user_id":330,"name":"denzell05","steam_id":76561198086987061,"connected_time":2920000000000,"state":"active","ping":118},{"user_id":253,"name":"SEGNO","steam_id":76561198102780113,"connected_time":6033000000000,"state":"active","ping":61},{"user_id":395,"name":"RedSock","steam_id":76561198161243404,"connected_time":795000000000,"state":"active","ping":44},{"user_id":61,"name":"Elias","steam_id":76561198106431732,"connected_time":23147000000000,"state":"active","ping":34},{"user_id":345,"name":"DoubleX2000","steam_id":76561198164134387,"connected_time":2349000000000,"state":"active","ping":115},{"user_id":386,"name":"Raizen","steam_id":76561199092445367,"connected_time":1183000000000,"state":"active","ping":60},{"user_id":400,"name":"ThatGamingKiwi","steam_id":76561199170522237,"connected_time":472000000000,"state":"active","ping":80},{"user_id":350,"name":"Sh3ba Spaniel","steam_id":76561198047412394,"connected_time":2264000000000,"state":"active","ping":62},{"user_id":408,"name":"Chocc-_-","steam_id":76561198068070211,"connected_time":140000000000,"state":"active","ping":101},{"user_id":401,"name":"Sunny","steam_id":76561198125892600,"connected_time":460000000000,"state":"active","ping":65},{"user_id":369,"name":"hedahman","steam_id":76561198052398134,"connected_time":1587000000000,"state":"active","ping":106},{"user_id":265,"name":"Pub Davinci","steam_id":76561198083975056,"connected_time":4608000000000,"state":"active","ping":110},{"user_id":375,"name":"Fstev ‚úò","steam_id":76561198358766202,"connected_time":1459000000000,"state":"active","ping":152}]},{"server_id":36,"name":"Uncletopia | Chicago | 5 | All Maps","name_short":"chi-5","host":"chi-2.us.uncletopia.com","port":27015,"enabled":true,"region":"us-central","cc":"us","latitude":41.881832,"longitude":-87.62318,"reserved":0,"last_update":"0001-01-01T00:00:00Z","name_a2s":"Uncletopia | Chicago | 5 | All Maps","protocol":17,"map":"koth_harvest_final","folder":"tf","game":"Team Fortress","app_id":440,"player_count":23,"max_players":24,"Bots":0,"server_type":"Dedicated","server_os":"Linux","password":true,"vac":true,"version":"7882260","steam_id":85568392924866362,"keywords":["cp","nocrits","nodmgspread","uncletopia"],"game_id":440,"stv_port":27016,"stv_name":"Uncletopia | Chicago | 5 | All Maps | STV","players":[{"user_id":131,"name":"le assimilating flesh arrives","steam_id":76561198134145666,"connected_time":3754000000000,"state":"active","ping":118},{"user_id":182,"name":"IDFWU","steam_id":76561198086525936,"connected_time":912000000000,"state":"active","ping":60},{"user_id":176,"name":"dicksnip","steam_id":76561198356515396,"connected_time":1160000000000,"state":"active","ping":79},{"user_id":185,"name":"kibsta","steam_id":76561198991982630,"connected_time":663000000000,"state":"active","ping":55},{"user_id":106,"name":"Linguine","steam_id":76561198097858825,"connected_time":5255000000000,"state":"active","ping":69},{"user_id":147,"name":"Urbanzpinapple","steam_id":76561198115426938,"connected_time":3129000000000,"state":"active","ping":55},{"user_id":141,"name":"Furious George","steam_id":76561198405111646,"connected_time":3354000000000,"state":"active","ping":87},{"user_id":162,"name":"chiswola","steam_id":76561198046920142,"connected_time":2051000000000,"state":"active","ping":74},{"user_id":183,"name":"Lichy","steam_id":76561198310682841,"connected_time":880000000000,"state":"active","ping":43},{"user_id":86,"name":"INVEST IN SKYNET::œÑRU œÑAO","steam_id":76561198144436132,"connected_time":6989000000000,"state":"active","ping":82},{"user_id":174,"name":"[MRY] Sk-iLite","steam_id":76561198041797350,"connected_time":1598000000000,"state":"active","ping":55},{"user_id":175,"name":"Olly","steam_id":76561198054273611,"connected_time":1181000000000,"state":"active","ping":62},{"user_id":144,"name":"Boomer Gaming","steam_id":76561198037803087,"connected_time":3291000000000,"state":"active","ping":69},{"user_id":190,"name":"glock in my rari","steam_id":76561199488178328,"connected_time":175000000000,"state":"active","ping":55},{"user_id":142,"name":"Navigatxr","steam_id":76561199185153789,"connected_time":3349000000000,"state":"active","ping":90},{"user_id":177,"name":"GeekyNerd54","steam_id":76561198314982395,"connected_time":1085000000000,"state":"active","ping":49},{"user_id":178,"name":"You could do the rumpshaker huh","steam_id":76561198171466414,"connected_time":1033000000000,"state":"active","ping":88},{"user_id":189,"name":"Ros","steam_id":76561199055963822,"connected_time":260000000000,"state":"active","ping":67},{"user_id":180,"name":"Snoopy","steam_id":76561198273735974,"connected_time":973000000000,"state":"active","ping":96},{"user_id":191,"name":"John Galt","steam_id":76561198073595763,"connected_time":117000000000,"state":"active","ping":90},{"user_id":167,"name":"goose","steam_id":76561198367551668,"connected_time":1874000000000,"state":"active","ping":49},{"user_id":156,"name":"Chirp","steam_id":76561198240780230,"connected_time":2483000000000,"state":"active","ping":95},{"user_id":149,"name":"egg gaming","steam_id":76561198243041462,"connected_time":3100000000000,"state":"active","ping":116}]},{"server_id":37,"name":"Uncletopia | Chicago | 6 | All Maps","name_short":"chi-6","host":"chi-2.us.uncletopia.com","port":27025,"enabled":true,"region":"us-central","cc":"us","latitude":41.881832,"longitude":-87.62318,"reserved":0,"last_update":"0001-01-01T00:00:00Z","name_a2s":"Uncletopia | Chicago | 6 | All Maps","protocol":17,"map":"cp_altitude","folder":"tf","game":"Team Fortress","app_id":440,"player_count":0,"max_players":24,"Bots":0,"server_type":"Dedicated","server_os":"Linux","password":true,"vac":true,"version":"7882260","steam_id":85568392924866363,"keywords":["cp","nocrits","nodmgspread","uncletopia"],"game_id":440,"stv_port":27026,"stv_name":"Uncletopia | Chicago | 6 | All Maps | STV","players":null},{"server_id":38,"name":"Uncletopia | Chicago | 7 | Stopwatch Beta","name_short":"chi-7","host":"chi-2.us.uncletopia.com","port":27035,"enabled":true,"region":"us-central","cc":"us","latitude":41.881832,"longitude":-87.62318,"reserved":0,"last_update":"0001-01-01T00:00:00Z","name_a2s":"Uncletopia | Chicago | 7 | Stopwatch Beta","protocol":17,"map":"pl_upward","folder":"tf","game":"Team Fortress","app_id":440,"player_count":0,"max_players":24,"Bots":0,"server_type":"Dedicated","server_os":"Linux","password":true,"vac":true,"version":"7882260","steam_id":85568392924866364,"keywords":["nocrits","nodmgspread","payload","uncletopia"],"game_id":440,"stv_port":27036,"stv_name":"Uncletopia | Chicago | 7 | Stopwatch Beta | STV","players":null},{"server_id":39,"name":"Uncletopia | Chicago | 8 | Community","name_short":"chi-8","host":"chi-2.us.uncletopia.com","port":27045,"enabled":true,"region":"us-central","cc":"us","latitude":41.881832,"longitude":-87.62318,"reserved":0,"last_update":"0001-01-01T00:00:00Z","name_a2s":"Uncletopia | Chicago | 8 | Community","protocol":17,"map":"pl_badwater","folder":"tf","game":"Team Fortress","app_id":440,"player_count":0,"max_players":24,"Bots":0,"server_type":"Dedicated","server_os":"Linux","password":true,"vac":true,"version":"7882260","steam_id":85568392924866365,"keywords":["nocrits","nodmgspread","payload","uncletopia"],"game_id":440,"stv_port":27046,"stv_name":"Uncletopia | Chicago | 8 | Community | STV","players":null},{"server_id":8,"name":"Uncletopia | Dallas | 1 | All Maps","name_short":"dal-1","host":"dal-1.us.uncletopia.com","port":27015,"enabled":true,"region":"us-central","cc":"us","latitude":32.779167,"longitude":-96.80889,"reserved":0,"last_update":"0001-01-01T00:00:00Z","name_a2s":"Uncletopia | Dallas | 1 | All Maps","protocol":17,"map":"pl_borneo","folder":"tf","game":"Team Fortress","app_id":440,"player_count":23,"max_players":24,"Bots":0,"server_type":"Dedicated","server_os":"Linux","password":true,"vac":true,"version":"7882260","steam_id":85568392924469986,"keywords":["nocrits","nodmgspread","payload","uncletopia"],"game_id":440,"stv_port":27016,"stv_name":"Uncletopia | Dallas | 1 | All Maps | STV","players":[{"user_id":278,"name":"Necronoxide","steam_id":76561197997856321,"connected_time":1893000000000,"state":"active","ping":93},{"user_id":275,"name":"Ferruco:3","steam_id":76561198431714229,"connected_time":2129000000000,"state":"active","ping":60},{"user_id":283,"name":"pandoRA","steam_id":76561198075490385,"connected_time":1812000000000,"state":"active","ping":76},{"user_id":249,"name":"Kuji Katsumi TTV ‚ô°","steam_id":76561198165615964,"connected_time":3529000000000,"state":"active","ping":92},{"user_id":290,"name":"Scientist005","steam_id":76561198117825609,"connected_time":917000000000,"state":"active","ping":93},{"user_id":277,"name":"Racist Asian Man","steam_id":76561198844388533,"connected_time":1903000000000,"state":"active","ping":81},{"user_id":229,"name":"y e e t o  b u r r i t o","steam_id":76561198963628161,"connected_time":4492000000000,"state":"active","ping":49},{"user_id":286,"name":"The Chosen One","steam_id":76561199046984627,"connected_time":1608000000000,"state":"active","ping":85},{"user_id":252,"name":"mkl","steam_id":76561197986401685,"connected_time":3493000000000,"state":"active","ping":56},{"user_id":287,"name":"Moonman327","steam_id":76561197992616059,"connected_time":1510000000000,"state":"active","ping":76},{"user_id":295,"name":"Jamiera","steam_id":76561198352802805,"connected_time":138000000000,"state":"active","ping":75},{"user_id":281,"name":"¬øsoup?","steam_id":76561198121042852,"connected_time":1847000000000,"state":"active","ping":108},{"user_id":293,"name":"smaerdevahot","steam_id":76561198369075257,"connected_time":425000000000,"state":"active","ping":116},{"user_id":269,"name":"SeaBass","steam_id":76561197982949108,"connected_time":2806000000000,"state":"active","ping":72},{"user_id":236,"name":"Norman","steam_id":76561198154715990,"connected_time":3883000000000,"state":"active","ping":131},{"user_id":261,"name":"RarestGuide","steam_id":76561198050338923,"connected_time":3211000000000,"state":"active","ping":79},{"user_id":289,"name":"King","steam_id":76561198039763676,"connected_time":958000000000,"state":"active","ping":75},{"user_id":265,"name":"Wigl","steam_id":76561198019324464,"connected_time":2918000000000,"state":"active","ping":90},{"user_id":274,"name":"Bitblock","steam_id":76561198359772017,"connected_time":2317000000000,"state":"active","ping":67},{"user_id":241,"name":"IKOVKY/TTV","steam_id":76561198138035040,"connected_time":3762000000000,"state":"active","ping":62},{"user_id":224,"name":"pinball wizard","steam_id":76561198105359319,"connected_time":5366000000000,"state":"active","ping":76},{"user_id":271,"name":"TheSecretNewbie","steam_id":76561198194671218,"connected_time":2785000000000,"state":"active","ping":59},{"user_id":294,"name":"TrainsFruit","steam_id":76561198129253027,"connected_time":370000000000,"state":"active","ping":45}]},{"server_id":108,"name":"Uncletopia | Dallas | 2 | All Maps","name_short":"dal-2","host":"dal-1.us.uncletopia.com","port":27025,"enabled":true,"region":"us-central","cc":"us","latitude":32.779167,"longitude":-96.80889,"reserved":0,"last_update":"0001-01-01T00:00:00Z","name_a2s":"Uncletopia | Dallas | 2 | All Maps","protocol":17,"map":"koth_highpass","folder":"tf","game":"Team Fortress","app_id":440,"player_count":0,"max_players":24,"Bots":0,"server_type":"Dedicated","server_os":"Linux","password":true,"vac":true,"version":"7882260","steam_id":85568392924469988,"keywords":["cp","nocrits","nodmgspread","uncletopia"],"game_id":440,"stv_port":27026,"stv_name":"Uncletopia | Dallas | 2 | All Maps | STV","players":null},{"server_id":5,"name":"Uncletopia | Frankfurt | 1 | All Maps","name_short":"frk-1","host":"frk-1.de.uncletopia.com","port":27015,"enabled":true,"region":"eu","cc":"de","latitude":50.110924,"longitude":8.682127,"reserved":0,"last_update":"0001-01-01T00:00:00Z","name_a2s":"Uncletopia | Frankfurt | 1 | All Maps","protocol":17,"map":"pl_pier","folder":"tf","game":"Team Fortress","app_id":440,"player_count":23,"max_players":24,"Bots":0,"server_type":"Dedicated","server_os":"Linux","password":true,"vac":true,"version":"7882260","steam_id":85568392924469989,"keywords":["nocrits","nodmgspread","payload","uncletopia"],"game_id":440,"stv_port":27016,"stv_name":"Uncletopia | Frankfurt | 1 | All Maps | STV","players":[{"user_id":310,"name":"Lyell","steam_id":76561198350329389,"connected_time":280000000000,"state":"active","ping":75},{"user_id":301,"name":"7oid","steam_id":76561198142074232,"connected_time":1382000000000,"state":"active","ping":91},{"user_id":257,"name":"Master Of Noob","steam_id":76561198217926783,"connected_time":3240000000000,"state":"active","ping":73},{"user_id":307,"name":"the_Qcumber","steam_id":76561199152515819,"connected_time":405000000000,"state":"active","ping":96},{"user_id":263,"name":"Sauce Joke","steam_id":76561198842979843,"connected_time":3154000000000,"state":"active","ping":51},{"user_id":313,"name":"[T.H.W.U.] funkliner","steam_id":76561198436902492,"connected_time":49000000000,"state":"spawning","ping":92},{"user_id":274,"name":"XuMuK","steam_id":76561198102102340,"connected_time":2510000000000,"state":"active","ping":70},{"user_id":303,"name":"Yelowchy","steam_id":76561198199416121,"connected_time":1163000000000,"state":"active","ping":61},{"user_id":262,"name":"Venenakki","steam_id":76561198311526482,"connected_time":3169000000000,"state":"active","ping":60},{"user_id":292,"name":"Dr Sex","steam_id":76561198029044617,"connected_time":1923000000000,"state":"active","ping":62},{"user_id":258,"name":"GuSkand","steam_id":76561198043775605,"connected_time":3240000000000,"state":"active","ping":75},{"user_id":299,"name":"GrimmAbel","steam_id":76561198260218627,"connected_time":1430000000000,"state":"active","ping":87},{"user_id":289,"name":"Combat Wombat","steam_id":76561197994720068,"connected_time":2287000000000,"state":"active","ping":71},{"user_id":265,"name":"CheekiBreekiBoi","steam_id":76561198089977062,"connected_time":3072000000000,"state":"active","ping":70},{"user_id":300,"name":"Amon Gus","steam_id":76561199094540960,"connected_time":1428000000000,"state":"active","ping":63},{"user_id":290,"name":"Bonkie","steam_id":76561198205701441,"connected_time":2184000000000,"state":"active","ping":67},{"user_id":312,"name":".Aq","steam_id":76561198043376092,"connected_time":230000000000,"state":"active","ping":92},{"user_id":306,"name":"Bustin","steam_id":76561198142263809,"connected_time":717000000000,"state":"active","ping":73},{"user_id":216,"name":"Anadest","steam_id":76561198992528373,"connected_time":5235000000000,"state":"active","ping":77},{"user_id":284,"name":"N","steam_id":76561198257342972,"connected_time":2412000000000,"state":"active","ping":60},{"user_id":295,"name":"Walle","steam_id":76561197995148937,"connected_time":1497000000000,"state":"active","ping":67},{"user_id":285,"name":"Killer13","steam_id":76561198303460133,"connected_time":2409000000000,"state":"active","ping":133},{"user_id":296,"name":"Waltcha","steam_id":76561198007691468,"connected_time":1497000000000,"state":"active","ping":65}]},{"server_id":110,"name":"Uncletopia | Frankfurt | 2 | All Maps","name_short":"frk-2","host":"frk-1.de.uncletopia.com","port":27025,"enabled":true,"region":"eu","cc":"de","latitude":50.110924,"longitude":8.682127,"reserved":0,"last_update":"0001-01-01T00:00:00Z","name_a2s":"Uncletopia | Frankfurt | 2 | All Maps","protocol":17,"map":"pl_upward","folder":"tf","game":"Team Fortress","app_id":440,"player_count":22,"max_players":24,"Bots":0,"server_type":"Dedicated","server_os":"Linux","password":true,"vac":true,"version":"7882260","steam_id":85568392924469990,"keywords":["nocrits","nodmgspread","payload","uncletopia"],"game_id":440,"stv_port":27026,"stv_name":"Uncletopia | Frankfurt | 2 | All Maps | STV","players":[{"user_id":566,"name":"Wujek Cacek","steam_id":76561198010267943,"connected_time":830000000000,"state":"active","ping":60},{"user_id":567,"name":"Latvian Edgelord","steam_id":76561198830058797,"connected_time":828000000000,"state":"active","ping":75},{"user_id":557,"name":"Kanny","steam_id":76561198058810184,"connected_time":1233000000000,"state":"active","ping":60},{"user_id":575,"name":"wG auto","steam_id":76561198062247888,"connected_time":775000000000,"state":"active","ping":72},{"user_id":546,"name":"fjomp","steam_id":76561198374154441,"connected_time":1939000000000,"state":"active","ping":63},{"user_id":568,"name":"Zegon (Limited Edition)","steam_id":76561198196418618,"connected_time":825000000000,"state":"active","ping":48},{"user_id":569,"name":"WolfmanCZ","steam_id":76561199157141414,"connected_time":821000000000,"state":"active","ping":61},{"user_id":547,"name":"Lucan","steam_id":76561198219195135,"connected_time":1925000000000,"state":"active","ping":58},{"user_id":554,"name":"Talvy","steam_id":76561198009083535,"connected_time":1507000000000,"state":"active","ping":76},{"user_id":570,"name":"PanPatrik","steam_id":76561198293331527,"connected_time":813000000000,"state":"active","ping":58},{"user_id":571,"name":"png.png","steam_id":76561198444446521,"connected_time":797000000000,"state":"active","ping":107},{"user_id":565,"name":"Zero (Orbital Gear Mastermind)","steam_id":76561198017416816,"connected_time":909000000000,"state":"active","ping":60},{"user_id":587,"name":"„ÄéDorarhim„Äè","steam_id":76561198220232352,"connected_time":167000000000,"state":"active","ping":59},{"user_id":582,"name":"dotdotdot","steam_id":76561198057628751,"connected_time":480000000000,"state":"active","ping":68},{"user_id":531,"name":"FlameTheGame","steam_id":76561198841108519,"connected_time":2675000000000,"state":"active","ping":87},{"user_id":586,"name":"i.luv.fuzzy.cats","steam_id":76561199403990768,"connected_time":172000000000,"state":"active","ping":151},{"user_id":574,"name":"Szeregowy LowiRyb","steam_id":76561198855967762,"connected_time":786000000000,"state":"active","ping":98},{"user_id":553,"name":"Nika","steam_id":76561198355965587,"connected_time":1794000000000,"state":"active","ping":52},{"user_id":579,"name":"Bogdan Boner","steam_id":76561198021552128,"connected_time":737000000000,"state":"active","ping":100},{"user_id":512,"name":"Daan77","steam_id":76561198129940468,"connected_time":4452000000000,"state":"active","ping":71},{"user_id":581,"name":"Bayoyo","steam_id":76561199069591774,"connected_time":594000000000,"state":"active","ping":72},{"user_id":577,"name":"BerejMan","steam_id":76561198873137917,"connected_time":768000000000,"state":"active","ping":75}]},{"server_id":308,"name":"Uncletopia | Frankfurt | 3 | All Maps","name_short":"frk-3","host":"frk-1.de.uncletopia.com","port":27035,"enabled":true,"region":"eu","cc":"de","latitude":50.110924,"longitude":8.682127,"reserved":0,"last_update":"0001-01-01T00:00:00Z","name_a2s":"Uncletopia | Frankfurt | 3 | All Maps","protocol":17,"map":"pl_badwater","folder":"tf","game":"Team Fortress","app_id":440,"player_count":19,"max_players":24,"Bots":0,"server_type":"Dedicated","server_os":"Linux","password":true,"vac":true,"version":"7882260","steam_id":85568392924504274,"keywords":["nocrits","nodmgspread","payload","uncletopia"],"game_id":440,"stv_port":27036,"stv_name":"Uncletopia | Frankfurt | 3 | All Maps | STV","players":[{"user_id":389,"name":"One Shiny Boi‚Ñ¢","steam_id":76561198199193627,"connected_time":102000000000,"state":"active","ping":76},{"user_id":376,"name":"flori20031","steam_id":76561198256800229,"connected_time":1186000000000,"state":"active","ping":109},{"user_id":370,"name":"Impressive Knight of Stirling","steam_id":76561197992844841,"connected_time":1376000000000,"state":"active","ping":45},{"user_id":350,"name":"WingMann","steam_id":76561198092247651,"connected_time":2211000000000,"state":"active","ping":57},{"user_id":242,"name":"aisu","steam_id":76561198043768507,"connected_time":9794000000000,"state":"active","ping":177},{"user_id":388,"name":"pibel","steam_id":76561199139066133,"connected_time":235000000000,"state":"active","ping":62},{"user_id":347,"name":"house in the froggy valley","steam_id":76561198064115286,"connected_time":2301000000000,"state":"active","ping":60},{"user_id":383,"name":"Maksim:)","steam_id":76561198816061842,"connected_time":654000000000,"state":"active","ping":70},{"user_id":371,"name":"wasps","steam_id":76561198049485054,"connected_time":1300000000000,"state":"active","ping":74},{"user_id":390,"name":"Michal jordan","steam_id":76561199106262610,"connected_time":94000000000,"state":"active","ping":62},{"user_id":391,"name":"what can swim? a little stone","steam_id":76561198123131045,"connected_time":68000000000,"state":"active","ping":66},{"user_id":385,"name":"FiskerJohn","steam_id":76561198056249002,"connected_time":508000000000,"state":"active","ping":58},{"user_id":361,"name":"Joe","steam_id":76561198061717026,"connected_time":1821000000000,"state":"active","ping":51},{"user_id":379,"name":"beep!","steam_id":76561198111674607,"connected_time":932000000000,"state":"active","ping":50},{"user_id":363,"name":"BoBunny McGlitter","steam_id":76561198057403817,"connected_time":1788000000000,"state":"active","ping":63},{"user_id":386,"name":"Monara12th","steam_id":76561199478607360,"connected_time":440000000000,"state":"active","ping":63},{"user_id":348,"name":"Andebil","steam_id":76561198131829815,"connected_time":2282000000000,"state":"active","ping":62},{"user_id":364,"name":"Mike","steam_id":76561198228455736,"connected_time":1759000000000,"state":"active","ping":63},{"user_id":380,"name":"Nibbenji2077","steam_id":76561199219663655,"connected_time":929000000000,"state":"active","ping":126}]},{"server_id":309,"name":"Uncletopia | Frankfurt | 4 | All Maps","name_short":"frk-4","host":"frk-1.de.uncletopia.com","port":27045,"enabled":true,"region":"eu","cc":"de","latitude":50.110924,"longitude":8.682127,"reserved":0,"last_update":"0001-01-01T00:00:00Z","name_a2s":"Uncletopia | Frankfurt | 4 | All Maps","protocol":17,"map":"cp_fastlane","folder":"tf","game":"Team Fortress","app_id":440,"player_count":21,"max_players":24,"Bots":0,"server_type":"Dedicated","server_os":"Linux","password":true,"vac":true,"version":"7882260","steam_id":85568392924504275,"keywords":["cp","nocrits","nodmgspread","uncletopia"],"game_id":440,"stv_port":27046,"stv_name":"Uncletopia | Frankfurt | 4 | All Maps | STV","players":[{"user_id":303,"name":"antlionguard","steam_id":76561198072747143,"connected_time":4689000000000,"state":"active","ping":101},{"user_id":357,"name":"KnugenIV","steam_id":76561198127091993,"connected_time":1010000000000,"state":"active","ping":58},{"user_id":347,"name":"anti","steam_id":76561198313440475,"connected_time":1618000000000,"state":"active","ping":90},{"user_id":360,"name":"CEO of Pen Island","steam_id":76561198037212191,"connected_time":388000000000,"state":"active","ping":76},{"user_id":365,"name":"JOE BIDEN","steam_id":76561198847191826,"connected_time":52000000000,"state":"active","ping":73},{"user_id":334,"name":"Kleiner Engel","steam_id":76561198009922500,"connected_time":2140000000000,"state":"active","ping":53},{"user_id":363,"name":"Dragon","steam_id":76561198163255365,"connected_time":272000000000,"state":"active","ping":105},{"user_id":352,"name":"mmm","steam_id":76561198111134021,"connected_time":1242000000000,"state":"active","ping":70},{"user_id":230,"name":"pizza [ITA]","steam_id":76561199380849468,"connected_time":11334000000000,"state":"active","ping":63},{"user_id":356,"name":"Local Capybara","steam_id":76561198388321887,"connected_time":1131000000000,"state":"active","ping":57},{"user_id":299,"name":"AleXandriX","steam_id":76561198035203950,"connected_time":4818000000000,"state":"active","ping":53},{"user_id":332,"name":"Udinese Dion","steam_id":76561198067931573,"connected_time":2163000000000,"state":"active","ping":50},{"user_id":353,"name":"TF2Girl","steam_id":76561198061437907,"connected_time":1236000000000,"state":"active","ping":104},{"user_id":294,"name":"Xanshi","steam_id":76561198152392309,"connected_time":4874000000000,"state":"active","ping":48},{"user_id":350,"name":"Grandfather","steam_id":76561198845769744,"connected_time":1379000000000,"state":"active","ping":76},{"user_id":282,"name":"Fat Pigeon","steam_id":76561198817940142,"connected_time":7474000000000,"state":"active","ping":58},{"user_id":359,"name":"boy23","steam_id":76561199475322713,"connected_time":477000000000,"state":"active","ping":66},{"user_id":342,"name":"Der Herr Doktor","steam_id":76561198119476089,"connected_time":1859000000000,"state":"active","ping":58},{"user_id":288,"name":"Miss Bari","steam_id":76561198365286092,"connected_time":5749000000000,"state":"active","ping":45},{"user_id":354,"name":"Pvt. Prinny","steam_id":76561198030278562,"connected_time":1221000000000,"state":"active","ping":59},{"user_id":323,"name":"Spurt","steam_id":76561198078523852,"connected_time":2740000000000,"state":"active","ping":50}]},{"server_id":310,"name":"Uncletopia | Frankfurt | 5 | All Maps","name_short":"frk-5","host":"frk-1.de.uncletopia.com","port":27055,"enabled":true,"region":"eu","cc":"de","latitude":50.110924,"longitude":8.682127,"reserved":0,"last_update":"0001-01-01T00:00:00Z","name_a2s":"Uncletopia | Frankfurt | 5 | All Maps","protocol":17,"map":"pl_borneo","folder":"tf","game":"Team Fortress","app_id":440,"player_count":24,"max_players":24,"Bots":0,"server_type":"Dedicated","server_os":"Linux","password":true,"vac":true,"version":"7882260","steam_id":85568392924504277,"keywords":["nocrits","nodmgspread","payload","uncletopia"],"game_id":440,"stv_port":27056,"stv_name":"Uncletopia | Frankfurt | 5 | All Maps | STV","players":[{"user_id":304,"name":"Gene Takovic","steam_id":76561198202990635,"connected_time":2195000000000,"state":"active","ping":63},{"user_id":215,"name":"After8","steam_id":76561198090750865,"connected_time":7495000000000,"state":"active","ping":61},{"user_id":329,"name":"Doriian","steam_id":76561198071438810,"connected_time":918000000000,"state":"active","ping":75},{"user_id":297,"name":"Purplenoogie","steam_id":76561198081872160,"connected_time":2896000000000,"state":"active","ping":60},{"user_id":318,"name":"Ë™∞„Åã„ÅåË¶ã„Å¶„ÅÑ„Çã","steam_id":76561198834913692,"connected_time":1490000000000,"state":"active","ping":69},{"user_id":334,"name":"ttv.PogHog1234","steam_id":76561199109713313,"connected_time":558000000000,"state":"active","ping":62},{"user_id":315,"name":"TomTom","steam_id":76561198050596327,"connected_time":1545000000000,"state":"active","ping":164},{"user_id":316,"name":"Radegast the Brown","steam_id":76561198075489505,"connected_time":1534000000000,"state":"active","ping":60},{"user_id":309,"name":"mentally disabled","steam_id":76561198163362186,"connected_time":1855000000000,"state":"active","ping":160},{"user_id":335,"name":"Aquatical","steam_id":76561198097333170,"connected_time":529000000000,"state":"active","ping":96},{"user_id":319,"name":"Yagiz-Chan","steam_id":76561198389452661,"connected_time":1480000000000,"state":"active","ping":112},{"user_id":336,"name":"player with 0 skill","steam_id":76561198002451113,"connected_time":517000000000,"state":"active","ping":113},{"user_id":321,"name":"ArikMor","steam_id":76561199124472513,"connected_time":1437000000000,"state":"active","ping":126},{"user_id":331,"name":"Ankle Dane","steam_id":76561198134378108,"connected_time":904000000000,"state":"active","ping":82},{"user_id":312,"name":"The Funny Cat-Heaby","steam_id":76561198439978112,"connected_time":1627000000000,"state":"active","ping":104},{"user_id":305,"name":"[KoN] Prepare for trouble","steam_id":76561198055930135,"connected_time":2037000000000,"state":"active","ping":71},{"user_id":310,"name":"Lyncurion","steam_id":76561199260022725,"connected_time":1827000000000,"state":"active","ping":82},{"user_id":269,"name":"[P-roc] Cmm Bert","steam_id":76561198016658674,"connected_time":4886000000000,"state":"active","ping":77},{"user_id":332,"name":"treksz","steam_id":76561199230323848,"connected_time":871000000000,"state":"active","ping":89},{"user_id":333,"name":"I am piss man","steam_id":76561198039209685,"connected_time":707000000000,"state":"active","ping":58},{"user_id":328,"name":"TEN YEARS IN THE JOINT","steam_id":76561198393528841,"connected_time":962000000000,"state":"active","ping":98},{"user_id":272,"name":"Soerlssoelss√∂en","steam_id":76561197993060585,"connected_time":4704000000000,"state":"active","ping":84},{"user_id":306,"name":"madijo","steam_id":76561198012617400,"connected_time":2032000000000,"state":"active","ping":56},{"user_id":327,"name":"Oki (Bon)","steam_id":76561199047748534,"connected_time":1005000000000,"state":"active","ping":73}]},{"server_id":311,"name":"Uncletopia | Frankfurt | 6 | All Maps","name_short":"frk-6","host":"frk-1.de.uncletopia.com","port":27065,"enabled":true,"region":"eu","cc":"de","latitude":50.110924,"longitude":8.682127,"reserved":0,"last_update":"0001-01-01T00:00:00Z","name_a2s":"Uncletopia | Frankfurt | 6 | All Maps","protocol":17,"map":"cp_snakewater_final1","folder":"tf","game":"Team Fortress","app_id":440,"player_count":3,"max_players":24,"Bots":0,"server_type":"Dedicated","server_os":"Linux","password":true,"vac":true,"version":"7882260","steam_id":85568392924504278,"keywords":["cp","nocrits","nodmgspread","uncletopia"],"game_id":440,"stv_port":27066,"stv_name":"Uncletopia | Frankfurt | 6 | All Maps | STV","players":[{"user_id":177,"name":"EkkiHinrik","steam_id":76561198078791141,"connected_time":1216000000000,"state":"active","ping":92},{"user_id":191,"name":"sunshine (he/him)","steam_id":76561198084597975,"connected_time":639000000000,"state":"active","ping":67},{"user_id":189,"name":"Frederik","steam_id":76561199188478968,"connected_time":840000000000,"state":"active","ping":67}]},{"server_id":23,"name":"Uncletopia | Frankfurt | 7 | Stopwatch Beta","name_short":"frk-7","host":"frk-1.de.uncletopia.com","port":27075,"enabled":true,"region":"eu","cc":"de","latitude":50.110924,"longitude":8.682127,"reserved":0,"last_update":"0001-01-01T00:00:00Z","name_a2s":"Uncletopia | Frankfurt | 7 | Stopwatch Beta","protocol":17,"map":"workshop/koth_product_final.ugc454272353","folder":"tf","game":"Team Fortress","app_id":440,"player_count":0,"max_players":24,"Bots":0,"server_type":"Dedicated","server_os":"Linux","password":true,"vac":true,"version":"7882260","steam_id":85568392924742827,"keywords":["cp","nocrits","nodmgspread","uncletopia"],"game_id":440,"stv_port":27076,"stv_name":"Uncletopia | Frankfurt | 7 | Stopwatch Beta | STV","players":null},{"server_id":24,"name":"Uncletopia | Frankfurt | 8 | Community","name_short":"frk-8","host":"frk-1.de.uncletopia.com","port":27085,"enabled":true,"region":"eu","cc":"de","latitude":50.110924,"longitude":8.682127,"reserved":0,"last_update":"0001-01-01T00:00:00Z","name_a2s":"Uncletopia | Frankfurt | 8 | Community","protocol":17,"map":"workshop/pl_corrode_rc2.ugc546577989","folder":"tf","game":"Team Fortress","app_id":440,"player_count":1,"max_players":24,"Bots":0,"server_type":"Dedicated","server_os":"Linux","password":true,"vac":true,"version":"7882260","steam_id":85568392924742828,"keywords":["nocrits","nodmgspread","payload","uncletopia"],"game_id":440,"stv_port":27086,"stv_name":"Uncletopia | Frankfurt | 8 | Community | STV","players":[{"user_id":42,"name":"Olav","steam_id":76561198039976361,"connected_time":340000000000,"state":"active","ping":99}]},{"server_id":202,"name":"Uncletopia | Hong Kong | 1 | All Maps","name_short":"hgk-1","host":"hgk-1.hk.uncletopia.com","port":27015,"enabled":true,"region":"asia","cc":"hk","latitude":22.302711,"longitude":114.177216,"reserved":0,"last_update":"0001-01-01T00:00:00Z","name_a2s":"Uncletopia | Hong Kong | 1 | All Maps","protocol":17,"map":"plr_hightower","folder":"tf","game":"Team Fortress","app_id":440,"player_count":3,"max_players":24,"Bots":0,"server_type":"Dedicated","server_os":"Linux","password":true,"vac":true,"version":"7882260","steam_id":85568392924494504,"keywords":["nocrits","nodmgspread","payload","uncletopia"],"game_id":440,"stv_port":27016,"stv_name":"Uncletopia | Hong Kong | 1 | All Maps | STV","players":[{"user_id":407,"name":"bruh","steam_id":76561198445323619,"connected_time":2231000000000,"state":"active","ping":81},{"user_id":408,"name":"Mikaaa","steam_id":76561199226881865,"connected_time":2216000000000,"state":"active","ping":92},{"user_id":409,"name":"OH! MY! GOD!","steam_id":76561198074762858,"connected_time":125000000000,"state":"active","ping":150}]},{"server_id":1,"name":"Uncletopia | Los Angeles | 1 | All Maps","name_short":"lax-1","host":"lax-1.us.uncletopia.com","port":27015,"enabled":true,"region":"us-west","cc":"us","latitude":33.94279,"longitude":-118.41004,"reserved":0,"last_update":"0001-01-01T00:00:00Z","name_a2s":"Uncletopia | Los Angeles | 1 | All Maps","protocol":17,"map":"koth_lakeside_final","folder":"tf","game":"Team Fortress","app_id":440,"player_count":0,"max_players":24,"Bots":0,"server_type":"Dedicated","server_os":"Linux","password":true,"vac":true,"version":"7882260","steam_id":85568392924469991,"keywords":["cp","nocrits","nodmgspread","uncletopia"],"game_id":440,"stv_port":27016,"stv_name":"Uncletopia | Los Angeles | 1 | All Maps | STV","players":null},{"server_id":112,"name":"Uncletopia | Los Angeles | 2 | All Maps","name_short":"lax-2","host":"lax-1.us.uncletopia.com","port":27025,"enabled":true,"region":"us-west","cc":"us","latitude":33.94279,"longitude":-118.41004,"reserved":0,"last_update":"0001-01-01T00:00:00Z","name_a2s":"Uncletopia | Los Angeles | 2 | All Maps","protocol":17,"map":"pl_pier","folder":"tf","game":"Team Fortress","app_id":440,"player_count":4,"max_players":24,"Bots":0,"server_type":"Dedicated","server_os":"Linux","password":true,"vac":true,"version":"7882260","steam_id":85568392924469992,"keywords":["nocrits","nodmgspread","payload","uncletopia"],"game_id":440,"stv_port":27026,"stv_name":"Uncletopia | Los Angeles | 2 | All Maps | STV","players":[{"user_id":3,"name":"Riller928","steam_id":76561198150299035,"connected_time":2741000000000,"state":"active","ping":45},{"user_id":14,"name":"Ockulus","steam_id":76561199069638460,"connected_time":337000000000,"state":"active","ping":50},{"user_id":6,"name":"The Headhunter","steam_id":76561198389722871,"connected_time":1551000000000,"state":"active","ping":55},{"user_id":17,"name":"Emperor Ape","steam_id":76561198969607981,"connected_time":255000000000,"state":"active","ping":54}]},{"server_id":324,"name":"Uncletopia | Los Angeles | 3 | All Maps","name_short":"lax-3","host":"lax-1.us.uncletopia.com","port":27035,"enabled":true,"region":"us-west","cc":"us","latitude":33.94279,"longitude":-118.41004,"reserved":0,"last_update":"0001-01-01T00:00:00Z","name_a2s":"Uncletopia | Los Angeles | 3 | All Maps","protocol":17,"map":"koth_viaduct","folder":"tf","game":"Team Fortress","app_id":440,"player_count":0,"max_players":24,"Bots":0,"server_type":"Dedicated","server_os":"Linux","password":true,"vac":true,"version":"7882260","steam_id":85568392924510198,"keywords":["cp","nocrits","nodmgspread","uncletopia"],"game_id":440,"stv_port":27036,"stv_name":"Uncletopia | Los Angeles | 3 | All Maps | STV","players":null},{"server_id":25,"name":"Uncletopia | Los Angeles | 4 | Stopwatch Beta","name_short":"lax-4","host":"lax-1.us.uncletopia.com","port":27045,"enabled":true,"region":"us-west","cc":"us","latitude":33.94279,"longitude":-118.41004,"reserved":0,"last_update":"0001-01-01T00:00:00Z","name_a2s":"Uncletopia | Los Angeles | 4 | Stopwatch Beta","protocol":17,"map":"koth_viaduct","folder":"tf","game":"Team Fortress","app_id":440,"player_count":0,"max_players":24,"Bots":0,"server_type":"Dedicated","server_os":"Linux","password":true,"vac":true,"version":"7882260","steam_id":85568392924510199,"keywords":["cp","nocrits","nodmgspread","uncletopia"],"game_id":440,"stv_port":27046,"stv_name":"Uncletopia | Los Angeles | 4 | Stopwatch Beta | STV","players":null},{"server_id":11,"name":"Uncletopia | London | 1 | All Maps","name_short":"lon-1","host":"lon-1.uk.uncletopia.com","port":27015,"enabled":true,"region":"eu","cc":"gb","latitude":51.509865,"longitude":-0.118092,"reserved":0,"last_update":"0001-01-01T00:00:00Z","name_a2s":"Uncletopia | London | 1 | All Maps","protocol":17,"map":"cp_mercenarypark","folder":"tf","game":"Team Fortress","app_id":440,"player_count":20,"max_players":24,"Bots":0,"server_type":"Dedicated","server_os":"Linux","password":true,"vac":true,"version":"7882260","steam_id":85568392924367362,"keywords":["cp","nocrits","nodmgspread","uncletopia"],"game_id":440,"stv_port":27016,"stv_name":"Uncletopia | London | 1 | All Maps | STV","players":[{"user_id":95,"name":"Townsend And Sons","steam_id":76561199072698153,"connected_time":1476000000000,"state":"active","ping":87},{"user_id":110,"name":"Asmodeus","steam_id":76561198283156425,"connected_time":737000000000,"state":"active","ping":76},{"user_id":118,"name":"SupMan","steam_id":76561199044123799,"connected_time":318000000000,"state":"active","ping":92},{"user_id":112,"name":"Balls","steam_id":76561198086400484,"connected_time":689000000000,"state":"active","ping":62},{"user_id":117,"name":"breakfast burrito","steam_id":76561198148606969,"connected_time":386000000000,"state":"active","ping":75},{"user_id":124,"name":"DJPNK","steam_id":76561197989948420,"connected_time":123000000000,"state":"active","ping":56},{"user_id":125,"name":"Omyskull","steam_id":76561198131711758,"connected_time":88000000000,"state":"active","ping":63},{"user_id":71,"name":"Dr snuggles","steam_id":76561198151918102,"connected_time":3832000000000,"state":"active","ping":85},{"user_id":114,"name":"Nyhde","steam_id":76561198012771416,"connected_time":578000000000,"state":"active","ping":115},{"user_id":102,"name":"engineer gaming","steam_id":76561198157824042,"connected_time":867000000000,"state":"active","ping":47},{"user_id":115,"name":"Dr Ultraman","steam_id":76561198060787567,"connected_time":506000000000,"state":"active","ping":55},{"user_id":123,"name":"quickfast","steam_id":76561199438900919,"connected_time":162000000000,"state":"active","ping":44},{"user_id":98,"name":"Eidolon","steam_id":76561198043919565,"connected_time":1301000000000,"state":"active","ping":64},{"user_id":88,"name":"jerf(money heavy)","steam_id":76561199213901239,"connected_time":2965000000000,"state":"active","ping":44},{"user_id":89,"name":"Gubbly Bubbins","steam_id":76561198101451654,"connected_time":2572000000000,"state":"active","ping":50},{"user_id":80,"name":"Cars - feminism propagator","steam_id":76561198173329977,"connected_time":3121000000000,"state":"active","ping":57},{"user_id":64,"name":"Proud Jojo Fan #TF2SP","steam_id":76561198847327216,"connected_time":3984000000000,"state":"active","ping":67},{"user_id":65,"name":"Aubribac","steam_id":76561198057689763,"connected_time":3967000000000,"state":"active","ping":45},{"user_id":90,"name":"Isuurn","steam_id":76561198150201094,"connected_time":2537000000000,"state":"active","ping":85},{"user_id":92,"name":"VeliIlves","steam_id":76561198038731353,"connected_time":1972000000000,"state":"active","ping":100}]},{"server_id":114,"name":"Uncletopia | London | 2 | All Maps","name_short":"lon-2","host":"lon-1.uk.uncletopia.com","port":27025,"enabled":true,"region":"eu","cc":"gb","latitude":51.509865,"longitude":-0.118092,"reserved":0,"last_update":"0001-01-01T00:00:00Z","name_a2s":"Uncletopia | London | 2 | All Maps","protocol":17,"map":"pl_barnblitz","folder":"tf","game":"Team Fortress","app_id":440,"player_count":24,"max_players":24,"Bots":0,"server_type":"Dedicated","server_os":"Linux","password":true,"vac":true,"version":"7882260","steam_id":85568392924470941,"keywords":["nocrits","nodmgspread","payload","uncletopia"],"game_id":440,"stv_port":27026,"stv_name":"Uncletopia | London | 2 | All Maps | STV","players":[{"user_id":635,"name":"gothmoth","steam_id":76561198386910896,"connected_time":2437000000000,"state":"active","ping":93},{"user_id":509,"name":"Lubrsi","steam_id":76561198040208195,"connected_time":11789000000000,"state":"active","ping":49},{"user_id":647,"name":"PctSneeze","steam_id":76561198037155178,"connected_time":1570000000000,"state":"active","ping":62},{"user_id":652,"name":"Civil Melon","steam_id":76561198988309618,"connected_time":733000000000,"state":"active","ping":75},{"user_id":661,"name":"Wanker","steam_id":76561198017519697,"connected_time":401000000000,"state":"active","ping":75},{"user_id":646,"name":"ack","steam_id":76561198139796077,"connected_time":1845000000000,"state":"active","ping":55},{"user_id":595,"name":"the tube","steam_id":76561198307739245,"connected_time":4788000000000,"state":"active","ping":83},{"user_id":655,"name":"Carney","steam_id":76561198064078751,"connected_time":622000000000,"state":"active","ping":61},{"user_id":653,"name":"vever","steam_id":76561198258358427,"connected_time":640000000000,"state":"active","ping":90},{"user_id":648,"name":"One Hop Dis Time *BWRAB*","steam_id":76561198146081601,"connected_time":1248000000000,"state":"active","ping":55},{"user_id":637,"name":"worm with a fat ass","steam_id":76561198170026338,"connected_time":2409000000000,"state":"active","ping":75},{"user_id":640,"name":"Michael","steam_id":76561198003146906,"connected_time":2393000000000,"state":"active","ping":43},{"user_id":615,"name":"Bottle O' Scrumpy","steam_id":76561199244250562,"connected_time":3653000000000,"state":"active","ping":111},{"user_id":650,"name":"Ladder Liam","steam_id":76561198178636518,"connected_time":1237000000000,"state":"active","ping":55},{"user_id":656,"name":"Issei Hyoudou ÂÖµËó§ ‰∏ÄË™†","steam_id":76561198174088183,"connected_time":615000000000,"state":"active","ping":78},{"user_id":654,"name":"RobyIndie","steam_id":76561198033698476,"connected_time":625000000000,"state":"active","ping":37},{"user_id":657,"name":"fregaropa","steam_id":76561198150806166,"connected_time":605000000000,"state":"active","ping":72},{"user_id":662,"name":"liu","steam_id":76561198269154534,"connected_time":326000000000,"state":"active","ping":45},{"user_id":568,"name":"I jazzed myself","steam_id":76561198203016603,"connected_time":6620000000000,"state":"active","ping":57},{"user_id":627,"name":"Gnarville","steam_id":76561198006373329,"connected_time":3090000000000,"state":"active","ping":52},{"user_id":643,"name":"chipyshila","steam_id":76561198195627067,"connected_time":2354000000000,"state":"active","ping":82},{"user_id":660,"name":"Marky","steam_id":76561199474556920,"connected_time":480000000000,"state":"active","ping":108},{"user_id":606,"name":"rachel aldana's massive milkers","steam_id":76561198025916703,"connected_time":3983000000000,"state":"active","ping":67},{"user_id":644,"name":"Kyanite","steam_id":76561197979158488,"connected_time":2233000000000,"state":"active","ping":77}]},{"server_id":320,"name":"Uncletopia | London | 3 | All Maps","name_short":"lon-3","host":"lon-1.uk.uncletopia.com","port":27035,"enabled":true,"region":"eu","cc":"gb","latitude":51.509865,"longitude":-0.118092,"reserved":0,"last_update":"0001-01-01T00:00:00Z","name_a2s":"Uncletopia | London | 3 | All Maps","protocol":17,"map":"cp_dustbowl","folder":"tf","game":"Team Fortress","app_id":440,"player_count":9,"max_players":24,"Bots":0,"server_type":"Dedicated","server_os":"Linux","password":true,"vac":true,"version":"7882260","steam_id":85568392924510192,"keywords":["cp","nocrits","nodmgspread","uncletopia"],"game_id":440,"stv_port":27036,"stv_name":"Uncletopia | London | 3 | All Maps | STV","players":[{"user_id":66,"name":"(MochiKira)","steam_id":76561198959928520,"connected_time":57000000000,"state":"active","ping":189},{"user_id":25,"name":"Cursed","steam_id":76561198381491880,"connected_time":2432000000000,"state":"active","ping":104},{"user_id":27,"name":"RLCrazyCat3","steam_id":76561197983757878,"connected_time":2201000000000,"state":"active","ping":64},{"user_id":29,"name":"Nyrgon","steam_id":76561198269206916,"connected_time":2084000000000,"state":"active","ping":61},{"user_id":31,"name":"OkamiSumo","steam_id":76561198271644152,"connected_time":1985000000000,"state":"active","ping":70},{"user_id":36,"name":"Miss American PIe","steam_id":76561198867108476,"connected_time":1884000000000,"state":"active","ping":50},{"user_id":54,"name":"Anshin","steam_id":76561198136959681,"connected_time":1323000000000,"state":"active","ping":44},{"user_id":61,"name":"sprite","steam_id":76561198188016359,"connected_time":505000000000,"state":"active","ping":46},{"user_id":51,"name":"Jackleg Joel","steam_id":76561198271636476,"connected_time":1556000000000,"state":"active","ping":62}]},{"server_id":321,"name":"Uncletopia | London | 4 | All Maps","name_short":"lon-4","host":"lon-1.uk.uncletopia.com","port":27045,"enabled":true,"region":"eu","cc":"gb","latitude":51.509865,"longitude":-0.118092,"reserved":0,"last_update":"0001-01-01T00:00:00Z","name_a2s":"Uncletopia | London | 4 | All Maps","protocol":17,"map":"koth_cascade","folder":"tf","game":"Team Fortress","app_id":440,"player_count":0,"max_players":24,"Bots":0,"server_type":"Dedicated","server_os":"Linux","password":true,"vac":true,"version":"7882260","steam_id":85568392924510193,"keywords":["cp","nocrits","nodmgspread","uncletopia"],"game_id":440,"stv_port":27046,"stv_name":"Uncletopia | London | 4 | All Maps | STV","players":null},{"server_id":21,"name":"Uncletopia | London | 5 | All Maps","name_short":"lon-5","host":"lon-1.uk.uncletopia.com","port":27055,"enabled":true,"region":"eu","cc":"gb","latitude":51.509865,"longitude":-0.118092,"reserved":0,"last_update":"0001-01-01T00:00:00Z","name_a2s":"Uncletopia | London | 5 | All Maps","protocol":17,"map":"pl_borneo","folder":"tf","game":"Team Fortress","app_id":440,"player_count":24,"max_players":24,"Bots":0,"server_type":"Dedicated","server_os":"Linux","password":true,"vac":true,"version":"7882260","steam_id":85568392924742829,"keywords":["nocrits","nodmgspread","payload","uncletopia"],"game_id":440,"stv_port":27056,"stv_name":"Uncletopia | London | 5 | All Maps | STV","players":[{"user_id":169,"name":"employed? bad.","steam_id":76561199042470246,"connected_time":1058000000000,"state":"active","ping":61},{"user_id":33,"name":"clunk","steam_id":76561198836460767,"connected_time":11461000000000,"state":"active","ping":73},{"user_id":162,"name":"Dakeyras","steam_id":76561198057069564,"connected_time":1383000000000,"state":"active","ping":97},{"user_id":183,"name":"Da Gus","steam_id":76561198435032627,"connected_time":621000000000,"state":"active","ping":84},{"user_id":168,"name":"mauri88000/mod","steam_id":76561198306672262,"connected_time":1130000000000,"state":"active","ping":69},{"user_id":164,"name":"aeiou.","steam_id":76561198207929768,"connected_time":1219000000000,"state":"active","ping":64},{"user_id":187,"name":"FERME_TA_GUEULE","steam_id":76561198087713683,"connected_time":285000000000,"state":"active","ping":57},{"user_id":97,"name":"sushii","steam_id":76561198297987372,"connected_time":7283000000000,"state":"active","ping":53},{"user_id":181,"name":"papi im hungary(((","steam_id":76561198183949987,"connected_time":661000000000,"state":"active","ping":46},{"user_id":176,"name":"rets","steam_id":76561198061551392,"connected_time":820000000000,"state":"active","ping":59},{"user_id":180,"name":"–¢—Ä—É–ø –í–æ–ª–æ–¥—è","steam_id":76561198035718457,"connected_time":719000000000,"state":"active","ping":97},{"user_id":87,"name":"Beelzebeth","steam_id":76561198112544361,"connected_time":8799000000000,"state":"active","ping":42},{"user_id":182,"name":"actualofficeman","steam_id":76561198364649987,"connected_time":634000000000,"state":"active","ping":62},{"user_id":153,"name":"Femboy Ambassador","steam_id":76561198972418498,"connected_time":2683000000000,"state":"active","ping":112},{"user_id":172,"name":"Tort","steam_id":76561198329646769,"connected_time":864000000000,"state":"active","ping":58},{"user_id":167,"name":"Lassie","steam_id":76561198131924713,"connected_time":1164000000000,"state":"active","ping":58},{"user_id":173,"name":"Fallen Dog","steam_id":76561198851387188,"connected_time":836000000000,"state":"active","ping":61},{"user_id":148,"name":"Davey","steam_id":76561198256879107,"connected_time":3518000000000,"state":"active","ping":73},{"user_id":186,"name":"Epon","steam_id":76561198021462677,"connected_time":298000000000,"state":"active","ping":47},{"user_id":130,"name":"fence_","steam_id":76561198150386379,"connected_time":5023000000000,"state":"active","ping":45},{"user_id":104,"name":"UnusedEngine","steam_id":76561199281868902,"connected_time":7072000000000,"state":"active","ping":48},{"user_id":81,"name":"Archer's Heatmaker","steam_id":76561198928406571,"connected_time":8984000000000,"state":"active","ping":181},{"user_id":177,"name":"bigchuzz1e","steam_id":76561199487012859,"connected_time":815000000000,"state":"active","ping":77},{"user_id":184,"name":"Shadow The Hedgehog","steam_id":76561198323622980,"connected_time":614000000000,"state":"active","ping":78}]},{"server_id":22,"name":"Uncletopia | London | 6 | All Maps","name_short":"lon-6","host":"lon-1.uk.uncletopia.com","port":27065,"enabled":true,"region":"eu","cc":"gb","latitude":51.509865,"longitude":-0.118092,"reserved":0,"last_update":"0001-01-01T00:00:00Z","name_a2s":"Uncletopia | London | 6 | All Maps","protocol":17,"map":"koth_lakeside_final","folder":"tf","game":"Team Fortress","app_id":440,"player_count":0,"max_players":24,"Bots":0,"server_type":"Dedicated","server_os":"Linux","password":true,"vac":true,"version":"7882260","steam_id":85568392924742830,"keywords":["cp","nocrits","nodmgspread","uncletopia"],"game_id":440,"stv_port":27066,"stv_name":"Uncletopia | London | 6 | All Maps | STV","players":null},{"server_id":40,"name":"Uncletopia | London | 7 | No Payload","name_short":"lon-7","host":"lon-1.uk.uncletopia.com","port":27075,"enabled":true,"region":"eu","cc":"gb","latitude":51.509865,"longitude":-0.118092,"reserved":0,"last_update":"0001-01-01T00:00:00Z","name_a2s":"Uncletopia | London | 7 | No Payload","protocol":17,"map":"koth_viaduct","folder":"tf","game":"Team Fortress","app_id":440,"player_count":0,"max_players":24,"Bots":0,"server_type":"Dedicated","server_os":"Linux","password":true,"vac":true,"version":"7882260","steam_id":85568392924964314,"keywords":["cp","nocrits","nodmgspread","uncletopia"],"game_id":440,"stv_port":27076,"stv_name":"Uncletopia | London | 7 | No Payload | STV","players":null},{"server_id":41,"name":"Uncletopia | London | 8 | Community","name_short":"lon-8","host":"lon-1.uk.uncletopia.com","port":27085,"enabled":true,"region":"eu","cc":"gb","latitude":51.509865,"longitude":-0.118092,"reserved":0,"last_update":"0001-01-01T00:00:00Z","name_a2s":"Uncletopia | London | 8 | Community","protocol":17,"map":"workshop/koth_synthetic_rc6a.ugc1549817316","folder":"tf","game":"Team Fortress","app_id":440,"player_count":0,"max_players":24,"Bots":0,"server_type":"Dedicated","server_os":"Linux","password":true,"vac":true,"version":"7882260","steam_id":85568392924964315,"keywords":["cp","nocrits","nodmgspread","uncletopia"],"game_id":440,"stv_port":27086,"stv_name":"Uncletopia | London | 8 | Community | STV","players":null},{"server_id":300,"name":"Uncletopia | Montr√©al | 1 | All Maps","name_short":"mtl-1","host":"mtl-1.ca.uncletopia.com","port":27015,"enabled":true,"region":"us-east","cc":"ca","latitude":45.50889,"longitude":-73.56167,"reserved":0,"last_update":"0001-01-01T00:00:00Z","name_a2s":"Uncletopia | Montr√©al | 1 | All Maps","protocol":17,"map":"cp_snakewater_final1","folder":"tf","game":"Team Fortress","app_id":440,"player_count":0,"max_players":24,"Bots":0,"server_type":"Dedicated","server_os":"Linux","password":true,"vac":true,"version":"7882260","steam_id":85568392924500087,"keywords":["cp","nocrits","nodmgspread","uncletopia"],"game_id":440,"stv_port":27016,"stv_name":"Uncletopia | Montr√©al | 1 | All Maps | STV","players":null},{"server_id":301,"name":"Uncletopia | Montr√©al | 2 | All Maps","name_short":"mtl-2","host":"mtl-1.ca.uncletopia.com","port":27025,"enabled":true,"region":"us-east","cc":"ca","latitude":45.50889,"longitude":-73.56167,"reserved":0,"last_update":"0001-01-01T00:00:00Z","name_a2s":"Uncletopia | Montr√©al | 2 | All Maps","protocol":17,"map":"pl_swiftwater_final1","folder":"tf","game":"Team Fortress","app_id":440,"player_count":0,"max_players":24,"Bots":0,"server_type":"Dedicated","server_os":"Linux","password":true,"vac":true,"version":"7882260","steam_id":85568392924500088,"keywords":["nocrits","nodmgspread","payload","uncletopia"],"game_id":440,"stv_port":27026,"stv_name":"Uncletopia | Montr√©al | 2 | All Maps | STV","players":null},{"server_id":302,"name":"Uncletopia | Montr√©al | 3 | All Maps","name_short":"mtl-3","host":"mtl-1.ca.uncletopia.com","port":27035,"enabled":true,"region":"us-east","cc":"ca","latitude":45.50889,"longitude":-73.56167,"reserved":0,"last_update":"0001-01-01T00:00:00Z","name_a2s":"Uncletopia | Montr√©al | 3 | All Maps","protocol":17,"map":"koth_highpass","folder":"tf","game":"Team Fortress","app_id":440,"player_count":0,"max_players":24,"Bots":0,"server_type":"Dedicated","server_os":"Linux","password":true,"vac":true,"version":"7882260","steam_id":85568392924500089,"keywords":["cp","nocrits","nodmgspread","uncletopia"],"game_id":440,"stv_port":27036,"stv_name":"Uncletopia | Montr√©al | 3 | All Maps | STV","players":null},{"server_id":303,"name":"Uncletopia | Montr√©al | 4 | No Payload","name_short":"mtl-4","host":"mtl-1.ca.uncletopia.com","port":27045,"enabled":true,"region":"us-east","cc":"ca","latitude":45.50889,"longitude":-73.56167,"reserved":0,"last_update":"0001-01-01T00:00:00Z","name_a2s":"Uncletopia | Montr√©al | 4 | No Payload","protocol":17,"map":"koth_highpass","folder":"tf","game":"Team Fortress","app_id":440,"player_count":0,"max_players":24,"Bots":0,"server_type":"Dedicated","server_os":"Linux","password":true,"vac":true,"version":"7882260","steam_id":85568392924500090,"keywords":["cp","nocrits","nodmgspread","uncletopia"],"game_id":440,"stv_port":27046,"stv_name":"Uncletopia | Montr√©al | 4 | No Payload | STV","players":null},{"server_id":13,"name":"Uncletopia | New York City | 1 | All Maps","name_short":"nyc-1","host":"nyc-1.us.uncletopia.com","port":27015,"enabled":true,"region":"us-east","cc":"us","latitude":40.73061,"longitude":-73.93524,"reserved":0,"last_update":"0001-01-01T00:00:00Z","name_a2s":"Uncletopia | New York City | 1 | All Maps","protocol":17,"map":"koth_cascade","folder":"tf","game":"Team Fortress","app_id":440,"player_count":0,"max_players":24,"Bots":0,"server_type":"Dedicated","server_os":"Linux","password":true,"vac":true,"version":"7882260","steam_id":85568392924469993,"keywords":["cp","nocrits","nodmgspread","uncletopia"],"game_id":440,"stv_port":27016,"stv_name":"Uncletopia | New York City | 1 | All Maps | STV","players":null},{"server_id":14,"name":"Uncletopia | New York City | 2 | All Maps","name_short":"nyc-2","host":"nyc-1.us.uncletopia.com","port":27025,"enabled":true,"region":"us-east","cc":"us","latitude":40.73061,"longitude":-73.93524,"reserved":0,"last_update":"0001-01-01T00:00:00Z","name_a2s":"Uncletopia | New York City | 2 | All Maps","protocol":17,"map":"koth_highpass","folder":"tf","game":"Team Fortress","app_id":440,"player_count":2,"max_players":24,"Bots":0,"server_type":"Dedicated","server_os":"Linux","password":true,"vac":true,"version":"7882260","steam_id":85568392924469994,"keywords":["cp","nocrits","nodmgspread","uncletopia"],"game_id":440,"stv_port":27026,"stv_name":"Uncletopia | New York City | 2 | All Maps | STV","players":[{"user_id":16,"name":"È∏≠","steam_id":76561198862941753,"connected_time":103000000000,"state":"active","ping":110},{"user_id":17,"name":"Pride_","steam_id":76561198046446797,"connected_time":13000000000,"state":"active","ping":39}]},{"server_id":15,"name":"Uncletopia | New York City | 3 | Stopwatch Beta","name_short":"nyc-3","host":"nyc-1.us.uncletopia.com","port":27035,"enabled":true,"region":"us-east","cc":"us","latitude":40.73061,"longitude":-73.93524,"reserved":0,"last_update":"0001-01-01T00:00:00Z","name_a2s":"Uncletopia | New York City | 3 | Stopwatch Beta","protocol":17,"map":"pl_borneo","folder":"tf","game":"Team Fortress","app_id":440,"player_count":0,"max_players":24,"Bots":0,"server_type":"Dedicated","server_os":"Linux","password":true,"vac":true,"version":"7882260","steam_id":85568392924742820,"keywords":["nocrits","nodmgspread","payload","uncletopia"],"game_id":440,"stv_port":27036,"stv_name":"Uncletopia | New York City | 3 | Stopwatch Beta | STV","players":null},{"server_id":16,"name":"Uncletopia | New York City | 4 | Community","name_short":"nyc-4","host":"nyc-1.us.uncletopia.com","port":27045,"enabled":true,"region":"us-east","cc":"us","latitude":40.73061,"longitude":-73.93524,"reserved":0,"last_update":"0001-01-01T00:00:00Z","name_a2s":"Uncletopia | New York City | 4 | Community","protocol":17,"map":"cp_altitude","folder":"tf","game":"Team Fortress","app_id":440,"player_count":0,"max_players":24,"Bots":0,"server_type":"Dedicated","server_os":"Linux","password":true,"vac":true,"version":"7882260","steam_id":85568392924742821,"keywords":["cp","nocrits","nodmgspread","uncletopia"],"game_id":440,"stv_port":27046,"stv_name":"Uncletopia | New York City | 4 | Community | STV","players":null},{"server_id":142,"name":"Uncletopia | S√£o Paulo | 1 | All Maps","name_short":"sao-1","host":"sao-1.br.uncletopia.com","port":27015,"enabled":true,"region":"sa","cc":"br","latitude":-23.533773,"longitude":-46.62529,"reserved":0,"last_update":"0001-01-01T00:00:00Z","name_a2s":"Uncletopia | S√£o Paulo | 1 | All Maps","protocol":17,"map":"pl_barnblitz","folder":"tf","game":"Team Fortress","app_id":440,"player_count":0,"max_players":24,"Bots":0,"server_type":"Dedicated","server_os":"Linux","password":true,"vac":true,"version":"7882260","steam_id":85568392924469996,"keywords":["nocrits","nodmgspread","payload","uncletopia"],"game_id":440,"stv_port":27016,"stv_name":"Uncletopia | S√£o Paulo | 1 | All Maps | STV","players":null},{"server_id":143,"name":"Uncletopia | S√£o Paulo | 2 | All Maps","name_short":"sao-2","host":"sao-2.br.uncletopia.com","port":27015,"enabled":true,"region":"sa","cc":"br","latitude":-23.533773,"longitude":-46.62529,"reserved":0,"last_update":"0001-01-01T00:00:00Z","name_a2s":"Uncletopia | S√£o Paulo | 2 | All Maps","protocol":17,"map":"cp_sunshine","folder":"tf","game":"Team Fortress","app_id":440,"player_count":0,"max_players":24,"Bots":0,"server_type":"Dedicated","server_os":"Linux","password":true,"vac":true,"version":"7882260","steam_id":85568392924485349,"keywords":["cp","nocrits","nodmgspread","uncletopia"],"game_id":440,"stv_port":27016,"stv_name":"Uncletopia | S√£o Paulo | 2 | All Maps | STV","players":null},{"server_id":7,"name":"Uncletopia | Seattle | 1 | All Maps","name_short":"sea-1","host":"sea-1.us.uncletopia.com","port":27015,"enabled":true,"region":"us-west","cc":"us","latitude":47.608013,"longitude":-122.33517,"reserved":0,"last_update":"0001-01-01T00:00:00Z","name_a2s":"Uncletopia | Seattle | 1 | All Maps","protocol":17,"map":"cp_foundry","folder":"tf","game":"Team Fortress","app_id":440,"player_count":23,"max_players":24,"Bots":0,"server_type":"Dedicated","server_os":"Linux","password":true,"vac":true,"version":"7882260","steam_id":85568392924469997,"keywords":["cp","nocrits","nodmgspread","uncletopia"],"game_id":440,"stv_port":27016,"stv_name":"Uncletopia | Seattle | 1 | All Maps | STV","players":[{"user_id":226,"name":"Oktayey","steam_id":76561198143213426,"connected_time":410000000000,"state":"active","ping":62},{"user_id":152,"name":"‚ô• President Shitfart ‚ô•","steam_id":76561198141819053,"connected_time":6340000000000,"state":"active","ping":57},{"user_id":228,"name":"26O3 Ê•µÂÖâÈù¢Á¥ó","steam_id":76561198964074985,"connected_time":155000000000,"state":"active","ping":57},{"user_id":203,"name":"Scrap2552","steam_id":76561198814967954,"connected_time":2421000000000,"state":"active","ping":43},{"user_id":227,"name":"Sir Severus","steam_id":76561198061295188,"connected_time":238000000000,"state":"active","ping":45},{"user_id":161,"name":"„Åµ„Çè„Åµ„ÇèÊØõÂ∏É","steam_id":76561198088403016,"connected_time":5751000000000,"state":"active","ping":151},{"user_id":210,"name":"Themasterman75","steam_id":76561199385573293,"connected_time":2084000000000,"state":"active","ping":71},{"user_id":214,"name":"Gr8butnotreally","steam_id":76561198133924450,"connected_time":1602000000000,"state":"active","ping":91},{"user_id":196,"name":"La Tabda","steam_id":76561198120364620,"connected_time":2686000000000,"state":"active","ping":46},{"user_id":140,"name":"Daz","steam_id":76561198041431938,"connected_time":7589000000000,"state":"active","ping":49},{"user_id":223,"name":"Teddiemercury","steam_id":76561197987034023,"connected_time":844000000000,"state":"active","ping":104},{"user_id":178,"name":"dust | she/it","steam_id":76561198045218909,"connected_time":4098000000000,"state":"active","ping":37},{"user_id":216,"name":"Astronat","steam_id":76561198096321896,"connected_time":1342000000000,"state":"active","ping":66},{"user_id":179,"name":"Ultra Pinstinct","steam_id":76561198336604599,"connected_time":4092000000000,"state":"active","ping":66},{"user_id":212,"name":"shy guy","steam_id":76561198151246059,"connected_time":1819000000000,"state":"active","ping":75},{"user_id":186,"name":"Morse","steam_id":76561198039944542,"connected_time":3762000000000,"state":"active","ping":53},{"user_id":219,"name":"Toast_Sandwich_69420","steam_id":76561199469431983,"connected_time":1232000000000,"state":"active","ping":86},{"user_id":215,"name":"Khallaria","steam_id":76561198000706490,"connected_time":1570000000000,"state":"active","ping":89},{"user_id":218,"name":"ghostt·óù","steam_id":76561199214430703,"connected_time":1251000000000,"state":"active","ping":97},{"user_id":121,"name":"Xbox 360","steam_id":76561198090419068,"connected_time":9537000000000,"state":"active","ping":66},{"user_id":221,"name":"o o o o o o o o o","steam_id":76561197993757506,"connected_time":1168000000000,"state":"active","ping":70},{"user_id":213,"name":"lili","steam_id":76561199391478575,"connected_time":1613000000000,"state":"active","ping":55},{"user_id":224,"name":"Skabbety","steam_id":76561198168044257,"connected_time":766000000000,"state":"active","ping":44}]},{"server_id":119,"name":"Uncletopia | Seattle | 2 | All Maps","name_short":"sea-2","host":"sea-1.us.uncletopia.com","port":27025,"enabled":true,"region":"us-west","cc":"us","latitude":47.608013,"longitude":-122.33517,"reserved":0,"last_update":"0001-01-01T00:00:00Z","name_a2s":"Uncletopia | Seattle | 2 | All Maps","protocol":17,"map":"pl_frontier_final","folder":"tf","game":"Team Fortress","app_id":440,"player_count":0,"max_players":24,"Bots":0,"server_type":"Dedicated","server_os":"Linux","password":true,"vac":true,"version":"7882260","steam_id":85568392924469998,"keywords":["nocrits","nodmgspread","payload","uncletopia"],"game_id":440,"stv_port":27026,"stv_name":"Uncletopia | Seattle | 2 | All Maps | STV","players":null},{"server_id":406,"name":"Uncletopia | Seattle | 3 | Stopwatch Beta","name_short":"sea-3","host":"sea-1.us.uncletopia.com","port":27035,"enabled":true,"region":"us-west","cc":"us","latitude":47.608013,"longitude":-122.33517,"reserved":0,"last_update":"0001-01-01T00:00:00Z","name_a2s":"Uncletopia | Seattle | 3 | Stopwatch Beta","protocol":17,"map":"koth_viaduct","folder":"tf","game":"Team Fortress","app_id":440,"player_count":0,"max_players":24,"Bots":0,"server_type":"Dedicated","server_os":"Linux","password":true,"vac":true,"version":"7882260","steam_id":85568392924515217,"keywords":["cp","nocrits","nodmgspread","uncletopia"],"game_id":440,"stv_port":27036,"stv_name":"Uncletopia | Seattle | 3 | Stopwatch Beta | STV","players":null},{"server_id":17,"name":"Uncletopia | San Francisco | 1 | All Maps","name_short":"sfo-1","host":"sfo-1.us.uncletopia.com","port":27015,"enabled":true,"region":"us-west","cc":"us","latitude":37.77397,"longitude":-122.4313,"reserved":0,"last_update":"0001-01-01T00:00:00Z","name_a2s":"Uncletopia | San Francisco | 1 | All Maps","protocol":17,"map":"pl_pier","folder":"tf","game":"Team Fortress","app_id":440,"player_count":0,"max_players":24,"Bots":0,"server_type":"Dedicated","server_os":"Linux","password":true,"vac":true,"version":"7882260","steam_id":85568392924469999,"keywords":["nocrits","nodmgspread","payload","uncletopia"],"game_id":440,"stv_port":27016,"stv_name":"Uncletopia | San Francisco | 1 | All Maps | STV","players":null},{"server_id":18,"name":"Uncletopia | San Francisco | 2 | All Maps","name_short":"sfo-2","host":"sfo-1.us.uncletopia.com","port":27025,"enabled":true,"region":"us-west","cc":"us","latitude":37.77397,"longitude":-122.4313,"reserved":0,"last_update":"0001-01-01T00:00:00Z","name_a2s":"Uncletopia | San Francisco | 2 | All Maps","protocol":17,"map":"koth_cascade","folder":"tf","game":"Team Fortress","app_id":440,"player_count":0,"max_players":24,"Bots":0,"server_type":"Dedicated","server_os":"Linux","password":true,"vac":true,"version":"7882260","steam_id":85568392924470000,"keywords":["cp","nocrits","nodmgspread","uncletopia"],"game_id":440,"stv_port":27026,"stv_name":"Uncletopia | San Francisco | 2 | All Maps | STV","players":null},{"server_id":19,"name":"Uncletopia | San Francisco | 3 | Stopwatch Beta","name_short":"sfo-3","host":"sfo-1.us.uncletopia.com","port":27035,"enabled":true,"region":"us-west","cc":"us","latitude":37.77397,"longitude":-122.4313,"reserved":0,"last_update":"0001-01-01T00:00:00Z","name_a2s":"Uncletopia | San Francisco | 3 | Stopwatch Beta","protocol":17,"map":"pl_snowycoast","folder":"tf","game":"Team Fortress","app_id":440,"player_count":0,"max_players":24,"Bots":0,"server_type":"Dedicated","server_os":"Linux","password":true,"vac":true,"version":"7882260","steam_id":85568392924742824,"keywords":["nocrits","nodmgspread","payload","uncletopia"],"game_id":440,"stv_port":27036,"stv_name":"Uncletopia | San Francisco | 3 | Stopwatch Beta | STV","players":null},{"server_id":20,"name":"Uncletopia | San Francisco | 4 | Community","name_short":"sfo-4","host":"sfo-1.us.uncletopia.com","port":27045,"enabled":true,"region":"us-west","cc":"us","latitude":37.77397,"longitude":-122.4313,"reserved":0,"last_update":"0001-01-01T00:00:00Z","name_a2s":"Uncletopia | San Francisco | 4 | Community","protocol":17,"map":"pl_swiftwater_final1","folder":"tf","game":"Team Fortress","app_id":440,"player_count":0,"max_players":24,"Bots":0,"server_type":"Dedicated","server_os":"Linux","password":true,"vac":true,"version":"7882260","steam_id":85568392924742826,"keywords":["nocrits","nodmgspread","payload","uncletopia"],"game_id":440,"stv_port":27046,"stv_name":"Uncletopia | San Francisco | 4 | Community | STV","players":null},{"server_id":141,"name":"Uncletopia | Sydney | 1 | All Maps","name_short":"syd-1","host":"syd-1.au.uncletopia.com","port":27015,"enabled":true,"region":"au","cc":"au","latitude":-33.865143,"longitude":151.2099,"reserved":0,"last_update":"0001-01-01T00:00:00Z","name_a2s":"Uncletopia | Sydney | 1 | All Maps","protocol":17,"map":"koth_highpass","folder":"tf","game":"Team Fortress","app_id":440,"player_count":0,"max_players":24,"Bots":0,"server_type":"Dedicated","server_os":"Linux","password":true,"vac":true,"version":"7882260","steam_id":85568392924470001,"keywords":["cp","nocrits","nodmgspread","uncletopia"],"game_id":440,"stv_port":27016,"stv_name":"Uncletopia | Sydney | 1 | All Maps | STV","players":null},{"server_id":123,"name":"Uncletopia | Sydney | 2 | All Maps","name_short":"syd-2","host":"syd-1.au.uncletopia.com","port":27025,"enabled":true,"region":"au","cc":"au","latitude":-33.865143,"longitude":151.2099,"reserved":0,"last_update":"0001-01-01T00:00:00Z","name_a2s":"Uncletopia | Sydney | 2 | All Maps","protocol":17,"map":"cp_dustbowl","folder":"tf","game":"Team Fortress","app_id":440,"player_count":0,"max_players":24,"Bots":0,"server_type":"Dedicated","server_os":"Linux","password":true,"vac":true,"version":"7882260","steam_id":85568392924470002,"keywords":["cp","nocrits","nodmgspread","uncletopia"],"game_id":440,"stv_port":27026,"stv_name":"Uncletopia | Sydney | 2 | All Maps | STV","players":null},{"server_id":395,"name":"Uncletopia | Sydney | 3 | All Maps","name_short":"syd-3","host":"syd-1.au.uncletopia.com","port":27035,"enabled":true,"region":"au","cc":"au","latitude":-33.865143,"longitude":151.2099,"reserved":0,"last_update":"0001-01-01T00:00:00Z","name_a2s":"Uncletopia | Sydney | 3 | All Maps","protocol":17,"map":"cp_snakewater_final1","folder":"tf","game":"Team Fortress","app_id":440,"player_count":7,"max_players":24,"Bots":0,"server_type":"Dedicated","server_os":"Linux","password":true,"vac":true,"version":"7882260","steam_id":85568392925194467,"keywords":["cp","nocrits","nodmgspread","uncletopia"],"game_id":440,"stv_port":27036,"stv_name":"Uncletopia | Sydney | 3 | All Maps | STV","players":[{"user_id":32,"name":"Walking Scout","steam_id":76561199474074508,"connected_time":892000000000,"state":"active","ping":317},{"user_id":33,"name":"CardboardKing (no mic)","steam_id":76561199099769110,"connected_time":762000000000,"state":"active","ping":70},{"user_id":18,"name":"why am i sweating out of my ass","steam_id":76561198830756098,"connected_time":2819000000000,"state":"active","ping":183},{"user_id":29,"name":"Nico The Cheese","steam_id":76561199065272792,"connected_time":1070000000000,"state":"active","ping":185},{"user_id":31,"name":"Aisforlike","steam_id":76561199482110668,"connected_time":913000000000,"state":"active","ping":270},{"user_id":34,"name":"AlienSteelGamer","steam_id":76561198963975333,"connected_time":581000000000,"state":"active","ping":309},{"user_id":27,"name":"The :)","steam_id":76561198958059883,"connected_time":1894000000000,"state":"active","ping":79}]},{"server_id":396,"name":"Uncletopia | Sydney | 4 | All Maps","name_short":"syd-4","host":"syd-1.au.uncletopia.com","port":27045,"enabled":true,"region":"au","cc":"au","latitude":-33.865143,"longitude":151.2099,"reserved":0,"last_update":"0001-01-01T00:00:00Z","name_a2s":"Uncletopia | Sydney | 4 | All Maps","protocol":17,"map":"koth_lakeside_final","folder":"tf","game":"Team Fortress","app_id":440,"player_count":0,"max_players":24,"Bots":0,"server_type":"Dedicated","server_os":"Linux","password":true,"vac":true,"version":"7882260","steam_id":85568392925397958,"keywords":["cp","nocrits","nodmgspread","uncletopia"],"game_id":440,"stv_port":27046,"stv_name":"Uncletopia | Sydney | 4 | All Maps | STV","players":null},{"server_id":58,"name":"Uncletopia | Sydney | 5 | Stopwatch Beta","name_short":"syd-5","host":"syd-1.au.uncletopia.com","port":27055,"enabled":true,"region":"au","cc":"au","latitude":-33.865143,"longitude":151.2099,"reserved":0,"last_update":"0001-01-01T00:00:00Z","name_a2s":"Uncletopia | Sydney | 5 | Stopwatch Beta","protocol":17,"map":"koth_viaduct","folder":"tf","game":"Team Fortress","app_id":440,"player_count":0,"max_players":24,"Bots":0,"server_type":"Dedicated","server_os":"Linux","password":true,"vac":true,"version":"7882260","steam_id":85568392925397959,"keywords":["cp","nocrits","nodmgspread","uncletopia"],"game_id":440,"stv_port":27056,"stv_name":"Uncletopia | Sydney | 5 | Stopwatch Beta | STV","players":null},{"server_id":59,"name":"Uncletopia | Sydney | 6 | Community","name_short":"syd-6","host":"syd-1.au.uncletopia.com","port":27065,"enabled":true,"region":"au","cc":"au","latitude":-33.865143,"longitude":151.2099,"reserved":0,"last_update":"0001-01-01T00:00:00Z","name_a2s":"Uncletopia | Sydney | 6 | Community","protocol":17,"map":"workshop/pl_emerge_rc2.ugc888027758","folder":"tf","game":"Team Fortress","app_id":440,"player_count":0,"max_players":24,"Bots":0,"server_type":"Dedicated","server_os":"Linux","password":true,"vac":true,"version":"7882260","steam_id":85568392925397960,"keywords":["nocrits","nodmgspread","payload","uncletopia"],"game_id":440,"stv_port":27066,"stv_name":"Uncletopia | Sydney | 6 | Community | STV","players":null},{"server_id":49,"name":"Uncletopia | Warsaw | 1 | All Maps","name_short":"waw-1","host":"waw-1.pl.uncletopia.com","port":27015,"enabled":true,"region":"eu","cc":"pl","latitude":52.2297,"longitude":21.017532,"reserved":0,"last_update":"0001-01-01T00:00:00Z","name_a2s":"","protocol":0,"map":"","folder":"","game":"","app_id":0,"player_count":0,"max_players":0,"Bots":0,"server_type":"","server_os":"","password":false,"vac":false,"version":"","steam_id":0,"keywords":null,"game_id":0,"stv_port":0,"stv_name":"","players":null},{"server_id":50,"name":"Uncletopia | Warsaw | 2 | All Maps","name_short":"waw-2","host":"waw-1.pl.uncletopia.com","port":27025,"enabled":true,"region":"eu","cc":"pl","latitude":52.2297,"longitude":21.017532,"reserved":0,"last_update":"0001-01-01T00:00:00Z","name_a2s":"Uncletopia | Warsaw | 2 | All Maps","protocol":17,"map":"koth_viaduct","folder":"tf","game":"Team Fortress","app_id":440,"player_count":0,"max_players":24,"Bots":0,"server_type":"Dedicated","server_os":"Linux","password":true,"vac":true,"version":"7882260","steam_id":85568392925397851,"keywords":["cp","nocrits","nodmgspread","uncletopia"],"game_id":440,"stv_port":27026,"stv_name":"Uncletopia | Warsaw | 2 | All Maps | STV","players":null},{"server_id":51,"name":"Uncletopia | Warsaw | 3 | All Maps","name_short":"waw-3","host":"waw-1.pl.uncletopia.com","port":27035,"enabled":true,"region":"eu","cc":"pl","latitude":52.2297,"longitude":21.017532,"reserved":0,"last_update":"0001-01-01T00:00:00Z","name_a2s":"Uncletopia | Warsaw | 3 | All Maps","protocol":17,"map":"pl_snowycoast","folder":"tf","game":"Team Fortress","app_id":440,"player_count":0,"max_players":24,"Bots":0,"server_type":"Dedicated","server_os":"Linux","password":true,"vac":true,"version":"7882260","steam_id":85568392925397852,"keywords":["nocrits","nodmgspread","payload","uncletopia"],"game_id":440,"stv_port":27036,"stv_name":"Uncletopia | Warsaw | 3 | All Maps | STV","players":null},{"server_id":52,"name":"Uncletopia | Warsaw | 4 | All Maps","name_short":"waw-4","host":"waw-1.pl.uncletopia.com","port":27045,"enabled":true,"region":"eu","cc":"pl","latitude":52.2297,"longitude":21.017532,"reserved":0,"last_update":"0001-01-01T00:00:00Z","name_a2s":"Uncletopia | Warsaw | 4 | All Maps","protocol":17,"map":"koth_cascade","folder":"tf","game":"Team Fortress","app_id":440,"player_count":0,"max_players":24,"Bots":0,"server_type":"Dedicated","server_os":"Linux","password":true,"vac":true,"version":"7882260","steam_id":85568392925397853,"keywords":["cp","nocrits","nodmgspread","uncletopia"],"game_id":440,"stv_port":27046,"stv_name":"Uncletopia | Warsaw | 4 | All Maps | STV","players":null},{"server_id":53,"name":"Uncletopia | Warsaw | 5 | Stopwatch Beta","name_short":"waw-5","host":"waw-1.pl.uncletopia.com","port":27055,"enabled":true,"region":"eu","cc":"pl","latitude":52.2297,"longitude":21.017532,"reserved":0,"last_update":"0001-01-01T00:00:00Z","name_a2s":"Uncletopia | Warsaw | 5 | Stopwatch Beta","protocol":17,"map":"workshop/pl_barnblitz_pro7.ugc582280235","folder":"tf","game":"Team Fortress","app_id":440,"player_count":0,"max_players":24,"Bots":0,"server_type":"Dedicated","server_os":"Linux","password":true,"vac":true,"version":"7882260","steam_id":85568392925397854,"keywords":["nocrits","nodmgspread","payload","uncletopia"],"game_id":440,"stv_port":27056,"stv_name":"Uncletopia | Warsaw | 5 | Stopwatch Beta | STV","players":null},{"server_id":54,"name":"Uncletopia | Warsaw | 6 | Community","name_short":"waw-6","host":"waw-1.pl.uncletopia.com","port":27065,"enabled":true,"region":"eu","cc":"pl","latitude":52.2297,"longitude":21.017532,"reserved":0,"last_update":"0001-01-01T00:00:00Z","name_a2s":"Uncletopia | Warsaw | 6 | Community","protocol":17,"map":"workshop/koth_trenchfoot_b1a.ugc731436616","folder":"tf","game":"Team Fortress","app_id":440,"player_count":7,"max_players":24,"Bots":0,"server_type":"Dedicated","server_os":"Linux","password":true,"vac":true,"version":"7882260","steam_id":85568392925397856,"keywords":["cp","nocrits","nodmgspread","uncletopia"],"game_id":440,"stv_port":27066,"stv_name":"Uncletopia | Warsaw | 6 | Community | STV","players":[{"user_id":5,"name":"TSx* Naxer","steam_id":76561198011986779,"connected_time":945000000000,"state":"active","ping":45},{"user_id":6,"name":"TSx* Osa__PL","steam_id":76561198027016799,"connected_time":914000000000,"state":"active","ping":47},{"user_id":7,"name":"TheFox.tf","steam_id":76561197996851702,"connected_time":912000000000,"state":"active","ping":78},{"user_id":8,"name":"TSx* {Demon-Angel}","steam_id":76561198151486463,"connected_time":910000000000,"state":"active","ping":59},{"user_id":9,"name":"just your normal weeb","steam_id":76561199010328820,"connected_time":827000000000,"state":"active","ping":91},{"user_id":14,"name":"TylowStar","steam_id":76561198357107806,"connected_time":285000000000,"state":"active","ping":90},{"user_id":11,"name":"Alice can't hit pipes","steam_id":76561198052410860,"connected_time":671000000000,"state":"active","ping":124}]}]}