{"status":true,"message":"","result":[{"server_id":9,"name":"Uncletopia | Atlanta | 1 | All Maps","name_short":"atl-1","host":"atl-1.us.uncletopia.com","port":27015,"enabled":true,"region":"us-east","cc":"us","latitude":33.753746,"longitude":-84.38633,"reserved":0,"last_update":"0001-01-01T00:00:00Z","name_a2s":"Uncletopia | Atlanta | 1 | All Maps","protocol":17,"map":"pl_badwater","folder":"tf","game":"Team Fortress","app_id":440,"player_count":25,"max_players":24,"Bots":0,"server_type":"Dedicated","server_os":"Linux","password":true,"vac":true,"version":"7723704","steam_id":85568392924469982,"keywords":["nocrits","nodmgspread","payload","uncletopia"],"game_id":440,"stv_port":27016,"stv_name":"Uncletopia | Atlanta | 1 | All Maps | STV","players":[{"user_id":678,"name":"Limbo_Darkness","steam_id":76561198127411819,"connected_time":3162000000000,"state":"active","ping":52},{"user_id":571,"name":"‚ô°Alyx‚ô°","steam_id":76561198024303978,"connected_time":13616000000000,"state":"active","ping":53},{"user_id":694,"name":"Sm0ky","steam_id":76561198418262145,"connected_time":847000000000,"state":"active","ping":115},{"user_id":699,"name":"Chubmundo","steam_id":76561198132710768,"connected_time":355000000000,"state":"active","ping":53},{"user_id":701,"name":"Coop a Loop","steam_id":76561199446475949,"connected_time":113000000000,"state":"active","ping":95},{"user_id":687,"name":"Inky (Coolest)","steam_id":76561198968337022,"connected_time":1593000000000,"state":"active","ping":54},{"user_id":693,"name":"deckerhoff!","steam_id":76561198010741410,"connected_time":849000000000,"state":"active","ping":79},{"user_id":680,"name":"vid_","steam_id":76561198065159053,"connected_time":2726000000000,"state":"active","ping":50},{"user_id":684,"name":"Mage","steam_id":76561198285026879,"connected_time":2404000000000,"state":"active","ping":74},{"user_id":668,"name":"ATL1 | Rat","steam_id":76561198137925582,"connected_time":4332000000000,"state":"active","ping":80},{"user_id":675,"name":"[txc] garf","steam_id":76561198083078030,"connected_time":3257000000000,"state":"active","ping":65},{"user_id":683,"name":"ATL1 | eish","steam_id":76561198089463603,"connected_time":2436000000000,"state":"active","ping":122},{"user_id":690,"name":"ATL1 | Crystron","steam_id":76561198880437428,"connected_time":1072000000000,"state":"active","ping":77},{"user_id":584,"name":"Chance","steam_id":76561198122256825,"connected_time":12337000000000,"state":"active","ping":62},{"user_id":669,"name":"‚Ä†  Rockhead  ‚Ä†","steam_id":76561197995196535,"connected_time":4095000000000,"state":"active","ping":136},{"user_id":679,"name":"VidzCMC","steam_id":76561198848142973,"connected_time":2738000000000,"state":"active","ping":65},{"user_id":689,"name":"strategic dier","steam_id":76561197999257178,"connected_time":1566000000000,"state":"active","ping":71},{"user_id":682,"name":"Stampdawg","steam_id":76561198050500060,"connected_time":2553000000000,"state":"active","ping":84},{"user_id":692,"name":"ATL1 | Vee (very holly \u0026 jolly)","steam_id":76561198330432889,"connected_time":862000000000,"state":"active","ping":61},{"user_id":702,"name":"beethan","steam_id":76561198148199120,"connected_time":60000000000,"state":"active","ping":87},{"user_id":650,"name":"ktkoffroth","steam_id":76561198037384107,"connected_time":6015000000000,"state":"active","ping":45},{"user_id":698,"name":"Twa","steam_id":76561198295529541,"connected_time":757000000000,"state":"active","ping":61},{"user_id":703,"name":"Veilos","steam_id":76561198071897172,"connected_time":26000000000,"state":"connecting","ping":0},{"user_id":633,"name":"ATL0 Dedi Le4n!!!","steam_id":76561198045522596,"connected_time":7825000000000,"state":"active","ping":70},{"user_id":704,"name":"hi","steam_id":76561198378775945,"connected_time":19000000000,"state":"active","ping":675}]},{"server_id":400,"name":"Uncletopia | Atlanta | 3 | Stopwatch Beta","name_short":"atl-3","host":"atl-1.us.uncletopia.com","port":27035,"enabled":true,"region":"us-east","cc":"us","latitude":33.753746,"longitude":-84.38633,"reserved":0,"last_update":"0001-01-01T00:00:00Z","name_a2s":"Uncletopia | Atlanta | 3 | Stopwatch Beta","protocol":17,"map":"koth_cascade","folder":"tf","game":"Team Fortress","app_id":440,"player_count":1,"max_players":24,"Bots":0,"server_type":"Dedicated","server_os":"Linux","password":true,"vac":true,"version":"7723704","steam_id":85568392924515187,"keywords":["cp","nocrits","nodmgspread","uncletopia"],"game_id":440,"stv_port":27036,"stv_name":"Uncletopia | Atlanta | 3 | Stopwatch Beta | STV","players":[{"user_id":25,"name":"plutonium isotope","steam_id":76561198319442494,"connected_time":133000000000,"state":"active","ping":90}]},{"server_id":401,"name":"Uncletopia | Atlanta | 4 | No Payload","name_short":"atl-4","host":"atl-1.us.uncletopia.com","port":27045,"enabled":true,"region":"us-east","cc":"us","latitude":33.753746,"longitude":-84.38633,"reserved":0,"last_update":"0001-01-01T00:00:00Z","name_a2s":"Uncletopia | Atlanta | 4 | No Payload","protocol":17,"map":"koth_lazarus","folder":"tf","game":"Team Fortress","app_id":440,"player_count":0,"max_players":24,"Bots":0,"server_type":"Dedicated","server_os":"Linux","password":true,"vac":true,"version":"7723704","steam_id":85568392924515188,"keywords":["cp","nocrits","nodmgspread","uncletopia"],"game_id":440,"stv_port":27046,"stv_name":"Uncletopia | Atlanta | 4 | No Payload | STV","players":null},{"server_id":2,"name":"Uncletopia | Chicago | 1 | All Maps","name_short":"chi-1","host":"chi-1.us.uncletopia.com","port":27015,"enabled":true,"region":"us-central","cc":"us","latitude":41.881832,"longitude":-87.62318,"reserved":0,"last_update":"0001-01-01T00:00:00Z","name_a2s":"Uncletopia | Chicago | 1 | All Maps","protocol":17,"map":"koth_harvest_final","folder":"tf","game":"Team Fortress","app_id":440,"player_count":24,"max_players":24,"Bots":0,"server_type":"Dedicated","server_os":"Linux","password":true,"vac":true,"version":"7723704","steam_id":85568392924469984,"keywords":["cp","nocrits","nodmgspread","uncletopia"],"game_id":440,"stv_port":27016,"stv_name":"Uncletopia | Chicago | 1 | All Maps | STV","players":[{"user_id":506,"name":"NoonCity","steam_id":76561198010165479,"connected_time":1630000000000,"state":"active","ping":64},{"user_id":473,"name":"crimmson","steam_id":76561198416325300,"connected_time":3734000000000,"state":"active","ping":84},{"user_id":513,"name":"ZekeThePlumber","steam_id":76561197995016724,"connected_time":1166000000000,"state":"active","ping":72},{"user_id":511,"name":"John Darksoul","steam_id":76561198031675881,"connected_time":1452000000000,"state":"active","ping":65},{"user_id":512,"name":"slep.py","steam_id":76561197988287144,"connected_time":1192000000000,"state":"active","ping":55},{"user_id":518,"name":"limlermite","steam_id":76561197967761582,"connected_time":728000000000,"state":"active","ping":63},{"user_id":520,"name":"Hylic","steam_id":76561199051314589,"connected_time":517000000000,"state":"active","ping":61},{"user_id":421,"name":"Zeora","steam_id":76561198799145251,"connected_time":7254000000000,"state":"active","ping":65},{"user_id":412,"name":"lemon","steam_id":76561198329179651,"connected_time":7693000000000,"state":"active","ping":104},{"user_id":501,"name":"bimbofication","steam_id":76561198290315229,"connected_time":1871000000000,"state":"active","ping":99},{"user_id":436,"name":"Kapreesi","steam_id":76561198163361200,"connected_time":6508000000000,"state":"active","ping":69},{"user_id":485,"name":"PKBEAST_7","steam_id":76561198177136537,"connected_time":3293000000000,"state":"active","ping":84},{"user_id":494,"name":"DJ Chalice","steam_id":76561197974872458,"connected_time":2762000000000,"state":"active","ping":59},{"user_id":521,"name":"aversa","steam_id":76561198840460101,"connected_time":260000000000,"state":"active","ping":78},{"user_id":502,"name":"neet","steam_id":76561197968115168,"connected_time":1814000000000,"state":"active","ping":59},{"user_id":519,"name":"Caught a Thundah","steam_id":76561198054495572,"connected_time":603000000000,"state":"active","ping":78},{"user_id":503,"name":"fuckass fuckwit","steam_id":76561198090891781,"connected_time":1750000000000,"state":"active","ping":68},{"user_id":481,"name":"J.R Prime","steam_id":76561198967753173,"connected_time":3493000000000,"state":"active","ping":79},{"user_id":516,"name":"Mycelion","steam_id":76561198024999530,"connected_time":993000000000,"state":"active","ping":81},{"user_id":469,"name":"scarybroccoli","steam_id":76561198296440084,"connected_time":3967000000000,"state":"active","ping":75},{"user_id":522,"name":"pea","steam_id":76561198271963839,"connected_time":227000000000,"state":"active","ping":79},{"user_id":504,"name":"Banana Patrick","steam_id":76561198258067237,"connected_time":1741000000000,"state":"active","ping":70},{"user_id":493,"name":"MR.BadassMCLee","steam_id":76561198043787818,"connected_time":2814000000000,"state":"active","ping":111},{"user_id":505,"name":"faxxy","steam_id":76561198079621240,"connected_time":1716000000000,"state":"active","ping":54}]},{"server_id":106,"name":"Uncletopia | Chicago | 2 | All Maps","name_short":"chi-2","host":"chi-1.us.uncletopia.com","port":27025,"enabled":true,"region":"us-central","cc":"us","latitude":41.881832,"longitude":-87.62318,"reserved":0,"last_update":"0001-01-01T00:00:00Z","name_a2s":"Uncletopia | Chicago | 2 | All Maps","protocol":17,"map":"plr_pipeline","folder":"tf","game":"Team Fortress","app_id":440,"player_count":24,"max_players":24,"Bots":0,"server_type":"Dedicated","server_os":"Linux","password":true,"vac":true,"version":"7723704","steam_id":85568392924469985,"keywords":["nocrits","nodmgspread","payload","uncletopia"],"game_id":440,"stv_port":27026,"stv_name":"Uncletopia | Chicago | 2 | All Maps | STV","players":[{"user_id":346,"name":"SlenderBonnie","steam_id":76561198259550588,"connected_time":3276000000000,"state":"active","ping":64},{"user_id":385,"name":"A used self heating flesh-light","steam_id":76561198069918221,"connected_time":322000000000,"state":"active","ping":61},{"user_id":388,"name":"Moist Squidicles","steam_id":76561198077257617,"connected_time":273000000000,"state":"active","ping":82},{"user_id":369,"name":"KingCrawful","steam_id":76561198104291657,"connected_time":1340000000000,"state":"active","ping":53},{"user_id":358,"name":"C-Chunky?!","steam_id":76561198132231011,"connected_time":1963000000000,"state":"active","ping":67},{"user_id":331,"name":"Kindagoodplayer","steam_id":76561198814625843,"connected_time":4317000000000,"state":"active","ping":61},{"user_id":364,"name":"Zoawsome","steam_id":76561198018758753,"connected_time":1791000000000,"state":"active","ping":54},{"user_id":378,"name":"the rango","steam_id":76561199446762217,"connected_time":567000000000,"state":"active","ping":67},{"user_id":379,"name":"commodoreCorvus","steam_id":76561198159008829,"connected_time":532000000000,"state":"active","ping":113},{"user_id":372,"name":"SRV","steam_id":76561198026589960,"connected_time":982000000000,"state":"active","ping":48},{"user_id":386,"name":"Cloudtrotter","steam_id":76561198141975528,"connected_time":313000000000,"state":"active","ping":48},{"user_id":382,"name":"Sassmom61","steam_id":76561198955563945,"connected_time":394000000000,"state":"active","ping":60},{"user_id":389,"name":"three three","steam_id":76561198177354155,"connected_time":265000000000,"state":"active","ping":55},{"user_id":373,"name":"bussy squirt","steam_id":76561197962091138,"connected_time":974000000000,"state":"active","ping":66},{"user_id":319,"name":"local idiot","steam_id":76561198817179248,"connected_time":5682000000000,"state":"active","ping":64},{"user_id":375,"name":"Lord Scrubling","steam_id":76561198263744445,"connected_time":905000000000,"state":"active","ping":72},{"user_id":387,"name":"Ciela","steam_id":76561198799403828,"connected_time":306000000000,"state":"active","ping":54},{"user_id":337,"name":"garmonbozia","steam_id":76561198287124402,"connected_time":3971000000000,"state":"active","ping":83},{"user_id":345,"name":"gamerboy8233","steam_id":76561198228605388,"connected_time":3326000000000,"state":"active","ping":55},{"user_id":377,"name":"atserc","steam_id":76561197997570349,"connected_time":621000000000,"state":"active","ping":112},{"user_id":254,"name":"Kevin Y.","steam_id":76561198364331423,"connected_time":8181000000000,"state":"active","ping":92},{"user_id":102,"name":"A Puppy","steam_id":76561198828184456,"connected_time":14948000000000,"state":"active","ping":58},{"user_id":350,"name":"Got Hat?","steam_id":76561197998486431,"connected_time":3114000000000,"state":"active","ping":67},{"user_id":380,"name":"MoonWolf","steam_id":76561198095735033,"connected_time":494000000000,"state":"active","ping":72}]},{"server_id":402,"name":"Uncletopia | Chicago | 3 | All Maps","name_short":"chi-3","host":"chi-1.us.uncletopia.com","port":27035,"enabled":true,"region":"us-central","cc":"us","latitude":41.881832,"longitude":-87.62318,"reserved":0,"last_update":"0001-01-01T00:00:00Z","name_a2s":"Uncletopia | Chicago | 3 | All Maps","protocol":17,"map":"pl_barnblitz","folder":"tf","game":"Team Fortress","app_id":440,"player_count":24,"max_players":24,"Bots":0,"server_type":"Dedicated","server_os":"Linux","password":true,"vac":true,"version":"7723704","steam_id":85568392924515191,"keywords":["nocrits","nodmgspread","payload","uncletopia"],"game_id":440,"stv_port":27036,"stv_name":"Uncletopia | Chicago | 3 | All Maps | STV","players":[{"user_id":247,"name":"‚ô• Femboy‚ô•Ventily ‚ô•","steam_id":76561198157260335,"connected_time":240000000000,"state":"active","ping":56},{"user_id":239,"name":"Errrmmett","steam_id":76561198041314051,"connected_time":823000000000,"state":"active","ping":56},{"user_id":243,"name":"carter","steam_id":76561198285295764,"connected_time":305000000000,"state":"active","ping":76},{"user_id":245,"name":"Awe","steam_id":76561198268225109,"connected_time":256000000000,"state":"active","ping":72},{"user_id":227,"name":"Mr. May","steam_id":76561198132112804,"connected_time":2173000000000,"state":"active","ping":89},{"user_id":195,"name":"Lilac Lulamoon","steam_id":76561198111402757,"connected_time":3600000000000,"state":"active","ping":59},{"user_id":203,"name":"ThisJustIn","steam_id":76561198055554682,"connected_time":3309000000000,"state":"active","ping":60},{"user_id":249,"name":"Dullahan","steam_id":76561198119668908,"connected_time":137000000000,"state":"active","ping":99},{"user_id":248,"name":"Lusa","steam_id":76561199435564731,"connected_time":228000000000,"state":"active","ping":185},{"user_id":250,"name":"skipper","steam_id":76561198395965181,"connected_time":136000000000,"state":"active","ping":61},{"user_id":229,"name":"lana_del_rey.com","steam_id":76561198172447621,"connected_time":2137000000000,"state":"active","ping":99},{"user_id":230,"name":"MrVegasAguitar","steam_id":76561198084466946,"connected_time":2118000000000,"state":"active","ping":83},{"user_id":171,"name":"askarch123","steam_id":76561199088499710,"connected_time":5104000000000,"state":"active","ping":79},{"user_id":233,"name":"GreenApples","steam_id":76561198120559543,"connected_time":2088000000000,"state":"active","ping":93},{"user_id":251,"name":"doubledanage","steam_id":76561198418629356,"connected_time":124000000000,"state":"active","ping":64},{"user_id":240,"name":"emoscout420","steam_id":76561198414250681,"connected_time":821000000000,"state":"active","ping":60},{"user_id":252,"name":"kaedris","steam_id":76561198137465310,"connected_time":121000000000,"state":"active","ping":74},{"user_id":253,"name":"Strangelove","steam_id":76561198353773611,"connected_time":103000000000,"state":"active","ping":85},{"user_id":254,"name":"you are loved","steam_id":76561198108524571,"connected_time":93000000000,"state":"active","ping":75},{"user_id":224,"name":"caberknight tf2","steam_id":76561199273882768,"connected_time":2300000000000,"state":"active","ping":59},{"user_id":242,"name":"Stormz64 (but festive)","steam_id":76561198239036482,"connected_time":685000000000,"state":"active","ping":37},{"user_id":213,"name":"BOT Bot","steam_id":76561197995225620,"connected_time":2934000000000,"state":"active","ping":69},{"user_id":236,"name":"Young-OG","steam_id":76561198058800479,"connected_time":2055000000000,"state":"active","ping":87},{"user_id":182,"name":"Re-Loaded_Game","steam_id":76561199097136515,"connected_time":4768000000000,"state":"active","ping":82}]},{"server_id":403,"name":"Uncletopia | Chicago | 4 | All Maps","name_short":"chi-4","host":"chi-1.us.uncletopia.com","port":27045,"enabled":true,"region":"us-central","cc":"us","latitude":41.881832,"longitude":-87.62318,"reserved":0,"last_update":"0001-01-01T00:00:00Z","name_a2s":"Uncletopia | Chicago | 4 | All Maps","protocol":17,"map":"pl_badwater","folder":"tf","game":"Team Fortress","app_id":440,"player_count":25,"max_players":24,"Bots":0,"server_type":"Dedicated","server_os":"Linux","password":true,"vac":true,"version":"7723704","steam_id":85568392924515193,"keywords":["nocrits","nodmgspread","payload","uncletopia"],"game_id":440,"stv_port":27046,"stv_name":"Uncletopia | Chicago | 4 | All Maps | STV","players":[{"user_id":224,"name":"HurricanePootis","steam_id":76561198152518803,"connected_time":5893000000000,"state":"active","ping":60},{"user_id":170,"name":"bimbo blow up doll! \u003c3","steam_id":76561198959541006,"connected_time":10518000000000,"state":"active","ping":66},{"user_id":248,"name":"kablong","steam_id":76561199094392047,"connected_time":3440000000000,"state":"active","ping":75},{"user_id":277,"name":"Epicus Lusor","steam_id":76561198271981088,"connected_time":93000000000,"state":"connecting","ping":59},{"user_id":263,"name":"BuhByeFalecia","steam_id":76561198364710587,"connected_time":2308000000000,"state":"active","ping":75},{"user_id":225,"name":"Jean-Fran√ßois","steam_id":76561198193053881,"connected_time":5890000000000,"state":"active","ping":83},{"user_id":278,"name":"[XEN] Jbomb","steam_id":76561199197866625,"connected_time":56000000000,"state":"active","ping":78},{"user_id":210,"name":"ShadBad","steam_id":76561198248287390,"connected_time":6928000000000,"state":"active","ping":96},{"user_id":276,"name":"urmotherisafinewoman","steam_id":76561198284326069,"connected_time":471000000000,"state":"active","ping":71},{"user_id":216,"name":"Pog","steam_id":76561198957479336,"connected_time":6140000000000,"state":"active","ping":145},{"user_id":265,"name":"getchoo","steam_id":76561198185764418,"connected_time":2000000000000,"state":"active","ping":88},{"user_id":279,"name":"Andrew","steam_id":76561198216167781,"connected_time":51000000000,"state":"active","ping":69},{"user_id":249,"name":"BrendenMad","steam_id":76561198031250581,"connected_time":3420000000000,"state":"active","ping":54},{"user_id":280,"name":"Cletus Mccracknoodle","steam_id":76561198078030513,"connected_time":45000000000,"state":"spawning","ping":268},{"user_id":271,"name":"donkeymucles","steam_id":76561199388275529,"connected_time":896000000000,"state":"active","ping":61},{"user_id":275,"name":"Critscare","steam_id":76561198087712508,"connected_time":628000000000,"state":"active","ping":45},{"user_id":212,"name":"Deez Nutz","steam_id":76561198057374871,"connected_time":6428000000000,"state":"active","ping":60},{"user_id":281,"name":"Partaker of Sex","steam_id":76561198137880777,"connected_time":45000000000,"state":"active","ping":67},{"user_id":269,"name":"AkimboAoki","steam_id":76561198158323058,"connected_time":1443000000000,"state":"active","ping":96},{"user_id":260,"name":"Pennis the Menace","steam_id":76561198254878037,"connected_time":2568000000000,"state":"active","ping":71},{"user_id":274,"name":"Scout.tf","steam_id":76561199241807676,"connected_time":737000000000,"state":"active","ping":93},{"user_id":273,"name":"Disambiguation","steam_id":76561198133963270,"connected_time":884000000000,"state":"active","ping":60},{"user_id":261,"name":"ROCKSTAR MADE","steam_id":76561197961371271,"connected_time":2436000000000,"state":"active","ping":90},{"user_id":231,"name":"Coach McFish","steam_id":76561198210456405,"connected_time":5410000000000,"state":"active","ping":67},{"user_id":282,"name":"kairOs.fk","steam_id":76561197972421260,"connected_time":2000000000,"state":"spawning","ping":53}]},{"server_id":36,"name":"Uncletopia | Chicago | 5 | All Maps","name_short":"chi-5","host":"chi-2.us.uncletopia.com","port":27015,"enabled":true,"region":"us-central","cc":"us","latitude":41.881832,"longitude":-87.62318,"reserved":0,"last_update":"0001-01-01T00:00:00Z","name_a2s":"Uncletopia | Chicago | 5 | All Maps","protocol":17,"map":"cp_snakewater_final1","folder":"tf","game":"Team Fortress","app_id":440,"player_count":24,"max_players":24,"Bots":0,"server_type":"Dedicated","server_os":"Linux","password":true,"vac":true,"version":"7723704","steam_id":85568392924866362,"keywords":["cp","nocrits","nodmgspread","uncletopia"],"game_id":440,"stv_port":27016,"stv_name":"Uncletopia | Chicago | 5 | All Maps | STV","players":[{"user_id":65,"name":"Zogovro","steam_id":76561199163618880,"connected_time":895000000000,"state":"active","ping":106},{"user_id":56,"name":"Godmode","steam_id":76561198076240365,"connected_time":1212000000000,"state":"active","ping":61},{"user_id":48,"name":"Buttons :)","steam_id":76561198139478534,"connected_time":1403000000000,"state":"active","ping":101},{"user_id":49,"name":"festive Œõlxium","steam_id":76561198131272900,"connected_time":1371000000000,"state":"active","ping":61},{"user_id":64,"name":"agentish","steam_id":76561198055088122,"connected_time":916000000000,"state":"active","ping":56},{"user_id":73,"name":"Tannenbaum Trotsky","steam_id":76561199101638460,"connected_time":144000000000,"state":"active","ping":60},{"user_id":53,"name":"big guapo","steam_id":76561198103228695,"connected_time":1343000000000,"state":"active","ping":58},{"user_id":72,"name":"vinny6","steam_id":76561198386735728,"connected_time":165000000000,"state":"active","ping":68},{"user_id":47,"name":"ExtraSpace62","steam_id":76561198841935098,"connected_time":1550000000000,"state":"active","ping":57},{"user_id":74,"name":"qjkxkcd","steam_id":76561198035922283,"connected_time":96000000000,"state":"active","ping":66},{"user_id":55,"name":"Kitt(eh) ‚àë:3","steam_id":76561198110858518,"connected_time":1222000000000,"state":"active","ping":63},{"user_id":50,"name":"Gheeotine","steam_id":76561198010181698,"connected_time":1371000000000,"state":"active","ping":89},{"user_id":59,"name":"howtobepker","steam_id":76561198115053865,"connected_time":1183000000000,"state":"active","ping":100},{"user_id":51,"name":"chen","steam_id":76561198064872330,"connected_time":1367000000000,"state":"active","ping":64},{"user_id":70,"name":"mediyogurt","steam_id":76561198141148538,"connected_time":566000000000,"state":"active","ping":61},{"user_id":67,"name":"Pills","steam_id":76561198799440163,"connected_time":843000000000,"state":"active","ping":106},{"user_id":71,"name":"META.exe","steam_id":76561199067098696,"connected_time":443000000000,"state":"active","ping":76},{"user_id":75,"name":"HornedAccomplice","steam_id":76561198171126347,"connected_time":79000000000,"state":"active","ping":51},{"user_id":39,"name":"tbm john","steam_id":76561198304194081,"connected_time":1694000000000,"state":"active","ping":75},{"user_id":40,"name":"Porkchop","steam_id":76561198047654421,"connected_time":1683000000000,"state":"active","ping":89},{"user_id":41,"name":"Theodore J Kaczynski","steam_id":76561199033947799,"connected_time":1677000000000,"state":"active","ping":88},{"user_id":42,"name":"Wwaz","steam_id":76561198000240092,"connected_time":1635000000000,"state":"active","ping":50},{"user_id":43,"name":"Citg","steam_id":76561198005684439,"connected_time":1632000000000,"state":"active","ping":60},{"user_id":63,"name":"ZyberTheTrilogy","steam_id":76561199224319852,"connected_time":983000000000,"state":"active","ping":118}]},{"server_id":37,"name":"Uncletopia | Chicago | 6 | All Maps","name_short":"chi-6","host":"chi-2.us.uncletopia.com","port":27025,"enabled":true,"region":"us-central","cc":"us","latitude":41.881832,"longitude":-87.62318,"reserved":0,"last_update":"0001-01-01T00:00:00Z","name_a2s":"Uncletopia | Chicago | 6 | All Maps","protocol":17,"map":"cp_process_final","folder":"tf","game":"Team Fortress","app_id":440,"player_count":0,"max_players":24,"Bots":0,"server_type":"Dedicated","server_os":"Linux","password":true,"vac":true,"version":"7723704","steam_id":85568392924866363,"keywords":["cp","nocrits","nodmgspread","uncletopia"],"game_id":440,"stv_port":27026,"stv_name":"Uncletopia | Chicago | 6 | All Maps | STV","players":null},{"server_id":38,"name":"Uncletopia | Chicago | 7 | Stopwatch Beta","name_short":"chi-7","host":"chi-2.us.uncletopia.com","port":27035,"enabled":true,"region":"us-central","cc":"us","latitude":41.881832,"longitude":-87.62318,"reserved":0,"last_update":"0001-01-01T00:00:00Z","name_a2s":"Uncletopia | Chicago | 7 | Stopwatch Beta","protocol":17,"map":"workshop/koth_clearcut_b15.ugc2107050255","folder":"tf","game":"Team Fortress","app_id":440,"player_count":0,"max_players":24,"Bots":0,"server_type":"Dedicated","server_os":"Linux","password":true,"vac":true,"version":"7723704","steam_id":85568392924866364,"keywords":["cp","nocrits","nodmgspread","uncletopia"],"game_id":440,"stv_port":27036,"stv_name":"Uncletopia | Chicago | 7 | Stopwatch Beta | STV","players":null},{"server_id":39,"name":"Uncletopia | Chicago | 8 | Community","name_short":"chi-8","host":"chi-2.us.uncletopia.com","port":27045,"enabled":true,"region":"us-central","cc":"us","latitude":41.881832,"longitude":-87.62318,"reserved":0,"last_update":"0001-01-01T00:00:00Z","name_a2s":"Uncletopia | Chicago | 8 | Community","protocol":17,"map":"workshop/cp_overgrown_rc7b.ugc503939302","folder":"tf","game":"Team Fortress","app_id":440,"player_count":0,"max_players":24,"Bots":0,"server_type":"Dedicated","server_os":"Linux","password":true,"vac":true,"version":"7723704","steam_id":85568392924866365,"keywords":["cp","nocrits","nodmgspread","uncletopia"],"game_id":440,"stv_port":27046,"stv_name":"Uncletopia | Chicago | 8 | Community | STV","players":null},{"server_id":8,"name":"Uncletopia | Dallas | 1 | All Maps","name_short":"dal-1","host":"dal-1.us.uncletopia.com","port":27015,"enabled":true,"region":"us-central","cc":"us","latitude":32.779167,"longitude":-96.80889,"reserved":0,"last_update":"0001-01-01T00:00:00Z","name_a2s":"Uncletopia | Dallas | 1 | All Maps","protocol":17,"map":"pl_swiftwater_final1","folder":"tf","game":"Team Fortress","app_id":440,"player_count":24,"max_players":24,"Bots":0,"server_type":"Dedicated","server_os":"Linux","password":true,"vac":true,"version":"7723704","steam_id":85568392924469986,"keywords":["nocrits","nodmgspread","payload","uncletopia"],"game_id":440,"stv_port":27016,"stv_name":"Uncletopia | Dallas | 1 | All Maps | STV","players":[{"user_id":454,"name":"FireQuiz","steam_id":76561198107357249,"connected_time":2056000000000,"state":"active","ping":106},{"user_id":458,"name":"The Ultimate Coomer","steam_id":76561199128833757,"connected_time":1743000000000,"state":"active","ping":43},{"user_id":459,"name":"Haunting","steam_id":76561198088529360,"connected_time":1741000000000,"state":"active","ping":51},{"user_id":436,"name":"Onyx","steam_id":76561198275349640,"connected_time":3762000000000,"state":"active","ping":60},{"user_id":409,"name":"Dinger","steam_id":76561198030119710,"connected_time":5649000000000,"state":"active","ping":97},{"user_id":460,"name":"Beeveelution","steam_id":76561198331526301,"connected_time":1735000000000,"state":"active","ping":82},{"user_id":338,"name":"lauren/","steam_id":76561198048745798,"connected_time":7508000000000,"state":"active","ping":65},{"user_id":457,"name":"Phil Collins","steam_id":76561198068868644,"connected_time":1991000000000,"state":"active","ping":102},{"user_id":434,"name":"ItsRoy","steam_id":76561198119525485,"connected_time":4116000000000,"state":"active","ping":81},{"user_id":439,"name":"The Krinkler","steam_id":76561198020308956,"connected_time":3705000000000,"state":"active","ping":62},{"user_id":462,"name":"Mr.Bacon","steam_id":76561198030890774,"connected_time":1626000000000,"state":"active","ping":86},{"user_id":463,"name":"Jambi","steam_id":76561198846091685,"connected_time":1618000000000,"state":"active","ping":36},{"user_id":485,"name":"Benforce010","steam_id":76561199220886530,"connected_time":49000000000,"state":"active","ping":89},{"user_id":483,"name":"hedroN","steam_id":76561198175864490,"connected_time":96000000000,"state":"active","ping":77},{"user_id":482,"name":"Bonesala","steam_id":76561199052450127,"connected_time":482000000000,"state":"active","ping":70},{"user_id":479,"name":"SliFox115","steam_id":76561198006657143,"connected_time":812000000000,"state":"active","ping":66},{"user_id":445,"name":"Bonk","steam_id":76561198116945752,"connected_time":3091000000000,"state":"active","ping":89},{"user_id":484,"name":"Rhutebeer","steam_id":76561198018302761,"connected_time":64000000000,"state":"active","ping":78},{"user_id":467,"name":"DSM-IVCE","steam_id":76561199438515797,"connected_time":1535000000000,"state":"active","ping":166},{"user_id":468,"name":"ebbaxter13","steam_id":76561198839647688,"connected_time":1515000000000,"state":"active","ping":101},{"user_id":476,"name":"lily","steam_id":76561198102681457,"connected_time":875000000000,"state":"active","ping":76},{"user_id":480,"name":"VicLoL","steam_id":76561198045580784,"connected_time":762000000000,"state":"active","ping":71},{"user_id":470,"name":"Captain Komi","steam_id":76561198057125157,"connected_time":1475000000000,"state":"active","ping":93},{"user_id":481,"name":"Orange bench","steam_id":76561198191269339,"connected_time":716000000000,"state":"active","ping":100}]},{"server_id":108,"name":"Uncletopia | Dallas | 2 | All Maps","name_short":"dal-2","host":"dal-1.us.uncletopia.com","port":27025,"enabled":true,"region":"us-central","cc":"us","latitude":32.779167,"longitude":-96.80889,"reserved":0,"last_update":"0001-01-01T00:00:00Z","name_a2s":"Uncletopia | Dallas | 2 | All Maps","protocol":17,"map":"pl_snowycoast","folder":"tf","game":"Team Fortress","app_id":440,"player_count":24,"max_players":24,"Bots":0,"server_type":"Dedicated","server_os":"Linux","password":true,"vac":true,"version":"7723704","steam_id":85568392924469988,"keywords":["nocrits","nodmgspread","payload","uncletopia"],"game_id":440,"stv_port":27026,"stv_name":"Uncletopia | Dallas | 2 | All Maps | STV","players":[{"user_id":374,"name":"Volkan, Pervert Extraordinaire","steam_id":76561198004569575,"connected_time":241000000000,"state":"active","ping":88},{"user_id":375,"name":"StuartBell511","steam_id":76561198060931721,"connected_time":136000000000,"state":"active","ping":74},{"user_id":363,"name":"mola","steam_id":76561198036283992,"connected_time":832000000000,"state":"active","ping":78},{"user_id":268,"name":"Snail","steam_id":76561198153026006,"connected_time":8123000000000,"state":"active","ping":133},{"user_id":370,"name":"turnip","steam_id":76561197999375941,"connected_time":640000000000,"state":"active","ping":47},{"user_id":376,"name":"TheGrassMan (He/Him)","steam_id":76561198118984048,"connected_time":115000000000,"state":"active","ping":78},{"user_id":377,"name":"VerociousVee","steam_id":76561198289106015,"connected_time":80000000000,"state":"active","ping":90},{"user_id":329,"name":"remedu","steam_id":76561198005152587,"connected_time":3238000000000,"state":"active","ping":42},{"user_id":290,"name":"selvhat","steam_id":76561198114225509,"connected_time":6572000000000,"state":"active","ping":78},{"user_id":349,"name":"Fuzzy Toast","steam_id":76561198028067781,"connected_time":2734000000000,"state":"active","ping":76},{"user_id":361,"name":"the robo when it trips","steam_id":76561198149063013,"connected_time":1389000000000,"state":"active","ping":57},{"user_id":378,"name":"Johnny Lawrence #JohnnyMaxxing","steam_id":76561199367141671,"connected_time":76000000000,"state":"active","ping":87},{"user_id":334,"name":"A Hard Boiled Egg","steam_id":76561197979078330,"connected_time":3096000000000,"state":"active","ping":83},{"user_id":379,"name":"Cactus Josh","steam_id":76561198140253855,"connected_time":73000000000,"state":"active","ping":94},{"user_id":323,"name":"leonardo doujinshi","steam_id":76561198025810326,"connected_time":4336000000000,"state":"active","ping":91},{"user_id":364,"name":"Antidisestablishmentarianism","steam_id":76561198958460901,"connected_time":831000000000,"state":"active","ping":73},{"user_id":380,"name":"Donkski","steam_id":76561198406895347,"connected_time":70000000000,"state":"active","ping":67},{"user_id":372,"name":"a bucket of chicken","steam_id":76561198023710042,"connected_time":496000000000,"state":"active","ping":34},{"user_id":373,"name":"ozymandias","steam_id":76561198983415087,"connected_time":462000000000,"state":"active","ping":54},{"user_id":360,"name":"carrion goat","steam_id":76561198262064871,"connected_time":1422000000000,"state":"active","ping":89},{"user_id":354,"name":"corygaming","steam_id":76561198035669409,"connected_time":2207000000000,"state":"active","ping":127},{"user_id":355,"name":"Yayifications","steam_id":76561198066227208,"connected_time":2204000000000,"state":"active","ping":86},{"user_id":351,"name":"Ejej","steam_id":76561198986313007,"connected_time":2659000000000,"state":"active","ping":89},{"user_id":368,"name":"El Jefe","steam_id":76561198124157939,"connected_time":702000000000,"state":"active","ping":49}]},{"server_id":5,"name":"Uncletopia | Frankfurt | 1 | All Maps","name_short":"frk-1","host":"frk-1.de.uncletopia.com","port":27015,"enabled":true,"region":"eu","cc":"de","latitude":50.110924,"longitude":8.682127,"reserved":0,"last_update":"0001-01-01T00:00:00Z","name_a2s":"Uncletopia | Frankfurt | 1 | All Maps","protocol":17,"map":"cp_snakewater_final1","folder":"tf","game":"Team Fortress","app_id":440,"player_count":24,"max_players":24,"Bots":0,"server_type":"Dedicated","server_os":"Linux","password":true,"vac":true,"version":"7723704","steam_id":85568392924469989,"keywords":["cp","nocrits","nodmgspread","uncletopia"],"game_id":440,"stv_port":27016,"stv_name":"Uncletopia | Frankfurt | 1 | All Maps | STV","players":[{"user_id":625,"name":"Meterora","steam_id":76561198092422131,"connected_time":1940000000000,"state":"active","ping":58},{"user_id":651,"name":"_Snail","steam_id":76561198155992030,"connected_time":630000000000,"state":"active","ping":71},{"user_id":656,"name":"uncle turd","steam_id":76561198022169689,"connected_time":444000000000,"state":"active","ping":71},{"user_id":616,"name":"FoX^","steam_id":76561197985866458,"connected_time":2851000000000,"state":"active","ping":67},{"user_id":528,"name":"bocian2703","steam_id":76561198134203031,"connected_time":7402000000000,"state":"active","ping":62},{"user_id":639,"name":"haii! :33 hii! haii ‚ù§ ‚ù§ hi","steam_id":76561198214848887,"connected_time":1134000000000,"state":"active","ping":69},{"user_id":657,"name":"UncleRain","steam_id":76561198230116496,"connected_time":392000000000,"state":"active","ping":76},{"user_id":631,"name":"≈öcigany z urzƒôdu","steam_id":76561198035496969,"connected_time":1431000000000,"state":"active","ping":84},{"user_id":632,"name":"scout TF2","steam_id":76561198072037878,"connected_time":1407000000000,"state":"active","ping":60},{"user_id":612,"name":"Larry Penus","steam_id":76561198207546233,"connected_time":3191000000000,"state":"active","ping":57},{"user_id":597,"name":"Pineyüíô","steam_id":76561198050910939,"connected_time":3882000000000,"state":"active","ping":66},{"user_id":633,"name":"ned01","steam_id":76561198351845599,"connected_time":1344000000000,"state":"active","ping":71},{"user_id":647,"name":"Karewa.","steam_id":76561198201109002,"connected_time":766000000000,"state":"active","ping":86},{"user_id":658,"name":"Jack Dickfister","steam_id":76561198145145810,"connected_time":266000000000,"state":"active","ping":47},{"user_id":659,"name":"Smoogle McDoogle","steam_id":76561198138121795,"connected_time":197000000000,"state":"active","ping":79},{"user_id":621,"name":"im fwagging","steam_id":76561198371068409,"connected_time":2048000000000,"state":"active","ping":61},{"user_id":636,"name":"Jamir","steam_id":76561198880322262,"connected_time":1283000000000,"state":"active","ping":63},{"user_id":619,"name":"[zanzibar] Hallowasniet","steam_id":76561198168485956,"connected_time":2059000000000,"state":"active","ping":64},{"user_id":620,"name":"[zanzibar] Jonestones","steam_id":76561198328082426,"connected_time":2053000000000,"state":"active","ping":51},{"user_id":623,"name":"Jamal","steam_id":76561198835690169,"connected_time":2028000000000,"state":"active","ping":58},{"user_id":655,"name":"where the ghosts used to be","steam_id":76561199400809482,"connected_time":539000000000,"state":"active","ping":57},{"user_id":638,"name":"tbsgjack177","steam_id":76561198991823965,"connected_time":1252000000000,"state":"active","ping":70},{"user_id":642,"name":"Cahl","steam_id":76561198980863125,"connected_time":1036000000000,"state":"active","ping":60},{"user_id":660,"name":"hello my name is devil may cry","steam_id":76561198115106008,"connected_time":37000000000,"state":"spawning","ping":111}]},{"server_id":110,"name":"Uncletopia | Frankfurt | 2 | All Maps","name_short":"frk-2","host":"frk-1.de.uncletopia.com","port":27025,"enabled":true,"region":"eu","cc":"de","latitude":50.110924,"longitude":8.682127,"reserved":0,"last_update":"0001-01-01T00:00:00Z","name_a2s":"Uncletopia | Frankfurt | 2 | All Maps","protocol":17,"map":"pl_pier","folder":"tf","game":"Team Fortress","app_id":440,"player_count":24,"max_players":24,"Bots":0,"server_type":"Dedicated","server_os":"Linux","password":true,"vac":true,"version":"7723704","steam_id":85568392924469990,"keywords":["nocrits","nodmgspread","payload","uncletopia"],"game_id":440,"stv_port":27026,"stv_name":"Uncletopia | Frankfurt | 2 | All Maps | STV","players":[{"user_id":590,"name":"mouthless goober","steam_id":76561198079566684,"connected_time":222000000000,"state":"active","ping":160},{"user_id":492,"name":"Malte","steam_id":76561198326324739,"connected_time":7499000000000,"state":"active","ping":59},{"user_id":574,"name":"iBeKelsey","steam_id":76561198426604784,"connected_time":1148000000000,"state":"active","ping":57},{"user_id":575,"name":"pumpkin spice go.ggez.ro","steam_id":76561198449957490,"connected_time":1022000000000,"state":"active","ping":67},{"user_id":576,"name":"azzy","steam_id":76561198061293740,"connected_time":1005000000000,"state":"active","ping":76},{"user_id":587,"name":"—Ç—É–∫–∫—É –∏—Ä–º–∞","steam_id":76561197998715016,"connected_time":725000000000,"state":"active","ping":60},{"user_id":583,"name":"SHURIKEN","steam_id":76561197982319164,"connected_time":918000000000,"state":"active","ping":70},{"user_id":569,"name":"üúè Drepp","steam_id":76561197998867164,"connected_time":1795000000000,"state":"active","ping":56},{"user_id":591,"name":"SaltyCupcakes","steam_id":76561198256386417,"connected_time":217000000000,"state":"active","ping":57},{"user_id":565,"name":"sigma female","steam_id":76561198298576765,"connected_time":2321000000000,"state":"active","ping":83},{"user_id":579,"name":"Alender","steam_id":76561198061122036,"connected_time":956000000000,"state":"active","ping":42},{"user_id":564,"name":"Sivik","steam_id":76561198370329466,"connected_time":2402000000000,"state":"active","ping":57},{"user_id":580,"name":"Meladoom2","steam_id":76561198086845387,"connected_time":952000000000,"state":"active","ping":83},{"user_id":582,"name":"Nier0x","steam_id":76561198092041526,"connected_time":947000000000,"state":"active","ping":97},{"user_id":592,"name":"drew","steam_id":76561198012304706,"connected_time":91000000000,"state":"active","ping":90},{"user_id":527,"name":"Samus","steam_id":76561198045943019,"connected_time":4283000000000,"state":"active","ping":44},{"user_id":528,"name":"TurboTabs","steam_id":76561198009785131,"connected_time":4264000000000,"state":"active","ping":61},{"user_id":561,"name":"Amity The Mushroom Demon","steam_id":76561198259447247,"connected_time":2503000000000,"state":"active","ping":62},{"user_id":585,"name":"Fagawagawoopwap","steam_id":76561199067173157,"connected_time":876000000000,"state":"active","ping":52},{"user_id":586,"name":"KillerQueen (he/they/she)","steam_id":76561199019399725,"connected_time":843000000000,"state":"active","ping":60},{"user_id":588,"name":"MeBandae","steam_id":76561198910770432,"connected_time":725000000000,"state":"active","ping":69},{"user_id":593,"name":"mondocane","steam_id":76561199233979726,"connected_time":28000000000,"state":"active","ping":77},{"user_id":414,"name":"TheEmeraldElias","steam_id":76561199117460238,"connected_time":13479000000000,"state":"active","ping":173},{"user_id":562,"name":"nitroglycerin","steam_id":76561198080496833,"connected_time":2499000000000,"state":"active","ping":94}]},{"server_id":308,"name":"Uncletopia | Frankfurt | 3 | All Maps","name_short":"frk-3","host":"frk-1.de.uncletopia.com","port":27035,"enabled":true,"region":"eu","cc":"de","latitude":50.110924,"longitude":8.682127,"reserved":0,"last_update":"0001-01-01T00:00:00Z","name_a2s":"Uncletopia | Frankfurt | 3 | All Maps","protocol":17,"map":"pl_pier","folder":"tf","game":"Team Fortress","app_id":440,"player_count":0,"max_players":24,"Bots":0,"server_type":"Dedicated","server_os":"Linux","password":true,"vac":true,"version":"7723704","steam_id":85568392924504274,"keywords":["nocrits","nodmgspread","payload","uncletopia"],"game_id":440,"stv_port":27036,"stv_name":"Uncletopia | Frankfurt | 3 | All Maps | STV","players":null},{"server_id":309,"name":"Uncletopia | Frankfurt | 4 | All Maps","name_short":"frk-4","host":"frk-1.de.uncletopia.com","port":27045,"enabled":true,"region":"eu","cc":"de","latitude":50.110924,"longitude":8.682127,"reserved":0,"last_update":"0001-01-01T00:00:00Z","name_a2s":"Uncletopia | Frankfurt | 4 | All Maps","protocol":17,"map":"cp_altitude","folder":"tf","game":"Team Fortress","app_id":440,"player_count":0,"max_players":24,"Bots":0,"server_type":"Dedicated","server_os":"Linux","password":true,"vac":true,"version":"7723704","steam_id":85568392924504275,"keywords":["cp","nocrits","nodmgspread","uncletopia"],"game_id":440,"stv_port":27046,"stv_name":"Uncletopia | Frankfurt | 4 | All Maps | STV","players":null},{"server_id":310,"name":"Uncletopia | Frankfurt | 5 | All Maps","name_short":"frk-5","host":"frk-1.de.uncletopia.com","port":27055,"enabled":true,"region":"eu","cc":"de","latitude":50.110924,"longitude":8.682127,"reserved":0,"last_update":"0001-01-01T00:00:00Z","name_a2s":"Uncletopia | Frankfurt | 5 | All Maps","protocol":17,"map":"cp_dustbowl","folder":"tf","game":"Team Fortress","app_id":440,"player_count":0,"max_players":24,"Bots":0,"server_type":"Dedicated","server_os":"Linux","password":true,"vac":true,"version":"7723704","steam_id":85568392924504277,"keywords":["cp","nocrits","nodmgspread","uncletopia"],"game_id":440,"stv_port":27056,"stv_name":"Uncletopia | Frankfurt | 5 | All Maps | STV","players":null},{"server_id":311,"name":"Uncletopia | Frankfurt | 6 | All Maps","name_short":"frk-6","host":"frk-1.de.uncletopia.com","port":27065,"enabled":true,"region":"eu","cc":"de","latitude":50.110924,"longitude":8.682127,"reserved":0,"last_update":"0001-01-01T00:00:00Z","name_a2s":"Uncletopia | Frankfurt | 6 | All Maps","protocol":17,"map":"pl_barnblitz","folder":"tf","game":"Team Fortress","app_id":440,"player_count":0,"max_players":24,"Bots":0,"server_type":"Dedicated","server_os":"Linux","password":true,"vac":true,"version":"7723704","steam_id":85568392924504278,"keywords":["nocrits","nodmgspread","payload","uncletopia"],"game_id":440,"stv_port":27066,"stv_name":"Uncletopia | Frankfurt | 6 | All Maps | STV","players":null},{"server_id":23,"name":"Uncletopia | Frankfurt | 7 | Stopwatch Beta","name_short":"frk-7","host":"frk-1.de.uncletopia.com","port":27075,"enabled":true,"region":"eu","cc":"de","latitude":50.110924,"longitude":8.682127,"reserved":0,"last_update":"0001-01-01T00:00:00Z","name_a2s":"Uncletopia | Frankfurt | 7 | Stopwatch Beta","protocol":17,"map":"workshop/pl_barnblitz_pro7.ugc582280235","folder":"tf","game":"Team Fortress","app_id":440,"player_count":0,"max_players":24,"Bots":0,"server_type":"Dedicated","server_os":"Linux","password":true,"vac":true,"version":"7723704","steam_id":85568392924742827,"keywords":["nocrits","nodmgspread","payload","uncletopia"],"game_id":440,"stv_port":27076,"stv_name":"Uncletopia | Frankfurt | 7 | Stopwatch Beta | STV","players":null},{"server_id":24,"name":"Uncletopia | Frankfurt | 8 | Community","name_short":"frk-8","host":"frk-1.de.uncletopia.com","port":27085,"enabled":true,"region":"eu","cc":"de","latitude":50.110924,"longitude":8.682127,"reserved":0,"last_update":"0001-01-01T00:00:00Z","name_a2s":"Uncletopia | Frankfurt | 8 | Community","protocol":17,"map":"workshop/koth_synthetic_rc6a.ugc1549817316","folder":"tf","game":"Team Fortress","app_id":440,"player_count":0,"max_players":24,"Bots":0,"server_type":"Dedicated","server_os":"Linux","password":true,"vac":true,"version":"7723704","steam_id":85568392924742828,"keywords":["cp","nocrits","nodmgspread","uncletopia"],"game_id":440,"stv_port":27086,"stv_name":"Uncletopia | Frankfurt | 8 | Community | STV","players":null},{"server_id":202,"name":"Uncletopia | Hong Kong | 1 | All Maps","name_short":"hgk-1","host":"hgk-1.hk.uncletopia.com","port":27015,"enabled":true,"region":"asia","cc":"hk","latitude":22.302711,"longitude":114.177216,"reserved":0,"last_update":"0001-01-01T00:00:00Z","name_a2s":"Uncletopia | Hong Kong | 1 | All Maps","protocol":17,"map":"cp_dustbowl","folder":"tf","game":"Team Fortress","app_id":440,"player_count":0,"max_players":24,"Bots":0,"server_type":"Dedicated","server_os":"Linux","password":true,"vac":true,"version":"7723704","steam_id":85568392924494504,"keywords":["cp","nocrits","nodmgspread","uncletopia"],"game_id":440,"stv_port":27016,"stv_name":"Uncletopia | Hong Kong | 1 | All Maps | STV","players":null},{"server_id":1,"name":"Uncletopia | Los Angeles | 1 | All Maps","name_short":"lax-1","host":"lax-1.us.uncletopia.com","port":27015,"enabled":true,"region":"us-west","cc":"us","latitude":33.94279,"longitude":-118.41004,"reserved":0,"last_update":"0001-01-01T00:00:00Z","name_a2s":"Uncletopia | Los Angeles | 1 | All Maps","protocol":17,"map":"pl_barnblitz","folder":"tf","game":"Team Fortress","app_id":440,"player_count":25,"max_players":24,"Bots":0,"server_type":"Dedicated","server_os":"Linux","password":true,"vac":true,"version":"7723704","steam_id":85568392924469991,"keywords":["nocrits","nodmgspread","payload","uncletopia"],"game_id":440,"stv_port":27016,"stv_name":"Uncletopia | Los Angeles | 1 | All Maps | STV","players":[{"user_id":176,"name":"Hornet","steam_id":76561199184759575,"connected_time":2321000000000,"state":"active","ping":87},{"user_id":174,"name":"flo rida","steam_id":76561198226169704,"connected_time":2450000000000,"state":"active","ping":57},{"user_id":200,"name":"Dat Boi","steam_id":76561198165068790,"connected_time":1184000000000,"state":"active","ping":65},{"user_id":212,"name":"Spy on cart","steam_id":76561198025466913,"connected_time":136000000000,"state":"active","ping":34},{"user_id":211,"name":"Rat wit da gat","steam_id":76561198063740866,"connected_time":372000000000,"state":"active","ping":58},{"user_id":192,"name":"ircycl","steam_id":76561198170693990,"connected_time":1774000000000,"state":"active","ping":47},{"user_id":178,"name":"video games","steam_id":76561198334059206,"connected_time":2252000000000,"state":"active","ping":59},{"user_id":213,"name":"jerss","steam_id":76561199034027802,"connected_time":130000000000,"state":"active","ping":80},{"user_id":216,"name":"Level 1 Crook","steam_id":76561198441098132,"connected_time":63000000000,"state":"active","ping":113},{"user_id":172,"name":"walrooos ‚úø","steam_id":76561198024521839,"connected_time":2595000000000,"state":"active","ping":44},{"user_id":205,"name":"cookiegenius2398.r2","steam_id":76561198970759258,"connected_time":988000000000,"state":"active","ping":49},{"user_id":214,"name":"Derblitz","steam_id":76561198040953176,"connected_time":129000000000,"state":"active","ping":54},{"user_id":206,"name":"bladees saddest, realest verse","steam_id":76561198098099826,"connected_time":900000000000,"state":"active","ping":49},{"user_id":125,"name":"Akrin","steam_id":76561199254804349,"connected_time":5898000000000,"state":"active","ping":141},{"user_id":175,"name":"Tenma","steam_id":76561198296557689,"connected_time":2348000000000,"state":"active","ping":48},{"user_id":194,"name":"June","steam_id":76561198141803658,"connected_time":1663000000000,"state":"active","ping":48},{"user_id":209,"name":"Smiley","steam_id":76561198836523202,"connected_time":530000000000,"state":"active","ping":81},{"user_id":195,"name":"REINDEER GAMES","steam_id":76561198263004448,"connected_time":1622000000000,"state":"active","ping":49},{"user_id":197,"name":"Punished J‡∂ûff #NeverSimpAgain","steam_id":76561198304252584,"connected_time":1567000000000,"state":"active","ping":59},{"user_id":203,"name":"zinnk","steam_id":76561198092081825,"connected_time":1052000000000,"state":"active","ping":78},{"user_id":199,"name":"eyeball","steam_id":76561198307697528,"connected_time":1249000000000,"state":"active","ping":50},{"user_id":215,"name":"Soap","steam_id":76561197994893383,"connected_time":122000000000,"state":"active","ping":62},{"user_id":217,"name":"playboicartifan2017","steam_id":76561198345528370,"connected_time":58000000000,"state":"active","ping":58},{"user_id":171,"name":"oil","steam_id":76561198099980149,"connected_time":2913000000000,"state":"active","ping":45},{"user_id":218,"name":"fungus","steam_id":76561198261851104,"connected_time":18000000000,"state":"spawning","ping":144}]},{"server_id":112,"name":"Uncletopia | Los Angeles | 2 | All Maps","name_short":"lax-2","host":"lax-1.us.uncletopia.com","port":27025,"enabled":true,"region":"us-west","cc":"us","latitude":33.94279,"longitude":-118.41004,"reserved":0,"last_update":"0001-01-01T00:00:00Z","name_a2s":"Uncletopia | Los Angeles | 2 | All Maps","protocol":17,"map":"cp_sunshine","folder":"tf","game":"Team Fortress","app_id":440,"player_count":10,"max_players":24,"Bots":0,"server_type":"Dedicated","server_os":"Linux","password":true,"vac":true,"version":"7723704","steam_id":85568392924469992,"keywords":["cp","nocrits","nodmgspread","uncletopia"],"game_id":440,"stv_port":27026,"stv_name":"Uncletopia | Los Angeles | 2 | All Maps | STV","players":[{"user_id":33,"name":"dylanlyldyl","steam_id":76561199237270908,"connected_time":117000000000,"state":"active","ping":49},{"user_id":19,"name":"Jada","steam_id":76561198121161368,"connected_time":1897000000000,"state":"active","ping":94},{"user_id":21,"name":"KnockOutClock","steam_id":76561199436877307,"connected_time":887000000000,"state":"active","ping":50},{"user_id":22,"name":"bobtheninjaman","steam_id":76561198066424544,"connected_time":795000000000,"state":"active","ping":84},{"user_id":23,"name":"pablo","steam_id":76561199190247198,"connected_time":639000000000,"state":"active","ping":156},{"user_id":24,"name":"naturia","steam_id":76561198092317849,"connected_time":633000000000,"state":"active","ping":46},{"user_id":25,"name":"Waaaaz","steam_id":76561198029754301,"connected_time":603000000000,"state":"active","ping":49},{"user_id":32,"name":"tavi","steam_id":76561198050192689,"connected_time":174000000000,"state":"active","ping":44},{"user_id":27,"name":"emerald6","steam_id":76561198141978758,"connected_time":502000000000,"state":"active","ping":109},{"user_id":29,"name":"Contact Scripe","steam_id":76561198109882644,"connected_time":378000000000,"state":"active","ping":197}]},{"server_id":324,"name":"Uncletopia | Los Angeles | 3 | All Maps","name_short":"lax-3","host":"lax-1.us.uncletopia.com","port":27035,"enabled":true,"region":"us-west","cc":"us","latitude":33.94279,"longitude":-118.41004,"reserved":0,"last_update":"0001-01-01T00:00:00Z","name_a2s":"Uncletopia | Los Angeles | 3 | All Maps","protocol":17,"map":"pl_barnblitz","folder":"tf","game":"Team Fortress","app_id":440,"player_count":21,"max_players":24,"Bots":0,"server_type":"Dedicated","server_os":"Linux","password":true,"vac":true,"version":"7723704","steam_id":85568392924510198,"keywords":["nocrits","nodmgspread","payload","uncletopia"],"game_id":440,"stv_port":27036,"stv_name":"Uncletopia | Los Angeles | 3 | All Maps | STV","players":[{"user_id":59,"name":"Tot4L Gridlock","steam_id":76561197999816631,"connected_time":7000000000,"state":"spawning","ping":85},{"user_id":20,"name":"Sneaspeon","steam_id":76561198111526436,"connected_time":3012000000000,"state":"active","ping":50},{"user_id":50,"name":"Grandpa Baozhai","steam_id":76561198086667725,"connected_time":1052000000000,"state":"active","ping":73},{"user_id":21,"name":"amar","steam_id":76561197974073515,"connected_time":2695000000000,"state":"active","ping":62},{"user_id":58,"name":"old man on the road","steam_id":76561199083502973,"connected_time":227000000000,"state":"active","ping":121},{"user_id":23,"name":"Little Timmy","steam_id":76561198437430213,"connected_time":2505000000000,"state":"active","ping":44},{"user_id":24,"name":"Slupunk","steam_id":76561199029552102,"connected_time":2491000000000,"state":"active","ping":59},{"user_id":44,"name":"Sh3ba Spaniel","steam_id":76561198047412394,"connected_time":1569000000000,"state":"active","ping":105},{"user_id":46,"name":"Gamer","steam_id":76561198151153750,"connected_time":1219000000000,"state":"active","ping":76},{"user_id":27,"name":"I regret nothing","steam_id":76561198399261089,"connected_time":2244000000000,"state":"active","ping":54},{"user_id":45,"name":"cuppo","steam_id":76561198022008901,"connected_time":1543000000000,"state":"active","ping":67},{"user_id":32,"name":"lili.winters","steam_id":76561199391478575,"connected_time":2046000000000,"state":"active","ping":90},{"user_id":33,"name":"Wacks","steam_id":76561198079476100,"connected_time":2046000000000,"state":"active","ping":55},{"user_id":34,"name":"{907}DarkestFury","steam_id":76561198103662458,"connected_time":1941000000000,"state":"active","ping":100},{"user_id":55,"name":"Biznickel","steam_id":76561199422511230,"connected_time":864000000000,"state":"active","ping":74},{"user_id":37,"name":"Zell Da Sheepy","steam_id":76561198978753666,"connected_time":1768000000000,"state":"active","ping":63},{"user_id":56,"name":"sagekiss","steam_id":76561198038831240,"connected_time":827000000000,"state":"active","ping":73},{"user_id":52,"name":"Wan Shi Tong","steam_id":76561198076441225,"connected_time":982000000000,"state":"active","ping":110},{"user_id":40,"name":"merge without looking","steam_id":76561198975450630,"connected_time":1656000000000,"state":"active","ping":75},{"user_id":57,"name":"lincolndaniel","steam_id":76561198996053984,"connected_time":493000000000,"state":"active","ping":114},{"user_id":54,"name":"Jackpocalypse","steam_id":76561199135213338,"connected_time":942000000000,"state":"active","ping":80}]},{"server_id":25,"name":"Uncletopia | Los Angeles | 4 | Stopwatch Beta","name_short":"lax-4","host":"lax-1.us.uncletopia.com","port":27045,"enabled":true,"region":"us-west","cc":"us","latitude":33.94279,"longitude":-118.41004,"reserved":0,"last_update":"0001-01-01T00:00:00Z","name_a2s":"Uncletopia | Los Angeles | 4 | Stopwatch Beta","protocol":17,"map":"workshop/pl_barnblitz_pro7.ugc582280235","folder":"tf","game":"Team Fortress","app_id":440,"player_count":0,"max_players":24,"Bots":0,"server_type":"Dedicated","server_os":"Linux","password":true,"vac":true,"version":"7723704","steam_id":85568392924510199,"keywords":["nocrits","nodmgspread","payload","uncletopia"],"game_id":440,"stv_port":27046,"stv_name":"Uncletopia | Los Angeles | 4 | Stopwatch Beta | STV","players":null},{"server_id":11,"name":"Uncletopia | London | 1 | All Maps","name_short":"lon-1","host":"lon-1.uk.uncletopia.com","port":27015,"enabled":true,"region":"eu","cc":"gb","latitude":51.509865,"longitude":-0.118092,"reserved":0,"last_update":"0001-01-01T00:00:00Z","name_a2s":"Uncletopia | London | 1 | All Maps","protocol":17,"map":"pl_badwater","folder":"tf","game":"Team Fortress","app_id":440,"player_count":24,"max_players":24,"Bots":0,"server_type":"Dedicated","server_os":"Linux","password":true,"vac":true,"version":"7723704","steam_id":85568392924367362,"keywords":["nocrits","nodmgspread","payload","uncletopia"],"game_id":440,"stv_port":27016,"stv_name":"Uncletopia | London | 1 | All Maps | STV","players":[{"user_id":738,"name":"Astaya","steam_id":76561198242931822,"connected_time":1719000000000,"state":"active","ping":150},{"user_id":670,"name":"merry beebo","steam_id":76561199120277007,"connected_time":10586000000000,"state":"active","ping":41},{"user_id":647,"name":"chrissymas","steam_id":76561198096547662,"connected_time":14430000000000,"state":"active","ping":43},{"user_id":716,"name":"Hermitcrack","steam_id":76561198149216441,"connected_time":5773000000000,"state":"active","ping":75},{"user_id":655,"name":"Festdoktor","steam_id":76561198058159271,"connected_time":14084000000000,"state":"active","ping":64},{"user_id":736,"name":"BreadBaubbles","steam_id":76561198174332826,"connected_time":1946000000000,"state":"active","ping":54},{"user_id":747,"name":"B1RD","steam_id":76561198161322527,"connected_time":54000000000,"state":"active","ping":30},{"user_id":741,"name":"jdd_50","steam_id":76561199173477085,"connected_time":1455000000000,"state":"active","ping":44},{"user_id":723,"name":"spreading the holiday cheek","steam_id":76561198110757262,"connected_time":4083000000000,"state":"active","ping":57},{"user_id":735,"name":"golo","steam_id":76561198254990590,"connected_time":1953000000000,"state":"active","ping":58},{"user_id":721,"name":"Lion","steam_id":76561198848879603,"connected_time":4616000000000,"state":"active","ping":120},{"user_id":733,"name":"soulja boy face reveal","steam_id":76561198097820508,"connected_time":3557000000000,"state":"active","ping":55},{"user_id":718,"name":"|20BB)\u003eMach","steam_id":76561198952487564,"connected_time":5080000000000,"state":"active","ping":90},{"user_id":712,"name":"Serton‚ôù","steam_id":76561198011061126,"connected_time":6474000000000,"state":"active","ping":80},{"user_id":739,"name":"Biblo Ballbaggins","steam_id":76561198070593514,"connected_time":1664000000000,"state":"active","ping":55},{"user_id":650,"name":"Bones","steam_id":76561198065081225,"connected_time":14181000000000,"state":"active","ping":42},{"user_id":713,"name":"nalapl3","steam_id":76561198197607383,"connected_time":6024000000000,"state":"active","ping":64},{"user_id":740,"name":"SavvyTurk","steam_id":76561198082490414,"connected_time":1641000000000,"state":"active","ping":52},{"user_id":746,"name":"Mango","steam_id":76561198139555709,"connected_time":258000000000,"state":"active","ping":60},{"user_id":701,"name":"The Grinch","steam_id":76561198073975078,"connected_time":6823000000000,"state":"active","ping":40},{"user_id":749,"name":"late night vibes","steam_id":76561199065917088,"connected_time":3000000000,"state":"spawning","ping":77},{"user_id":743,"name":"dave grohl","steam_id":76561198138458704,"connected_time":588000000000,"state":"active","ping":47},{"user_id":664,"name":"Merry Ketamine","steam_id":76561198073769916,"connected_time":11702000000000,"state":"active","ping":56},{"user_id":748,"name":"Jingleboob's 1# Elf","steam_id":76561198067204908,"connected_time":37000000000,"state":"active","ping":73}]},{"server_id":114,"name":"Uncletopia | London | 2 | All Maps","name_short":"lon-2","host":"lon-1.uk.uncletopia.com","port":27025,"enabled":true,"region":"eu","cc":"gb","latitude":51.509865,"longitude":-0.118092,"reserved":0,"last_update":"0001-01-01T00:00:00Z","name_a2s":"Uncletopia | London | 2 | All Maps","protocol":17,"map":"cp_dustbowl","folder":"tf","game":"Team Fortress","app_id":440,"player_count":21,"max_players":24,"Bots":0,"server_type":"Dedicated","server_os":"Linux","password":true,"vac":true,"version":"7723704","steam_id":85568392924470941,"keywords":["cp","nocrits","nodmgspread","uncletopia"],"game_id":440,"stv_port":27026,"stv_name":"Uncletopia | London | 2 | All Maps | STV","players":[{"user_id":796,"name":"One armed fiddle enthusiast","steam_id":76561198045847051,"connected_time":1929000000000,"state":"active","ping":52},{"user_id":772,"name":"B4R10N","steam_id":76561198047167954,"connected_time":2590000000000,"state":"active","ping":33},{"user_id":824,"name":"nothing,nowhere.","steam_id":76561199016117890,"connected_time":357000000000,"state":"active","ping":129},{"user_id":825,"name":"Nnyllazxz","steam_id":76561198247797436,"connected_time":157000000000,"state":"active","ping":122},{"user_id":823,"name":"MY MOM FOUND THE POOP SOCK","steam_id":76561199133307822,"connected_time":566000000000,"state":"active","ping":161},{"user_id":828,"name":"ACG_Dubsy","steam_id":76561198797308565,"connected_time":17000000000,"state":"spawning","ping":59},{"user_id":817,"name":"Mex","steam_id":76561198108279631,"connected_time":803000000000,"state":"active","ping":75},{"user_id":813,"name":"Scanty‚Ñ¢","steam_id":76561198012084287,"connected_time":996000000000,"state":"active","ping":159},{"user_id":801,"name":"zxc –¥–æ–±—Ä—ã–π —Ç—Ä–∞—Ö","steam_id":76561198197333195,"connected_time":1700000000000,"state":"active","ping":94},{"user_id":811,"name":"himbolover","steam_id":76561199052017231,"connected_time":1111000000000,"state":"active","ping":56},{"user_id":802,"name":"–º–æ–ª–æ–¥–æ–π —É—ë–±–æ–∫","steam_id":76561198386743415,"connected_time":1652000000000,"state":"active","ping":103},{"user_id":827,"name":"boo_thefeared","steam_id":76561198127967685,"connected_time":109000000000,"state":"active","ping":45},{"user_id":786,"name":"Steen","steam_id":76561198122992510,"connected_time":2153000000000,"state":"active","ping":32},{"user_id":704,"name":"w√∂rb","steam_id":76561198159517104,"connected_time":6944000000000,"state":"active","ping":68},{"user_id":804,"name":"Pingu","steam_id":76561198074477219,"connected_time":1576000000000,"state":"active","ping":50},{"user_id":803,"name":"JugoTopia","steam_id":76561197996067209,"connected_time":1625000000000,"state":"active","ping":112},{"user_id":815,"name":"Daemoxan","steam_id":76561199013109940,"connected_time":852000000000,"state":"active","ping":62},{"user_id":776,"name":"catboy trickster","steam_id":76561198075665211,"connected_time":2561000000000,"state":"active","ping":47},{"user_id":807,"name":"UA","steam_id":76561198032292469,"connected_time":1484000000000,"state":"active","ping":66},{"user_id":826,"name":"Odoacre","steam_id":76561198110772276,"connected_time":145000000000,"state":"active","ping":56},{"user_id":812,"name":"Raine","steam_id":76561198072629555,"connected_time":1038000000000,"state":"active","ping":45}]},{"server_id":320,"name":"Uncletopia | London | 3 | All Maps","name_short":"lon-3","host":"lon-1.uk.uncletopia.com","port":27035,"enabled":true,"region":"eu","cc":"gb","latitude":51.509865,"longitude":-0.118092,"reserved":0,"last_update":"0001-01-01T00:00:00Z","name_a2s":"Uncletopia | London | 3 | All Maps","protocol":17,"map":"koth_badlands","folder":"tf","game":"Team Fortress","app_id":440,"player_count":4,"max_players":24,"Bots":0,"server_type":"Dedicated","server_os":"Linux","password":true,"vac":true,"version":"7723704","steam_id":85568392924510192,"keywords":["cp","nocrits","nodmgspread","uncletopia"],"game_id":440,"stv_port":27036,"stv_name":"Uncletopia | London | 3 | All Maps | STV","players":[{"user_id":595,"name":"metallic girlboss","steam_id":76561198845468781,"connected_time":1200000000000,"state":"active","ping":74},{"user_id":596,"name":"the concept of bisexuality","steam_id":76561198369503920,"connected_time":1006000000000,"state":"active","ping":114},{"user_id":597,"name":"plaz","steam_id":76561198394017103,"connected_time":939000000000,"state":"active","ping":49},{"user_id":601,"name":"The Spectre of Vladimir Lenin","steam_id":76561199438120787,"connected_time":378000000000,"state":"active","ping":55}]},{"server_id":321,"name":"Uncletopia | London | 4 | All Maps","name_short":"lon-4","host":"lon-1.uk.uncletopia.com","port":27045,"enabled":true,"region":"eu","cc":"gb","latitude":51.509865,"longitude":-0.118092,"reserved":0,"last_update":"0001-01-01T00:00:00Z","name_a2s":"Uncletopia | London | 4 | All Maps","protocol":17,"map":"pl_badwater","folder":"tf","game":"Team Fortress","app_id":440,"player_count":0,"max_players":24,"Bots":0,"server_type":"Dedicated","server_os":"Linux","password":true,"vac":true,"version":"7723704","steam_id":85568392924510193,"keywords":["nocrits","nodmgspread","payload","uncletopia"],"game_id":440,"stv_port":27046,"stv_name":"Uncletopia | London | 4 | All Maps | STV","players":null},{"server_id":21,"name":"Uncletopia | London | 5 | All Maps","name_short":"lon-5","host":"lon-1.uk.uncletopia.com","port":27055,"enabled":true,"region":"eu","cc":"gb","latitude":51.509865,"longitude":-0.118092,"reserved":0,"last_update":"0001-01-01T00:00:00Z","name_a2s":"Uncletopia | London | 5 | All Maps","protocol":17,"map":"pl_swiftwater_final1","folder":"tf","game":"Team Fortress","app_id":440,"player_count":0,"max_players":24,"Bots":0,"server_type":"Dedicated","server_os":"Linux","password":true,"vac":true,"version":"7723704","steam_id":85568392924742829,"keywords":["nocrits","nodmgspread","payload","uncletopia"],"game_id":440,"stv_port":27056,"stv_name":"Uncletopia | London | 5 | All Maps | STV","players":null},{"server_id":22,"name":"Uncletopia | London | 6 | All Maps","name_short":"lon-6","host":"lon-1.uk.uncletopia.com","port":27065,"enabled":true,"region":"eu","cc":"gb","latitude":51.509865,"longitude":-0.118092,"reserved":0,"last_update":"0001-01-01T00:00:00Z","name_a2s":"Uncletopia | London | 6 | All Maps","protocol":17,"map":"pl_snowycoast","folder":"tf","game":"Team Fortress","app_id":440,"player_count":0,"max_players":24,"Bots":0,"server_type":"Dedicated","server_os":"Linux","password":true,"vac":true,"version":"7723704","steam_id":85568392924742830,"keywords":["nocrits","nodmgspread","payload","uncletopia"],"game_id":440,"stv_port":27066,"stv_name":"Uncletopia | London | 6 | All Maps | STV","players":null},{"server_id":40,"name":"Uncletopia | London | 7 | No Payload","name_short":"lon-7","host":"lon-1.uk.uncletopia.com","port":27075,"enabled":true,"region":"eu","cc":"gb","latitude":51.509865,"longitude":-0.118092,"reserved":0,"last_update":"0001-01-01T00:00:00Z","name_a2s":"Uncletopia | London | 7 | No Payload","protocol":17,"map":"koth_lazarus","folder":"tf","game":"Team Fortress","app_id":440,"player_count":0,"max_players":24,"Bots":0,"server_type":"Dedicated","server_os":"Linux","password":true,"vac":true,"version":"7723704","steam_id":85568392924964314,"keywords":["cp","nocrits","nodmgspread","uncletopia"],"game_id":440,"stv_port":27076,"stv_name":"Uncletopia | London | 7 | No Payload | STV","players":null},{"server_id":41,"name":"Uncletopia | London | 8 | Community","name_short":"lon-8","host":"lon-1.uk.uncletopia.com","port":27085,"enabled":true,"region":"eu","cc":"gb","latitude":51.509865,"longitude":-0.118092,"reserved":0,"last_update":"0001-01-01T00:00:00Z","name_a2s":"Uncletopia | London | 8 | Community","protocol":17,"map":"workshop/koth_bagel_rc5.ugc2514036946","folder":"tf","game":"Team Fortress","app_id":440,"player_count":0,"max_players":24,"Bots":0,"server_type":"Dedicated","server_os":"Linux","password":true,"vac":true,"version":"7723704","steam_id":85568392924964315,"keywords":["cp","nocrits","nodmgspread","uncletopia"],"game_id":440,"stv_port":27086,"stv_name":"Uncletopia | London | 8 | Community | STV","players":null},{"server_id":300,"name":"Uncletopia | Montr√©al | 1 | All Maps","name_short":"mtl-1","host":"mtl-1.ca.uncletopia.com","port":27015,"enabled":true,"region":"us-east","cc":"ca","latitude":45.50889,"longitude":-73.56167,"reserved":0,"last_update":"0001-01-01T00:00:00Z","name_a2s":"Uncletopia | Montr√©al | 1 | All Maps","protocol":17,"map":"pl_snowycoast","folder":"tf","game":"Team Fortress","app_id":440,"player_count":0,"max_players":24,"Bots":0,"server_type":"Dedicated","server_os":"Linux","password":true,"vac":true,"version":"7723704","steam_id":85568392924500087,"keywords":["nocrits","nodmgspread","payload","uncletopia"],"game_id":440,"stv_port":27016,"stv_name":"Uncletopia | Montr√©al | 1 | All Maps | STV","players":null},{"server_id":301,"name":"Uncletopia | Montr√©al | 2 | All Maps","name_short":"mtl-2","host":"mtl-1.ca.uncletopia.com","port":27025,"enabled":true,"region":"us-east","cc":"ca","latitude":45.50889,"longitude":-73.56167,"reserved":0,"last_update":"0001-01-01T00:00:00Z","name_a2s":"Uncletopia | Montr√©al | 2 | All Maps","protocol":17,"map":"pl_badwater","folder":"tf","game":"Team Fortress","app_id":440,"player_count":0,"max_players":24,"Bots":0,"server_type":"Dedicated","server_os":"Linux","password":true,"vac":true,"version":"7723704","steam_id":85568392924500088,"keywords":["nocrits","nodmgspread","payload","uncletopia"],"game_id":440,"stv_port":27026,"stv_name":"Uncletopia | Montr√©al | 2 | All Maps | STV","players":null},{"server_id":302,"name":"Uncletopia | Montr√©al | 3 | All Maps","name_short":"mtl-3","host":"mtl-1.ca.uncletopia.com","port":27035,"enabled":true,"region":"us-east","cc":"ca","latitude":45.50889,"longitude":-73.56167,"reserved":0,"last_update":"0001-01-01T00:00:00Z","name_a2s":"Uncletopia | Montr√©al | 3 | All Maps","protocol":17,"map":"pl_barnblitz","folder":"tf","game":"Team Fortress","app_id":440,"player_count":0,"max_players":24,"Bots":0,"server_type":"Dedicated","server_os":"Linux","password":true,"vac":true,"version":"7723704","steam_id":85568392924500089,"keywords":["nocrits","nodmgspread","payload","uncletopia"],"game_id":440,"stv_port":27036,"stv_name":"Uncletopia | Montr√©al | 3 | All Maps | STV","players":null},{"server_id":303,"name":"Uncletopia | Montr√©al | 4 | No Payload","name_short":"mtl-4","host":"mtl-1.ca.uncletopia.com","port":27045,"enabled":true,"region":"us-east","cc":"ca","latitude":45.50889,"longitude":-73.56167,"reserved":0,"last_update":"0001-01-01T00:00:00Z","name_a2s":"Uncletopia | Montr√©al | 4 | No Payload","protocol":17,"map":"koth_cascade","folder":"tf","game":"Team Fortress","app_id":440,"player_count":0,"max_players":24,"Bots":0,"server_type":"Dedicated","server_os":"Linux","password":true,"vac":true,"version":"7723704","steam_id":85568392924500090,"keywords":["cp","nocrits","nodmgspread","uncletopia"],"game_id":440,"stv_port":27046,"stv_name":"Uncletopia | Montr√©al | 4 | No Payload | STV","players":null},{"server_id":13,"name":"Uncletopia | New York City | 1 | All Maps","name_short":"nyc-1","host":"nyc-1.us.uncletopia.com","port":27015,"enabled":true,"region":"us-east","cc":"us","latitude":40.73061,"longitude":-73.93524,"reserved":0,"last_update":"0001-01-01T00:00:00Z","name_a2s":"Uncletopia | New York City | 1 | All Maps","protocol":17,"map":"pl_swiftwater_final1","folder":"tf","game":"Team Fortress","app_id":440,"player_count":24,"max_players":24,"Bots":0,"server_type":"Dedicated","server_os":"Linux","password":true,"vac":true,"version":"7723704","steam_id":85568392924469993,"keywords":["nocrits","nodmgspread","payload","uncletopia"],"game_id":440,"stv_port":27016,"stv_name":"Uncletopia | New York City | 1 | All Maps | STV","players":[{"user_id":145,"name":"solveig","steam_id":76561198271713106,"connected_time":26000000000,"state":"active","ping":61},{"user_id":117,"name":"monkey d boofy","steam_id":76561198314114834,"connected_time":2271000000000,"state":"active","ping":56},{"user_id":135,"name":"King of Thickburgers","steam_id":76561198447353084,"connected_time":1058000000000,"state":"active","ping":65},{"user_id":111,"name":"Cosmic Echoes","steam_id":76561198019227201,"connected_time":3113000000000,"state":"active","ping":74},{"user_id":130,"name":"‚Ñã‚Ñá·ºÇ·πº‡¥¥","steam_id":76561199062259389,"connected_time":1365000000000,"state":"active","ping":43},{"user_id":118,"name":"Jeromius","steam_id":76561198051865275,"connected_time":2261000000000,"state":"active","ping":79},{"user_id":136,"name":"Ultrakirb","steam_id":76561198026254797,"connected_time":544000000000,"state":"active","ping":55},{"user_id":82,"name":"Zippy","steam_id":76561198279229422,"connected_time":4840000000000,"state":"active","ping":59},{"user_id":94,"name":"jeff","steam_id":76561198059450566,"connected_time":3897000000000,"state":"active","ping":60},{"user_id":137,"name":"Bearegard","steam_id":76561198061926542,"connected_time":502000000000,"state":"active","ping":78},{"user_id":95,"name":"Pan Wizard","steam_id":76561198031939694,"connected_time":3886000000000,"state":"active","ping":60},{"user_id":134,"name":"Buffy","steam_id":76561198083222227,"connected_time":1125000000000,"state":"active","ping":99},{"user_id":87,"name":"Ronin Grinch","steam_id":76561198041439581,"connected_time":4004000000000,"state":"active","ping":56},{"user_id":138,"name":"Chillin Turt","steam_id":76561198025796849,"connected_time":487000000000,"state":"active","ping":74},{"user_id":61,"name":"Rugbmilk","steam_id":76561199389283507,"connected_time":6040000000000,"state":"active","ping":62},{"user_id":142,"name":"toastman","steam_id":76561198207073088,"connected_time":280000000000,"state":"active","ping":76},{"user_id":132,"name":"des","steam_id":76561198079226634,"connected_time":1158000000000,"state":"active","ping":64},{"user_id":139,"name":"mrshruggie","steam_id":76561198274278694,"connected_time":434000000000,"state":"active","ping":69},{"user_id":143,"name":"JokieEJester","steam_id":76561198148854826,"connected_time":125000000000,"state":"active","ping":123},{"user_id":140,"name":"ECCO","steam_id":76561198002821513,"connected_time":402000000000,"state":"active","ping":69},{"user_id":123,"name":"Nuclearlala","steam_id":76561198009342477,"connected_time":2217000000000,"state":"active","ping":55},{"user_id":144,"name":"PinkLemonade","steam_id":76561198799286228,"connected_time":71000000000,"state":"active","ping":55},{"user_id":109,"name":"yougotsauled","steam_id":76561198880754695,"connected_time":3253000000000,"state":"active","ping":55},{"user_id":126,"name":"Nickson1","steam_id":76561198175839309,"connected_time":2206000000000,"state":"active","ping":72}]},{"server_id":14,"name":"Uncletopia | New York City | 2 | All Maps","name_short":"nyc-2","host":"nyc-1.us.uncletopia.com","port":27025,"enabled":true,"region":"us-east","cc":"us","latitude":40.73061,"longitude":-73.93524,"reserved":0,"last_update":"0001-01-01T00:00:00Z","name_a2s":"Uncletopia | New York City | 2 | All Maps","protocol":17,"map":"pl_frontier_final","folder":"tf","game":"Team Fortress","app_id":440,"player_count":9,"max_players":24,"Bots":0,"server_type":"Dedicated","server_os":"Linux","password":true,"vac":true,"version":"7723704","steam_id":85568392924469994,"keywords":["nocrits","nodmgspread","payload","uncletopia"],"game_id":440,"stv_port":27026,"stv_name":"Uncletopia | New York City | 2 | All Maps | STV","players":[{"user_id":11,"name":"BFRXCRPGFHANZUX","steam_id":76561199065983842,"connected_time":1555000000000,"state":"active","ping":89},{"user_id":16,"name":"americanchild1975","steam_id":76561199143064554,"connected_time":1053000000000,"state":"active","ping":74},{"user_id":13,"name":"meatBALL sub lova 38 (meatball)","steam_id":76561198965781031,"connected_time":1343000000000,"state":"active","ping":46},{"user_id":15,"name":"[BBC] Justario","steam_id":76561198016095410,"connected_time":1144000000000,"state":"active","ping":44},{"user_id":17,"name":"WhoIsFrosty","steam_id":76561198880588117,"connected_time":561000000000,"state":"active","ping":78},{"user_id":19,"name":"Spammer206","steam_id":76561198045522549,"connected_time":292000000000,"state":"active","ping":51},{"user_id":20,"name":"MILF Gaming","steam_id":76561198155378170,"connected_time":116000000000,"state":"active","ping":53},{"user_id":21,"name":"rammo","steam_id":76561198283235973,"connected_time":102000000000,"state":"active","ping":43},{"user_id":22,"name":"the void king","steam_id":76561198411170395,"connected_time":80000000000,"state":"active","ping":79}]},{"server_id":15,"name":"Uncletopia | New York City | 3 | Stopwatch Beta","name_short":"nyc-3","host":"nyc-1.us.uncletopia.com","port":27035,"enabled":true,"region":"us-east","cc":"us","latitude":40.73061,"longitude":-73.93524,"reserved":0,"last_update":"0001-01-01T00:00:00Z","name_a2s":"Uncletopia | New York City | 3 | Stopwatch Beta","protocol":17,"map":"cp_sunshine","folder":"tf","game":"Team Fortress","app_id":440,"player_count":0,"max_players":24,"Bots":0,"server_type":"Dedicated","server_os":"Linux","password":true,"vac":true,"version":"7723704","steam_id":85568392924742820,"keywords":["cp","nocrits","nodmgspread","uncletopia"],"game_id":440,"stv_port":27036,"stv_name":"Uncletopia | New York City | 3 | Stopwatch Beta | STV","players":null},{"server_id":16,"name":"Uncletopia | New York City | 4 | Community","name_short":"nyc-4","host":"nyc-1.us.uncletopia.com","port":27045,"enabled":true,"region":"us-east","cc":"us","latitude":40.73061,"longitude":-73.93524,"reserved":0,"last_update":"0001-01-01T00:00:00Z","name_a2s":"Uncletopia | New York City | 4 | Community","protocol":17,"map":"workshop/cp_sulfur_rc2.ugc619869471","folder":"tf","game":"Team Fortress","app_id":440,"player_count":0,"max_players":24,"Bots":0,"server_type":"Dedicated","server_os":"Linux","password":true,"vac":true,"version":"7723704","steam_id":85568392924742821,"keywords":["cp","nocrits","nodmgspread","uncletopia"],"game_id":440,"stv_port":27046,"stv_name":"Uncletopia | New York City | 4 | Community | STV","players":null},{"server_id":142,"name":"Uncletopia | S√£o Paulo | 1 | All Maps","name_short":"sao-1","host":"sao-1.br.uncletopia.com","port":27015,"enabled":true,"region":"sa","cc":"br","latitude":-23.533773,"longitude":-46.62529,"reserved":0,"last_update":"0001-01-01T00:00:00Z","name_a2s":"Uncletopia | S√£o Paulo | 1 | All Maps","protocol":17,"map":"pl_barnblitz","folder":"tf","game":"Team Fortress","app_id":440,"player_count":0,"max_players":24,"Bots":0,"server_type":"Dedicated","server_os":"Linux","password":true,"vac":true,"version":"7723704","steam_id":85568392924469996,"keywords":["nocrits","nodmgspread","payload","uncletopia"],"game_id":440,"stv_port":27016,"stv_name":"Uncletopia | S√£o Paulo | 1 | All Maps | STV","players":null},{"server_id":143,"name":"Uncletopia | S√£o Paulo | 2 | All Maps","name_short":"sao-2","host":"sao-2.br.uncletopia.com","port":27015,"enabled":true,"region":"sa","cc":"br","latitude":-23.533773,"longitude":-46.62529,"reserved":0,"last_update":"0001-01-01T00:00:00Z","name_a2s":"Uncletopia | S√£o Paulo | 2 | All Maps","protocol":17,"map":"pl_borneo","folder":"tf","game":"Team Fortress","app_id":440,"player_count":24,"max_players":24,"Bots":0,"server_type":"Dedicated","server_os":"Linux","password":true,"vac":true,"version":"7723704","steam_id":85568392924485349,"keywords":["nocrits","nodmgspread","payload","uncletopia"],"game_id":440,"stv_port":27016,"stv_name":"Uncletopia | S√£o Paulo | 2 | All Maps | STV","players":[{"user_id":37,"name":"* * * * ** *","steam_id":76561198276113571,"connected_time":3394000000000,"state":"active","ping":43},{"user_id":86,"name":"Zarel","steam_id":76561198081099728,"connected_time":362000000000,"state":"active","ping":58},{"user_id":62,"name":"El13R√á1N0","steam_id":76561198064725233,"connected_time":2099000000000,"state":"active","ping":47},{"user_id":75,"name":"JustFede","steam_id":76561198108054131,"connected_time":1126000000000,"state":"active","ping":81},{"user_id":20,"name":"YekkuUwU","steam_id":76561199349215012,"connected_time":5786000000000,"state":"active","ping":37},{"user_id":28,"name":"Zoom!","steam_id":76561198289562649,"connected_time":3826000000000,"state":"active","ping":46},{"user_id":81,"name":"Gabriel„ÇÑ„Çã„Åç","steam_id":76561198332577325,"connected_time":610000000000,"state":"active","ping":53},{"user_id":31,"name":"Pathetic","steam_id":76561198051056987,"connected_time":3737000000000,"state":"active","ping":72},{"user_id":32,"name":"niruma","steam_id":76561198067799345,"connected_time":3726000000000,"state":"active","ping":45},{"user_id":77,"name":"CATS","steam_id":76561198103172108,"connected_time":774000000000,"state":"active","ping":62},{"user_id":39,"name":"delta","steam_id":76561198288966901,"connected_time":3204000000000,"state":"active","ping":58},{"user_id":82,"name":"[LOBACZAO] detona","steam_id":76561198075848473,"connected_time":589000000000,"state":"active","ping":46},{"user_id":83,"name":"Pizza","steam_id":76561198969388265,"connected_time":577000000000,"state":"active","ping":64},{"user_id":84,"name":"ayumi","steam_id":76561197977365746,"connected_time":572000000000,"state":"active","ping":49},{"user_id":74,"name":"Nikodemos0612","steam_id":76561198802374777,"connected_time":1356000000000,"state":"active","ping":45},{"user_id":85,"name":"otaY","steam_id":76561199066360306,"connected_time":542000000000,"state":"active","ping":84},{"user_id":70,"name":"Dale Cooper","steam_id":76561198019523441,"connected_time":1654000000000,"state":"active","ping":76},{"user_id":66,"name":"red","steam_id":76561198044774077,"connected_time":1925000000000,"state":"active","ping":61},{"user_id":49,"name":"rafxv","steam_id":76561198083321227,"connected_time":2768000000000,"state":"active","ping":68},{"user_id":87,"name":"lambari makonha","steam_id":76561198169083341,"connected_time":353000000000,"state":"active","ping":60},{"user_id":90,"name":"jr_rusty","steam_id":76561198313937899,"connected_time":115000000000,"state":"active","ping":59},{"user_id":89,"name":"$r. Hello There #savetf2","steam_id":76561198874231807,"connected_time":154000000000,"state":"active","ping":46},{"user_id":71,"name":"MR.JPG","steam_id":76561198449962831,"connected_time":1635000000000,"state":"active","ping":166},{"user_id":60,"name":". . .","steam_id":76561198107853088,"connected_time":2372000000000,"state":"active","ping":75}]},{"server_id":7,"name":"Uncletopia | Seattle | 1 | All Maps","name_short":"sea-1","host":"sea-1.us.uncletopia.com","port":27015,"enabled":true,"region":"us-west","cc":"us","latitude":47.608013,"longitude":-122.33517,"reserved":0,"last_update":"0001-01-01T00:00:00Z","name_a2s":"Uncletopia | Seattle | 1 | All Maps","protocol":17,"map":"pl_upward","folder":"tf","game":"Team Fortress","app_id":440,"player_count":24,"max_players":24,"Bots":0,"server_type":"Dedicated","server_os":"Linux","password":true,"vac":true,"version":"7723704","steam_id":85568392924469997,"keywords":["nocrits","nodmgspread","payload","uncletopia"],"game_id":440,"stv_port":27016,"stv_name":"Uncletopia | Seattle | 1 | All Maps | STV","players":[{"user_id":681,"name":"PorgyPork","steam_id":76561198824399078,"connected_time":527000000000,"state":"active","ping":45},{"user_id":668,"name":"Hankenstein","steam_id":76561199036188069,"connected_time":1421000000000,"state":"active","ping":52},{"user_id":674,"name":"Grammaring","steam_id":76561198867366139,"connected_time":1197000000000,"state":"active","ping":59},{"user_id":669,"name":"krootonitron","steam_id":76561198114113037,"connected_time":1414000000000,"state":"active","ping":60},{"user_id":677,"name":"gasparmx","steam_id":76561197998611994,"connected_time":863000000000,"state":"active","ping":90},{"user_id":654,"name":"a crazy hobo","steam_id":76561198289650060,"connected_time":2331000000000,"state":"active","ping":70},{"user_id":682,"name":"Hashmere","steam_id":76561198002797253,"connected_time":376000000000,"state":"active","ping":128},{"user_id":658,"name":"DUMMIE","steam_id":76561199107386147,"connected_time":2082000000000,"state":"active","ping":72},{"user_id":639,"name":"goob","steam_id":76561198872316133,"connected_time":3401000000000,"state":"active","ping":64},{"user_id":563,"name":"Ayayahuasca","steam_id":76561199002906056,"connected_time":6302000000000,"state":"active","ping":49},{"user_id":641,"name":"rat gets the cheese","steam_id":76561198031234032,"connected_time":3272000000000,"state":"active","ping":104},{"user_id":670,"name":"resting neutral face","steam_id":76561197999259502,"connected_time":1373000000000,"state":"active","ping":61},{"user_id":612,"name":"sleepy","steam_id":76561198288663776,"connected_time":4842000000000,"state":"active","ping":56},{"user_id":678,"name":"boogiebroom","steam_id":76561199034072055,"connected_time":846000000000,"state":"active","ping":44},{"user_id":671,"name":"Mediocre","steam_id":76561198056352693,"connected_time":1359000000000,"state":"active","ping":81},{"user_id":679,"name":"Shah","steam_id":76561198047508851,"connected_time":810000000000,"state":"active","ping":55},{"user_id":652,"name":"Snale","steam_id":76561198039517965,"connected_time":2521000000000,"state":"active","ping":66},{"user_id":632,"name":"cykoman","steam_id":76561198391200335,"connected_time":3974000000000,"state":"active","ping":44},{"user_id":680,"name":"Crake","steam_id":76561198001959071,"connected_time":760000000000,"state":"active","ping":51},{"user_id":636,"name":"Dr. Banana boy","steam_id":76561199012105803,"connected_time":3896000000000,"state":"active","ping":51},{"user_id":629,"name":"primordialheath","steam_id":76561199386942638,"connected_time":4050000000000,"state":"active","ping":110},{"user_id":683,"name":"trackpad gaming | f2p","steam_id":76561198840414371,"connected_time":350000000000,"state":"active","ping":55},{"user_id":673,"name":"Vem","steam_id":76561198117273112,"connected_time":1268000000000,"state":"active","ping":124},{"user_id":661,"name":"Morse","steam_id":76561198039944542,"connected_time":1880000000000,"state":"active","ping":55}]},{"server_id":119,"name":"Uncletopia | Seattle | 2 | All Maps","name_short":"sea-2","host":"sea-1.us.uncletopia.com","port":27025,"enabled":true,"region":"us-west","cc":"us","latitude":47.608013,"longitude":-122.33517,"reserved":0,"last_update":"0001-01-01T00:00:00Z","name_a2s":"Uncletopia | Seattle | 2 | All Maps","protocol":17,"map":"pl_pier","folder":"tf","game":"Team Fortress","app_id":440,"player_count":0,"max_players":24,"Bots":0,"server_type":"Dedicated","server_os":"Linux","password":true,"vac":true,"version":"7723704","steam_id":85568392924469998,"keywords":["nocrits","nodmgspread","payload","uncletopia"],"game_id":440,"stv_port":27026,"stv_name":"Uncletopia | Seattle | 2 | All Maps | STV","players":null},{"server_id":406,"name":"Uncletopia | Seattle | 3 | Stopwatch Beta","name_short":"sea-3","host":"sea-1.us.uncletopia.com","port":27035,"enabled":true,"region":"us-west","cc":"us","latitude":47.608013,"longitude":-122.33517,"reserved":0,"last_update":"0001-01-01T00:00:00Z","name_a2s":"Uncletopia | Seattle | 3 | Stopwatch Beta","protocol":17,"map":"cp_altitude","folder":"tf","game":"Team Fortress","app_id":440,"player_count":0,"max_players":24,"Bots":0,"server_type":"Dedicated","server_os":"Linux","password":true,"vac":false,"version":"7723704","steam_id":0,"keywords":["cp","nocrits","nodmgspread","uncletopia"],"game_id":440,"stv_port":27036,"stv_name":"Uncletopia | Seattle | 3 | Stopwatch Beta | STV","players":null},{"server_id":17,"name":"Uncletopia | San Francisco | 1 | All Maps","name_short":"sfo-1","host":"sfo-1.us.uncletopia.com","port":27015,"enabled":true,"region":"us-west","cc":"us","latitude":37.77397,"longitude":-122.4313,"reserved":0,"last_update":"0001-01-01T00:00:00Z","name_a2s":"Uncletopia | San Francisco | 1 | All Maps","protocol":17,"map":"pl_badwater","folder":"tf","game":"Team Fortress","app_id":440,"player_count":24,"max_players":24,"Bots":0,"server_type":"Dedicated","server_os":"Linux","password":true,"vac":true,"version":"7723704","steam_id":85568392924469999,"keywords":["nocrits","nodmgspread","payload","uncletopia"],"game_id":440,"stv_port":27016,"stv_name":"Uncletopia | San Francisco | 1 | All Maps | STV","players":[{"user_id":146,"name":"Checkered Scones","steam_id":76561198162786894,"connected_time":435000000000,"state":"active","ping":57},{"user_id":122,"name":"potatofacts98","steam_id":76561198083721201,"connected_time":2038000000000,"state":"active","ping":53},{"user_id":112,"name":"crumbles","steam_id":76561198168707036,"connected_time":2624000000000,"state":"active","ping":47},{"user_id":126,"name":"Synergy","steam_id":76561198098630198,"connected_time":1704000000000,"state":"active","ping":61},{"user_id":118,"name":"=Silver=","steam_id":76561198292307127,"connected_time":2347000000000,"state":"active","ping":77},{"user_id":120,"name":"Thezest","steam_id":76561198043895839,"connected_time":2324000000000,"state":"active","ping":59},{"user_id":147,"name":"festive creature","steam_id":76561198069308362,"connected_time":428000000000,"state":"active","ping":114},{"user_id":59,"name":"Lucky","steam_id":76561198828715832,"connected_time":5776000000000,"state":"active","ping":57},{"user_id":149,"name":"bibliomaniac","steam_id":76561198290256750,"connected_time":317000000000,"state":"active","ping":57},{"user_id":151,"name":"KingTinkerer","steam_id":76561198226856548,"connected_time":255000000000,"state":"active","ping":93},{"user_id":129,"name":"denialfs","steam_id":76561198094055063,"connected_time":1533000000000,"state":"active","ping":67},{"user_id":142,"name":"veno","steam_id":76561198110261781,"connected_time":1017000000000,"state":"active","ping":92},{"user_id":150,"name":"nolife","steam_id":76561198414300607,"connected_time":301000000000,"state":"active","ping":69},{"user_id":87,"name":"sp00kydoge","steam_id":76561198097465954,"connected_time":4181000000000,"state":"active","ping":63},{"user_id":125,"name":"NotAWeeb","steam_id":76561198165530739,"connected_time":1746000000000,"state":"active","ping":49},{"user_id":74,"name":"Final_MarioXD","steam_id":76561199184862419,"connected_time":5184000000000,"state":"active","ping":100},{"user_id":141,"name":"Doctorcardio","steam_id":76561198438030767,"connected_time":1055000000000,"state":"active","ping":89},{"user_id":131,"name":"Rippable Paper","steam_id":76561198959349454,"connected_time":1491000000000,"state":"active","ping":77},{"user_id":132,"name":"Testicular Eggnog","steam_id":76561197968179862,"connected_time":1484000000000,"state":"active","ping":68},{"user_id":145,"name":"Saul Goodman","steam_id":76561198847085833,"connected_time":628000000000,"state":"active","ping":58},{"user_id":70,"name":"spacetoven","steam_id":76561198115821131,"connected_time":5385000000000,"state":"active","ping":47},{"user_id":144,"name":"Beelzeboof","steam_id":76561198116831645,"connected_time":850000000000,"state":"active","ping":78},{"user_id":152,"name":"real human bean","steam_id":76561198059535856,"connected_time":239000000000,"state":"active","ping":135},{"user_id":140,"name":"Anthid","steam_id":76561198074493797,"connected_time":1099000000000,"state":"active","ping":74}]},{"server_id":18,"name":"Uncletopia | San Francisco | 2 | All Maps","name_short":"sfo-2","host":"sfo-1.us.uncletopia.com","port":27025,"enabled":true,"region":"us-west","cc":"us","latitude":37.77397,"longitude":-122.4313,"reserved":0,"last_update":"0001-01-01T00:00:00Z","name_a2s":"Uncletopia | San Francisco | 2 | All Maps","protocol":17,"map":"pl_snowycoast","folder":"tf","game":"Team Fortress","app_id":440,"player_count":0,"max_players":24,"Bots":0,"server_type":"Dedicated","server_os":"Linux","password":true,"vac":true,"version":"7723704","steam_id":85568392924470000,"keywords":["nocrits","nodmgspread","payload","uncletopia"],"game_id":440,"stv_port":27026,"stv_name":"Uncletopia | San Francisco | 2 | All Maps | STV","players":null},{"server_id":19,"name":"Uncletopia | San Francisco | 3 | Stopwatch Beta","name_short":"sfo-3","host":"sfo-1.us.uncletopia.com","port":27035,"enabled":true,"region":"us-west","cc":"us","latitude":37.77397,"longitude":-122.4313,"reserved":0,"last_update":"0001-01-01T00:00:00Z","name_a2s":"Uncletopia | San Francisco | 3 | Stopwatch Beta","protocol":17,"map":"pl_pier","folder":"tf","game":"Team Fortress","app_id":440,"player_count":0,"max_players":24,"Bots":0,"server_type":"Dedicated","server_os":"Linux","password":true,"vac":true,"version":"7723704","steam_id":85568392924742824,"keywords":["nocrits","nodmgspread","payload","uncletopia"],"game_id":440,"stv_port":27036,"stv_name":"Uncletopia | San Francisco | 3 | Stopwatch Beta | STV","players":null},{"server_id":20,"name":"Uncletopia | San Francisco | 4 | Community","name_short":"sfo-4","host":"sfo-1.us.uncletopia.com","port":27045,"enabled":true,"region":"us-west","cc":"us","latitude":37.77397,"longitude":-122.4313,"reserved":0,"last_update":"0001-01-01T00:00:00Z","name_a2s":"Uncletopia | San Francisco | 4 | Community","protocol":17,"map":"workshop/koth_bagel_rc5.ugc2514036946","folder":"tf","game":"Team Fortress","app_id":440,"player_count":3,"max_players":24,"Bots":0,"server_type":"Dedicated","server_os":"Linux","password":true,"vac":true,"version":"7723704","steam_id":85568392924742826,"keywords":["cp","nocrits","nodmgspread","uncletopia"],"game_id":440,"stv_port":27046,"stv_name":"Uncletopia | San Francisco | 4 | Community | STV","players":[{"user_id":52,"name":"a cat plushie","steam_id":76561198080046542,"connected_time":1457000000000,"state":"active","ping":61},{"user_id":49,"name":"Dosario","steam_id":76561198298095535,"connected_time":2036000000000,"state":"active","ping":72},{"user_id":50,"name":"SwampHen8005","steam_id":76561199389957336,"connected_time":1887000000000,"state":"active","ping":203}]},{"server_id":141,"name":"Uncletopia | Sydney | 1 | All Maps","name_short":"syd-1","host":"syd-1.au.uncletopia.com","port":27015,"enabled":true,"region":"au","cc":"au","latitude":-33.865143,"longitude":151.2099,"reserved":0,"last_update":"0001-01-01T00:00:00Z","name_a2s":"Uncletopia | Sydney | 1 | All Maps","protocol":17,"map":"pl_frontier_final","folder":"tf","game":"Team Fortress","app_id":440,"player_count":7,"max_players":24,"Bots":0,"server_type":"Dedicated","server_os":"Linux","password":true,"vac":true,"version":"7723704","steam_id":85568392924470001,"keywords":["nocrits","nodmgspread","payload","uncletopia"],"game_id":440,"stv_port":27016,"stv_name":"Uncletopia | Sydney | 1 | All Maps | STV","players":[{"user_id":10,"name":"Pak'n'Save","steam_id":76561199199754055,"connected_time":1807000000000,"state":"active","ping":65},{"user_id":11,"name":"speed bomb","steam_id":76561198277363788,"connected_time":920000000000,"state":"active","ping":74},{"user_id":15,"name":"Not A F2P","steam_id":76561198376756608,"connected_time":307000000000,"state":"active","ping":73},{"user_id":13,"name":"burfdae boi","steam_id":76561199000827969,"connected_time":478000000000,"state":"active","ping":36},{"user_id":14,"name":"Welshey","steam_id":76561198849974390,"connected_time":394000000000,"state":"active","ping":79},{"user_id":16,"name":"Succa","steam_id":76561198398557124,"connected_time":73000000000,"state":"active","ping":51},{"user_id":17,"name":"mrphy","steam_id":76561198251574728,"connected_time":14000000000,"state":"active","ping":52}]},{"server_id":123,"name":"Uncletopia | Sydney | 2 | All Maps","name_short":"syd-2","host":"syd-1.au.uncletopia.com","port":27025,"enabled":true,"region":"au","cc":"au","latitude":-33.865143,"longitude":151.2099,"reserved":0,"last_update":"0001-01-01T00:00:00Z","name_a2s":"Uncletopia | Sydney | 2 | All Maps","protocol":17,"map":"cp_snakewater_final1","folder":"tf","game":"Team Fortress","app_id":440,"player_count":0,"max_players":24,"Bots":0,"server_type":"Dedicated","server_os":"Linux","password":true,"vac":true,"version":"7723704","steam_id":85568392924470002,"keywords":["cp","nocrits","nodmgspread","uncletopia"],"game_id":440,"stv_port":27026,"stv_name":"Uncletopia | Sydney | 2 | All Maps | STV","players":null},{"server_id":395,"name":"Uncletopia | Sydney | 3 | All Maps","name_short":"syd-3","host":"syd-1.au.uncletopia.com","port":27035,"enabled":true,"region":"au","cc":"au","latitude":-33.865143,"longitude":151.2099,"reserved":0,"last_update":"0001-01-01T00:00:00Z","name_a2s":"Uncletopia | Sydney | 3 | All Maps","protocol":17,"map":"pl_borneo","folder":"tf","game":"Team Fortress","app_id":440,"player_count":0,"max_players":24,"Bots":0,"server_type":"Dedicated","server_os":"Linux","password":true,"vac":true,"version":"7723704","steam_id":85568392925194467,"keywords":["nocrits","nodmgspread","payload","uncletopia"],"game_id":440,"stv_port":27036,"stv_name":"Uncletopia | Sydney | 3 | All Maps | STV","players":null},{"server_id":396,"name":"Uncletopia | Sydney | 4 | All Maps","name_short":"syd-4","host":"syd-1.au.uncletopia.com","port":27045,"enabled":true,"region":"au","cc":"au","latitude":-33.865143,"longitude":151.2099,"reserved":0,"last_update":"0001-01-01T00:00:00Z","name_a2s":"Uncletopia | Sydney | 4 | All Maps","protocol":17,"map":"pl_pier","folder":"tf","game":"Team Fortress","app_id":440,"player_count":0,"max_players":24,"Bots":0,"server_type":"Dedicated","server_os":"Linux","password":true,"vac":true,"version":"7723704","steam_id":85568392925397958,"keywords":["nocrits","nodmgspread","payload","uncletopia"],"game_id":440,"stv_port":27046,"stv_name":"Uncletopia | Sydney | 4 | All Maps | STV","players":null},{"server_id":58,"name":"Uncletopia | Sydney | 5 | Stopwatch Beta","name_short":"syd-5","host":"syd-1.au.uncletopia.com","port":27055,"enabled":true,"region":"au","cc":"au","latitude":-33.865143,"longitude":151.2099,"reserved":0,"last_update":"0001-01-01T00:00:00Z","name_a2s":"Uncletopia | Sydney | 5 | Stopwatch Beta","protocol":17,"map":"cp_altitude","folder":"tf","game":"Team Fortress","app_id":440,"player_count":0,"max_players":24,"Bots":0,"server_type":"Dedicated","server_os":"Linux","password":true,"vac":true,"version":"7723704","steam_id":85568392925397959,"keywords":["cp","nocrits","nodmgspread","uncletopia"],"game_id":440,"stv_port":27056,"stv_name":"Uncletopia | Sydney | 5 | Stopwatch Beta | STV","players":null},{"server_id":59,"name":"Uncletopia | Sydney | 6 | Community","name_short":"syd-6","host":"syd-1.au.uncletopia.com","port":27065,"enabled":true,"region":"au","cc":"au","latitude":-33.865143,"longitude":151.2099,"reserved":0,"last_update":"0001-01-01T00:00:00Z","name_a2s":"Uncletopia | Sydney | 6 | Community","protocol":17,"map":"pl_frontier_final","folder":"tf","game":"Team Fortress","app_id":440,"player_count":0,"max_players":24,"Bots":0,"server_type":"Dedicated","server_os":"Linux","password":true,"vac":true,"version":"7723704","steam_id":85568392925397960,"keywords":["nocrits","nodmgspread","payload","uncletopia"],"game_id":440,"stv_port":27066,"stv_name":"Uncletopia | Sydney | 6 | Community | STV","players":null},{"server_id":49,"name":"Uncletopia | Warsaw | 1 | All Maps","name_short":"waw-1","host":"waw-1.pl.uncletopia.com","port":27015,"enabled":true,"region":"eu","cc":"pl","latitude":52.2297,"longitude":21.017532,"reserved":0,"last_update":"0001-01-01T00:00:00Z","name_a2s":"Uncletopia | Warsaw | 1 | All Maps","protocol":17,"map":"koth_cascade","folder":"tf","game":"Team Fortress","app_id":440,"player_count":0,"max_players":24,"Bots":0,"server_type":"Dedicated","server_os":"Linux","password":true,"vac":true,"version":"7723704","steam_id":85568392925397850,"keywords":["cp","nocrits","nodmgspread","uncletopia"],"game_id":440,"stv_port":27016,"stv_name":"Uncletopia | Warsaw | 1 | All Maps | STV","players":null},{"server_id":50,"name":"Uncletopia | Warsaw | 2 | All Maps","name_short":"waw-2","host":"waw-1.pl.uncletopia.com","port":27025,"enabled":true,"region":"eu","cc":"pl","latitude":52.2297,"longitude":21.017532,"reserved":0,"last_update":"0001-01-01T00:00:00Z","name_a2s":"Uncletopia | Warsaw | 2 | All Maps","protocol":17,"map":"koth_viaduct","folder":"tf","game":"Team Fortress","app_id":440,"player_count":0,"max_players":24,"Bots":0,"server_type":"Dedicated","server_os":"Linux","password":true,"vac":true,"version":"7723704","steam_id":85568392925397851,"keywords":["cp","nocrits","nodmgspread","uncletopia"],"game_id":440,"stv_port":27026,"stv_name":"Uncletopia | Warsaw | 2 | All Maps | STV","players":null},{"server_id":51,"name":"Uncletopia | Warsaw | 3 | All Maps","name_short":"waw-3","host":"waw-1.pl.uncletopia.com","port":27035,"enabled":true,"region":"eu","cc":"pl","latitude":52.2297,"longitude":21.017532,"reserved":0,"last_update":"0001-01-01T00:00:00Z","name_a2s":"Uncletopia | Warsaw | 3 | All Maps","protocol":17,"map":"koth_viaduct","folder":"tf","game":"Team Fortress","app_id":440,"player_count":0,"max_players":24,"Bots":0,"server_type":"Dedicated","server_os":"Linux","password":true,"vac":true,"version":"7723704","steam_id":85568392925397852,"keywords":["cp","nocrits","nodmgspread","uncletopia"],"game_id":440,"stv_port":27036,"stv_name":"Uncletopia | Warsaw | 3 | All Maps | STV","players":null},{"server_id":52,"name":"Uncletopia | Warsaw | 4 | All Maps","name_short":"waw-4","host":"waw-1.pl.uncletopia.com","port":27045,"enabled":true,"region":"eu","cc":"pl","latitude":52.2297,"longitude":21.017532,"reserved":0,"last_update":"0001-01-01T00:00:00Z","name_a2s":"Uncletopia | Warsaw | 4 | All Maps","protocol":17,"map":"koth_viaduct","folder":"tf","game":"Team Fortress","app_id":440,"player_count":0,"max_players":24,"Bots":0,"server_type":"Dedicated","server_os":"Linux","password":true,"vac":true,"version":"7723704","steam_id":85568392925397853,"keywords":["cp","nocrits","nodmgspread","uncletopia"],"game_id":440,"stv_port":27046,"stv_name":"Uncletopia | Warsaw | 4 | All Maps | STV","players":null},{"server_id":53,"name":"Uncletopia | Warsaw | 5 | Stopwatch Beta","name_short":"waw-5","host":"waw-1.pl.uncletopia.com","port":27055,"enabled":true,"region":"eu","cc":"pl","latitude":52.2297,"longitude":21.017532,"reserved":0,"last_update":"0001-01-01T00:00:00Z","name_a2s":"Uncletopia | Warsaw | 5 | Stopwatch Beta","protocol":17,"map":"cp_sunshine","folder":"tf","game":"Team Fortress","app_id":440,"player_count":0,"max_players":24,"Bots":0,"server_type":"Dedicated","server_os":"Linux","password":true,"vac":true,"version":"7723704","steam_id":85568392925397854,"keywords":["cp","nocrits","nodmgspread","uncletopia"],"game_id":440,"stv_port":27056,"stv_name":"Uncletopia | Warsaw | 5 | Stopwatch Beta | STV","players":null},{"server_id":54,"name":"Uncletopia | Warsaw | 6 | Community","name_short":"waw-6","host":"waw-1.pl.uncletopia.com","port":27065,"enabled":true,"region":"eu","cc":"pl","latitude":52.2297,"longitude":21.017532,"reserved":0,"last_update":"0001-01-01T00:00:00Z","name_a2s":"Uncletopia | Warsaw | 6 | Community","protocol":17,"map":"workshop/koth_slaughter_rc1.ugc1712845210","folder":"tf","game":"Team Fortress","app_id":440,"player_count":0,"max_players":24,"Bots":0,"server_type":"Dedicated","server_os":"Linux","password":true,"vac":true,"version":"7723704","steam_id":85568392925397856,"keywords":["cp","nocrits","nodmgspread","uncletopia"],"game_id":440,"stv_port":27066,"stv_name":"Uncletopia | Warsaw | 6 | Community | STV","players":null}]}