{"status":true,"message":"","result":[{"server_id":9,"name":"Uncletopia | Atlanta | 1 | All Maps","name_short":"atl-1","host":"atl-1.us.uncletopia.com","port":27015,"enabled":true,"region":"us-east","cc":"us","latitude":33.753746,"longitude":-84.38633,"reserved":0,"last_update":"0001-01-01T00:00:00Z","name_a2s":"Uncletopia | Atlanta | 1 | All Maps","protocol":17,"map":"cp_process_final","folder":"tf","game":"Team Fortress","app_id":440,"player_count":24,"max_players":24,"Bots":0,"server_type":"Dedicated","server_os":"Linux","password":true,"vac":true,"version":"7882260","steam_id":85568392924469982,"keywords":["cp","nocrits","nodmgspread","uncletopia"],"game_id":440,"stv_port":27016,"stv_name":"Uncletopia | Atlanta | 1 | All Maps | STV","players":[{"user_id":113,"name":"Kiso ÁÅ´","steam_id":76561198141026844,"connected_time":1071000000000,"state":"active","ping":109},{"user_id":103,"name":"JestinJester","steam_id":76561198411846094,"connected_time":1791000000000,"state":"active","ping":74},{"user_id":55,"name":"Monkey Mode","steam_id":76561197961267543,"connected_time":6191000000000,"state":"active","ping":54},{"user_id":88,"name":"Lancer Fan Club","steam_id":76561198355495948,"connected_time":3086000000000,"state":"active","ping":49},{"user_id":98,"name":"Nox(She/They)","steam_id":76561198141950842,"connected_time":2816000000000,"state":"active","ping":44},{"user_id":114,"name":"David De Bergerac","steam_id":76561198010306294,"connected_time":866000000000,"state":"active","ping":84},{"user_id":102,"name":"Pango","steam_id":76561198069811545,"connected_time":2086000000000,"state":"active","ping":47},{"user_id":84,"name":"Uganda Knuckles lll","steam_id":76561199121276474,"connected_time":3698000000000,"state":"active","ping":88},{"user_id":118,"name":"MARIOPARTYDSFAN","steam_id":76561198872122117,"connected_time":589000000000,"state":"active","ping":58},{"user_id":115,"name":"RaixaR","steam_id":76561198025289430,"connected_time":862000000000,"state":"active","ping":74},{"user_id":52,"name":"troll","steam_id":76561198040890252,"connected_time":6738000000000,"state":"active","ping":53},{"user_id":119,"name":"fortnite.jimmy.2014","steam_id":76561199177672325,"connected_time":589000000000,"state":"active","ping":47},{"user_id":101,"name":"Bara Himbo","steam_id":76561198063265957,"connected_time":2672000000000,"state":"active","ping":90},{"user_id":105,"name":"that's showbiz, baybee","steam_id":76561197998258233,"connected_time":1748000000000,"state":"active","ping":70},{"user_id":104,"name":"Jin Gulilo","steam_id":76561198065151242,"connected_time":1791000000000,"state":"active","ping":70},{"user_id":93,"name":"ATL1 | cola","steam_id":76561198374390458,"connected_time":3052000000000,"state":"active","ping":56},{"user_id":110,"name":"[bracket]","steam_id":76561198203568252,"connected_time":1353000000000,"state":"active","ping":46},{"user_id":95,"name":"Just PYE","steam_id":76561199439622967,"connected_time":3039000000000,"state":"active","ping":83},{"user_id":45,"name":"chubbbo","steam_id":76561198943598378,"connected_time":7264000000000,"state":"active","ping":41},{"user_id":74,"name":"SparkStorm","steam_id":76561198095817025,"connected_time":4253000000000,"state":"active","ping":38},{"user_id":94,"name":"ma0re","steam_id":76561199231971506,"connected_time":3052000000000,"state":"active","ping":65},{"user_id":97,"name":"nooblover69","steam_id":76561198249206656,"connected_time":2825000000000,"state":"active","ping":89},{"user_id":87,"name":"HARRY","steam_id":76561198842067238,"connected_time":3294000000000,"state":"active","ping":81},{"user_id":77,"name":"NBA Youngboy","steam_id":76561199118797200,"connected_time":4249000000000,"state":"active","ping":67}]},{"server_id":104,"name":"Uncletopia | Atlanta | 2 | All Maps","name_short":"atl-2","host":"atl-1.us.uncletopia.com","port":27025,"enabled":true,"region":"us-east","cc":"us","latitude":33.753746,"longitude":-84.38633,"reserved":0,"last_update":"0001-01-01T00:00:00Z","name_a2s":"Uncletopia | Atlanta | 2 | All Maps","protocol":17,"map":"pl_badwater","folder":"tf","game":"Team Fortress","app_id":440,"player_count":24,"max_players":24,"Bots":0,"server_type":"Dedicated","server_os":"Linux","password":true,"vac":true,"version":"7882260","steam_id":85568392924469983,"keywords":["nocrits","nodmgspread","payload","uncletopia"],"game_id":440,"stv_port":27026,"stv_name":"Uncletopia | Atlanta | 2 | All Maps | STV","players":[{"user_id":21,"name":"whittlo","steam_id":76561198056793479,"connected_time":4002000000000,"state":"active","ping":71},{"user_id":62,"name":"Javaris Jamar Javarison-Lamar","steam_id":76561198146951387,"connected_time":685000000000,"state":"active","ping":75},{"user_id":50,"name":"Zixzs","steam_id":76561198055504126,"connected_time":2489000000000,"state":"active","ping":76},{"user_id":63,"name":"DiagonalSquare","steam_id":76561199131977506,"connected_time":680000000000,"state":"active","ping":93},{"user_id":70,"name":"supersmurf","steam_id":76561198354477646,"connected_time":49000000000,"state":"active","ping":66},{"user_id":23,"name":"Average Engineer Main","steam_id":76561198101969991,"connected_time":3903000000000,"state":"active","ping":64},{"user_id":29,"name":"Blehnder","steam_id":76561198172097526,"connected_time":3802000000000,"state":"active","ping":77},{"user_id":69,"name":"KlulessKitsune","steam_id":76561198136903610,"connected_time":201000000000,"state":"active","ping":58},{"user_id":56,"name":"Battle Tits","steam_id":76561198042827632,"connected_time":1332000000000,"state":"active","ping":92},{"user_id":27,"name":"Ukes","steam_id":76561198055508999,"connected_time":3808000000000,"state":"active","ping":91},{"user_id":28,"name":"nocham","steam_id":76561198097674181,"connected_time":3808000000000,"state":"active","ping":72},{"user_id":51,"name":"roman","steam_id":76561198170066797,"connected_time":2484000000000,"state":"active","ping":62},{"user_id":32,"name":"Revan108","steam_id":76561199039870311,"connected_time":3769000000000,"state":"active","ping":69},{"user_id":57,"name":"JellyParrot","steam_id":76561199190990163,"connected_time":1251000000000,"state":"active","ping":54},{"user_id":64,"name":"Dawk Rawk","steam_id":76561197996027396,"connected_time":675000000000,"state":"active","ping":45},{"user_id":65,"name":"Buttfuck Armstrong","steam_id":76561198075547905,"connected_time":650000000000,"state":"active","ping":68},{"user_id":66,"name":"slonked","steam_id":76561198124191084,"connected_time":632000000000,"state":"active","ping":48},{"user_id":67,"name":"Aviyarn","steam_id":76561199074194652,"connected_time":627000000000,"state":"active","ping":60},{"user_id":59,"name":"Rudy","steam_id":76561198013456828,"connected_time":1218000000000,"state":"active","ping":55},{"user_id":68,"name":"Alva","steam_id":76561198023665618,"connected_time":625000000000,"state":"active","ping":60},{"user_id":41,"name":"redkindworm","steam_id":76561199279351747,"connected_time":3647000000000,"state":"active","ping":58},{"user_id":60,"name":"Zornplays","steam_id":76561199175292302,"connected_time":1217000000000,"state":"active","ping":119},{"user_id":45,"name":"the man","steam_id":76561199103120314,"connected_time":3526000000000,"state":"active","ping":109},{"user_id":47,"name":"Kaluka","steam_id":76561198036861445,"connected_time":3318000000000,"state":"active","ping":65}]},{"server_id":400,"name":"Uncletopia | Atlanta | 3 | Community","name_short":"atl-3","host":"atl-1.us.uncletopia.com","port":27035,"enabled":true,"region":"us-east","cc":"us","latitude":33.753746,"longitude":-84.38633,"reserved":0,"last_update":"0001-01-01T00:00:00Z","name_a2s":"Uncletopia | Atlanta | 3 | Community","protocol":17,"map":"workshop/pl_cashworks_final1.ugc2904065412","folder":"tf","game":"Team Fortress","app_id":440,"player_count":24,"max_players":24,"Bots":0,"server_type":"Dedicated","server_os":"Linux","password":true,"vac":true,"version":"7882260","steam_id":85568392924515187,"keywords":["nocrits","nodmgspread","payload","uncletopia"],"game_id":440,"stv_port":27036,"stv_name":"Uncletopia | Atlanta | 3 | Community | STV","players":[{"user_id":130,"name":"üÖúüÖîüÖîüÖöüÖ¢üÖ£üÖî\ufffd\ufffd\ufffd","steam_id":76561197999748343,"connected_time":883000000000,"state":"active","ping":59},{"user_id":109,"name":"Kickpuncher","steam_id":76561198121528357,"connected_time":2205000000000,"state":"active","ping":77},{"user_id":105,"name":"The sad vanilla","steam_id":76561198268621447,"connected_time":2254000000000,"state":"active","ping":72},{"user_id":121,"name":"tiktokhunks","steam_id":76561198092094133,"connected_time":1774000000000,"state":"active","ping":89},{"user_id":148,"name":"Rex","steam_id":76561198138365053,"connected_time":150000000000,"state":"active","ping":101},{"user_id":89,"name":"Qwerty","steam_id":76561198023525894,"connected_time":3665000000000,"state":"active","ping":175},{"user_id":147,"name":"Stick","steam_id":76561198001509374,"connected_time":176000000000,"state":"active","ping":71},{"user_id":106,"name":"Coach McFish","steam_id":76561198210456405,"connected_time":2228000000000,"state":"active","ping":97},{"user_id":132,"name":"warscout101bro","steam_id":76561198813489938,"connected_time":821000000000,"state":"active","ping":117},{"user_id":141,"name":"neitram","steam_id":76561198131576005,"connected_time":445000000000,"state":"active","ping":60},{"user_id":149,"name":"Congcrab","steam_id":76561198078687685,"connected_time":149000000000,"state":"active","ping":88},{"user_id":108,"name":"comet","steam_id":76561198149217841,"connected_time":2217000000000,"state":"active","ping":115},{"user_id":124,"name":"unlikelycure","steam_id":76561199174450788,"connected_time":1315000000000,"state":"active","ping":86},{"user_id":136,"name":"Monochi","steam_id":76561198093093118,"connected_time":675000000000,"state":"active","ping":121},{"user_id":111,"name":"Clearskies22","steam_id":76561198828488802,"connected_time":2176000000000,"state":"active","ping":92},{"user_id":135,"name":"loyaldandan0764","steam_id":76561199231020424,"connected_time":682000000000,"state":"active","ping":153},{"user_id":145,"name":"Zelumie","steam_id":76561198147335801,"connected_time":311000000000,"state":"active","ping":74},{"user_id":140,"name":"Missing Minus","steam_id":76561198120822928,"connected_time":581000000000,"state":"active","ping":58},{"user_id":114,"name":"I'm so full of stem cells","steam_id":76561198329087915,"connected_time":2089000000000,"state":"active","ping":102},{"user_id":77,"name":"litroolay","steam_id":76561197995226856,"connected_time":4247000000000,"state":"active","ping":105},{"user_id":150,"name":"phone","steam_id":76561198029268743,"connected_time":115000000000,"state":"active","ping":46},{"user_id":142,"name":"Follow God not others","steam_id":76561198452519031,"connected_time":395000000000,"state":"active","ping":116},{"user_id":151,"name":"Kiwikrackle","steam_id":76561198328620890,"connected_time":103000000000,"state":"active","ping":80},{"user_id":139,"name":"Mr. Sun","steam_id":76561198081338822,"connected_time":594000000000,"state":"active","ping":47}]},{"server_id":401,"name":"Uncletopia | Atlanta | 4 | No Payload","name_short":"atl-4","host":"atl-1.us.uncletopia.com","port":27045,"enabled":true,"region":"us-east","cc":"us","latitude":33.753746,"longitude":-84.38633,"reserved":0,"last_update":"0001-01-01T00:00:00Z","name_a2s":"","protocol":0,"map":"","folder":"","game":"","app_id":0,"player_count":0,"max_players":0,"Bots":0,"server_type":"","server_os":"","password":false,"vac":false,"version":"","steam_id":0,"keywords":null,"game_id":0,"stv_port":0,"stv_name":"","players":null},{"server_id":2,"name":"Uncletopia | Chicago | 1 | All Maps","name_short":"chi-1","host":"chi-1.us.uncletopia.com","port":27015,"enabled":true,"region":"us-central","cc":"us","latitude":41.881832,"longitude":-87.62318,"reserved":0,"last_update":"0001-01-01T00:00:00Z","name_a2s":"Uncletopia | Chicago | 1 | All Maps","protocol":17,"map":"pl_barnblitz","folder":"tf","game":"Team Fortress","app_id":440,"player_count":22,"max_players":24,"Bots":0,"server_type":"Dedicated","server_os":"Linux","password":true,"vac":true,"version":"7882260","steam_id":85568392924469984,"keywords":["nocrits","nodmgspread","payload","uncletopia"],"game_id":440,"stv_port":27016,"stv_name":"Uncletopia | Chicago | 1 | All Maps | STV","players":[{"user_id":125,"name":"SimSamS6","steam_id":76561198847553887,"connected_time":329000000000,"state":"active","ping":53},{"user_id":130,"name":"BasicPeaches","steam_id":76561198190890150,"connected_time":5000000000,"state":"spawning","ping":75},{"user_id":21,"name":"Adam (Cursed Confetti Creature)","steam_id":76561198317690197,"connected_time":7610000000000,"state":"active","ping":46},{"user_id":121,"name":"JayArr","steam_id":76561198124371253,"connected_time":515000000000,"state":"active","ping":43},{"user_id":72,"name":"Giggles‚Ñ¢","steam_id":76561198058708019,"connected_time":3180000000000,"state":"active","ping":55},{"user_id":132,"name":"Astoriae!","steam_id":76561199090168858,"connected_time":0,"state":"spawning","ping":36},{"user_id":122,"name":"ColonelKermit","steam_id":76561198318215660,"connected_time":440000000000,"state":"active","ping":46},{"user_id":131,"name":"soof","steam_id":76561198043762955,"connected_time":4000000000,"state":"spawning","ping":59},{"user_id":119,"name":"Black Rose Oncore","steam_id":76561198040489960,"connected_time":823000000000,"state":"active","ping":75},{"user_id":124,"name":"daithy","steam_id":76561198168295777,"connected_time":356000000000,"state":"active","ping":105},{"user_id":56,"name":"I.C.","steam_id":76561198049256017,"connected_time":4023000000000,"state":"active","ping":72},{"user_id":44,"name":"Lia_Rein","steam_id":76561198151569597,"connected_time":6268000000000,"state":"active","ping":143},{"user_id":127,"name":"hatchetax","steam_id":76561199013337543,"connected_time":280000000000,"state":"active","ping":61},{"user_id":19,"name":"TallBit","steam_id":76561199059748976,"connected_time":7617000000000,"state":"active","ping":67},{"user_id":104,"name":"Anthid","steam_id":76561198074493797,"connected_time":2650000000000,"state":"active","ping":62},{"user_id":33,"name":"Tito","steam_id":76561198041702529,"connected_time":7579000000000,"state":"active","ping":89},{"user_id":25,"name":"dog","steam_id":76561198263873491,"connected_time":7596000000000,"state":"active","ping":40},{"user_id":28,"name":"Bow_","steam_id":76561198109608134,"connected_time":7592000000000,"state":"active","ping":73},{"user_id":111,"name":"Captain S. Forrest","steam_id":76561198062463029,"connected_time":1332000000000,"state":"active","ping":82},{"user_id":43,"name":"ŒµœÄŒπŒªŒ≠Œ≥œâ","steam_id":76561198076639682,"connected_time":6297000000000,"state":"active","ping":65},{"user_id":115,"name":"cold spaghetti","steam_id":76561198983037944,"connected_time":1186000000000,"state":"active","ping":68},{"user_id":118,"name":"peakmeta","steam_id":76561199053600691,"connected_time":869000000000,"state":"active","ping":62}]},{"server_id":106,"name":"Uncletopia | Chicago | 2 | All Maps","name_short":"chi-2","host":"chi-1.us.uncletopia.com","port":27025,"enabled":true,"region":"us-central","cc":"us","latitude":41.881832,"longitude":-87.62318,"reserved":0,"last_update":"0001-01-01T00:00:00Z","name_a2s":"Uncletopia | Chicago | 2 | All Maps","protocol":17,"map":"pl_borneo","folder":"tf","game":"Team Fortress","app_id":440,"player_count":24,"max_players":24,"Bots":0,"server_type":"Dedicated","server_os":"Linux","password":true,"vac":true,"version":"7882260","steam_id":85568392924469985,"keywords":["nocrits","nodmgspread","payload","uncletopia"],"game_id":440,"stv_port":27026,"stv_name":"Uncletopia | Chicago | 2 | All Maps | STV","players":[{"user_id":116,"name":"--_Cook_--","steam_id":76561198080855748,"connected_time":1076000000000,"state":"active","ping":45},{"user_id":4,"name":"vv","steam_id":76561198134813102,"connected_time":7522000000000,"state":"active","ping":60},{"user_id":110,"name":"EvilMrPotoo ÔΩ°‚óï‚Äø‚óïÔΩ°","steam_id":76561198012566870,"connected_time":1417000000000,"state":"active","ping":54},{"user_id":94,"name":"Take the L","steam_id":76561198379223875,"connected_time":2375000000000,"state":"active","ping":69},{"user_id":123,"name":"BroBuck3","steam_id":76561198119436987,"connected_time":30000000000,"state":"spawning","ping":77},{"user_id":117,"name":"Pork and Beans but twice","steam_id":76561198843209969,"connected_time":860000000000,"state":"active","ping":57},{"user_id":120,"name":"Dandelion","steam_id":76561199245365821,"connected_time":445000000000,"state":"active","ping":45},{"user_id":77,"name":"Armoreddude","steam_id":76561198058739073,"connected_time":3199000000000,"state":"active","ping":52},{"user_id":118,"name":"dirty30","steam_id":76561198021226566,"connected_time":725000000000,"state":"active","ping":91},{"user_id":95,"name":"ameritech","steam_id":76561198064769089,"connected_time":2368000000000,"state":"active","ping":81},{"user_id":101,"name":"Solitude","steam_id":76561198126837894,"connected_time":2030000000000,"state":"active","ping":93},{"user_id":108,"name":"Iman","steam_id":76561198063677510,"connected_time":1495000000000,"state":"active","ping":67},{"user_id":115,"name":"bobby peanstalk","steam_id":76561198040495463,"connected_time":1247000000000,"state":"active","ping":63},{"user_id":107,"name":"Raptortastic","steam_id":76561198105613110,"connected_time":1588000000000,"state":"active","ping":56},{"user_id":78,"name":"kite","steam_id":76561198346516392,"connected_time":3197000000000,"state":"active","ping":70},{"user_id":81,"name":"DrunkDuckwit","steam_id":76561198355829109,"connected_time":3081000000000,"state":"active","ping":57},{"user_id":99,"name":"TheGrassMan (He/Him)","steam_id":76561198118984048,"connected_time":2219000000000,"state":"active","ping":67},{"user_id":92,"name":"Wolfbone","steam_id":76561198797262334,"connected_time":2819000000000,"state":"active","ping":84},{"user_id":112,"name":"Bubu!","steam_id":76561198188722751,"connected_time":1373000000000,"state":"active","ping":102},{"user_id":119,"name":"SKINGRAPH","steam_id":76561198082933650,"connected_time":614000000000,"state":"active","ping":99},{"user_id":53,"name":"rawrie","steam_id":76561198005371178,"connected_time":5389000000000,"state":"active","ping":70},{"user_id":113,"name":"Ka Xin Yu","steam_id":76561198057116531,"connected_time":1291000000000,"state":"active","ping":54},{"user_id":90,"name":"Chillton","steam_id":76561198248304718,"connected_time":2928000000000,"state":"active","ping":78},{"user_id":122,"name":"Aeonspassed","steam_id":76561198014016451,"connected_time":54000000000,"state":"active","ping":53}]},{"server_id":402,"name":"Uncletopia | Chicago | 3 | All Maps","name_short":"chi-3","host":"chi-1.us.uncletopia.com","port":27035,"enabled":true,"region":"us-central","cc":"us","latitude":41.881832,"longitude":-87.62318,"reserved":0,"last_update":"0001-01-01T00:00:00Z","name_a2s":"Uncletopia | Chicago | 3 | All Maps","protocol":17,"map":"cp_powerhouse","folder":"tf","game":"Team Fortress","app_id":440,"player_count":22,"max_players":24,"Bots":0,"server_type":"Dedicated","server_os":"Linux","password":true,"vac":true,"version":"7882260","steam_id":85568392924515191,"keywords":["cp","nocrits","nodmgspread","uncletopia"],"game_id":440,"stv_port":27036,"stv_name":"Uncletopia | Chicago | 3 | All Maps | STV","players":[{"user_id":3,"name":"GeneralMike","steam_id":76561198065799430,"connected_time":7552000000000,"state":"active","ping":62},{"user_id":124,"name":"medic enthusiast","steam_id":76561198323031964,"connected_time":193000000000,"state":"active","ping":91},{"user_id":6,"name":"wG deez","steam_id":76561198277163301,"connected_time":7095000000000,"state":"active","ping":63},{"user_id":55,"name":"Xx-CostcoShopper-xX","steam_id":76561198066429444,"connected_time":5117000000000,"state":"active","ping":62},{"user_id":77,"name":"quint","steam_id":76561198046797995,"connected_time":3143000000000,"state":"active","ping":69},{"user_id":125,"name":"Shwal","steam_id":76561198138840448,"connected_time":100000000000,"state":"active","ping":76},{"user_id":84,"name":"what","steam_id":76561198082336619,"connected_time":2952000000000,"state":"active","ping":75},{"user_id":123,"name":"$lime k‚úîng WHYYYTEb0y^-^","steam_id":76561198283687382,"connected_time":324000000000,"state":"active","ping":74},{"user_id":105,"name":"Bonfire (She/Her)","steam_id":76561198116369513,"connected_time":1324000000000,"state":"active","ping":66},{"user_id":78,"name":"MajorGeneral","steam_id":76561198096725670,"connected_time":3128000000000,"state":"active","ping":60},{"user_id":102,"name":"LEGALIZE NUCLEAR BOMBS","steam_id":76561198031675881,"connected_time":1647000000000,"state":"active","ping":39},{"user_id":121,"name":"Lowvast","steam_id":76561198068455981,"connected_time":403000000000,"state":"active","ping":72},{"user_id":59,"name":"t","steam_id":76561198175988929,"connected_time":4621000000000,"state":"active","ping":67},{"user_id":106,"name":"GUINNESS ANYONE?","steam_id":76561197985970131,"connected_time":1323000000000,"state":"active","ping":65},{"user_id":115,"name":"faxxy","steam_id":76561198079621240,"connected_time":953000000000,"state":"active","ping":75},{"user_id":93,"name":"[S]Mr. X [No Monitor]","steam_id":76561197963746035,"connected_time":2498000000000,"state":"active","ping":116},{"user_id":99,"name":"Greg","steam_id":76561198155234670,"connected_time":2157000000000,"state":"active","ping":53},{"user_id":100,"name":"uhooter","steam_id":76561198007829078,"connected_time":2132000000000,"state":"active","ping":47},{"user_id":122,"name":"SpecialForce19","steam_id":76561198120974644,"connected_time":329000000000,"state":"active","ping":76},{"user_id":108,"name":"threethree","steam_id":76561198177354155,"connected_time":1306000000000,"state":"active","ping":53},{"user_id":82,"name":"Pongallow","steam_id":76561198146876078,"connected_time":3071000000000,"state":"active","ping":45},{"user_id":73,"name":"Purchase your tracks today","steam_id":76561198084422657,"connected_time":3161000000000,"state":"active","ping":83}]},{"server_id":403,"name":"Uncletopia | Chicago | 4 | All Maps","name_short":"chi-4","host":"chi-1.us.uncletopia.com","port":27045,"enabled":true,"region":"us-central","cc":"us","latitude":41.881832,"longitude":-87.62318,"reserved":0,"last_update":"0001-01-01T00:00:00Z","name_a2s":"Uncletopia | Chicago | 4 | All Maps","protocol":17,"map":"cp_dustbowl","folder":"tf","game":"Team Fortress","app_id":440,"player_count":24,"max_players":24,"Bots":0,"server_type":"Dedicated","server_os":"Linux","password":true,"vac":true,"version":"7882260","steam_id":85568392924515193,"keywords":["cp","nocrits","nodmgspread","uncletopia"],"game_id":440,"stv_port":27046,"stv_name":"Uncletopia | Chicago | 4 | All Maps | STV","players":[{"user_id":114,"name":"Diet Texan Coke","steam_id":76561199468796639,"connected_time":223000000000,"state":"active","ping":95},{"user_id":115,"name":"Floating Peasant","steam_id":76561198000183671,"connected_time":103000000000,"state":"active","ping":57},{"user_id":107,"name":"Ringo x Seiran","steam_id":76561198357437908,"connected_time":792000000000,"state":"active","ping":61},{"user_id":109,"name":"CJDGuy","steam_id":76561198213009545,"connected_time":705000000000,"state":"active","ping":44},{"user_id":90,"name":"Mug Moment Gaming","steam_id":76561198233098136,"connected_time":1937000000000,"state":"active","ping":51},{"user_id":62,"name":"ElZeto","steam_id":76561198252322622,"connected_time":4179000000000,"state":"active","ping":184},{"user_id":80,"name":"blossom","steam_id":76561198042735130,"connected_time":3265000000000,"state":"active","ping":104},{"user_id":76,"name":"thecal","steam_id":76561198307893384,"connected_time":3321000000000,"state":"active","ping":58},{"user_id":78,"name":"Dr. Dick","steam_id":76561198138011922,"connected_time":3282000000000,"state":"active","ping":82},{"user_id":111,"name":"A Duck Phone!?","steam_id":76561198044707749,"connected_time":632000000000,"state":"active","ping":57},{"user_id":22,"name":"vay hek big naturals","steam_id":76561198183889254,"connected_time":6097000000000,"state":"active","ping":54},{"user_id":104,"name":"orbital strike","steam_id":76561198880414240,"connected_time":1151000000000,"state":"active","ping":70},{"user_id":82,"name":"ƒ†1 ‚ô¶ Synth","steam_id":76561198058660228,"connected_time":3230000000000,"state":"active","ping":53},{"user_id":92,"name":"mugber fudge","steam_id":76561198019444443,"connected_time":1409000000000,"state":"active","ping":91},{"user_id":106,"name":"Menacing Pile of Frogs","steam_id":76561198360134800,"connected_time":865000000000,"state":"active","ping":78},{"user_id":112,"name":"Gary Sinfeld","steam_id":76561198042274074,"connected_time":553000000000,"state":"active","ping":102},{"user_id":63,"name":"G-G-G-GAMERSHOT","steam_id":76561198798980951,"connected_time":4115000000000,"state":"active","ping":57},{"user_id":116,"name":"Mitchacho74","steam_id":76561198087986935,"connected_time":88000000000,"state":"active","ping":62},{"user_id":98,"name":"Riddle","steam_id":76561198892207399,"connected_time":1315000000000,"state":"active","ping":57},{"user_id":99,"name":"gl1tchr","steam_id":76561198302661983,"connected_time":1309000000000,"state":"active","ping":80},{"user_id":60,"name":"Jill Stingray","steam_id":76561198074209737,"connected_time":4195000000000,"state":"active","ping":69},{"user_id":83,"name":"WarMace","steam_id":76561198395937853,"connected_time":3041000000000,"state":"active","ping":76},{"user_id":100,"name":"Decot","steam_id":76561198042016967,"connected_time":1279000000000,"state":"active","ping":84},{"user_id":103,"name":"Micheal","steam_id":76561198242238956,"connected_time":1218000000000,"state":"active","ping":87}]},{"server_id":36,"name":"Uncletopia | Chicago | 5 | All Maps","name_short":"chi-5","host":"chi-2.us.uncletopia.com","port":27015,"enabled":true,"region":"us-central","cc":"us","latitude":41.881832,"longitude":-87.62318,"reserved":0,"last_update":"0001-01-01T00:00:00Z","name_a2s":"Uncletopia | Chicago | 5 | All Maps","protocol":17,"map":"cp_sunshine","folder":"tf","game":"Team Fortress","app_id":440,"player_count":23,"max_players":24,"Bots":0,"server_type":"Dedicated","server_os":"Linux","password":true,"vac":true,"version":"7882260","steam_id":85568392924866362,"keywords":["cp","nocrits","nodmgspread","uncletopia"],"game_id":440,"stv_port":27016,"stv_name":"Uncletopia | Chicago | 5 | All Maps | STV","players":[{"user_id":110,"name":"trobin120","steam_id":76561199122420273,"connected_time":631000000000,"state":"active","ping":63},{"user_id":58,"name":"FredDurst2007YT","steam_id":76561198070923665,"connected_time":3327000000000,"state":"active","ping":75},{"user_id":102,"name":"FrostStorm","steam_id":76561198142685151,"connected_time":1111000000000,"state":"active","ping":67},{"user_id":91,"name":"derz","steam_id":76561198010742216,"connected_time":1846000000000,"state":"active","ping":57},{"user_id":108,"name":"cheetaz","steam_id":76561198224614084,"connected_time":705000000000,"state":"active","ping":62},{"user_id":77,"name":"venellope von vangabond","steam_id":76561198813574552,"connected_time":2533000000000,"state":"active","ping":68},{"user_id":96,"name":"my money washed like george","steam_id":76561198115458307,"connected_time":1472000000000,"state":"active","ping":106},{"user_id":99,"name":"ethan","steam_id":76561198132637556,"connected_time":1428000000000,"state":"active","ping":48},{"user_id":109,"name":"Winter the Witchie","steam_id":76561198151971178,"connected_time":687000000000,"state":"active","ping":62},{"user_id":75,"name":"glonk","steam_id":76561198162544699,"connected_time":2813000000000,"state":"active","ping":54},{"user_id":111,"name":"bluliciouscow","steam_id":76561198839866507,"connected_time":612000000000,"state":"active","ping":121},{"user_id":47,"name":"LukeLeal","steam_id":76561198049822995,"connected_time":4491000000000,"state":"active","ping":165},{"user_id":51,"name":"sansa musa","steam_id":76561198163723555,"connected_time":4305000000000,"state":"active","ping":71},{"user_id":116,"name":"Romo","steam_id":76561198243101572,"connected_time":126000000000,"state":"active","ping":84},{"user_id":106,"name":"aqua","steam_id":76561199407709552,"connected_time":753000000000,"state":"active","ping":47},{"user_id":114,"name":"wallace","steam_id":76561199158237868,"connected_time":220000000000,"state":"active","ping":70},{"user_id":98,"name":"Owl Pacino","steam_id":76561197979970666,"connected_time":1435000000000,"state":"active","ping":55},{"user_id":115,"name":"Problem?","steam_id":76561198875392592,"connected_time":204000000000,"state":"active","ping":59},{"user_id":79,"name":"garfield","steam_id":76561198114119308,"connected_time":2517000000000,"state":"active","ping":73},{"user_id":87,"name":"pool shark","steam_id":76561198130191179,"connected_time":1930000000000,"state":"active","ping":73},{"user_id":56,"name":"real","steam_id":76561199161322235,"connected_time":3536000000000,"state":"active","ping":63},{"user_id":112,"name":"Fumpo","steam_id":76561198206873365,"connected_time":529000000000,"state":"active","ping":69},{"user_id":103,"name":"Slatt","steam_id":76561198094913841,"connected_time":1110000000000,"state":"active","ping":88}]},{"server_id":37,"name":"Uncletopia | Chicago | 6 | All Maps","name_short":"chi-6","host":"chi-2.us.uncletopia.com","port":27025,"enabled":true,"region":"us-central","cc":"us","latitude":41.881832,"longitude":-87.62318,"reserved":0,"last_update":"0001-01-01T00:00:00Z","name_a2s":"Uncletopia | Chicago | 6 | All Maps","protocol":17,"map":"cp_snakewater_final1","folder":"tf","game":"Team Fortress","app_id":440,"player_count":22,"max_players":24,"Bots":0,"server_type":"Dedicated","server_os":"Linux","password":true,"vac":true,"version":"7882260","steam_id":85568392924866363,"keywords":["cp","nocrits","nodmgspread","uncletopia"],"game_id":440,"stv_port":27026,"stv_name":"Uncletopia | Chicago | 6 | All Maps | STV","players":[{"user_id":21,"name":"drdoofus123","steam_id":76561198016826181,"connected_time":2243000000000,"state":"active","ping":68},{"user_id":24,"name":"PileofPolygons","steam_id":76561199321343460,"connected_time":1532000000000,"state":"active","ping":69},{"user_id":25,"name":"NerdCuddles","steam_id":76561198078915242,"connected_time":1493000000000,"state":"active","ping":54},{"user_id":27,"name":"[DEEP] Danmar33","steam_id":76561198056453091,"connected_time":967000000000,"state":"active","ping":46},{"user_id":28,"name":"[DEEP] Roz257","steam_id":76561198842844532,"connected_time":953000000000,"state":"active","ping":62},{"user_id":29,"name":"AFK BRB","steam_id":76561198104939612,"connected_time":603000000000,"state":"active","ping":52},{"user_id":33,"name":"Spag Hekki","steam_id":76561198207579353,"connected_time":471000000000,"state":"active","ping":81},{"user_id":37,"name":"morsetime","steam_id":76561199116362348,"connected_time":372000000000,"state":"active","ping":92},{"user_id":32,"name":"pete_the_cat_2014","steam_id":76561198199266047,"connected_time":509000000000,"state":"active","ping":55},{"user_id":34,"name":"Yakul","steam_id":76561198100040013,"connected_time":470000000000,"state":"active","ping":100},{"user_id":35,"name":"LAN!!K^","steam_id":76561199229169363,"connected_time":421000000000,"state":"active","ping":164},{"user_id":50,"name":"ExtraChromosome 47","steam_id":76561198287822675,"connected_time":193000000000,"state":"active","ping":78},{"user_id":39,"name":"Dole Bananaman Lore Expert","steam_id":76561198101914909,"connected_time":361000000000,"state":"active","ping":84},{"user_id":40,"name":"Goober","steam_id":76561198105930089,"connected_time":324000000000,"state":"active","ping":66},{"user_id":41,"name":"Magik","steam_id":76561198115443354,"connected_time":290000000000,"state":"active","ping":46},{"user_id":42,"name":"tubby","steam_id":76561198174982661,"connected_time":290000000000,"state":"active","ping":79},{"user_id":52,"name":"Hammerhead","steam_id":76561198897122890,"connected_time":120000000000,"state":"active","ping":57},{"user_id":44,"name":"frizzle fried","steam_id":76561198062991744,"connected_time":280000000000,"state":"active","ping":71},{"user_id":45,"name":"neet","steam_id":76561197968115168,"connected_time":280000000000,"state":"active","ping":53},{"user_id":47,"name":"chuck","steam_id":76561198102300433,"connected_time":262000000000,"state":"active","ping":75},{"user_id":48,"name":"anmcbride","steam_id":76561198312169972,"connected_time":257000000000,"state":"active","ping":61},{"user_id":49,"name":"Capit√°n √Ñxis-Flores","steam_id":76561198353865006,"connected_time":236000000000,"state":"active","ping":71}]},{"server_id":38,"name":"Uncletopia | Chicago | 7 | Stopwatch Beta","name_short":"chi-7","host":"chi-2.us.uncletopia.com","port":27035,"enabled":true,"region":"us-central","cc":"us","latitude":41.881832,"longitude":-87.62318,"reserved":0,"last_update":"0001-01-01T00:00:00Z","name_a2s":"Uncletopia | Chicago | 7 | Stopwatch Beta","protocol":17,"map":"pl_swiftwater_final1","folder":"tf","game":"Team Fortress","app_id":440,"player_count":0,"max_players":24,"Bots":0,"server_type":"Dedicated","server_os":"Linux","password":true,"vac":true,"version":"7882260","steam_id":85568392924866364,"keywords":["nocrits","nodmgspread","payload","uncletopia"],"game_id":440,"stv_port":27036,"stv_name":"Uncletopia | Chicago | 7 | Stopwatch Beta | STV","players":null},{"server_id":39,"name":"Uncletopia | Chicago | 8 | Community","name_short":"chi-8","host":"chi-2.us.uncletopia.com","port":27045,"enabled":true,"region":"us-central","cc":"us","latitude":41.881832,"longitude":-87.62318,"reserved":0,"last_update":"0001-01-01T00:00:00Z","name_a2s":"Uncletopia | Chicago | 8 | Community","protocol":17,"map":"workshop/pl_divulgence_b4b.ugc2884808746","folder":"tf","game":"Team Fortress","app_id":440,"player_count":0,"max_players":24,"Bots":0,"server_type":"Dedicated","server_os":"Linux","password":true,"vac":true,"version":"7882260","steam_id":85568392924866365,"keywords":["nocrits","nodmgspread","payload","uncletopia"],"game_id":440,"stv_port":27046,"stv_name":"Uncletopia | Chicago | 8 | Community | STV","players":null},{"server_id":8,"name":"Uncletopia | Dallas | 1 | All Maps","name_short":"dal-1","host":"dal-1.us.uncletopia.com","port":27015,"enabled":true,"region":"us-central","cc":"us","latitude":32.779167,"longitude":-96.80889,"reserved":0,"last_update":"0001-01-01T00:00:00Z","name_a2s":"Uncletopia | Dallas | 1 | All Maps","protocol":17,"map":"pl_upward","folder":"tf","game":"Team Fortress","app_id":440,"player_count":24,"max_players":24,"Bots":0,"server_type":"Dedicated","server_os":"Linux","password":true,"vac":true,"version":"7882260","steam_id":85568392924469986,"keywords":["nocrits","nodmgspread","payload","uncletopia"],"game_id":440,"stv_port":27016,"stv_name":"Uncletopia | Dallas | 1 | All Maps | STV","players":[{"user_id":101,"name":"iluvtoust","steam_id":76561198869269207,"connected_time":1629000000000,"state":"active","ping":45},{"user_id":120,"name":"bigboyhans","steam_id":76561199222215108,"connected_time":760000000000,"state":"active","ping":99},{"user_id":86,"name":"ImnotAbot:(","steam_id":76561199475442611,"connected_time":3118000000000,"state":"active","ping":98},{"user_id":113,"name":"Red","steam_id":76561198031865869,"connected_time":827000000000,"state":"active","ping":71},{"user_id":89,"name":"ROGUE-PLANET","steam_id":76561198116023052,"connected_time":2510000000000,"state":"active","ping":64},{"user_id":119,"name":"coolio","steam_id":76561198141722005,"connected_time":770000000000,"state":"active","ping":69},{"user_id":125,"name":"Project_Counter","steam_id":76561198152786076,"connected_time":321000000000,"state":"active","ping":51},{"user_id":117,"name":"Sheep","steam_id":76561198122705864,"connected_time":800000000000,"state":"active","ping":75},{"user_id":85,"name":"TechnoBear2099","steam_id":76561198238863596,"connected_time":3250000000000,"state":"active","ping":42},{"user_id":124,"name":"Astro","steam_id":76561198035676106,"connected_time":345000000000,"state":"active","ping":66},{"user_id":94,"name":"Funk132","steam_id":76561198365787483,"connected_time":2100000000000,"state":"active","ping":77},{"user_id":122,"name":"Maybe","steam_id":76561198268304564,"connected_time":485000000000,"state":"active","ping":197},{"user_id":82,"name":"Danger McHazard","steam_id":76561198059451274,"connected_time":3450000000000,"state":"active","ping":84},{"user_id":41,"name":"*‚ô•‚Äß‚ÇäÀö Matches *‚ô•‚Äß‚Çä","steam_id":76561198048925904,"connected_time":5797000000000,"state":"active","ping":83},{"user_id":92,"name":"FluttyPutty","steam_id":76561198218446556,"connected_time":2355000000000,"state":"active","ping":78},{"user_id":96,"name":"ChefMike","steam_id":76561198414034069,"connected_time":2078000000000,"state":"active","ping":91},{"user_id":73,"name":"big ol' buford","steam_id":76561198290675957,"connected_time":4129000000000,"state":"active","ping":40},{"user_id":123,"name":"wubber","steam_id":76561198286627157,"connected_time":412000000000,"state":"active","ping":83},{"user_id":105,"name":"cow","steam_id":76561198198453117,"connected_time":1431000000000,"state":"active","ping":53},{"user_id":103,"name":"errant","steam_id":76561197961758410,"connected_time":1490000000000,"state":"active","ping":42},{"user_id":75,"name":"Oncologist","steam_id":76561198054118061,"connected_time":3964000000000,"state":"active","ping":74},{"user_id":121,"name":"go touch keyboard","steam_id":76561198197388678,"connected_time":543000000000,"state":"active","ping":79},{"user_id":104,"name":"nucket","steam_id":76561198028658527,"connected_time":1434000000000,"state":"active","ping":78},{"user_id":109,"name":"EvilPigglet","steam_id":76561197987243470,"connected_time":1042000000000,"state":"active","ping":77}]},{"server_id":108,"name":"Uncletopia | Dallas | 2 | All Maps","name_short":"dal-2","host":"dal-1.us.uncletopia.com","port":27025,"enabled":true,"region":"us-central","cc":"us","latitude":32.779167,"longitude":-96.80889,"reserved":0,"last_update":"0001-01-01T00:00:00Z","name_a2s":"Uncletopia | Dallas | 2 | All Maps","protocol":17,"map":"pl_pier","folder":"tf","game":"Team Fortress","app_id":440,"player_count":24,"max_players":24,"Bots":0,"server_type":"Dedicated","server_os":"Linux","password":true,"vac":true,"version":"7882260","steam_id":85568392924469988,"keywords":["nocrits","nodmgspread","payload","uncletopia"],"game_id":440,"stv_port":27026,"stv_name":"Uncletopia | Dallas | 2 | All Maps | STV","players":[{"user_id":101,"name":"CreepyCook","steam_id":76561198242874622,"connected_time":319000000000,"state":"active","ping":53},{"user_id":102,"name":"Smiley Face","steam_id":76561198008710622,"connected_time":311000000000,"state":"active","ping":65},{"user_id":92,"name":"Naffty","steam_id":76561198119734981,"connected_time":2030000000000,"state":"active","ping":93},{"user_id":95,"name":"Anthoneeee","steam_id":76561199209220671,"connected_time":1814000000000,"state":"active","ping":105},{"user_id":48,"name":"ChottoAMinute","steam_id":76561198873157775,"connected_time":4850000000000,"state":"active","ping":44},{"user_id":98,"name":"Faraday","steam_id":76561198089928357,"connected_time":1659000000000,"state":"active","ping":51},{"user_id":103,"name":"Mais Pois","steam_id":76561199088864128,"connected_time":302000000000,"state":"active","ping":90},{"user_id":56,"name":"\u003c blank \u003e","steam_id":76561198937717599,"connected_time":4584000000000,"state":"active","ping":38},{"user_id":104,"name":"Lore","steam_id":76561198098407538,"connected_time":299000000000,"state":"active","ping":75},{"user_id":22,"name":"Griddy","steam_id":76561199100342013,"connected_time":7009000000000,"state":"active","ping":77},{"user_id":16,"name":"Notation","steam_id":76561198119509319,"connected_time":7054000000000,"state":"active","ping":60},{"user_id":68,"name":"ExplosiveGamer21","steam_id":76561198132370955,"connected_time":3287000000000,"state":"active","ping":95},{"user_id":85,"name":"Portabello","steam_id":76561198092412930,"connected_time":3099000000000,"state":"active","ping":75},{"user_id":105,"name":"Oil (feat. Stevie Nicks)","steam_id":76561198398677744,"connected_time":298000000000,"state":"active","ping":122},{"user_id":106,"name":"Op banana","steam_id":76561198303231451,"connected_time":280000000000,"state":"active","ping":48},{"user_id":60,"name":"Cofi","steam_id":76561199026721822,"connected_time":3867000000000,"state":"active","ping":96},{"user_id":108,"name":"traytable","steam_id":76561198355890964,"connected_time":190000000000,"state":"active","ping":83},{"user_id":107,"name":"Live at Red Rocks '22","steam_id":76561198007464245,"connected_time":262000000000,"state":"active","ping":76},{"user_id":26,"name":"Drozz Misses Shots","steam_id":76561198072555204,"connected_time":6962000000000,"state":"active","ping":73},{"user_id":67,"name":"Frisbee","steam_id":76561197962808987,"connected_time":3427000000000,"state":"active","ping":76},{"user_id":109,"name":"Lezabel","steam_id":76561198970753261,"connected_time":190000000000,"state":"active","ping":75},{"user_id":79,"name":"The Dead Weight","steam_id":76561198056694098,"connected_time":3208000000000,"state":"active","ping":63},{"user_id":81,"name":"James","steam_id":76561198081313916,"connected_time":3180000000000,"state":"active","ping":76},{"user_id":88,"name":"Eviscerator","steam_id":76561197980073637,"connected_time":2790000000000,"state":"active","ping":93}]},{"server_id":5,"name":"Uncletopia | Frankfurt | 1 | All Maps","name_short":"frk-1","host":"frk-1.de.uncletopia.com","port":27015,"enabled":true,"region":"eu","cc":"de","latitude":50.110924,"longitude":8.682127,"reserved":0,"last_update":"0001-01-01T00:00:00Z","name_a2s":"Uncletopia | Frankfurt | 1 | All Maps","protocol":17,"map":"cp_process_final","folder":"tf","game":"Team Fortress","app_id":440,"player_count":0,"max_players":24,"Bots":0,"server_type":"Dedicated","server_os":"Linux","password":true,"vac":true,"version":"7882260","steam_id":85568392924469989,"keywords":["cp","nocrits","nodmgspread","uncletopia"],"game_id":440,"stv_port":27016,"stv_name":"Uncletopia | Frankfurt | 1 | All Maps | STV","players":null},{"server_id":110,"name":"Uncletopia | Frankfurt | 2 | All Maps","name_short":"frk-2","host":"frk-1.de.uncletopia.com","port":27025,"enabled":true,"region":"eu","cc":"de","latitude":50.110924,"longitude":8.682127,"reserved":0,"last_update":"0001-01-01T00:00:00Z","name_a2s":"Uncletopia | Frankfurt | 2 | All Maps","protocol":17,"map":"koth_viaduct","folder":"tf","game":"Team Fortress","app_id":440,"player_count":0,"max_players":24,"Bots":0,"server_type":"Dedicated","server_os":"Linux","password":true,"vac":true,"version":"7882260","steam_id":85568392924469990,"keywords":["cp","nocrits","nodmgspread","uncletopia"],"game_id":440,"stv_port":27026,"stv_name":"Uncletopia | Frankfurt | 2 | All Maps | STV","players":null},{"server_id":308,"name":"Uncletopia | Frankfurt | 3 | All Maps","name_short":"frk-3","host":"frk-1.de.uncletopia.com","port":27035,"enabled":true,"region":"eu","cc":"de","latitude":50.110924,"longitude":8.682127,"reserved":0,"last_update":"0001-01-01T00:00:00Z","name_a2s":"Uncletopia | Frankfurt | 3 | All Maps","protocol":17,"map":"pl_snowycoast","folder":"tf","game":"Team Fortress","app_id":440,"player_count":0,"max_players":24,"Bots":0,"server_type":"Dedicated","server_os":"Linux","password":true,"vac":true,"version":"7882260","steam_id":85568392924504274,"keywords":["nocrits","nodmgspread","payload","uncletopia"],"game_id":440,"stv_port":27036,"stv_name":"Uncletopia | Frankfurt | 3 | All Maps | STV","players":null},{"server_id":309,"name":"Uncletopia | Frankfurt | 4 | All Maps","name_short":"frk-4","host":"frk-1.de.uncletopia.com","port":27045,"enabled":true,"region":"eu","cc":"de","latitude":50.110924,"longitude":8.682127,"reserved":0,"last_update":"0001-01-01T00:00:00Z","name_a2s":"Uncletopia | Frankfurt | 4 | All Maps","protocol":17,"map":"pl_badwater","folder":"tf","game":"Team Fortress","app_id":440,"player_count":0,"max_players":24,"Bots":0,"server_type":"Dedicated","server_os":"Linux","password":true,"vac":true,"version":"7882260","steam_id":85568392924504275,"keywords":["nocrits","nodmgspread","payload","uncletopia"],"game_id":440,"stv_port":27046,"stv_name":"Uncletopia | Frankfurt | 4 | All Maps | STV","players":null},{"server_id":310,"name":"Uncletopia | Frankfurt | 5 | All Maps","name_short":"frk-5","host":"frk-1.de.uncletopia.com","port":27055,"enabled":true,"region":"eu","cc":"de","latitude":50.110924,"longitude":8.682127,"reserved":0,"last_update":"0001-01-01T00:00:00Z","name_a2s":"Uncletopia | Frankfurt | 5 | All Maps","protocol":17,"map":"cp_mountainlab","folder":"tf","game":"Team Fortress","app_id":440,"player_count":0,"max_players":24,"Bots":0,"server_type":"Dedicated","server_os":"Linux","password":true,"vac":true,"version":"7882260","steam_id":85568392924504277,"keywords":["cp","nocrits","nodmgspread","uncletopia"],"game_id":440,"stv_port":27056,"stv_name":"Uncletopia | Frankfurt | 5 | All Maps | STV","players":null},{"server_id":311,"name":"Uncletopia | Frankfurt | 6 | All Maps","name_short":"frk-6","host":"frk-1.de.uncletopia.com","port":27065,"enabled":true,"region":"eu","cc":"de","latitude":50.110924,"longitude":8.682127,"reserved":0,"last_update":"0001-01-01T00:00:00Z","name_a2s":"Uncletopia | Frankfurt | 6 | All Maps","protocol":17,"map":"pl_badwater","folder":"tf","game":"Team Fortress","app_id":440,"player_count":0,"max_players":24,"Bots":0,"server_type":"Dedicated","server_os":"Linux","password":true,"vac":true,"version":"7882260","steam_id":85568392924504278,"keywords":["nocrits","nodmgspread","payload","uncletopia"],"game_id":440,"stv_port":27066,"stv_name":"Uncletopia | Frankfurt | 6 | All Maps | STV","players":null},{"server_id":23,"name":"Uncletopia | Frankfurt | 7 | Stopwatch Beta","name_short":"frk-7","host":"frk-1.de.uncletopia.com","port":27075,"enabled":true,"region":"eu","cc":"de","latitude":50.110924,"longitude":8.682127,"reserved":0,"last_update":"0001-01-01T00:00:00Z","name_a2s":"Uncletopia | Frankfurt | 7 | Stopwatch Beta","protocol":17,"map":"cp_dustbowl","folder":"tf","game":"Team Fortress","app_id":440,"player_count":0,"max_players":24,"Bots":0,"server_type":"Dedicated","server_os":"Linux","password":true,"vac":true,"version":"7882260","steam_id":85568392924742827,"keywords":["cp","nocrits","nodmgspread","uncletopia"],"game_id":440,"stv_port":27076,"stv_name":"Uncletopia | Frankfurt | 7 | Stopwatch Beta | STV","players":null},{"server_id":24,"name":"Uncletopia | Frankfurt | 8 | Community","name_short":"frk-8","host":"frk-1.de.uncletopia.com","port":27085,"enabled":true,"region":"eu","cc":"de","latitude":50.110924,"longitude":8.682127,"reserved":0,"last_update":"0001-01-01T00:00:00Z","name_a2s":"Uncletopia | Frankfurt | 8 | Community","protocol":17,"map":"koth_cascade","folder":"tf","game":"Team Fortress","app_id":440,"player_count":0,"max_players":24,"Bots":0,"server_type":"Dedicated","server_os":"Linux","password":true,"vac":true,"version":"7882260","steam_id":85568392924742828,"keywords":["cp","nocrits","nodmgspread","uncletopia"],"game_id":440,"stv_port":27086,"stv_name":"Uncletopia | Frankfurt | 8 | Community | STV","players":null},{"server_id":202,"name":"Uncletopia | Hong Kong | 1 | All Maps","name_short":"hgk-1","host":"hgk-1.hk.uncletopia.com","port":27015,"enabled":true,"region":"asia","cc":"hk","latitude":22.302711,"longitude":114.177216,"reserved":0,"last_update":"0001-01-01T00:00:00Z","name_a2s":"Uncletopia | Hong Kong | 1 | All Maps","protocol":17,"map":"koth_cascade","folder":"tf","game":"Team Fortress","app_id":440,"player_count":0,"max_players":24,"Bots":0,"server_type":"Dedicated","server_os":"Linux","password":true,"vac":true,"version":"7882260","steam_id":85568392924494504,"keywords":["cp","nocrits","nodmgspread","uncletopia"],"game_id":440,"stv_port":27016,"stv_name":"Uncletopia | Hong Kong | 1 | All Maps | STV","players":null},{"server_id":1,"name":"Uncletopia | Los Angeles | 1 | All Maps","name_short":"lax-1","host":"lax-1.us.uncletopia.com","port":27015,"enabled":true,"region":"us-west","cc":"us","latitude":33.94279,"longitude":-118.41004,"reserved":0,"last_update":"0001-01-01T00:00:00Z","name_a2s":"Uncletopia | Los Angeles | 1 | All Maps","protocol":17,"map":"pl_snowycoast","folder":"tf","game":"Team Fortress","app_id":440,"player_count":24,"max_players":24,"Bots":0,"server_type":"Dedicated","server_os":"Linux","password":true,"vac":true,"version":"7882260","steam_id":85568392924469991,"keywords":["nocrits","nodmgspread","payload","uncletopia"],"game_id":440,"stv_port":27016,"stv_name":"Uncletopia | Los Angeles | 1 | All Maps | STV","players":[{"user_id":84,"name":"The Bombinomicon","steam_id":76561198209881263,"connected_time":808000000000,"state":"active","ping":52},{"user_id":75,"name":"Dreamzapp","steam_id":76561199084936632,"connected_time":2103000000000,"state":"active","ping":61},{"user_id":61,"name":"Turtimos","steam_id":76561198093519137,"connected_time":4381000000000,"state":"active","ping":67},{"user_id":63,"name":"Give Me Chicken","steam_id":76561199376462977,"connected_time":4352000000000,"state":"active","ping":105},{"user_id":54,"name":"pac attack on the nintendo swit","steam_id":76561198206922028,"connected_time":4734000000000,"state":"active","ping":48},{"user_id":91,"name":"Ivy","steam_id":76561198208996573,"connected_time":187000000000,"state":"active","ping":56},{"user_id":38,"name":"Geight","steam_id":76561197991645292,"connected_time":6523000000000,"state":"active","ping":83},{"user_id":81,"name":"Cole Boye","steam_id":76561198282449106,"connected_time":833000000000,"state":"active","ping":80},{"user_id":72,"name":"BreadQuest","steam_id":76561198082425960,"connected_time":2561000000000,"state":"active","ping":79},{"user_id":80,"name":"Speedycat","steam_id":76561198024821259,"connected_time":1309000000000,"state":"active","ping":60},{"user_id":69,"name":"Stapler","steam_id":76561198099295077,"connected_time":3137000000000,"state":"active","ping":58},{"user_id":15,"name":"Platinum","steam_id":76561198052463484,"connected_time":7513000000000,"state":"active","ping":45},{"user_id":79,"name":"GGN","steam_id":76561198233603808,"connected_time":1433000000000,"state":"active","ping":55},{"user_id":89,"name":"LogicalFurret","steam_id":76561198350604657,"connected_time":502000000000,"state":"active","ping":72},{"user_id":82,"name":"Slim Charles","steam_id":76561197981687895,"connected_time":821000000000,"state":"active","ping":64},{"user_id":19,"name":"[DATS‚û°] Sugar Meowth","steam_id":76561197995251793,"connected_time":7483000000000,"state":"active","ping":69},{"user_id":88,"name":"NGsterson","steam_id":76561198162108154,"connected_time":573000000000,"state":"active","ping":92},{"user_id":68,"name":"Imitation Caucasian","steam_id":76561198320536166,"connected_time":3384000000000,"state":"active","ping":79},{"user_id":74,"name":"Ekuseebia","steam_id":76561198037504112,"connected_time":2180000000000,"state":"active","ping":81},{"user_id":73,"name":"Nugakku","steam_id":76561198082346219,"connected_time":2219000000000,"state":"active","ping":56},{"user_id":85,"name":"GlizzLord","steam_id":76561198321010427,"connected_time":806000000000,"state":"active","ping":68},{"user_id":76,"name":"Genius Meme","steam_id":76561198162911254,"connected_time":1842000000000,"state":"active","ping":70},{"user_id":87,"name":"HeartAttack","steam_id":76561198135833968,"connected_time":694000000000,"state":"active","ping":60},{"user_id":32,"name":"Ballista","steam_id":76561197983182562,"connected_time":7118000000000,"state":"active","ping":75}]},{"server_id":112,"name":"Uncletopia | Los Angeles | 2 | All Maps","name_short":"lax-2","host":"lax-1.us.uncletopia.com","port":27025,"enabled":true,"region":"us-west","cc":"us","latitude":33.94279,"longitude":-118.41004,"reserved":0,"last_update":"0001-01-01T00:00:00Z","name_a2s":"Uncletopia | Los Angeles | 2 | All Maps","protocol":17,"map":"pl_borneo","folder":"tf","game":"Team Fortress","app_id":440,"player_count":22,"max_players":24,"Bots":0,"server_type":"Dedicated","server_os":"Linux","password":true,"vac":true,"version":"7882260","steam_id":85568392924469992,"keywords":["nocrits","nodmgspread","payload","uncletopia"],"game_id":440,"stv_port":27026,"stv_name":"Uncletopia | Los Angeles | 2 | All Maps | STV","players":[{"user_id":23,"name":"autumnal.messenger","steam_id":76561199345816635,"connected_time":1244000000000,"state":"active","ping":86},{"user_id":53,"name":"numa","steam_id":76561198856016840,"connected_time":18000000000,"state":"active","ping":110},{"user_id":55,"name":"korkskrou","steam_id":76561198422156430,"connected_time":8000000000,"state":"spawning","ping":73},{"user_id":14,"name":"DeathSushi","steam_id":76561199156131540,"connected_time":1570000000000,"state":"active","ping":90},{"user_id":40,"name":"rip ghost mountain","steam_id":76561198357132470,"connected_time":495000000000,"state":"active","ping":62},{"user_id":12,"name":"Spacious","steam_id":76561198850596342,"connected_time":1864000000000,"state":"active","ping":134},{"user_id":56,"name":"The Horselords and Animal Gods","steam_id":76561197975094050,"connected_time":0,"state":"spawning","ping":11},{"user_id":22,"name":"Rustyorion","steam_id":76561198439186347,"connected_time":1358000000000,"state":"active","ping":77},{"user_id":45,"name":"Mega_FT","steam_id":76561199231998048,"connected_time":171000000000,"state":"active","ping":70},{"user_id":46,"name":"CrackedSanity","steam_id":76561198279841251,"connected_time":169000000000,"state":"active","ping":43},{"user_id":47,"name":"just another femboy","steam_id":76561198901001178,"connected_time":169000000000,"state":"active","ping":126},{"user_id":48,"name":"DemoLiberTF2","steam_id":76561198095378689,"connected_time":161000000000,"state":"active","ping":84},{"user_id":26,"name":"Dededoo","steam_id":76561198279033471,"connected_time":1151000000000,"state":"active","ping":98},{"user_id":49,"name":"adolf tickler","steam_id":76561198163120788,"connected_time":155000000000,"state":"active","ping":41},{"user_id":28,"name":"Actually a Shoggoth","steam_id":76561198065857964,"connected_time":1044000000000,"state":"active","ping":101},{"user_id":30,"name":"Shmebulock","steam_id":76561198046941925,"connected_time":1030000000000,"state":"active","ping":110},{"user_id":31,"name":"DjWars","steam_id":76561198170954486,"connected_time":1013000000000,"state":"active","ping":87},{"user_id":50,"name":"Bot Maxwell","steam_id":76561198040781615,"connected_time":150000000000,"state":"active","ping":61},{"user_id":51,"name":"The Floor","steam_id":76561198883106408,"connected_time":135000000000,"state":"active","ping":127},{"user_id":41,"name":"kira","steam_id":76561199054467241,"connected_time":491000000000,"state":"active","ping":84},{"user_id":52,"name":"DropDoeJenna","steam_id":76561198029525335,"connected_time":129000000000,"state":"active","ping":127},{"user_id":37,"name":"Dr. Bubs","steam_id":76561198011696595,"connected_time":917000000000,"state":"active","ping":76}]},{"server_id":324,"name":"Uncletopia | Los Angeles | 3 | All Maps","name_short":"lax-3","host":"lax-1.us.uncletopia.com","port":27035,"enabled":true,"region":"us-west","cc":"us","latitude":33.94279,"longitude":-118.41004,"reserved":0,"last_update":"0001-01-01T00:00:00Z","name_a2s":"Uncletopia | Los Angeles | 3 | All Maps","protocol":17,"map":"pl_snowycoast","folder":"tf","game":"Team Fortress","app_id":440,"player_count":24,"max_players":24,"Bots":0,"server_type":"Dedicated","server_os":"Linux","password":true,"vac":true,"version":"7882260","steam_id":85568392924510198,"keywords":["nocrits","nodmgspread","payload","uncletopia"],"game_id":440,"stv_port":27036,"stv_name":"Uncletopia | Los Angeles | 3 | All Maps | STV","players":[{"user_id":10,"name":"MS Paint Gamer","steam_id":76561198964527916,"connected_time":4753000000000,"state":"active","ping":71},{"user_id":73,"name":"Dongus","steam_id":76561197979056451,"connected_time":964000000000,"state":"active","ping":76},{"user_id":8,"name":"Your kinky Onee-san","steam_id":76561199146582356,"connected_time":4791000000000,"state":"active","ping":84},{"user_id":77,"name":"Surfing Garchomp","steam_id":76561199107236884,"connected_time":448000000000,"state":"active","ping":89},{"user_id":72,"name":"dAiLyGrInD","steam_id":76561198163531915,"connected_time":982000000000,"state":"active","ping":90},{"user_id":12,"name":"Star","steam_id":76561198187728043,"connected_time":4706000000000,"state":"active","ping":45},{"user_id":40,"name":"Landlord","steam_id":76561198987913057,"connected_time":3806000000000,"state":"active","ping":68},{"user_id":19,"name":"awtem","steam_id":76561198083673187,"connected_time":4510000000000,"state":"active","ping":55},{"user_id":76,"name":"Drive-By-Fish-Guy","steam_id":76561198105513652,"connected_time":769000000000,"state":"active","ping":64},{"user_id":44,"name":"Truffles","steam_id":76561198095868800,"connected_time":3144000000000,"state":"active","ping":96},{"user_id":39,"name":"momus","steam_id":76561198966979196,"connected_time":4008000000000,"state":"active","ping":64},{"user_id":68,"name":"Gavial the Invincible","steam_id":76561198348354629,"connected_time":1046000000000,"state":"active","ping":41},{"user_id":45,"name":"Dani","steam_id":76561198348012378,"connected_time":3094000000000,"state":"active","ping":113},{"user_id":22,"name":"Brain Tumor","steam_id":76561198805526881,"connected_time":4483000000000,"state":"active","ping":132},{"user_id":66,"name":"Wolf","steam_id":76561199059733640,"connected_time":1071000000000,"state":"active","ping":65},{"user_id":56,"name":"Psych03","steam_id":76561198061753667,"connected_time":2167000000000,"state":"active","ping":49},{"user_id":74,"name":"Crusader","steam_id":76561198204260501,"connected_time":945000000000,"state":"active","ping":56},{"user_id":55,"name":"‚ô•Cat in a Tub‚ô•","steam_id":76561198170443243,"connected_time":2760000000000,"state":"active","ping":58},{"user_id":75,"name":"A pack of feral hogs","steam_id":76561198374279594,"connected_time":884000000000,"state":"active","ping":51},{"user_id":71,"name":"SleezeBaggerMcSwagger","steam_id":76561198397836238,"connected_time":1018000000000,"state":"active","ping":58},{"user_id":46,"name":"Perfume Department","steam_id":76561198128299594,"connected_time":3094000000000,"state":"active","ping":55},{"user_id":63,"name":"Natalie (she/her)","steam_id":76561198048848289,"connected_time":1358000000000,"state":"active","ping":60},{"user_id":47,"name":"BorstchBag","steam_id":76561198155294045,"connected_time":3077000000000,"state":"active","ping":97},{"user_id":69,"name":"Kamin","steam_id":76561198255299559,"connected_time":1033000000000,"state":"active","ping":100}]},{"server_id":25,"name":"Uncletopia | Los Angeles | 4 | Stopwatch Beta","name_short":"lax-4","host":"lax-1.us.uncletopia.com","port":27045,"enabled":true,"region":"us-west","cc":"us","latitude":33.94279,"longitude":-118.41004,"reserved":0,"last_update":"0001-01-01T00:00:00Z","name_a2s":"Uncletopia | Los Angeles | 4 | Stopwatch Beta","protocol":17,"map":"cp_granary","folder":"tf","game":"Team Fortress","app_id":440,"player_count":0,"max_players":24,"Bots":0,"server_type":"Dedicated","server_os":"Linux","password":true,"vac":true,"version":"7882260","steam_id":85568392924510199,"keywords":["cp","nocrits","nodmgspread","uncletopia"],"game_id":440,"stv_port":27046,"stv_name":"Uncletopia | Los Angeles | 4 | Stopwatch Beta | STV","players":null},{"server_id":11,"name":"Uncletopia | London | 1 | All Maps","name_short":"lon-1","host":"lon-1.uk.uncletopia.com","port":27015,"enabled":true,"region":"eu","cc":"gb","latitude":51.509865,"longitude":-0.118092,"reserved":0,"last_update":"0001-01-01T00:00:00Z","name_a2s":"Uncletopia | London | 1 | All Maps","protocol":17,"map":"pl_frontier_final","folder":"tf","game":"Team Fortress","app_id":440,"player_count":24,"max_players":24,"Bots":0,"server_type":"Dedicated","server_os":"Linux","password":true,"vac":true,"version":"7882260","steam_id":85568392924367362,"keywords":["nocrits","nodmgspread","payload","uncletopia"],"game_id":440,"stv_port":27016,"stv_name":"Uncletopia | London | 1 | All Maps | STV","players":[{"user_id":112,"name":"hidden_games","steam_id":76561198149683392,"connected_time":132000000000,"state":"active","ping":102},{"user_id":78,"name":"BuzzBees ‚ù§","steam_id":76561198101502273,"connected_time":3072000000000,"state":"active","ping":45},{"user_id":114,"name":"MR.THE TOASTER","steam_id":76561199109565739,"connected_time":4000000000,"state":"spawning","ping":148},{"user_id":6,"name":"gagalak","steam_id":76561198089979108,"connected_time":7617000000000,"state":"active","ping":102},{"user_id":99,"name":"Jackson News","steam_id":76561198401610939,"connected_time":1143000000000,"state":"active","ping":64},{"user_id":54,"name":"CEO of Monkey Business","steam_id":76561197970114051,"connected_time":5177000000000,"state":"active","ping":42},{"user_id":101,"name":"Critless","steam_id":76561198133968184,"connected_time":959000000000,"state":"active","ping":43},{"user_id":98,"name":"Micha≈Ç","steam_id":76561198320346362,"connected_time":1242000000000,"state":"active","ping":65},{"user_id":37,"name":"Cheshireycat","steam_id":76561198067204908,"connected_time":6040000000000,"state":"active","ping":56},{"user_id":75,"name":"KittyKate ‚ù§","steam_id":76561198116340817,"connected_time":3103000000000,"state":"active","ping":60},{"user_id":88,"name":"Doughy","steam_id":76561198044084210,"connected_time":1412000000000,"state":"active","ping":64},{"user_id":109,"name":"Tsuruko","steam_id":76561198063618114,"connected_time":496000000000,"state":"active","ping":75},{"user_id":108,"name":"theresabrokenlightinmykitchen","steam_id":76561199181105895,"connected_time":498000000000,"state":"active","ping":175},{"user_id":87,"name":"true","steam_id":76561198031145243,"connected_time":1421000000000,"state":"active","ping":77},{"user_id":57,"name":"cooler bones","steam_id":76561199480942903,"connected_time":4856000000000,"state":"active","ping":74},{"user_id":102,"name":"Taste","steam_id":76561197994506978,"connected_time":835000000000,"state":"active","ping":57},{"user_id":47,"name":"ZackMcRizzl","steam_id":76561198062075870,"connected_time":5489000000000,"state":"active","ping":67},{"user_id":48,"name":"puck","steam_id":76561198121260981,"connected_time":5480000000000,"state":"active","ping":36},{"user_id":85,"name":"Proto-arc","steam_id":76561198012776747,"connected_time":2220000000000,"state":"active","ping":58},{"user_id":65,"name":"DDUUCCKK","steam_id":76561198141953050,"connected_time":4269000000000,"state":"active","ping":53},{"user_id":89,"name":"anguish‚ù§Ô∏è","steam_id":76561198086442571,"connected_time":1411000000000,"state":"active","ping":45},{"user_id":66,"name":"bumblebrain","steam_id":76561198199117446,"connected_time":4022000000000,"state":"active","ping":55},{"user_id":110,"name":"ayecodex","steam_id":76561199477598858,"connected_time":463000000000,"state":"active","ping":130}]},{"server_id":114,"name":"Uncletopia | London | 2 | All Maps","name_short":"lon-2","host":"lon-1.uk.uncletopia.com","port":27025,"enabled":true,"region":"eu","cc":"gb","latitude":51.509865,"longitude":-0.118092,"reserved":0,"last_update":"0001-01-01T00:00:00Z","name_a2s":"Uncletopia | London | 2 | All Maps","protocol":17,"map":"pl_swiftwater_final1","folder":"tf","game":"Team Fortress","app_id":440,"player_count":0,"max_players":24,"Bots":0,"server_type":"Dedicated","server_os":"Linux","password":true,"vac":true,"version":"7882260","steam_id":85568392924470941,"keywords":["nocrits","nodmgspread","payload","uncletopia"],"game_id":440,"stv_port":27026,"stv_name":"Uncletopia | London | 2 | All Maps | STV","players":null},{"server_id":320,"name":"Uncletopia | London | 3 | All Maps","name_short":"lon-3","host":"lon-1.uk.uncletopia.com","port":27035,"enabled":true,"region":"eu","cc":"gb","latitude":51.509865,"longitude":-0.118092,"reserved":0,"last_update":"0001-01-01T00:00:00Z","name_a2s":"Uncletopia | London | 3 | All Maps","protocol":17,"map":"koth_highpass","folder":"tf","game":"Team Fortress","app_id":440,"player_count":0,"max_players":24,"Bots":0,"server_type":"Dedicated","server_os":"Linux","password":true,"vac":true,"version":"7882260","steam_id":85568392924510192,"keywords":["cp","nocrits","nodmgspread","uncletopia"],"game_id":440,"stv_port":27036,"stv_name":"Uncletopia | London | 3 | All Maps | STV","players":null},{"server_id":321,"name":"Uncletopia | London | 4 | All Maps","name_short":"lon-4","host":"lon-1.uk.uncletopia.com","port":27045,"enabled":true,"region":"eu","cc":"gb","latitude":51.509865,"longitude":-0.118092,"reserved":0,"last_update":"0001-01-01T00:00:00Z","name_a2s":"Uncletopia | London | 4 | All Maps","protocol":17,"map":"pl_upward","folder":"tf","game":"Team Fortress","app_id":440,"player_count":0,"max_players":24,"Bots":0,"server_type":"Dedicated","server_os":"Linux","password":true,"vac":true,"version":"7882260","steam_id":85568392924510193,"keywords":["nocrits","nodmgspread","payload","uncletopia"],"game_id":440,"stv_port":27046,"stv_name":"Uncletopia | London | 4 | All Maps | STV","players":null},{"server_id":21,"name":"Uncletopia | London | 5 | All Maps","name_short":"lon-5","host":"lon-1.uk.uncletopia.com","port":27055,"enabled":true,"region":"eu","cc":"gb","latitude":51.509865,"longitude":-0.118092,"reserved":0,"last_update":"0001-01-01T00:00:00Z","name_a2s":"Uncletopia | London | 5 | All Maps","protocol":17,"map":"pl_frontier_final","folder":"tf","game":"Team Fortress","app_id":440,"player_count":0,"max_players":24,"Bots":0,"server_type":"Dedicated","server_os":"Linux","password":true,"vac":true,"version":"7882260","steam_id":85568392924742829,"keywords":["nocrits","nodmgspread","payload","uncletopia"],"game_id":440,"stv_port":27056,"stv_name":"Uncletopia | London | 5 | All Maps | STV","players":null},{"server_id":22,"name":"Uncletopia | London | 6 | All Maps","name_short":"lon-6","host":"lon-1.uk.uncletopia.com","port":27065,"enabled":true,"region":"eu","cc":"gb","latitude":51.509865,"longitude":-0.118092,"reserved":0,"last_update":"0001-01-01T00:00:00Z","name_a2s":"Uncletopia | London | 6 | All Maps","protocol":17,"map":"cp_altitude","folder":"tf","game":"Team Fortress","app_id":440,"player_count":0,"max_players":24,"Bots":0,"server_type":"Dedicated","server_os":"Linux","password":true,"vac":true,"version":"7882260","steam_id":85568392924742830,"keywords":["cp","nocrits","nodmgspread","uncletopia"],"game_id":440,"stv_port":27066,"stv_name":"Uncletopia | London | 6 | All Maps | STV","players":null},{"server_id":40,"name":"Uncletopia | London | 7 | No Payload","name_short":"lon-7","host":"lon-1.uk.uncletopia.com","port":27075,"enabled":true,"region":"eu","cc":"gb","latitude":51.509865,"longitude":-0.118092,"reserved":0,"last_update":"0001-01-01T00:00:00Z","name_a2s":"Uncletopia | London | 7 | No Payload","protocol":17,"map":"pl_pier","folder":"tf","game":"Team Fortress","app_id":440,"player_count":0,"max_players":24,"Bots":0,"server_type":"Dedicated","server_os":"Linux","password":true,"vac":true,"version":"7882260","steam_id":85568392924964314,"keywords":["nocrits","nodmgspread","payload","uncletopia"],"game_id":440,"stv_port":27076,"stv_name":"Uncletopia | London | 7 | No Payload | STV","players":null},{"server_id":41,"name":"Uncletopia | London | 8 | Community","name_short":"lon-8","host":"lon-1.uk.uncletopia.com","port":27085,"enabled":true,"region":"eu","cc":"gb","latitude":51.509865,"longitude":-0.118092,"reserved":0,"last_update":"0001-01-01T00:00:00Z","name_a2s":"Uncletopia | London | 8 | Community","protocol":17,"map":"pl_swiftwater_final1","folder":"tf","game":"Team Fortress","app_id":440,"player_count":0,"max_players":24,"Bots":0,"server_type":"Dedicated","server_os":"Linux","password":true,"vac":true,"version":"7882260","steam_id":85568392924964315,"keywords":["nocrits","nodmgspread","payload","uncletopia"],"game_id":440,"stv_port":27086,"stv_name":"Uncletopia | London | 8 | Community | STV","players":null},{"server_id":300,"name":"Uncletopia | Montr√©al | 1 | All Maps","name_short":"mtl-1","host":"mtl-1.ca.uncletopia.com","port":27015,"enabled":true,"region":"us-east","cc":"ca","latitude":45.50889,"longitude":-73.56167,"reserved":0,"last_update":"0001-01-01T00:00:00Z","name_a2s":"Uncletopia | Montr√©al | 1 | All Maps","protocol":17,"map":"koth_viaduct","folder":"tf","game":"Team Fortress","app_id":440,"player_count":0,"max_players":24,"Bots":0,"server_type":"Dedicated","server_os":"Linux","password":true,"vac":true,"version":"7882260","steam_id":85568392924500087,"keywords":["cp","nocrits","nodmgspread","uncletopia"],"game_id":440,"stv_port":27016,"stv_name":"Uncletopia | Montr√©al | 1 | All Maps | STV","players":null},{"server_id":301,"name":"Uncletopia | Montr√©al | 2 | All Maps","name_short":"mtl-2","host":"mtl-1.ca.uncletopia.com","port":27025,"enabled":true,"region":"us-east","cc":"ca","latitude":45.50889,"longitude":-73.56167,"reserved":0,"last_update":"0001-01-01T00:00:00Z","name_a2s":"Uncletopia | Montr√©al | 2 | All Maps","protocol":17,"map":"cp_sunshine","folder":"tf","game":"Team Fortress","app_id":440,"player_count":0,"max_players":24,"Bots":0,"server_type":"Dedicated","server_os":"Linux","password":true,"vac":true,"version":"7882260","steam_id":85568392924500088,"keywords":["cp","nocrits","nodmgspread","uncletopia"],"game_id":440,"stv_port":27026,"stv_name":"Uncletopia | Montr√©al | 2 | All Maps | STV","players":null},{"server_id":302,"name":"Uncletopia | Montr√©al | 3 | All Maps","name_short":"mtl-3","host":"mtl-1.ca.uncletopia.com","port":27035,"enabled":true,"region":"us-east","cc":"ca","latitude":45.50889,"longitude":-73.56167,"reserved":0,"last_update":"0001-01-01T00:00:00Z","name_a2s":"Uncletopia | Montr√©al | 3 | All Maps","protocol":17,"map":"pl_pier","folder":"tf","game":"Team Fortress","app_id":440,"player_count":23,"max_players":24,"Bots":0,"server_type":"Dedicated","server_os":"Linux","password":true,"vac":true,"version":"7882260","steam_id":85568392924500089,"keywords":["nocrits","nodmgspread","payload","uncletopia"],"game_id":440,"stv_port":27036,"stv_name":"Uncletopia | Montr√©al | 3 | All Maps | STV","players":[{"user_id":155,"name":"Monsieur l'INGENIEUR","steam_id":76561198090504334,"connected_time":187000000000,"state":"active","ping":50},{"user_id":41,"name":"johcorn","steam_id":76561198983795255,"connected_time":4253000000000,"state":"active","ping":68},{"user_id":5,"name":"YesMargaret","steam_id":76561198127971751,"connected_time":6052000000000,"state":"active","ping":56},{"user_id":117,"name":"CrunchCisco","steam_id":76561199162724832,"connected_time":1701000000000,"state":"active","ping":95},{"user_id":135,"name":"slack","steam_id":76561198000564263,"connected_time":1499000000000,"state":"active","ping":75},{"user_id":91,"name":"Diarrhea Gaming","steam_id":76561198090589784,"connected_time":2198000000000,"state":"active","ping":80},{"user_id":77,"name":"DiscoTraveler","steam_id":76561199240168088,"connected_time":2679000000000,"state":"active","ping":53},{"user_id":140,"name":"java","steam_id":76561198030276792,"connected_time":1311000000000,"state":"active","ping":60},{"user_id":148,"name":"too deep for most to understand","steam_id":76561198022636144,"connected_time":881000000000,"state":"active","ping":54},{"user_id":145,"name":"hoarse whisperer","steam_id":76561198106690989,"connected_time":1209000000000,"state":"active","ping":60},{"user_id":144,"name":"Oneal","steam_id":76561198026564095,"connected_time":1222000000000,"state":"active","ping":45},{"user_id":150,"name":"Ultimate Prinny Battle God!","steam_id":76561198087574100,"connected_time":815000000000,"state":"active","ping":123},{"user_id":76,"name":"Rukh","steam_id":76561197999361315,"connected_time":2703000000000,"state":"active","ping":115},{"user_id":156,"name":"Frontier Psychiatrist","steam_id":76561198038689088,"connected_time":136000000000,"state":"active","ping":104},{"user_id":151,"name":"MisterDanny8","steam_id":76561198048847182,"connected_time":759000000000,"state":"active","ping":87},{"user_id":157,"name":"viaodeegsm","steam_id":76561198025295263,"connected_time":38000000000,"state":"active","ping":84},{"user_id":147,"name":"psychic","steam_id":76561198070903458,"connected_time":1092000000000,"state":"active","ping":63},{"user_id":138,"name":"AlecTheNefarious","steam_id":76561198035291230,"connected_time":1467000000000,"state":"active","ping":75},{"user_id":37,"name":"Sleggie","steam_id":76561198027878872,"connected_time":4523000000000,"state":"active","ping":52},{"user_id":154,"name":"Ramix","steam_id":76561198120419206,"connected_time":656000000000,"state":"active","ping":75},{"user_id":149,"name":"MondoDong","steam_id":76561197991400109,"connected_time":874000000000,"state":"active","ping":70},{"user_id":136,"name":"gengarfan204932","steam_id":76561198332704108,"connected_time":1490000000000,"state":"active","ping":68},{"user_id":139,"name":"Jattiti","steam_id":76561199214217870,"connected_time":1467000000000,"state":"active","ping":86}]},{"server_id":303,"name":"Uncletopia | Montr√©al | 4 | No Payload","name_short":"mtl-4","host":"mtl-1.ca.uncletopia.com","port":27045,"enabled":true,"region":"us-east","cc":"ca","latitude":45.50889,"longitude":-73.56167,"reserved":0,"last_update":"0001-01-01T00:00:00Z","name_a2s":"Uncletopia | Montr√©al | 4 | No Payload","protocol":17,"map":"cp_altitude","folder":"tf","game":"Team Fortress","app_id":440,"player_count":0,"max_players":24,"Bots":0,"server_type":"Dedicated","server_os":"Linux","password":true,"vac":true,"version":"7882260","steam_id":85568392924500090,"keywords":["cp","nocrits","nodmgspread","uncletopia"],"game_id":440,"stv_port":27046,"stv_name":"Uncletopia | Montr√©al | 4 | No Payload | STV","players":null},{"server_id":13,"name":"Uncletopia | New York City | 1 | All Maps","name_short":"nyc-1","host":"nyc-1.us.uncletopia.com","port":27015,"enabled":true,"region":"us-east","cc":"us","latitude":40.73061,"longitude":-73.93524,"reserved":0,"last_update":"0001-01-01T00:00:00Z","name_a2s":"Uncletopia | New York City | 1 | All Maps","protocol":17,"map":"pl_badwater","folder":"tf","game":"Team Fortress","app_id":440,"player_count":24,"max_players":24,"Bots":0,"server_type":"Dedicated","server_os":"Linux","password":true,"vac":true,"version":"7882260","steam_id":85568392924469993,"keywords":["nocrits","nodmgspread","payload","uncletopia"],"game_id":440,"stv_port":27016,"stv_name":"Uncletopia | New York City | 1 | All Maps | STV","players":[{"user_id":120,"name":"tokyo","steam_id":76561199013458589,"connected_time":788000000000,"state":"active","ping":62},{"user_id":102,"name":"Hoofuyu","steam_id":76561199022142345,"connected_time":2300000000000,"state":"active","ping":84},{"user_id":55,"name":"Sera","steam_id":76561197994547338,"connected_time":5534000000000,"state":"active","ping":50},{"user_id":129,"name":"Kite","steam_id":76561199060915563,"connected_time":339000000000,"state":"active","ping":100},{"user_id":123,"name":"Guy In A Peashooter Costume","steam_id":76561198832738000,"connected_time":577000000000,"state":"active","ping":80},{"user_id":75,"name":"abed","steam_id":76561198072856511,"connected_time":4045000000000,"state":"active","ping":70},{"user_id":121,"name":"Failtastic","steam_id":76561198994009973,"connected_time":684000000000,"state":"active","ping":53},{"user_id":124,"name":"sirsmit1","steam_id":76561199129778001,"connected_time":566000000000,"state":"active","ping":130},{"user_id":136,"name":"Daddys Home","steam_id":76561198034702011,"connected_time":96000000000,"state":"active","ping":63},{"user_id":87,"name":"cellogamer","steam_id":76561198016937098,"connected_time":2974000000000,"state":"active","ping":54},{"user_id":100,"name":"smuffy","steam_id":76561198091459506,"connected_time":2374000000000,"state":"active","ping":57},{"user_id":125,"name":"Grilled Jizo","steam_id":76561199250875340,"connected_time":561000000000,"state":"active","ping":100},{"user_id":118,"name":"oinkpig234","steam_id":76561198883733811,"connected_time":837000000000,"state":"active","ping":86},{"user_id":88,"name":"vukdrako","steam_id":76561198818135010,"connected_time":2971000000000,"state":"active","ping":137},{"user_id":134,"name":"mika kagehira","steam_id":76561198799326339,"connected_time":128000000000,"state":"active","ping":35},{"user_id":119,"name":"country boy needin' an emo girl","steam_id":76561198044117758,"connected_time":810000000000,"state":"active","ping":75},{"user_id":131,"name":"Kronk","steam_id":76561198063092125,"connected_time":243000000000,"state":"active","ping":63},{"user_id":122,"name":"ShaqtusHD(She/Her)","steam_id":76561199138286233,"connected_time":659000000000,"state":"active","ping":66},{"user_id":90,"name":"fug","steam_id":76561198043706112,"connected_time":2918000000000,"state":"active","ping":42},{"user_id":135,"name":"Kiwimpediment","steam_id":76561198322781400,"connected_time":121000000000,"state":"active","ping":86},{"user_id":128,"name":"Gandalf's Old Man Farts","steam_id":76561198058300151,"connected_time":450000000000,"state":"active","ping":93},{"user_id":117,"name":"Ramalho","steam_id":76561198909009076,"connected_time":890000000000,"state":"active","ping":151},{"user_id":130,"name":"gabaghoulio","steam_id":76561198013650292,"connected_time":339000000000,"state":"active","ping":106},{"user_id":133,"name":"Testiclitz Penischmidt","steam_id":76561198050582941,"connected_time":166000000000,"state":"active","ping":72}]},{"server_id":14,"name":"Uncletopia | New York City | 2 | All Maps","name_short":"nyc-2","host":"nyc-1.us.uncletopia.com","port":27025,"enabled":true,"region":"us-east","cc":"us","latitude":40.73061,"longitude":-73.93524,"reserved":0,"last_update":"0001-01-01T00:00:00Z","name_a2s":"Uncletopia | New York City | 2 | All Maps","protocol":17,"map":"pl_pier","folder":"tf","game":"Team Fortress","app_id":440,"player_count":24,"max_players":24,"Bots":0,"server_type":"Dedicated","server_os":"Linux","password":true,"vac":true,"version":"7882260","steam_id":85568392924469994,"keywords":["nocrits","nodmgspread","payload","uncletopia"],"game_id":440,"stv_port":27026,"stv_name":"Uncletopia | New York City | 2 | All Maps | STV","players":[{"user_id":108,"name":"medd","steam_id":76561198078238722,"connected_time":679000000000,"state":"active","ping":128},{"user_id":109,"name":"Lesbian Chungus","steam_id":76561198055964295,"connected_time":593000000000,"state":"active","ping":60},{"user_id":117,"name":"Necron","steam_id":76561197970864818,"connected_time":486000000000,"state":"active","ping":83},{"user_id":112,"name":"Cutting board from Ikea","steam_id":76561199103496130,"connected_time":538000000000,"state":"active","ping":124},{"user_id":105,"name":"Meh","steam_id":76561198078187920,"connected_time":916000000000,"state":"active","ping":90},{"user_id":124,"name":"Glad","steam_id":76561199388372220,"connected_time":42000000000,"state":"active","ping":56},{"user_id":118,"name":"Dr Lamentable Lamantin","steam_id":76561197994404905,"connected_time":464000000000,"state":"active","ping":59},{"user_id":73,"name":"evnobev","steam_id":76561198038966462,"connected_time":2906000000000,"state":"active","ping":42},{"user_id":110,"name":"Mr.Strabby","steam_id":76561199062155197,"connected_time":583000000000,"state":"active","ping":63},{"user_id":99,"name":"MetalKidDoc","steam_id":76561198108741986,"connected_time":1362000000000,"state":"active","ping":87},{"user_id":111,"name":"BoopBerry","steam_id":76561198871571711,"connected_time":554000000000,"state":"active","ping":72},{"user_id":123,"name":"Lin","steam_id":76561198143746480,"connected_time":45000000000,"state":"active","ping":126},{"user_id":85,"name":"flappyflap2","steam_id":76561198285048973,"connected_time":1947000000000,"state":"active","ping":45},{"user_id":18,"name":"bimbo blow up doll! \u003c3","steam_id":76561198959541006,"connected_time":6655000000000,"state":"active","ping":61},{"user_id":89,"name":"WALL-E","steam_id":76561198154701370,"connected_time":1509000000000,"state":"active","ping":66},{"user_id":20,"name":"Homosexual Warmachine","steam_id":76561198040425096,"connected_time":6648000000000,"state":"active","ping":83},{"user_id":113,"name":"The Man Of Meth","steam_id":76561199150424471,"connected_time":532000000000,"state":"active","ping":132},{"user_id":122,"name":"Ricky Dicky Doo Dah Grimes","steam_id":76561198143221900,"connected_time":78000000000,"state":"active","ping":54},{"user_id":121,"name":"luiggi (that's me)","steam_id":76561199111418221,"connected_time":404000000000,"state":"active","ping":105},{"user_id":107,"name":"popeyes shootout","steam_id":76561198089450831,"connected_time":800000000000,"state":"active","ping":60},{"user_id":96,"name":"JHLO","steam_id":76561198074359967,"connected_time":1450000000000,"state":"active","ping":57},{"user_id":114,"name":"Allister","steam_id":76561197999823352,"connected_time":527000000000,"state":"active","ping":44},{"user_id":119,"name":"JtsRes","steam_id":76561197994809241,"connected_time":455000000000,"state":"active","ping":92},{"user_id":116,"name":"OneTrueCorvid","steam_id":76561199012953221,"connected_time":501000000000,"state":"active","ping":93}]},{"server_id":15,"name":"Uncletopia | New York City | 3 | Stopwatch Beta","name_short":"nyc-3","host":"nyc-1.us.uncletopia.com","port":27035,"enabled":true,"region":"us-east","cc":"us","latitude":40.73061,"longitude":-73.93524,"reserved":0,"last_update":"0001-01-01T00:00:00Z","name_a2s":"Uncletopia | New York City | 3 | Stopwatch Beta","protocol":17,"map":"workshop/koth_ramjam_rc1.ugc459778887","folder":"tf","game":"Team Fortress","app_id":440,"player_count":0,"max_players":24,"Bots":0,"server_type":"Dedicated","server_os":"Linux","password":true,"vac":true,"version":"7882260","steam_id":85568392924742820,"keywords":["cp","nocrits","nodmgspread","uncletopia"],"game_id":440,"stv_port":27036,"stv_name":"Uncletopia | New York City | 3 | Stopwatch Beta | STV","players":null},{"server_id":16,"name":"Uncletopia | New York City | 4 | Community","name_short":"nyc-4","host":"nyc-1.us.uncletopia.com","port":27045,"enabled":true,"region":"us-east","cc":"us","latitude":40.73061,"longitude":-73.93524,"reserved":0,"last_update":"0001-01-01T00:00:00Z","name_a2s":"Uncletopia | New York City | 4 | Community","protocol":17,"map":"workshop/cp_logjam_rc12.ugc454812035","folder":"tf","game":"Team Fortress","app_id":440,"player_count":23,"max_players":24,"Bots":0,"server_type":"Dedicated","server_os":"Linux","password":true,"vac":true,"version":"7882260","steam_id":85568392924742821,"keywords":["cp","nocrits","nodmgspread","uncletopia"],"game_id":440,"stv_port":27046,"stv_name":"Uncletopia | New York City | 4 | Community | STV","players":[{"user_id":81,"name":"Watch Out!!!!","steam_id":76561198296867197,"connected_time":657000000000,"state":"active","ping":77},{"user_id":61,"name":"Hot Milk + Sweet Delight","steam_id":76561197988989149,"connected_time":1299000000000,"state":"active","ping":101},{"user_id":89,"name":"Exio","steam_id":76561198218639325,"connected_time":373000000000,"state":"active","ping":64},{"user_id":65,"name":"watchfull","steam_id":76561198433266742,"connected_time":1093000000000,"state":"active","ping":116},{"user_id":82,"name":"oomper","steam_id":76561199189982701,"connected_time":542000000000,"state":"active","ping":104},{"user_id":76,"name":"OminousNoises","steam_id":76561198263320321,"connected_time":817000000000,"state":"active","ping":133},{"user_id":90,"name":"White Boy Freestyle #337","steam_id":76561198880396651,"connected_time":363000000000,"state":"active","ping":74},{"user_id":85,"name":"sirphantomphoenix","steam_id":76561198139679582,"connected_time":491000000000,"state":"active","ping":98},{"user_id":86,"name":"three4est","steam_id":76561199095920505,"connected_time":438000000000,"state":"active","ping":68},{"user_id":60,"name":"Kasodani Kyouko","steam_id":76561198023178589,"connected_time":1387000000000,"state":"active","ping":80},{"user_id":84,"name":"Fish_man_Jon","steam_id":76561198068158264,"connected_time":495000000000,"state":"active","ping":84},{"user_id":63,"name":"jemmesk","steam_id":76561198147787974,"connected_time":1131000000000,"state":"active","ping":93},{"user_id":56,"name":"Convict Police Officers","steam_id":76561197993527275,"connected_time":1896000000000,"state":"active","ping":61},{"user_id":78,"name":"JMan","steam_id":76561198367705381,"connected_time":770000000000,"state":"active","ping":150},{"user_id":66,"name":"wafflehamster2000","steam_id":76561198849161820,"connected_time":1075000000000,"state":"active","ping":76},{"user_id":103,"name":"Goofball","steam_id":76561198061211537,"connected_time":39000000000,"state":"active","ping":71},{"user_id":69,"name":"bob","steam_id":76561198156542784,"connected_time":1002000000000,"state":"active","ping":101},{"user_id":88,"name":"Anhkrehg","steam_id":76561197963201684,"connected_time":414000000000,"state":"active","ping":80},{"user_id":95,"name":"Barlon","steam_id":76561198023717515,"connected_time":285000000000,"state":"active","ping":58},{"user_id":100,"name":"Lexabyte","steam_id":76561198065032237,"connected_time":115000000000,"state":"active","ping":62},{"user_id":73,"name":"d-fens","steam_id":76561197969414326,"connected_time":935000000000,"state":"active","ping":67},{"user_id":74,"name":"Zhenaj","steam_id":76561199209016136,"connected_time":934000000000,"state":"active","ping":68},{"user_id":93,"name":"Randumb","steam_id":76561199083286636,"connected_time":326000000000,"state":"active","ping":64}]},{"server_id":142,"name":"Uncletopia | S√£o Paulo | 1 | All Maps","name_short":"sao-1","host":"sao-1.br.uncletopia.com","port":27015,"enabled":true,"region":"sa","cc":"br","latitude":-23.533773,"longitude":-46.62529,"reserved":0,"last_update":"0001-01-01T00:00:00Z","name_a2s":"Uncletopia | S√£o Paulo | 1 | All Maps","protocol":17,"map":"koth_lakeside_final","folder":"tf","game":"Team Fortress","app_id":440,"player_count":0,"max_players":24,"Bots":0,"server_type":"Dedicated","server_os":"Linux","password":true,"vac":true,"version":"7882260","steam_id":85568392924469996,"keywords":["cp","nocrits","nodmgspread","uncletopia"],"game_id":440,"stv_port":27016,"stv_name":"Uncletopia | S√£o Paulo | 1 | All Maps | STV","players":null},{"server_id":143,"name":"Uncletopia | S√£o Paulo | 2 | All Maps","name_short":"sao-2","host":"sao-2.br.uncletopia.com","port":27015,"enabled":true,"region":"sa","cc":"br","latitude":-23.533773,"longitude":-46.62529,"reserved":0,"last_update":"0001-01-01T00:00:00Z","name_a2s":"Uncletopia | S√£o Paulo | 2 | All Maps","protocol":17,"map":"pl_pier","folder":"tf","game":"Team Fortress","app_id":440,"player_count":0,"max_players":24,"Bots":0,"server_type":"Dedicated","server_os":"Linux","password":true,"vac":true,"version":"7882260","steam_id":85568392924485349,"keywords":["nocrits","nodmgspread","payload","uncletopia"],"game_id":440,"stv_port":27016,"stv_name":"Uncletopia | S√£o Paulo | 2 | All Maps | STV","players":null},{"server_id":7,"name":"Uncletopia | Seattle | 1 | All Maps","name_short":"sea-1","host":"sea-1.us.uncletopia.com","port":27015,"enabled":true,"region":"us-west","cc":"us","latitude":47.608013,"longitude":-122.33517,"reserved":0,"last_update":"0001-01-01T00:00:00Z","name_a2s":"Uncletopia | Seattle | 1 | All Maps","protocol":17,"map":"pl_swiftwater_final1","folder":"tf","game":"Team Fortress","app_id":440,"player_count":24,"max_players":24,"Bots":0,"server_type":"Dedicated","server_os":"Linux","password":true,"vac":true,"version":"7882260","steam_id":85568392924469997,"keywords":["nocrits","nodmgspread","payload","uncletopia"],"game_id":440,"stv_port":27016,"stv_name":"Uncletopia | Seattle | 1 | All Maps | STV","players":[{"user_id":3,"name":"liliLovesUnicorns83","steam_id":76561199391478575,"connected_time":7628000000000,"state":"active","ping":79},{"user_id":128,"name":"SibilantSerpent","steam_id":76561198154488754,"connected_time":624000000000,"state":"active","ping":47},{"user_id":37,"name":"forest (girldick)","steam_id":76561198157960257,"connected_time":6908000000000,"state":"active","ping":56},{"user_id":124,"name":"Transfem with a gun","steam_id":76561199064861814,"connected_time":914000000000,"state":"active","ping":44},{"user_id":121,"name":"boogers and brain rot","steam_id":76561198855586261,"connected_time":1554000000000,"state":"active","ping":61},{"user_id":131,"name":"Idontknow","steam_id":76561199207044048,"connected_time":45000000000,"state":"active","ping":75},{"user_id":109,"name":"BlitzB@t","steam_id":76561198299318000,"connected_time":2273000000000,"state":"spawning","ping":45},{"user_id":132,"name":"Mishy-Moosh","steam_id":76561198843329050,"connected_time":11000000000,"state":"active","ping":131},{"user_id":129,"name":"CreativeUsername","steam_id":76561198186045503,"connected_time":614000000000,"state":"active","ping":142},{"user_id":88,"name":"Chmiken","steam_id":76561199041966499,"connected_time":4173000000000,"state":"active","ping":70},{"user_id":99,"name":"Saul Goodman","steam_id":76561198354289529,"connected_time":3704000000000,"state":"spawning","ping":97},{"user_id":130,"name":"Mr8bittripper","steam_id":76561198133894229,"connected_time":602000000000,"state":"active","ping":86},{"user_id":55,"name":"Battery Acid Addict","steam_id":76561198439793697,"connected_time":5955000000000,"state":"active","ping":121},{"user_id":117,"name":"Mignyanne :3","steam_id":76561198048754056,"connected_time":1649000000000,"state":"active","ping":53},{"user_id":104,"name":"‚ù§ Ashley ‚ù§","steam_id":76561198056428303,"connected_time":2981000000000,"state":"active","ping":71},{"user_id":80,"name":"Meat","steam_id":76561198077788013,"connected_time":4383000000000,"state":"active","ping":100},{"user_id":100,"name":"HiFivr","steam_id":76561198285190162,"connected_time":3387000000000,"state":"active","ping":73},{"user_id":25,"name":"Dreysidel","steam_id":76561198056496183,"connected_time":7312000000000,"state":"active","ping":135},{"user_id":115,"name":"AmiableNebula","steam_id":76561198094306627,"connected_time":1670000000000,"state":"active","ping":87},{"user_id":123,"name":"124je121","steam_id":76561198453203619,"connected_time":930000000000,"state":"active","ping":101},{"user_id":118,"name":"FiddyFoMike","steam_id":76561198057072581,"connected_time":1649000000000,"state":"active","ping":62},{"user_id":89,"name":"AceSea","steam_id":76561198851176490,"connected_time":4167000000000,"state":"active","ping":61},{"user_id":125,"name":"Agent86","steam_id":76561198046794593,"connected_time":733000000000,"state":"active","ping":117},{"user_id":133,"name":"self sufficient kitten","steam_id":76561197960592612,"connected_time":11000000000,"state":"active","ping":44}]},{"server_id":119,"name":"Uncletopia | Seattle | 2 | All Maps","name_short":"sea-2","host":"sea-1.us.uncletopia.com","port":27025,"enabled":true,"region":"us-west","cc":"us","latitude":47.608013,"longitude":-122.33517,"reserved":0,"last_update":"0001-01-01T00:00:00Z","name_a2s":"Uncletopia | Seattle | 2 | All Maps","protocol":17,"map":"pl_upward","folder":"tf","game":"Team Fortress","app_id":440,"player_count":23,"max_players":24,"Bots":0,"server_type":"Dedicated","server_os":"Linux","password":true,"vac":true,"version":"7882260","steam_id":85568392924469998,"keywords":["nocrits","nodmgspread","payload","uncletopia"],"game_id":440,"stv_port":27026,"stv_name":"Uncletopia | Seattle | 2 | All Maps | STV","players":[{"user_id":123,"name":"shitass (Gungo Gap)","steam_id":76561198210572481,"connected_time":1046000000000,"state":"active","ping":74},{"user_id":12,"name":"misterspud","steam_id":76561198195306218,"connected_time":6462000000000,"state":"active","ping":92},{"user_id":94,"name":"BANGARANG","steam_id":76561198816597453,"connected_time":2294000000000,"state":"active","ping":96},{"user_id":125,"name":"Rafl","steam_id":76561198055222756,"connected_time":833000000000,"state":"active","ping":92},{"user_id":115,"name":"76561198116667442","steam_id":76561198116667442,"connected_time":1349000000000,"state":"active","ping":117},{"user_id":83,"name":"HideOnTate","steam_id":76561198209880837,"connected_time":3223000000000,"state":"active","ping":47},{"user_id":98,"name":"K2f","steam_id":76561198049600563,"connected_time":2211000000000,"state":"active","ping":68},{"user_id":104,"name":"Furrio","steam_id":76561198174104607,"connected_time":2003000000000,"state":"active","ping":97},{"user_id":117,"name":"LukeyPooky","steam_id":76561198844240215,"connected_time":1276000000000,"state":"active","ping":83},{"user_id":121,"name":"MyMonkeyBaby","steam_id":76561198046896670,"connected_time":1064000000000,"state":"active","ping":55},{"user_id":33,"name":"G. Howard Dee","steam_id":76561198058382812,"connected_time":6211000000000,"state":"active","ping":79},{"user_id":112,"name":"gloobern","steam_id":76561198341190679,"connected_time":1462000000000,"state":"active","ping":66},{"user_id":118,"name":"incredirocks","steam_id":76561198061079993,"connected_time":1133000000000,"state":"active","ping":94},{"user_id":129,"name":"Captain Boopers","steam_id":76561197980385816,"connected_time":47000000000,"state":"active","ping":56},{"user_id":128,"name":"themadlad67","steam_id":76561199309554436,"connected_time":214000000000,"state":"active","ping":52},{"user_id":126,"name":"Rain","steam_id":76561198065612273,"connected_time":764000000000,"state":"active","ping":49},{"user_id":96,"name":"_normal","steam_id":76561198338505734,"connected_time":2217000000000,"state":"active","ping":105},{"user_id":50,"name":"Ockulus","steam_id":76561199069638460,"connected_time":5479000000000,"state":"active","ping":80},{"user_id":108,"name":"shy guy","steam_id":76561198151246059,"connected_time":1847000000000,"state":"active","ping":65},{"user_id":103,"name":"C U Next Tuesday","steam_id":76561198058493492,"connected_time":2090000000000,"state":"active","ping":54},{"user_id":124,"name":"Aux","steam_id":76561199091651065,"connected_time":861000000000,"state":"active","ping":70},{"user_id":113,"name":"M9 Shyamalan","steam_id":76561198149425560,"connected_time":1426000000000,"state":"active","ping":88},{"user_id":120,"name":"Effie","steam_id":76561198261842068,"connected_time":1085000000000,"state":"active","ping":128}]},{"server_id":406,"name":"Uncletopia | Seattle | 3 | Stopwatch Beta","name_short":"sea-3","host":"sea-1.us.uncletopia.com","port":27035,"enabled":true,"region":"us-west","cc":"us","latitude":47.608013,"longitude":-122.33517,"reserved":0,"last_update":"0001-01-01T00:00:00Z","name_a2s":"Uncletopia | Seattle | 3 | Stopwatch Beta","protocol":17,"map":"workshop/koth_ramjam_rc1.ugc459778887","folder":"tf","game":"Team Fortress","app_id":440,"player_count":24,"max_players":24,"Bots":0,"server_type":"Dedicated","server_os":"Linux","password":true,"vac":true,"version":"7882260","steam_id":85568392924515217,"keywords":["cp","nocrits","nodmgspread","uncletopia"],"game_id":440,"stv_port":27036,"stv_name":"Uncletopia | Seattle | 3 | Stopwatch Beta | STV","players":[{"user_id":29,"name":"Reven596","steam_id":76561198885592765,"connected_time":1322000000000,"state":"active","ping":79},{"user_id":4,"name":"asm_ghost","steam_id":76561199205363547,"connected_time":3526000000000,"state":"active","ping":90},{"user_id":41,"name":"yaug","steam_id":76561197971550679,"connected_time":656000000000,"state":"active","ping":112},{"user_id":8,"name":"‡ºò ‚ãÜÀöüéßCaffeine‚òï*Àñ¬∞","steam_id":76561199259309294,"connected_time":1992000000000,"state":"active","ping":125},{"user_id":9,"name":"Belmore","steam_id":76561198009355231,"connected_time":1978000000000,"state":"active","ping":75},{"user_id":43,"name":"the storm that is aproaching","steam_id":76561199281727720,"connected_time":599000000000,"state":"active","ping":83},{"user_id":38,"name":"communism's weakest engineer","steam_id":76561198011331991,"connected_time":844000000000,"state":"active","ping":48},{"user_id":13,"name":"trackpad gaming | f2p","steam_id":76561198840414371,"connected_time":1642000000000,"state":"active","ping":49},{"user_id":15,"name":"mrbutter","steam_id":76561198313426539,"connected_time":1594000000000,"state":"active","ping":87},{"user_id":16,"name":"DJpocalypse","steam_id":76561199230125964,"connected_time":1590000000000,"state":"active","ping":143},{"user_id":49,"name":"chocky","steam_id":76561198057491296,"connected_time":34000000000,"state":"active","ping":46},{"user_id":45,"name":"BasedGod","steam_id":76561198061177973,"connected_time":539000000000,"state":"active","ping":61},{"user_id":46,"name":"TheRealChizz","steam_id":76561198016055769,"connected_time":538000000000,"state":"active","ping":70},{"user_id":37,"name":"bearzy","steam_id":76561199180441047,"connected_time":960000000000,"state":"active","ping":45},{"user_id":27,"name":"Rain","steam_id":76561199238294915,"connected_time":1341000000000,"state":"active","ping":81},{"user_id":22,"name":"I'mFromSpace","steam_id":76561198808969653,"connected_time":1441000000000,"state":"spawning","ping":165},{"user_id":30,"name":"Floaty","steam_id":76561198100029503,"connected_time":1285000000000,"state":"active","ping":58},{"user_id":48,"name":"flatterghast","steam_id":76561198311738473,"connected_time":364000000000,"state":"active","ping":61},{"user_id":44,"name":"Wheaties","steam_id":76561198060909578,"connected_time":594000000000,"state":"active","ping":59},{"user_id":26,"name":"Acto","steam_id":76561198043025164,"connected_time":1360000000000,"state":"active","ping":57},{"user_id":32,"name":"liftin'","steam_id":76561199089515791,"connected_time":1233000000000,"state":"active","ping":78},{"user_id":33,"name":"Power Jake","steam_id":76561198051510260,"connected_time":1196000000000,"state":"active","ping":61},{"user_id":47,"name":"Heartgold","steam_id":76561199062592062,"connected_time":482000000000,"state":"active","ping":131},{"user_id":50,"name":"yello_milk","steam_id":76561198082463478,"connected_time":27000000000,"state":"active","ping":103}]},{"server_id":17,"name":"Uncletopia | San Francisco | 1 | All Maps","name_short":"sfo-1","host":"sfo-1.us.uncletopia.com","port":27015,"enabled":true,"region":"us-west","cc":"us","latitude":37.77397,"longitude":-122.4313,"reserved":0,"last_update":"0001-01-01T00:00:00Z","name_a2s":"Uncletopia | San Francisco | 1 | All Maps","protocol":17,"map":"cp_process_final","folder":"tf","game":"Team Fortress","app_id":440,"player_count":0,"max_players":24,"Bots":0,"server_type":"Dedicated","server_os":"Linux","password":true,"vac":true,"version":"7757534","steam_id":85568392924469999,"keywords":["cp","nocrits","nodmgspread","uncletopia"],"game_id":440,"stv_port":27016,"stv_name":"Uncletopia | San Francisco | 1 | All Maps | STV","players":null},{"server_id":18,"name":"Uncletopia | San Francisco | 2 | All Maps","name_short":"sfo-2","host":"sfo-1.us.uncletopia.com","port":27025,"enabled":true,"region":"us-west","cc":"us","latitude":37.77397,"longitude":-122.4313,"reserved":0,"last_update":"0001-01-01T00:00:00Z","name_a2s":"Uncletopia | San Francisco | 2 | All Maps","protocol":17,"map":"koth_highpass","folder":"tf","game":"Team Fortress","app_id":440,"player_count":0,"max_players":24,"Bots":0,"server_type":"Dedicated","server_os":"Linux","password":true,"vac":true,"version":"7757534","steam_id":85568392924470000,"keywords":["cp","nocrits","nodmgspread","uncletopia"],"game_id":440,"stv_port":27026,"stv_name":"Uncletopia | San Francisco | 2 | All Maps | STV","players":null},{"server_id":19,"name":"Uncletopia | San Francisco | 3 | Stopwatch Beta","name_short":"sfo-3","host":"sfo-1.us.uncletopia.com","port":27035,"enabled":true,"region":"us-west","cc":"us","latitude":37.77397,"longitude":-122.4313,"reserved":0,"last_update":"0001-01-01T00:00:00Z","name_a2s":"Uncletopia | San Francisco | 3 | Stopwatch Beta","protocol":17,"map":"koth_lakeside_final","folder":"tf","game":"Team Fortress","app_id":440,"player_count":0,"max_players":24,"Bots":0,"server_type":"Dedicated","server_os":"Linux","password":true,"vac":true,"version":"7757534","steam_id":85568392924742824,"keywords":["cp","nocrits","nodmgspread","uncletopia"],"game_id":440,"stv_port":27036,"stv_name":"Uncletopia | San Francisco | 3 | Stopwatch Beta | STV","players":null},{"server_id":20,"name":"Uncletopia | San Francisco | 4 | Community","name_short":"sfo-4","host":"sfo-1.us.uncletopia.com","port":27045,"enabled":true,"region":"us-west","cc":"us","latitude":37.77397,"longitude":-122.4313,"reserved":0,"last_update":"0001-01-01T00:00:00Z","name_a2s":"Uncletopia | San Francisco | 4 | Community","protocol":17,"map":"cp_altitude","folder":"tf","game":"Team Fortress","app_id":440,"player_count":0,"max_players":24,"Bots":0,"server_type":"Dedicated","server_os":"Linux","password":true,"vac":true,"version":"7757534","steam_id":85568392924742826,"keywords":["cp","nocrits","nodmgspread","uncletopia"],"game_id":440,"stv_port":27046,"stv_name":"Uncletopia | San Francisco | 4 | Community | STV","players":null},{"server_id":141,"name":"Uncletopia | Sydney | 1 | All Maps","name_short":"syd-1","host":"syd-1.au.uncletopia.com","port":27015,"enabled":true,"region":"au","cc":"au","latitude":-33.865143,"longitude":151.2099,"reserved":0,"last_update":"0001-01-01T00:00:00Z","name_a2s":"Uncletopia | Sydney | 1 | All Maps","protocol":17,"map":"cp_altitude","folder":"tf","game":"Team Fortress","app_id":440,"player_count":5,"max_players":24,"Bots":0,"server_type":"Dedicated","server_os":"Linux","password":true,"vac":true,"version":"7882260","steam_id":85568392924470001,"keywords":["cp","nocrits","nodmgspread","uncletopia"],"game_id":440,"stv_port":27016,"stv_name":"Uncletopia | Sydney | 1 | All Maps | STV","players":[{"user_id":4,"name":"GattlingGoose","steam_id":76561199021498300,"connected_time":1112000000000,"state":"active","ping":72},{"user_id":5,"name":"Cryogarden","steam_id":76561198348436700,"connected_time":414000000000,"state":"active","ping":306},{"user_id":6,"name":"itsjustmarvin77","steam_id":76561199375656301,"connected_time":296000000000,"state":"active","ping":74},{"user_id":8,"name":"Denszeal","steam_id":76561198313718095,"connected_time":132000000000,"state":"active","ping":76},{"user_id":9,"name":"Frognut69","steam_id":76561199229442749,"connected_time":86000000000,"state":"active","ping":68}]},{"server_id":123,"name":"Uncletopia | Sydney | 2 | All Maps","name_short":"syd-2","host":"syd-1.au.uncletopia.com","port":27025,"enabled":true,"region":"au","cc":"au","latitude":-33.865143,"longitude":151.2099,"reserved":0,"last_update":"0001-01-01T00:00:00Z","name_a2s":"Uncletopia | Sydney | 2 | All Maps","protocol":17,"map":"pl_barnblitz","folder":"tf","game":"Team Fortress","app_id":440,"player_count":0,"max_players":24,"Bots":0,"server_type":"Dedicated","server_os":"Linux","password":true,"vac":true,"version":"7882260","steam_id":85568392924470002,"keywords":["nocrits","nodmgspread","payload","uncletopia"],"game_id":440,"stv_port":27026,"stv_name":"Uncletopia | Sydney | 2 | All Maps | STV","players":null},{"server_id":395,"name":"Uncletopia | Sydney | 3 | All Maps","name_short":"syd-3","host":"syd-1.au.uncletopia.com","port":27035,"enabled":true,"region":"au","cc":"au","latitude":-33.865143,"longitude":151.2099,"reserved":0,"last_update":"0001-01-01T00:00:00Z","name_a2s":"Uncletopia | Sydney | 3 | All Maps","protocol":17,"map":"pl_badwater","folder":"tf","game":"Team Fortress","app_id":440,"player_count":0,"max_players":24,"Bots":0,"server_type":"Dedicated","server_os":"Linux","password":true,"vac":true,"version":"7882260","steam_id":85568392925194467,"keywords":["nocrits","nodmgspread","payload","uncletopia"],"game_id":440,"stv_port":27036,"stv_name":"Uncletopia | Sydney | 3 | All Maps | STV","players":null},{"server_id":396,"name":"Uncletopia | Sydney | 4 | All Maps","name_short":"syd-4","host":"syd-1.au.uncletopia.com","port":27045,"enabled":true,"region":"au","cc":"au","latitude":-33.865143,"longitude":151.2099,"reserved":0,"last_update":"0001-01-01T00:00:00Z","name_a2s":"Uncletopia | Sydney | 4 | All Maps","protocol":17,"map":"cp_dustbowl","folder":"tf","game":"Team Fortress","app_id":440,"player_count":0,"max_players":24,"Bots":0,"server_type":"Dedicated","server_os":"Linux","password":true,"vac":true,"version":"7882260","steam_id":85568392925397958,"keywords":["cp","nocrits","nodmgspread","uncletopia"],"game_id":440,"stv_port":27046,"stv_name":"Uncletopia | Sydney | 4 | All Maps | STV","players":null},{"server_id":58,"name":"Uncletopia | Sydney | 5 | Stopwatch Beta","name_short":"syd-5","host":"syd-1.au.uncletopia.com","port":27055,"enabled":true,"region":"au","cc":"au","latitude":-33.865143,"longitude":151.2099,"reserved":0,"last_update":"0001-01-01T00:00:00Z","name_a2s":"Uncletopia | Sydney | 5 | Stopwatch Beta","protocol":17,"map":"cp_snakewater_final1","folder":"tf","game":"Team Fortress","app_id":440,"player_count":0,"max_players":24,"Bots":0,"server_type":"Dedicated","server_os":"Linux","password":true,"vac":true,"version":"7882260","steam_id":85568392925397959,"keywords":["cp","nocrits","nodmgspread","uncletopia"],"game_id":440,"stv_port":27056,"stv_name":"Uncletopia | Sydney | 5 | Stopwatch Beta | STV","players":null},{"server_id":59,"name":"Uncletopia | Sydney | 6 | Community","name_short":"syd-6","host":"syd-1.au.uncletopia.com","port":27065,"enabled":true,"region":"au","cc":"au","latitude":-33.865143,"longitude":151.2099,"reserved":0,"last_update":"0001-01-01T00:00:00Z","name_a2s":"Uncletopia | Sydney | 6 | Community","protocol":17,"map":"pl_snowycoast","folder":"tf","game":"Team Fortress","app_id":440,"player_count":0,"max_players":24,"Bots":0,"server_type":"Dedicated","server_os":"Linux","password":true,"vac":true,"version":"7882260","steam_id":85568392925397960,"keywords":["nocrits","nodmgspread","payload","uncletopia"],"game_id":440,"stv_port":27066,"stv_name":"Uncletopia | Sydney | 6 | Community | STV","players":null},{"server_id":49,"name":"Uncletopia | Warsaw | 1 | All Maps","name_short":"waw-1","host":"waw-1.pl.uncletopia.com","port":27015,"enabled":true,"region":"eu","cc":"pl","latitude":52.2297,"longitude":21.017532,"reserved":0,"last_update":"0001-01-01T00:00:00Z","name_a2s":"","protocol":0,"map":"","folder":"","game":"","app_id":0,"player_count":0,"max_players":0,"Bots":0,"server_type":"","server_os":"","password":false,"vac":false,"version":"","steam_id":0,"keywords":null,"game_id":0,"stv_port":0,"stv_name":"","players":null},{"server_id":50,"name":"Uncletopia | Warsaw | 2 | All Maps","name_short":"waw-2","host":"waw-1.pl.uncletopia.com","port":27025,"enabled":true,"region":"eu","cc":"pl","latitude":52.2297,"longitude":21.017532,"reserved":0,"last_update":"0001-01-01T00:00:00Z","name_a2s":"Uncletopia | Warsaw | 2 | All Maps","protocol":17,"map":"pl_swiftwater_final1","folder":"tf","game":"Team Fortress","app_id":440,"player_count":0,"max_players":24,"Bots":0,"server_type":"Dedicated","server_os":"Linux","password":true,"vac":true,"version":"7882260","steam_id":85568392925397851,"keywords":["nocrits","nodmgspread","payload","uncletopia"],"game_id":440,"stv_port":27026,"stv_name":"Uncletopia | Warsaw | 2 | All Maps | STV","players":null},{"server_id":51,"name":"Uncletopia | Warsaw | 3 | All Maps","name_short":"waw-3","host":"waw-1.pl.uncletopia.com","port":27035,"enabled":true,"region":"eu","cc":"pl","latitude":52.2297,"longitude":21.017532,"reserved":0,"last_update":"0001-01-01T00:00:00Z","name_a2s":"Uncletopia | Warsaw | 3 | All Maps","protocol":17,"map":"koth_viaduct","folder":"tf","game":"Team Fortress","app_id":440,"player_count":0,"max_players":24,"Bots":0,"server_type":"Dedicated","server_os":"Linux","password":true,"vac":true,"version":"7882260","steam_id":85568392925397852,"keywords":["cp","nocrits","nodmgspread","uncletopia"],"game_id":440,"stv_port":27036,"stv_name":"Uncletopia | Warsaw | 3 | All Maps | STV","players":null},{"server_id":52,"name":"Uncletopia | Warsaw | 4 | All Maps","name_short":"waw-4","host":"waw-1.pl.uncletopia.com","port":27045,"enabled":true,"region":"eu","cc":"pl","latitude":52.2297,"longitude":21.017532,"reserved":0,"last_update":"0001-01-01T00:00:00Z","name_a2s":"Uncletopia | Warsaw | 4 | All Maps","protocol":17,"map":"koth_highpass","folder":"tf","game":"Team Fortress","app_id":440,"player_count":0,"max_players":24,"Bots":0,"server_type":"Dedicated","server_os":"Linux","password":true,"vac":true,"version":"7882260","steam_id":85568392925397853,"keywords":["cp","nocrits","nodmgspread","uncletopia"],"game_id":440,"stv_port":27046,"stv_name":"Uncletopia | Warsaw | 4 | All Maps | STV","players":null},{"server_id":53,"name":"Uncletopia | Warsaw | 5 | Stopwatch Beta","name_short":"waw-5","host":"waw-1.pl.uncletopia.com","port":27055,"enabled":true,"region":"eu","cc":"pl","latitude":52.2297,"longitude":21.017532,"reserved":0,"last_update":"0001-01-01T00:00:00Z","name_a2s":"Uncletopia | Warsaw | 5 | Stopwatch Beta","protocol":17,"map":"cp_mountainlab","folder":"tf","game":"Team Fortress","app_id":440,"player_count":0,"max_players":24,"Bots":0,"server_type":"Dedicated","server_os":"Linux","password":true,"vac":true,"version":"7882260","steam_id":85568392925397854,"keywords":["cp","nocrits","nodmgspread","uncletopia"],"game_id":440,"stv_port":27056,"stv_name":"Uncletopia | Warsaw | 5 | Stopwatch Beta | STV","players":null},{"server_id":54,"name":"Uncletopia | Warsaw | 6 | Community","name_short":"waw-6","host":"waw-1.pl.uncletopia.com","port":27065,"enabled":true,"region":"eu","cc":"pl","latitude":52.2297,"longitude":21.017532,"reserved":0,"last_update":"0001-01-01T00:00:00Z","name_a2s":"Uncletopia | Warsaw | 6 | Community","protocol":17,"map":"koth_viaduct","folder":"tf","game":"Team Fortress","app_id":440,"player_count":0,"max_players":24,"Bots":0,"server_type":"Dedicated","server_os":"Linux","password":true,"vac":true,"version":"7882260","steam_id":85568392925397856,"keywords":["cp","nocrits","nodmgspread","uncletopia"],"game_id":440,"stv_port":27066,"stv_name":"Uncletopia | Warsaw | 6 | Community | STV","players":null}]}