{"status":true,"message":"","result":[{"server_id":9,"name":"Uncletopia | Atlanta | 1 | All Maps","name_short":"atl-1","host":"atl-1.us.uncletopia.com","port":27015,"enabled":true,"region":"us-east","cc":"us","latitude":33.753746,"longitude":-84.38633,"reserved":0,"last_update":"0001-01-01T00:00:00Z","name_a2s":"Uncletopia | Atlanta | 1 | All Maps","protocol":17,"map":"pl_pier","folder":"tf","game":"Team Fortress","app_id":440,"player_count":24,"max_players":24,"Bots":0,"server_type":"Dedicated","server_os":"Linux","password":true,"vac":true,"version":"7961495","steam_id":85568392924469982,"keywords":["nocrits","nodmgspread","payload","uncletopia"],"game_id":440,"stv_port":27016,"stv_name":"Uncletopia | Atlanta | 1 | All Maps | STV","players":null},{"server_id":104,"name":"Uncletopia | Atlanta | 2 | All Maps","name_short":"atl-2","host":"atl-1.us.uncletopia.com","port":27025,"enabled":true,"region":"us-east","cc":"us","latitude":33.753746,"longitude":-84.38633,"reserved":0,"last_update":"0001-01-01T00:00:00Z","name_a2s":"Uncletopia | Atlanta | 2 | All Maps","protocol":17,"map":"koth_highpass","folder":"tf","game":"Team Fortress","app_id":440,"player_count":0,"max_players":24,"Bots":0,"server_type":"Dedicated","server_os":"Linux","password":true,"vac":true,"version":"7961495","steam_id":85568392924469983,"keywords":["cp","nocrits","nodmgspread","uncletopia"],"game_id":440,"stv_port":27026,"stv_name":"Uncletopia | Atlanta | 2 | All Maps | STV","players":null},{"server_id":400,"name":"Uncletopia | Atlanta | 3 | Stopwatch","name_short":"atl-3","host":"atl-1.us.uncletopia.com","port":27035,"enabled":true,"region":"us-east","cc":"us","latitude":33.753746,"longitude":-84.38633,"reserved":0,"last_update":"0001-01-01T00:00:00Z","name_a2s":"Uncletopia | Atlanta | 3 | Stopwatch","protocol":17,"map":"cp_snakewater_final1","folder":"tf","game":"Team Fortress","app_id":440,"player_count":24,"max_players":24,"Bots":0,"server_type":"Dedicated","server_os":"Linux","password":true,"vac":true,"version":"7961495","steam_id":85568392924515187,"keywords":["cp","nocrits","nodmgspread","uncletopia"],"game_id":440,"stv_port":27036,"stv_name":"Uncletopia | Atlanta | 3 | Stopwatch | STV","players":null},{"server_id":401,"name":"Uncletopia | Atlanta | 4 | Community","name_short":"atl-4","host":"atl-1.us.uncletopia.com","port":27045,"enabled":true,"region":"us-east","cc":"us","latitude":33.753746,"longitude":-84.38633,"reserved":0,"last_update":"0001-01-01T00:00:00Z","name_a2s":"Uncletopia | Atlanta | 4 | Community","protocol":17,"map":"koth_bagel_rc6","folder":"tf","game":"Team Fortress","app_id":440,"player_count":0,"max_players":24,"Bots":0,"server_type":"Dedicated","server_os":"Linux","password":true,"vac":true,"version":"7961495","steam_id":85568392924515188,"keywords":["cp","nocrits","nodmgspread","uncletopia"],"game_id":440,"stv_port":27046,"stv_name":"Uncletopia | Atlanta | 4 | Community | STV","players":null},{"server_id":2,"name":"Uncletopia | Chicago | 1 | All Maps","name_short":"chi-1","host":"chi-1.us.uncletopia.com","port":27015,"enabled":true,"region":"us-central","cc":"us","latitude":41.881832,"longitude":-87.62318,"reserved":0,"last_update":"0001-01-01T00:00:00Z","name_a2s":"Uncletopia | Chicago | 1 | All Maps","protocol":17,"map":"pl_thundermountain","folder":"tf","game":"Team Fortress","app_id":440,"player_count":23,"max_players":24,"Bots":0,"server_type":"Dedicated","server_os":"Linux","password":true,"vac":true,"version":"7961495","steam_id":85568392924469984,"keywords":["nocrits","nodmgspread","payload","uncletopia"],"game_id":440,"stv_port":27016,"stv_name":"Uncletopia | Chicago | 1 | All Maps | STV","players":[{"user_id":717,"name":"Astoriae!","steam_id":76561199090168858,"connected_time":3626000000000,"state":"active","ping":65},{"user_id":749,"name":"Chestnnut","steam_id":76561198077782729,"connected_time":1831000000000,"state":"active","ping":72},{"user_id":757,"name":"Colonel Chikara","steam_id":76561198010021087,"connected_time":802000000000,"state":"active","ping":99},{"user_id":747,"name":"Ras","steam_id":76561198123546775,"connected_time":1980000000000,"state":"active","ping":90},{"user_id":758,"name":"Father Jon","steam_id":76561198324730919,"connected_time":713000000000,"state":"active","ping":85},{"user_id":724,"name":"Do it to em²","steam_id":76561197993975210,"connected_time":3468000000000,"state":"active","ping":67},{"user_id":755,"name":"Mayan","steam_id":76561198087915957,"connected_time":1053000000000,"state":"active","ping":45},{"user_id":735,"name":"That Darned Imperialist","steam_id":76561198854501307,"connected_time":2406000000000,"state":"active","ping":58},{"user_id":736,"name":"Cooler Ye","steam_id":76561198068830312,"connected_time":2351000000000,"state":"active","ping":48},{"user_id":756,"name":"SkoranShogun","steam_id":76561198091811218,"connected_time":895000000000,"state":"active","ping":97},{"user_id":718,"name":"intelligent explosive solutions","steam_id":76561198057076267,"connected_time":3567000000000,"state":"active","ping":75},{"user_id":728,"name":"Bottom Trans Cowgirl","steam_id":76561198304239680,"connected_time":3022000000000,"state":"active","ping":82},{"user_id":754,"name":"♡Banki!♡","steam_id":76561199487153609,"connected_time":1132000000000,"state":"active","ping":70},{"user_id":740,"name":"CherryPieRed2023","steam_id":76561198998007496,"connected_time":2235000000000,"state":"active","ping":85},{"user_id":760,"name":"cold","steam_id":76561198027963611,"connected_time":212000000000,"state":"active","ping":84},{"user_id":762,"name":"undsha","steam_id":76561198171335530,"connected_time":6000000000,"state":"spawning","ping":61},{"user_id":721,"name":"Raccoon Wizard","steam_id":76561198072562591,"connected_time":3515000000000,"state":"active","ping":89},{"user_id":761,"name":"the last Rhode Islander","steam_id":76561198330205913,"connected_time":12000000000,"state":"spawning","ping":59},{"user_id":741,"name":"Person","steam_id":76561198093244204,"connected_time":2229000000000,"state":"active","ping":72},{"user_id":742,"name":"Rex","steam_id":76561198138365053,"connected_time":2219000000000,"state":"active","ping":129},{"user_id":711,"name":"TheWumbologist","steam_id":76561198065355069,"connected_time":4976000000000,"state":"active","ping":75},{"user_id":714,"name":"Praise_to_the_Flashlight!","steam_id":76561199001728789,"connected_time":4564000000000,"state":"active","ping":65},{"user_id":722,"name":"*TyTerminator","steam_id":76561198056450091,"connected_time":3515000000000,"state":"active","ping":67}]},{"server_id":106,"name":"Uncletopia | Chicago | 2 | All Maps","name_short":"chi-2","host":"chi-1.us.uncletopia.com","port":27025,"enabled":true,"region":"us-central","cc":"us","latitude":41.881832,"longitude":-87.62318,"reserved":0,"last_update":"0001-01-01T00:00:00Z","name_a2s":"Uncletopia | Chicago | 2 | All Maps","protocol":17,"map":"pl_upward","folder":"tf","game":"Team Fortress","app_id":440,"player_count":24,"max_players":24,"Bots":0,"server_type":"Dedicated","server_os":"Linux","password":true,"vac":true,"version":"7961495","steam_id":85568392924469985,"keywords":["nocrits","nodmgspread","payload","uncletopia"],"game_id":440,"stv_port":27026,"stv_name":"Uncletopia | Chicago | 2 | All Maps | STV","players":[{"user_id":483,"name":"Ⓑ⓪⓪ⓣⓨⓒⓐⓚⓔⓢ","steam_id":76561198088776421,"connected_time":1637000000000,"state":"active","ping":74},{"user_id":488,"name":"im gonna schmutz","steam_id":76561198185980055,"connected_time":1503000000000,"state":"active","ping":60},{"user_id":498,"name":"Mehman","steam_id":76561199020244051,"connected_time":337000000000,"state":"active","ping":102},{"user_id":484,"name":"Danmar33","steam_id":76561198056453091,"connected_time":1637000000000,"state":"active","ping":48},{"user_id":474,"name":"honch :3","steam_id":76561198832647822,"connected_time":2547000000000,"state":"active","ping":74},{"user_id":475,"name":"a fuddruckers","steam_id":76561198092656099,"connected_time":2529000000000,"state":"active","ping":41},{"user_id":489,"name":"Wiggle Wiggle","steam_id":76561199053447896,"connected_time":1416000000000,"state":"active","ping":77},{"user_id":500,"name":"sonikro","steam_id":76561197989428692,"connected_time":34000000000,"state":"active","ping":64},{"user_id":502,"name":"blyatimir pootis","steam_id":76561199081323884,"connected_time":10000000000,"state":"spawning","ping":54},{"user_id":480,"name":"sonikro tier 1 sub","steam_id":76561198144766439,"connected_time":1675000000000,"state":"active","ping":44},{"user_id":494,"name":"HenryFromSkalitz!","steam_id":76561198062139190,"connected_time":1271000000000,"state":"active","ping":98},{"user_id":441,"name":"dcqwerty","steam_id":76561198964101426,"connected_time":4759000000000,"state":"active","ping":55},{"user_id":360,"name":"corntent","steam_id":76561198824847948,"connected_time":9242000000000,"state":"active","ping":60},{"user_id":479,"name":"LVL","steam_id":76561198334403617,"connected_time":1708000000000,"state":"active","ping":58},{"user_id":482,"name":"badboy6996","steam_id":76561197969386201,"connected_time":1672000000000,"state":"active","ping":55},{"user_id":485,"name":"Piyono","steam_id":76561197962188504,"connected_time":1635000000000,"state":"active","ping":66},{"user_id":501,"name":"ArachnarLordOfTheSpiderPeople","steam_id":76561198130893307,"connected_time":30000000000,"state":"active","ping":91},{"user_id":486,"name":"Rez LeRoux","steam_id":76561198451503538,"connected_time":1628000000000,"state":"active","ping":72},{"user_id":481,"name":"feliser","steam_id":76561198084336096,"connected_time":1674000000000,"state":"active","ping":55},{"user_id":503,"name":"Oxycodone_Overseer","steam_id":76561198122542744,"connected_time":1000000000,"state":"spawning","ping":37},{"user_id":432,"name":"Scout","steam_id":76561198059165394,"connected_time":5376000000000,"state":"active","ping":111},{"user_id":490,"name":"Korota","steam_id":76561198095891641,"connected_time":1413000000000,"state":"active","ping":52},{"user_id":496,"name":"brian eno","steam_id":76561198109901138,"connected_time":1184000000000,"state":"active","ping":73},{"user_id":499,"name":"ndvr","steam_id":76561199379200102,"connected_time":41000000000,"state":"active","ping":58}]},{"server_id":402,"name":"Uncletopia | Chicago | 3 | All Maps","name_short":"chi-3","host":"chi-1.us.uncletopia.com","port":27035,"enabled":true,"region":"us-central","cc":"us","latitude":41.881832,"longitude":-87.62318,"reserved":0,"last_update":"0001-01-01T00:00:00Z","name_a2s":"Uncletopia | Chicago | 3 | All Maps","protocol":17,"map":"pl_snowycoast","folder":"tf","game":"Team Fortress","app_id":440,"player_count":24,"max_players":24,"Bots":0,"server_type":"Dedicated","server_os":"Linux","password":true,"vac":true,"version":"7961495","steam_id":85568392924515191,"keywords":["nocrits","nodmgspread","payload","uncletopia"],"game_id":440,"stv_port":27036,"stv_name":"Uncletopia | Chicago | 3 | All Maps | STV","players":[{"user_id":657,"name":"A tree","steam_id":76561198309065247,"connected_time":691000000000,"state":"active","ping":75},{"user_id":634,"name":"ok","steam_id":76561199487373269,"connected_time":2669000000000,"state":"active","ping":73},{"user_id":658,"name":"Moophin","steam_id":76561198037797703,"connected_time":428000000000,"state":"active","ping":76},{"user_id":659,"name":"Let ε \u003e 0","steam_id":76561198111790388,"connected_time":415000000000,"state":"active","ping":93},{"user_id":576,"name":"uhooter","steam_id":76561198007829078,"connected_time":7500000000000,"state":"active","ping":56},{"user_id":622,"name":"garbage","steam_id":76561198258918688,"connected_time":3158000000000,"state":"active","ping":47},{"user_id":663,"name":"conner","steam_id":76561198052911241,"connected_time":54000000000,"state":"active","ping":69},{"user_id":650,"name":"GreekGoat_Coffee","steam_id":76561198129331088,"connected_time":1420000000000,"state":"active","ping":45},{"user_id":651,"name":"Random","steam_id":76561198318879454,"connected_time":1389000000000,"state":"active","ping":60},{"user_id":652,"name":"Banes","steam_id":76561198083485876,"connected_time":1381000000000,"state":"active","ping":84},{"user_id":594,"name":"Doubie","steam_id":76561198104492019,"connected_time":5012000000000,"state":"active","ping":78},{"user_id":660,"name":"totoro","steam_id":76561198210420871,"connected_time":380000000000,"state":"active","ping":46},{"user_id":467,"name":"J The Jounin","steam_id":76561198034583622,"connected_time":14586000000000,"state":"active","ping":83},{"user_id":602,"name":"a fool","steam_id":76561198097857418,"connected_time":4103000000000,"state":"active","ping":87},{"user_id":653,"name":"coms","steam_id":76561198359456881,"connected_time":1332000000000,"state":"active","ping":50},{"user_id":654,"name":"Coke Himmy","steam_id":76561198397459211,"connected_time":1329000000000,"state":"active","ping":86},{"user_id":644,"name":"Jousty","steam_id":76561199162677853,"connected_time":1999000000000,"state":"active","ping":91},{"user_id":643,"name":"HOTA","steam_id":76561199002778841,"connected_time":2167000000000,"state":"active","ping":75},{"user_id":661,"name":"Tideflat","steam_id":76561198179850851,"connected_time":357000000000,"state":"active","ping":105},{"user_id":632,"name":"Gaming","steam_id":76561198107080532,"connected_time":2778000000000,"state":"active","ping":65},{"user_id":655,"name":"X҉B҉O҉X҉ L҉I҉V҉E҉","steam_id":76561199153876687,"connected_time":1320000000000,"state":"active","ping":89},{"user_id":647,"name":"Dragoninventor (He/Him)","steam_id":76561198956224948,"connected_time":1633000000000,"state":"active","ping":75},{"user_id":662,"name":"Biscipline","steam_id":76561198019206178,"connected_time":165000000000,"state":"active","ping":80},{"user_id":642,"name":"Renegade","steam_id":76561198066847055,"connected_time":2238000000000,"state":"active","ping":59}]},{"server_id":403,"name":"Uncletopia | Chicago | 4 | All Maps","name_short":"chi-4","host":"chi-1.us.uncletopia.com","port":27045,"enabled":true,"region":"us-central","cc":"us","latitude":41.881832,"longitude":-87.62318,"reserved":0,"last_update":"0001-01-01T00:00:00Z","name_a2s":"Uncletopia | Chicago | 4 | All Maps","protocol":17,"map":"pl_barnblitz","folder":"tf","game":"Team Fortress","app_id":440,"player_count":4,"max_players":24,"Bots":0,"server_type":"Dedicated","server_os":"Linux","password":true,"vac":true,"version":"7961495","steam_id":85568392924515193,"keywords":["nocrits","nodmgspread","payload","uncletopia"],"game_id":440,"stv_port":27046,"stv_name":"Uncletopia | Chicago | 4 | All Maps | STV","players":[{"user_id":889,"name":"็Periculosum PhD in Funny","steam_id":76561198123370914,"connected_time":76000000000,"state":"active","ping":61},{"user_id":890,"name":"mizu919","steam_id":76561198267244027,"connected_time":7000000000,"state":"spawning","ping":45},{"user_id":883,"name":"NotTony69","steam_id":76561199122717140,"connected_time":1108000000000,"state":"active","ping":92},{"user_id":888,"name":"Truck-kun2107","steam_id":76561199161417910,"connected_time":749000000000,"state":"active","ping":82}]},{"server_id":36,"name":"Uncletopia | Chicago | 5 | All Maps","name_short":"chi-5","host":"chi-2.us.uncletopia.com","port":27015,"enabled":true,"region":"us-central","cc":"us","latitude":41.881832,"longitude":-87.62318,"reserved":0,"last_update":"0001-01-01T00:00:00Z","name_a2s":"Uncletopia | Chicago | 5 | All Maps","protocol":17,"map":"pl_badwater","folder":"tf","game":"Team Fortress","app_id":440,"player_count":0,"max_players":24,"Bots":0,"server_type":"Dedicated","server_os":"Linux","password":true,"vac":true,"version":"7961495","steam_id":85568392924866362,"keywords":["nocrits","nodmgspread","payload","uncletopia"],"game_id":440,"stv_port":27016,"stv_name":"Uncletopia | Chicago | 5 | All Maps | STV","players":null},{"server_id":37,"name":"Uncletopia | Chicago | 6 | All Maps","name_short":"chi-6","host":"chi-2.us.uncletopia.com","port":27025,"enabled":true,"region":"us-central","cc":"us","latitude":41.881832,"longitude":-87.62318,"reserved":0,"last_update":"0001-01-01T00:00:00Z","name_a2s":"Uncletopia | Chicago | 6 | All Maps","protocol":17,"map":"pl_snowycoast","folder":"tf","game":"Team Fortress","app_id":440,"player_count":24,"max_players":24,"Bots":0,"server_type":"Dedicated","server_os":"Linux","password":true,"vac":true,"version":"7961495","steam_id":85568392924866363,"keywords":["nocrits","nodmgspread","payload","uncletopia"],"game_id":440,"stv_port":27026,"stv_name":"Uncletopia | Chicago | 6 | All Maps | STV","players":[{"user_id":233,"name":"RiflingShotgun","steam_id":76561198288209651,"connected_time":3347000000000,"state":"active","ping":45},{"user_id":278,"name":"Trumpetspyman59","steam_id":76561198048989561,"connected_time":626000000000,"state":"active","ping":68},{"user_id":259,"name":"| L O S T |","steam_id":76561198062620333,"connected_time":1461000000000,"state":"active","ping":77},{"user_id":265,"name":"REALLINUSJEWTIP.","steam_id":76561198056647983,"connected_time":1157000000000,"state":"active","ping":75},{"user_id":290,"name":"WesyUWU (The mini crit pig)","steam_id":76561198069188177,"connected_time":68000000000,"state":"active","ping":70},{"user_id":272,"name":"FR_Phoenix","steam_id":76561199146349872,"connected_time":837000000000,"state":"active","ping":132},{"user_id":281,"name":"Seskova","steam_id":76561198090207032,"connected_time":480000000000,"state":"active","ping":112},{"user_id":276,"name":"Cosmic sR","steam_id":76561198081738675,"connected_time":740000000000,"state":"active","ping":84},{"user_id":283,"name":"TwoBit","steam_id":76561198062437559,"connected_time":473000000000,"state":"active","ping":75},{"user_id":282,"name":"pl_chicago","steam_id":76561198055626638,"connected_time":480000000000,"state":"active","ping":90},{"user_id":262,"name":"Anomalous Materials Scientist","steam_id":76561198092542997,"connected_time":1331000000000,"state":"active","ping":67},{"user_id":286,"name":"Freyja","steam_id":76561198207412177,"connected_time":308000000000,"state":"active","ping":71},{"user_id":266,"name":"pai-sano","steam_id":76561198065575472,"connected_time":1154000000000,"state":"active","ping":60},{"user_id":124,"name":"gIBBY","steam_id":76561198080099598,"connected_time":12226000000000,"state":"active","ping":58},{"user_id":285,"name":"LILGI4THAW","steam_id":76561198403803842,"connected_time":441000000000,"state":"active","ping":102},{"user_id":287,"name":"medic makes milkshakes (tasty)","steam_id":76561198377868275,"connected_time":293000000000,"state":"active","ping":89},{"user_id":232,"name":"jenn","steam_id":76561198078395002,"connected_time":3447000000000,"state":"active","ping":63},{"user_id":271,"name":":3c","steam_id":76561198449857428,"connected_time":944000000000,"state":"active","ping":65},{"user_id":288,"name":"noiviric","steam_id":76561199211459975,"connected_time":253000000000,"state":"active","ping":87},{"user_id":218,"name":"just call me joe","steam_id":76561198043911582,"connected_time":4850000000000,"state":"active","ping":67},{"user_id":219,"name":"breakneck","steam_id":76561198170642407,"connected_time":4845000000000,"state":"active","ping":75},{"user_id":269,"name":"Voggoff","steam_id":76561198040057167,"connected_time":1013000000000,"state":"active","ping":92},{"user_id":270,"name":"Divio","steam_id":76561197995200088,"connected_time":1005000000000,"state":"active","ping":75},{"user_id":289,"name":"The new day","steam_id":76561198855144603,"connected_time":217000000000,"state":"active","ping":63}]},{"server_id":38,"name":"Uncletopia | Chicago | 7 | Stopwatch","name_short":"chi-7","host":"chi-2.us.uncletopia.com","port":27035,"enabled":true,"region":"us-central","cc":"us","latitude":41.881832,"longitude":-87.62318,"reserved":0,"last_update":"0001-01-01T00:00:00Z","name_a2s":"Uncletopia | Chicago | 7 | Stopwatch","protocol":17,"map":"workshop/koth_product_final.ugc454272353","folder":"tf","game":"Team Fortress","app_id":440,"player_count":3,"max_players":24,"Bots":0,"server_type":"Dedicated","server_os":"Linux","password":true,"vac":true,"version":"7961495","steam_id":85568392924866364,"keywords":["cp","nocrits","nodmgspread","uncletopia"],"game_id":440,"stv_port":27036,"stv_name":"Uncletopia | Chicago | 7 | Stopwatch | STV","players":[{"user_id":13,"name":"jakexsists","steam_id":76561199025696785,"connected_time":521000000000,"state":"active","ping":64},{"user_id":14,"name":"crazyfacedolives","steam_id":76561199466534135,"connected_time":375000000000,"state":"active","ping":66},{"user_id":15,"name":"greebleman","steam_id":76561199073674314,"connected_time":357000000000,"state":"active","ping":69}]},{"server_id":39,"name":"Uncletopia | Chicago | 8 | Community","name_short":"chi-8","host":"chi-2.us.uncletopia.com","port":27045,"enabled":true,"region":"us-central","cc":"us","latitude":41.881832,"longitude":-87.62318,"reserved":0,"last_update":"0001-01-01T00:00:00Z","name_a2s":"Uncletopia | Chicago | 8 | Community","protocol":17,"map":"workshop/cp_logjam_rc12.ugc454812035","folder":"tf","game":"Team Fortress","app_id":440,"player_count":0,"max_players":24,"Bots":0,"server_type":"Dedicated","server_os":"Linux","password":true,"vac":true,"version":"7961495","steam_id":85568392924866365,"keywords":["cp","nocrits","nodmgspread","uncletopia"],"game_id":440,"stv_port":27046,"stv_name":"Uncletopia | Chicago | 8 | Community | STV","players":null},{"server_id":8,"name":"Uncletopia | Dallas | 1 | All Maps","name_short":"dal-1","host":"dal-1.us.uncletopia.com","port":27015,"enabled":true,"region":"us-central","cc":"us","latitude":32.779167,"longitude":-96.80889,"reserved":0,"last_update":"0001-01-01T00:00:00Z","name_a2s":"Uncletopia | Dallas | 1 | All Maps","protocol":17,"map":"cp_gorge","folder":"tf","game":"Team Fortress","app_id":440,"player_count":24,"max_players":24,"Bots":0,"server_type":"Dedicated","server_os":"Linux","password":true,"vac":true,"version":"7961495","steam_id":85568392924469986,"keywords":["cp","nocrits","nodmgspread","uncletopia"],"game_id":440,"stv_port":27016,"stv_name":"Uncletopia | Dallas | 1 | All Maps | STV","players":[{"user_id":656,"name":"The Owlchemist","steam_id":76561198010239032,"connected_time":717000000000,"state":"active","ping":60},{"user_id":626,"name":"Railly","steam_id":76561198357355915,"connected_time":4039000000000,"state":"active","ping":80},{"user_id":661,"name":"Gamerfan64","steam_id":76561198801410962,"connected_time":264000000000,"state":"active","ping":37},{"user_id":649,"name":"Trashgaming","steam_id":76561199184268442,"connected_time":1218000000000,"state":"active","ping":100},{"user_id":640,"name":"Ahkmid the Emoji Turban Guy","steam_id":76561198142599650,"connected_time":2057000000000,"state":"active","ping":71},{"user_id":646,"name":"Sam","steam_id":76561198069948353,"connected_time":1640000000000,"state":"active","ping":63},{"user_id":654,"name":"your little goofy homie","steam_id":76561198967158026,"connected_time":903000000000,"state":"active","ping":71},{"user_id":647,"name":"lingulata","steam_id":76561198076208960,"connected_time":1606000000000,"state":"active","ping":77},{"user_id":645,"name":"ComradeofSucc","steam_id":76561198076025718,"connected_time":1800000000000,"state":"active","ping":99},{"user_id":648,"name":"TheAsianMeatball","steam_id":76561198336926133,"connected_time":1581000000000,"state":"active","ping":62},{"user_id":653,"name":"IS THAT A RACCOON","steam_id":76561198353456379,"connected_time":933000000000,"state":"active","ping":64},{"user_id":598,"name":"Heathcliff","steam_id":76561198044288534,"connected_time":7515000000000,"state":"active","ping":88},{"user_id":624,"name":"THRONGLER","steam_id":76561198198563466,"connected_time":4055000000000,"state":"active","ping":45},{"user_id":655,"name":"BIG HOG","steam_id":76561198079923652,"connected_time":801000000000,"state":"active","ping":59},{"user_id":613,"name":"BRINGO","steam_id":76561198045273979,"connected_time":5799000000000,"state":"active","ping":85},{"user_id":657,"name":"Myra1090","steam_id":76561198060917191,"connected_time":687000000000,"state":"active","ping":99},{"user_id":609,"name":"flippercurve","steam_id":76561199238295034,"connected_time":5968000000000,"state":"active","ping":76},{"user_id":590,"name":"Svepport","steam_id":76561198071373137,"connected_time":7874000000000,"state":"active","ping":61},{"user_id":644,"name":"im learning ):","steam_id":76561198083286148,"connected_time":1925000000000,"state":"active","ping":49},{"user_id":658,"name":"grape","steam_id":76561199071151136,"connected_time":620000000000,"state":"active","ping":89},{"user_id":630,"name":"Natsuki the Scunt","steam_id":76561199175922684,"connected_time":3979000000000,"state":"active","ping":101},{"user_id":632,"name":"Lycan","steam_id":76561198151499868,"connected_time":3923000000000,"state":"active","ping":97},{"user_id":660,"name":"DudeBergs","steam_id":76561198399777833,"connected_time":553000000000,"state":"active","ping":69},{"user_id":596,"name":"A Can of AriZona Green Tea","steam_id":76561198062481133,"connected_time":7720000000000,"state":"active","ping":74}]},{"server_id":108,"name":"Uncletopia | Dallas | 2 | All Maps","name_short":"dal-2","host":"dal-1.us.uncletopia.com","port":27025,"enabled":true,"region":"us-central","cc":"us","latitude":32.779167,"longitude":-96.80889,"reserved":0,"last_update":"0001-01-01T00:00:00Z","name_a2s":"Uncletopia | Dallas | 2 | All Maps","protocol":17,"map":"cp_process_final","folder":"tf","game":"Team Fortress","app_id":440,"player_count":24,"max_players":24,"Bots":0,"server_type":"Dedicated","server_os":"Linux","password":true,"vac":true,"version":"7961495","steam_id":85568392924469988,"keywords":["cp","nocrits","nodmgspread","uncletopia"],"game_id":440,"stv_port":27026,"stv_name":"Uncletopia | Dallas | 2 | All Maps | STV","players":[{"user_id":669,"name":"♥Ismâ'îl al-Dire♥","steam_id":76561198067436825,"connected_time":68000000000,"state":"active","ping":66},{"user_id":630,"name":"EatSomeBEES","steam_id":76561198047334307,"connected_time":2833000000000,"state":"active","ping":110},{"user_id":666,"name":"LargeBigboy","steam_id":76561198089293265,"connected_time":569000000000,"state":"active","ping":66},{"user_id":663,"name":"Chestnut","steam_id":76561198078198968,"connected_time":992000000000,"state":"active","ping":81},{"user_id":627,"name":"GotYourGoat","steam_id":76561197995171850,"connected_time":2937000000000,"state":"active","ping":95},{"user_id":651,"name":"rontu","steam_id":76561199072955534,"connected_time":1809000000000,"state":"active","ping":74},{"user_id":659,"name":"turingsghost","steam_id":76561198029318657,"connected_time":1516000000000,"state":"active","ping":37},{"user_id":644,"name":"Connorses","steam_id":76561198045971681,"connected_time":2038000000000,"state":"active","ping":76},{"user_id":656,"name":"rajas","steam_id":76561198049099910,"connected_time":1774000000000,"state":"active","ping":62},{"user_id":665,"name":"Lefty [Gentlemen of Leisure]","steam_id":76561197980825914,"connected_time":687000000000,"state":"active","ping":72},{"user_id":662,"name":"FormalCheese","steam_id":76561198068636715,"connected_time":1055000000000,"state":"active","ping":72},{"user_id":578,"name":"mterbay","steam_id":76561198023473264,"connected_time":6735000000000,"state":"active","ping":66},{"user_id":648,"name":"Riltreks","steam_id":76561198800482183,"connected_time":1858000000000,"state":"active","ping":64},{"user_id":635,"name":"hforce11","steam_id":76561198087647130,"connected_time":2662000000000,"state":"active","ping":59},{"user_id":653,"name":"TheGreenMarine","steam_id":76561199465667432,"connected_time":1804000000000,"state":"active","ping":122},{"user_id":554,"name":"cypherzero","steam_id":76561199182960322,"connected_time":9041000000000,"state":"active","ping":61},{"user_id":670,"name":"shlommy","steam_id":76561198040767402,"connected_time":56000000000,"state":"spawning","ping":358},{"user_id":637,"name":"H2OBourne","steam_id":76561198396293109,"connected_time":2540000000000,"state":"active","ping":67},{"user_id":667,"name":"storyboard","steam_id":76561199088496817,"connected_time":564000000000,"state":"active","ping":62},{"user_id":657,"name":"millerbv14","steam_id":76561198453908595,"connected_time":1766000000000,"state":"active","ping":94},{"user_id":661,"name":"U ω U","steam_id":76561198118802562,"connected_time":1431000000000,"state":"active","ping":118},{"user_id":613,"name":"M4 Sherman","steam_id":76561198126990820,"connected_time":4454000000000,"state":"active","ping":104},{"user_id":639,"name":"a dubious little creeeeature","steam_id":76561198162041422,"connected_time":2288000000000,"state":"active","ping":71},{"user_id":638,"name":"Spyincorporated","steam_id":76561198080956951,"connected_time":2532000000000,"state":"active","ping":85}]},{"server_id":404,"name":"Uncletopia | Dallas | 3 | All Maps","name_short":"dal-3","host":"dal-1.us.uncletopia.com","port":27035,"enabled":true,"region":"us-central","cc":"us","latitude":32.779167,"longitude":-96.80889,"reserved":0,"last_update":"0001-01-01T00:00:00Z","name_a2s":"Uncletopia | Dallas | 3 | All Maps","protocol":17,"map":"pl_barnblitz","folder":"tf","game":"Team Fortress","app_id":440,"player_count":14,"max_players":24,"Bots":0,"server_type":"Dedicated","server_os":"Linux","password":true,"vac":true,"version":"7961495","steam_id":85568392924515219,"keywords":["nocrits","nodmgspread","payload","uncletopia"],"game_id":440,"stv_port":27036,"stv_name":"Uncletopia | Dallas | 3 | All Maps | STV","players":[{"user_id":459,"name":"Bones0010","steam_id":76561198096186958,"connected_time":16000000000,"state":"spawning","ping":47},{"user_id":437,"name":"DRUMMY GRAMMY","steam_id":76561198047642540,"connected_time":980000000000,"state":"active","ping":87},{"user_id":448,"name":"Meme Man","steam_id":76561198084860021,"connected_time":284000000000,"state":"active","ping":66},{"user_id":449,"name":"DoomerDodie","steam_id":76561198177853490,"connected_time":268000000000,"state":"active","ping":180},{"user_id":432,"name":"muck","steam_id":76561198120437909,"connected_time":1021000000000,"state":"active","ping":40},{"user_id":457,"name":"FROYO yumyum","steam_id":76561198034817244,"connected_time":118000000000,"state":"active","ping":75},{"user_id":395,"name":"epicgamertime2008","steam_id":76561199380926595,"connected_time":3616000000000,"state":"active","ping":94},{"user_id":458,"name":"Thanatos","steam_id":76561198122834984,"connected_time":71000000000,"state":"active","ping":83},{"user_id":455,"name":"The Monster Fucker","steam_id":76561198136433414,"connected_time":235000000000,"state":"active","ping":83},{"user_id":445,"name":"I duckinf hatw you","steam_id":76561198100942212,"connected_time":477000000000,"state":"active","ping":74},{"user_id":423,"name":"rugbyralph288","steam_id":76561198161475964,"connected_time":2356000000000,"state":"active","ping":90},{"user_id":454,"name":"pastel","steam_id":76561198117895911,"connected_time":236000000000,"state":"active","ping":81},{"user_id":456,"name":"dagonator","steam_id":76561198150567198,"connected_time":232000000000,"state":"active","ping":76},{"user_id":404,"name":"alejandro","steam_id":76561198095113674,"connected_time":3358000000000,"state":"active","ping":107}]},{"server_id":405,"name":"Uncletopia | Dallas | 4 | Community","name_short":"dal-4","host":"dal-1.us.uncletopia.com","port":27045,"enabled":true,"region":"us-central","cc":"us","latitude":32.779167,"longitude":-96.80889,"reserved":0,"last_update":"0001-01-01T00:00:00Z","name_a2s":"Uncletopia | Dallas | 4 | Community","protocol":17,"map":"workshop/pl_shoreleave_rc2.ugc1238849347","folder":"tf","game":"Team Fortress","app_id":440,"player_count":0,"max_players":24,"Bots":0,"server_type":"Dedicated","server_os":"Linux","password":true,"vac":true,"version":"7961495","steam_id":85568392924515220,"keywords":["nocrits","nodmgspread","payload","uncletopia"],"game_id":440,"stv_port":27046,"stv_name":"Uncletopia | Dallas | 4 | Community | STV","players":null},{"server_id":5,"name":"Uncletopia | Frankfurt | 1 | All Maps","name_short":"frk-1","host":"frk-1.de.uncletopia.com","port":27015,"enabled":true,"region":"eu","cc":"de","latitude":50.110924,"longitude":8.682127,"reserved":0,"last_update":"0001-01-01T00:00:00Z","name_a2s":"Uncletopia | Frankfurt | 1 | All Maps","protocol":17,"map":"koth_highpass","folder":"tf","game":"Team Fortress","app_id":440,"player_count":0,"max_players":24,"Bots":0,"server_type":"Dedicated","server_os":"Linux","password":true,"vac":true,"version":"7961495","steam_id":85568392924469989,"keywords":["cp","nocrits","nodmgspread","uncletopia"],"game_id":440,"stv_port":27016,"stv_name":"Uncletopia | Frankfurt | 1 | All Maps | STV","players":null},{"server_id":110,"name":"Uncletopia | Frankfurt | 2 | All Maps","name_short":"frk-2","host":"frk-1.de.uncletopia.com","port":27025,"enabled":true,"region":"eu","cc":"de","latitude":50.110924,"longitude":8.682127,"reserved":0,"last_update":"0001-01-01T00:00:00Z","name_a2s":"Uncletopia | Frankfurt | 2 | All Maps","protocol":17,"map":"cp_dustbowl","folder":"tf","game":"Team Fortress","app_id":440,"player_count":0,"max_players":24,"Bots":0,"server_type":"Dedicated","server_os":"Linux","password":true,"vac":true,"version":"7961495","steam_id":85568392924469990,"keywords":["cp","nocrits","nodmgspread","uncletopia"],"game_id":440,"stv_port":27026,"stv_name":"Uncletopia | Frankfurt | 2 | All Maps | STV","players":null},{"server_id":308,"name":"Uncletopia | Frankfurt | 3 | All Maps","name_short":"frk-3","host":"frk-1.de.uncletopia.com","port":27035,"enabled":true,"region":"eu","cc":"de","latitude":50.110924,"longitude":8.682127,"reserved":0,"last_update":"0001-01-01T00:00:00Z","name_a2s":"Uncletopia | Frankfurt | 3 | All Maps","protocol":17,"map":"pl_barnblitz","folder":"tf","game":"Team Fortress","app_id":440,"player_count":0,"max_players":24,"Bots":0,"server_type":"Dedicated","server_os":"Linux","password":true,"vac":true,"version":"7961495","steam_id":85568392924504274,"keywords":["nocrits","nodmgspread","payload","uncletopia"],"game_id":440,"stv_port":27036,"stv_name":"Uncletopia | Frankfurt | 3 | All Maps | STV","players":null},{"server_id":309,"name":"Uncletopia | Frankfurt | 4 | All Maps","name_short":"frk-4","host":"frk-1.de.uncletopia.com","port":27045,"enabled":true,"region":"eu","cc":"de","latitude":50.110924,"longitude":8.682127,"reserved":0,"last_update":"0001-01-01T00:00:00Z","name_a2s":"Uncletopia | Frankfurt | 4 | All Maps","protocol":17,"map":"koth_highpass","folder":"tf","game":"Team Fortress","app_id":440,"player_count":0,"max_players":24,"Bots":0,"server_type":"Dedicated","server_os":"Linux","password":true,"vac":true,"version":"7961495","steam_id":85568392924504275,"keywords":["cp","nocrits","nodmgspread","uncletopia"],"game_id":440,"stv_port":27046,"stv_name":"Uncletopia | Frankfurt | 4 | All Maps | STV","players":null},{"server_id":310,"name":"Uncletopia | Frankfurt | 5 | All Maps","name_short":"frk-5","host":"frk-1.de.uncletopia.com","port":27055,"enabled":true,"region":"eu","cc":"de","latitude":50.110924,"longitude":8.682127,"reserved":0,"last_update":"0001-01-01T00:00:00Z","name_a2s":"Uncletopia | Frankfurt | 5 | All Maps","protocol":17,"map":"pl_badwater","folder":"tf","game":"Team Fortress","app_id":440,"player_count":0,"max_players":24,"Bots":0,"server_type":"Dedicated","server_os":"Linux","password":true,"vac":true,"version":"7961495","steam_id":85568392924504277,"keywords":["nocrits","nodmgspread","payload","uncletopia"],"game_id":440,"stv_port":27056,"stv_name":"Uncletopia | Frankfurt | 5 | All Maps | STV","players":null},{"server_id":311,"name":"Uncletopia | Frankfurt | 6 | All Maps","name_short":"frk-6","host":"frk-1.de.uncletopia.com","port":27065,"enabled":true,"region":"eu","cc":"de","latitude":50.110924,"longitude":8.682127,"reserved":0,"last_update":"0001-01-01T00:00:00Z","name_a2s":"Uncletopia | Frankfurt | 6 | All Maps","protocol":17,"map":"cp_altitude","folder":"tf","game":"Team Fortress","app_id":440,"player_count":0,"max_players":24,"Bots":0,"server_type":"Dedicated","server_os":"Linux","password":true,"vac":true,"version":"7961495","steam_id":85568392924504278,"keywords":["cp","nocrits","nodmgspread","uncletopia"],"game_id":440,"stv_port":27066,"stv_name":"Uncletopia | Frankfurt | 6 | All Maps | STV","players":null},{"server_id":23,"name":"Uncletopia | Frankfurt | 7 | Stopwatch","name_short":"frk-7","host":"frk-1.de.uncletopia.com","port":27075,"enabled":true,"region":"eu","cc":"de","latitude":50.110924,"longitude":8.682127,"reserved":0,"last_update":"0001-01-01T00:00:00Z","name_a2s":"Uncletopia | Frankfurt | 7 | Stopwatch","protocol":17,"map":"pl_frontier_final","folder":"tf","game":"Team Fortress","app_id":440,"player_count":0,"max_players":24,"Bots":0,"server_type":"Dedicated","server_os":"Linux","password":true,"vac":true,"version":"7961495","steam_id":85568392924742827,"keywords":["nocrits","nodmgspread","payload","uncletopia"],"game_id":440,"stv_port":27076,"stv_name":"Uncletopia | Frankfurt | 7 | Stopwatch | STV","players":null},{"server_id":24,"name":"Uncletopia | Frankfurt | 8 | Community","name_short":"frk-8","host":"frk-1.de.uncletopia.com","port":27085,"enabled":true,"region":"eu","cc":"de","latitude":50.110924,"longitude":8.682127,"reserved":0,"last_update":"0001-01-01T00:00:00Z","name_a2s":"Uncletopia | Frankfurt | 8 | Community","protocol":17,"map":"cp_mountainlab","folder":"tf","game":"Team Fortress","app_id":440,"player_count":0,"max_players":24,"Bots":0,"server_type":"Dedicated","server_os":"Linux","password":true,"vac":true,"version":"7961495","steam_id":85568392924742828,"keywords":["cp","nocrits","nodmgspread","uncletopia"],"game_id":440,"stv_port":27086,"stv_name":"Uncletopia | Frankfurt | 8 | Community | STV","players":null},{"server_id":202,"name":"Uncletopia | Hong Kong | 1 | All Maps","name_short":"hgk-1","host":"hgk-1.hk.uncletopia.com","port":27015,"enabled":true,"region":"asia","cc":"hk","latitude":22.302711,"longitude":114.177216,"reserved":0,"last_update":"0001-01-01T00:00:00Z","name_a2s":"Uncletopia | Hong Kong | 1 | All Maps","protocol":17,"map":"pl_frontier_final","folder":"tf","game":"Team Fortress","app_id":440,"player_count":0,"max_players":24,"Bots":0,"server_type":"Dedicated","server_os":"Linux","password":true,"vac":true,"version":"7961495","steam_id":85568392924494504,"keywords":["nocrits","nodmgspread","payload","uncletopia"],"game_id":440,"stv_port":27016,"stv_name":"Uncletopia | Hong Kong | 1 | All Maps | STV","players":null},{"server_id":1,"name":"Uncletopia | Los Angeles | 1 | All Maps","name_short":"lax-1","host":"lax-1.us.uncletopia.com","port":27015,"enabled":true,"region":"us-west","cc":"us","latitude":33.94279,"longitude":-118.41004,"reserved":0,"last_update":"0001-01-01T00:00:00Z","name_a2s":"Uncletopia | Los Angeles | 1 | All Maps","protocol":17,"map":"cp_coldfront","folder":"tf","game":"Team Fortress","app_id":440,"player_count":24,"max_players":24,"Bots":0,"server_type":"Dedicated","server_os":"Linux","password":true,"vac":true,"version":"7961495","steam_id":85568392924469991,"keywords":["cp","nocrits","nodmgspread","uncletopia"],"game_id":440,"stv_port":27016,"stv_name":"Uncletopia | Los Angeles | 1 | All Maps | STV","players":[{"user_id":247,"name":"mmmmmmmmmmmm","steam_id":76561199267742979,"connected_time":1580000000000,"state":"active","ping":62},{"user_id":254,"name":"MyMonkeyBaby","steam_id":76561198046896670,"connected_time":1048000000000,"state":"active","ping":88},{"user_id":252,"name":"Starkiller","steam_id":76561198101643120,"connected_time":1142000000000,"state":"active","ping":81},{"user_id":270,"name":"yall need me frfr","steam_id":76561198294192287,"connected_time":256000000000,"state":"active","ping":48},{"user_id":206,"name":"Gerbias","steam_id":76561198001002427,"connected_time":4429000000000,"state":"active","ping":59},{"user_id":255,"name":"CartoonTheToon.ttv","steam_id":76561198359882855,"connected_time":916000000000,"state":"active","ping":67},{"user_id":236,"name":"cielael","steam_id":76561198043971956,"connected_time":2271000000000,"state":"active","ping":50},{"user_id":253,"name":"♥ur :3 medic gf♥ (51ref/hr)","steam_id":76561198816778484,"connected_time":1117000000000,"state":"active","ping":112},{"user_id":268,"name":"twink-182","steam_id":76561198109480519,"connected_time":339000000000,"state":"active","ping":115},{"user_id":257,"name":"JonBoy","steam_id":76561198082052480,"connected_time":889000000000,"state":"active","ping":97},{"user_id":243,"name":"Cypress","steam_id":76561198070560915,"connected_time":1724000000000,"state":"active","ping":66},{"user_id":223,"name":"1000 Ping","steam_id":76561198098330939,"connected_time":3342000000000,"state":"active","ping":68},{"user_id":258,"name":"An00bis","steam_id":76561198044084508,"connected_time":821000000000,"state":"active","ping":50},{"user_id":250,"name":"tie dye die guy","steam_id":76561198049845337,"connected_time":1439000000000,"state":"active","ping":61},{"user_id":125,"name":"sonicboom14","steam_id":76561198866558393,"connected_time":9965000000000,"state":"active","ping":68},{"user_id":237,"name":"Culprit Shy","steam_id":76561198206506481,"connected_time":2227000000000,"state":"active","ping":45},{"user_id":269,"name":"Brandon Nguyen","steam_id":76561198203344738,"connected_time":288000000000,"state":"active","ping":48},{"user_id":238,"name":"salty like Lot's wife","steam_id":76561197998619845,"connected_time":2196000000000,"state":"active","ping":114},{"user_id":229,"name":"Uprightmoss7528","steam_id":76561199200138486,"connected_time":2852000000000,"state":"active","ping":53},{"user_id":267,"name":"Sozuki","steam_id":76561198961150367,"connected_time":354000000000,"state":"active","ping":60},{"user_id":239,"name":"KJ","steam_id":76561199019869692,"connected_time":2126000000000,"state":"active","ping":83},{"user_id":271,"name":"uwu","steam_id":76561199058284787,"connected_time":106000000000,"state":"active","ping":138},{"user_id":242,"name":"OHGODBEES!","steam_id":76561198000653374,"connected_time":1793000000000,"state":"active","ping":73},{"user_id":264,"name":"squid","steam_id":76561198070236972,"connected_time":584000000000,"state":"active","ping":60}]},{"server_id":112,"name":"Uncletopia | Los Angeles | 2 | All Maps","name_short":"lax-2","host":"lax-1.us.uncletopia.com","port":27025,"enabled":true,"region":"us-west","cc":"us","latitude":33.94279,"longitude":-118.41004,"reserved":0,"last_update":"0001-01-01T00:00:00Z","name_a2s":"Uncletopia | Los Angeles | 2 | All Maps","protocol":17,"map":"pl_pier","folder":"tf","game":"Team Fortress","app_id":440,"player_count":24,"max_players":24,"Bots":0,"server_type":"Dedicated","server_os":"Linux","password":true,"vac":true,"version":"7961495","steam_id":85568392924469992,"keywords":["nocrits","nodmgspread","payload","uncletopia"],"game_id":440,"stv_port":27026,"stv_name":"Uncletopia | Los Angeles | 2 | All Maps | STV","players":[{"user_id":140,"name":"Sinn","steam_id":76561199013434543,"connected_time":860000000000,"state":"active","ping":66},{"user_id":144,"name":"moe","steam_id":76561198929586245,"connected_time":452000000000,"state":"active","ping":40},{"user_id":137,"name":"rave killer","steam_id":76561199001918194,"connected_time":1086000000000,"state":"active","ping":60},{"user_id":109,"name":"Chalupa Jones","steam_id":76561198335855588,"connected_time":3605000000000,"state":"active","ping":46},{"user_id":128,"name":"brick_bloxer","steam_id":76561198075671287,"connected_time":2099000000000,"state":"active","ping":75},{"user_id":110,"name":"Cypress [ +/- ] ✔","steam_id":76561198067164431,"connected_time":3571000000000,"state":"active","ping":41},{"user_id":122,"name":"Alywin","steam_id":76561198834403192,"connected_time":2937000000000,"state":"active","ping":68},{"user_id":147,"name":"vioxynteris","steam_id":76561198161428666,"connected_time":282000000000,"state":"active","ping":33},{"user_id":112,"name":"social distance warrior","steam_id":76561198128992994,"connected_time":3524000000000,"state":"active","ping":74},{"user_id":58,"name":"Chiaki Nanami","steam_id":76561198164782653,"connected_time":8105000000000,"state":"active","ping":120},{"user_id":102,"name":"Lucas","steam_id":76561198399704604,"connected_time":4430000000000,"state":"active","ping":65},{"user_id":89,"name":"selling rice","steam_id":76561198063357023,"connected_time":5464000000000,"state":"active","ping":51},{"user_id":100,"name":"Taco+Taco=Burrito","steam_id":76561198063128663,"connected_time":4868000000000,"state":"active","ping":48},{"user_id":132,"name":"El Güey","steam_id":76561197970450546,"connected_time":1855000000000,"state":"active","ping":84},{"user_id":141,"name":"Scoops M'Gooch","steam_id":76561198048423812,"connected_time":685000000000,"state":"active","ping":67},{"user_id":130,"name":"choodle","steam_id":76561198930608649,"connected_time":2035000000000,"state":"active","ping":41},{"user_id":131,"name":"Junk Synchron","steam_id":76561198329478764,"connected_time":1925000000000,"state":"active","ping":56},{"user_id":124,"name":"FI LO","steam_id":76561198976530881,"connected_time":2903000000000,"state":"active","ping":36},{"user_id":142,"name":"hoOmIN","steam_id":76561198334947079,"connected_time":660000000000,"state":"active","ping":44},{"user_id":57,"name":"gerg","steam_id":76561197997127387,"connected_time":8123000000000,"state":"active","ping":63},{"user_id":120,"name":"drewdawg6296","steam_id":76561199168732067,"connected_time":3224000000000,"state":"active","ping":85},{"user_id":121,"name":"Claybae","steam_id":76561198064290179,"connected_time":3206000000000,"state":"active","ping":92},{"user_id":145,"name":"caleb","steam_id":76561198119306966,"connected_time":395000000000,"state":"active","ping":60},{"user_id":146,"name":"Chap","steam_id":76561198294226443,"connected_time":376000000000,"state":"active","ping":60}]},{"server_id":324,"name":"Uncletopia | Los Angeles | 3 | All Maps","name_short":"lax-3","host":"lax-1.us.uncletopia.com","port":27035,"enabled":true,"region":"us-west","cc":"us","latitude":33.94279,"longitude":-118.41004,"reserved":0,"last_update":"0001-01-01T00:00:00Z","name_a2s":"Uncletopia | Los Angeles | 3 | All Maps","protocol":17,"map":"pl_snowycoast","folder":"tf","game":"Team Fortress","app_id":440,"player_count":24,"max_players":24,"Bots":0,"server_type":"Dedicated","server_os":"Linux","password":true,"vac":true,"version":"7961495","steam_id":85568392924510198,"keywords":["nocrits","nodmgspread","payload","uncletopia"],"game_id":440,"stv_port":27036,"stv_name":"Uncletopia | Los Angeles | 3 | All Maps | STV","players":[{"user_id":394,"name":"Lake Idiot","steam_id":76561198139053146,"connected_time":1707000000000,"state":"active","ping":62},{"user_id":391,"name":"DoctorTyrone | #HelloLadies","steam_id":76561198072081656,"connected_time":2084000000000,"state":"active","ping":45},{"user_id":377,"name":"Pukei-Pukei","steam_id":76561197992722546,"connected_time":3993000000000,"state":"active","ping":58},{"user_id":385,"name":"Soviet Potato","steam_id":76561198068546113,"connected_time":2864000000000,"state":"active","ping":49},{"user_id":388,"name":"Tanuki","steam_id":76561198420139659,"connected_time":2432000000000,"state":"active","ping":49},{"user_id":380,"name":"ColdRamen","steam_id":76561198128945664,"connected_time":3521000000000,"state":"active","ping":58},{"user_id":396,"name":"\u003c3yaoi-boy-princess\u003c3","steam_id":76561197997343746,"connected_time":1670000000000,"state":"active","ping":55},{"user_id":390,"name":"Cinnamon","steam_id":76561198426688678,"connected_time":2164000000000,"state":"active","ping":81},{"user_id":282,"name":"ii_BlooMoon","steam_id":76561199100597391,"connected_time":9527000000000,"state":"active","ping":57},{"user_id":376,"name":"bonk","steam_id":76561198922763623,"connected_time":4163000000000,"state":"active","ping":50},{"user_id":382,"name":"drevott74","steam_id":76561199262592779,"connected_time":3514000000000,"state":"active","ping":101},{"user_id":348,"name":"Soulja Boy","steam_id":76561198066091050,"connected_time":6007000000000,"state":"active","ping":74},{"user_id":349,"name":"lol","steam_id":76561198026491738,"connected_time":5948000000000,"state":"active","ping":64},{"user_id":395,"name":"Agent Maine","steam_id":76561198880660235,"connected_time":1700000000000,"state":"active","ping":65},{"user_id":392,"name":"Frank Accardi","steam_id":76561198017275707,"connected_time":2030000000000,"state":"active","ping":66},{"user_id":397,"name":"Alf Creepypasta","steam_id":76561198841844093,"connected_time":1654000000000,"state":"active","ping":49},{"user_id":375,"name":"BlazedBunny","steam_id":76561198243610560,"connected_time":4216000000000,"state":"active","ping":109},{"user_id":401,"name":"ThatOneRhyGuy","steam_id":76561198107821741,"connected_time":677000000000,"state":"active","ping":62},{"user_id":354,"name":"xD","steam_id":76561198149683030,"connected_time":5881000000000,"state":"active","ping":68},{"user_id":360,"name":"McDonald","steam_id":76561199028533497,"connected_time":5634000000000,"state":"active","ping":52},{"user_id":378,"name":"Chango","steam_id":76561198449544332,"connected_time":3547000000000,"state":"active","ping":73},{"user_id":398,"name":"Medicinal Significant Other","steam_id":76561198239771532,"connected_time":1643000000000,"state":"active","ping":123},{"user_id":402,"name":"Destroyer1004","steam_id":76561199367685913,"connected_time":540000000000,"state":"active","ping":85},{"user_id":399,"name":"Siren","steam_id":76561198047395823,"connected_time":1299000000000,"state":"active","ping":117}]},{"server_id":25,"name":"Uncletopia | Los Angeles | 4 | Stopwatch","name_short":"lax-4","host":"lax-1.us.uncletopia.com","port":27045,"enabled":true,"region":"us-west","cc":"us","latitude":33.94279,"longitude":-118.41004,"reserved":0,"last_update":"0001-01-01T00:00:00Z","name_a2s":"Uncletopia | Los Angeles | 4 | Stopwatch","protocol":17,"map":"cp_snakewater_final1","folder":"tf","game":"Team Fortress","app_id":440,"player_count":0,"max_players":24,"Bots":0,"server_type":"Dedicated","server_os":"Linux","password":true,"vac":true,"version":"7961495","steam_id":85568392924510199,"keywords":["cp","nocrits","nodmgspread","uncletopia"],"game_id":440,"stv_port":27046,"stv_name":"Uncletopia | Los Angeles | 4 | Stopwatch | STV","players":null},{"server_id":11,"name":"Uncletopia | London | 1 | All Maps","name_short":"lon-1","host":"lon-1.uk.uncletopia.com","port":27015,"enabled":true,"region":"eu","cc":"gb","latitude":51.509865,"longitude":-0.118092,"reserved":0,"last_update":"0001-01-01T00:00:00Z","name_a2s":"Uncletopia | London | 1 | All Maps","protocol":17,"map":"cp_sunshine","folder":"tf","game":"Team Fortress","app_id":440,"player_count":0,"max_players":24,"Bots":0,"server_type":"Dedicated","server_os":"Linux","password":true,"vac":true,"version":"7961495","steam_id":85568392924367362,"keywords":["cp","nocrits","nodmgspread","uncletopia"],"game_id":440,"stv_port":27016,"stv_name":"Uncletopia | London | 1 | All Maps | STV","players":null},{"server_id":114,"name":"Uncletopia | London | 2 | All Maps","name_short":"lon-2","host":"lon-1.uk.uncletopia.com","port":27025,"enabled":true,"region":"eu","cc":"gb","latitude":51.509865,"longitude":-0.118092,"reserved":0,"last_update":"0001-01-01T00:00:00Z","name_a2s":"Uncletopia | London | 2 | All Maps","protocol":17,"map":"cp_sunshine","folder":"tf","game":"Team Fortress","app_id":440,"player_count":0,"max_players":24,"Bots":0,"server_type":"Dedicated","server_os":"Linux","password":true,"vac":true,"version":"7961495","steam_id":85568392924470941,"keywords":["cp","nocrits","nodmgspread","uncletopia"],"game_id":440,"stv_port":27026,"stv_name":"Uncletopia | London | 2 | All Maps | STV","players":null},{"server_id":320,"name":"Uncletopia | London | 3 | All Maps","name_short":"lon-3","host":"lon-1.uk.uncletopia.com","port":27035,"enabled":true,"region":"eu","cc":"gb","latitude":51.509865,"longitude":-0.118092,"reserved":0,"last_update":"0001-01-01T00:00:00Z","name_a2s":"Uncletopia | London | 3 | All Maps","protocol":17,"map":"pl_barnblitz","folder":"tf","game":"Team Fortress","app_id":440,"player_count":0,"max_players":24,"Bots":0,"server_type":"Dedicated","server_os":"Linux","password":true,"vac":true,"version":"7961495","steam_id":85568392924510192,"keywords":["nocrits","nodmgspread","payload","uncletopia"],"game_id":440,"stv_port":27036,"stv_name":"Uncletopia | London | 3 | All Maps | STV","players":null},{"server_id":321,"name":"Uncletopia | London | 4 | All Maps","name_short":"lon-4","host":"lon-1.uk.uncletopia.com","port":27045,"enabled":true,"region":"eu","cc":"gb","latitude":51.509865,"longitude":-0.118092,"reserved":0,"last_update":"0001-01-01T00:00:00Z","name_a2s":"Uncletopia | London | 4 | All Maps","protocol":17,"map":"koth_viaduct","folder":"tf","game":"Team Fortress","app_id":440,"player_count":0,"max_players":24,"Bots":0,"server_type":"Dedicated","server_os":"Linux","password":true,"vac":true,"version":"7961495","steam_id":85568392924510193,"keywords":["cp","nocrits","nodmgspread","uncletopia"],"game_id":440,"stv_port":27046,"stv_name":"Uncletopia | London | 4 | All Maps | STV","players":null},{"server_id":21,"name":"Uncletopia | London | 5 | All Maps","name_short":"lon-5","host":"lon-1.uk.uncletopia.com","port":27055,"enabled":true,"region":"eu","cc":"gb","latitude":51.509865,"longitude":-0.118092,"reserved":0,"last_update":"0001-01-01T00:00:00Z","name_a2s":"Uncletopia | London | 5 | All Maps","protocol":17,"map":"pl_swiftwater_final1","folder":"tf","game":"Team Fortress","app_id":440,"player_count":0,"max_players":24,"Bots":0,"server_type":"Dedicated","server_os":"Linux","password":true,"vac":true,"version":"7961495","steam_id":85568392924742829,"keywords":["nocrits","nodmgspread","payload","uncletopia"],"game_id":440,"stv_port":27056,"stv_name":"Uncletopia | London | 5 | All Maps | STV","players":null},{"server_id":22,"name":"Uncletopia | London | 6 | All Maps","name_short":"lon-6","host":"lon-1.uk.uncletopia.com","port":27065,"enabled":true,"region":"eu","cc":"gb","latitude":51.509865,"longitude":-0.118092,"reserved":0,"last_update":"0001-01-01T00:00:00Z","name_a2s":"Uncletopia | London | 6 | All Maps","protocol":17,"map":"pl_swiftwater_final1","folder":"tf","game":"Team Fortress","app_id":440,"player_count":0,"max_players":24,"Bots":0,"server_type":"Dedicated","server_os":"Linux","password":true,"vac":true,"version":"7961495","steam_id":85568392924742830,"keywords":["nocrits","nodmgspread","payload","uncletopia"],"game_id":440,"stv_port":27066,"stv_name":"Uncletopia | London | 6 | All Maps | STV","players":null},{"server_id":40,"name":"Uncletopia | London | 7 | Stopwatch","name_short":"lon-7","host":"lon-1.uk.uncletopia.com","port":27075,"enabled":true,"region":"eu","cc":"gb","latitude":51.509865,"longitude":-0.118092,"reserved":0,"last_update":"0001-01-01T00:00:00Z","name_a2s":"Uncletopia | London | 7 | Stopwatch","protocol":17,"map":"workshop/koth_bagel_rc6.ugc2514036946","folder":"tf","game":"Team Fortress","app_id":440,"player_count":0,"max_players":24,"Bots":0,"server_type":"Dedicated","server_os":"Linux","password":true,"vac":true,"version":"7961495","steam_id":85568392924964314,"keywords":["cp","nocrits","nodmgspread","uncletopia"],"game_id":440,"stv_port":27076,"stv_name":"Uncletopia | London | 7 | Stopwatch | STV","players":null},{"server_id":41,"name":"Uncletopia | London | 8 | Community","name_short":"lon-8","host":"lon-1.uk.uncletopia.com","port":27085,"enabled":true,"region":"eu","cc":"gb","latitude":51.509865,"longitude":-0.118092,"reserved":0,"last_update":"0001-01-01T00:00:00Z","name_a2s":"Uncletopia | London | 8 | Community","protocol":17,"map":"workshop/cp_alloy_rc3.ugc592805587","folder":"tf","game":"Team Fortress","app_id":440,"player_count":0,"max_players":24,"Bots":0,"server_type":"Dedicated","server_os":"Linux","password":true,"vac":true,"version":"7961495","steam_id":85568392924964315,"keywords":["cp","nocrits","nodmgspread","uncletopia"],"game_id":440,"stv_port":27086,"stv_name":"Uncletopia | London | 8 | Community | STV","players":null},{"server_id":300,"name":"Uncletopia | Montréal | 1 | All Maps","name_short":"mtl-1","host":"mtl-1.ca.uncletopia.com","port":27015,"enabled":true,"region":"us-east","cc":"ca","latitude":45.50889,"longitude":-73.56167,"reserved":0,"last_update":"0001-01-01T00:00:00Z","name_a2s":"","protocol":0,"map":"","folder":"","game":"","app_id":0,"player_count":0,"max_players":0,"Bots":0,"server_type":"","server_os":"","password":false,"vac":false,"version":"","steam_id":0,"keywords":null,"game_id":0,"stv_port":0,"stv_name":"","players":null},{"server_id":301,"name":"Uncletopia | Montréal | 2 | ???","name_short":"mtl-2","host":"mtl-1.ca.uncletopia.com","port":27025,"enabled":true,"region":"us-east","cc":"ca","latitude":45.50889,"longitude":-73.56167,"reserved":0,"last_update":"0001-01-01T00:00:00Z","name_a2s":"","protocol":0,"map":"","folder":"","game":"","app_id":0,"player_count":0,"max_players":0,"Bots":0,"server_type":"","server_os":"","password":false,"vac":false,"version":"","steam_id":0,"keywords":null,"game_id":0,"stv_port":0,"stv_name":"","players":null},{"server_id":302,"name":"Uncletopia | Montréal | 3 | All Maps","name_short":"mtl-3","host":"mtl-1.ca.uncletopia.com","port":27035,"enabled":true,"region":"us-east","cc":"ca","latitude":45.50889,"longitude":-73.56167,"reserved":0,"last_update":"0001-01-01T00:00:00Z","name_a2s":"","protocol":0,"map":"","folder":"","game":"","app_id":0,"player_count":0,"max_players":0,"Bots":0,"server_type":"","server_os":"","password":false,"vac":false,"version":"","steam_id":0,"keywords":null,"game_id":0,"stv_port":0,"stv_name":"","players":null},{"server_id":303,"name":"Uncletopia | Montréal | 4 | No Payload","name_short":"mtl-4","host":"mtl-1.ca.uncletopia.com","port":27045,"enabled":true,"region":"us-east","cc":"ca","latitude":45.50889,"longitude":-73.56167,"reserved":0,"last_update":"0001-01-01T00:00:00Z","name_a2s":"","protocol":0,"map":"","folder":"","game":"","app_id":0,"player_count":0,"max_players":0,"Bots":0,"server_type":"","server_os":"","password":false,"vac":false,"version":"","steam_id":0,"keywords":null,"game_id":0,"stv_port":0,"stv_name":"","players":null},{"server_id":13,"name":"Uncletopia | New York City | 1 | All Maps","name_short":"nyc-1","host":"nyc-1.us.uncletopia.com","port":27015,"enabled":true,"region":"us-east","cc":"us","latitude":40.73061,"longitude":-73.93524,"reserved":0,"last_update":"0001-01-01T00:00:00Z","name_a2s":"Uncletopia | New York City | 1 | All Maps","protocol":17,"map":"cp_5gorge","folder":"tf","game":"Team Fortress","app_id":440,"player_count":24,"max_players":24,"Bots":0,"server_type":"Dedicated","server_os":"Linux","password":true,"vac":true,"version":"7961495","steam_id":85568392924469993,"keywords":["cp","nocrits","nodmgspread","uncletopia"],"game_id":440,"stv_port":27016,"stv_name":"Uncletopia | New York City | 1 | All Maps | STV","players":[{"user_id":406,"name":"Infinity","steam_id":76561199134919099,"connected_time":6916000000000,"state":"active","ping":60},{"user_id":459,"name":"BrownMemeSter","steam_id":76561198113745020,"connected_time":621000000000,"state":"active","ping":60},{"user_id":454,"name":"chuunyu","steam_id":76561198055623250,"connected_time":780000000000,"state":"active","ping":118},{"user_id":455,"name":"zam","steam_id":76561198295713840,"connected_time":708000000000,"state":"active","ping":91},{"user_id":414,"name":"baballe","steam_id":76561198302448192,"connected_time":5360000000000,"state":"active","ping":107},{"user_id":428,"name":"Marcus99389","steam_id":76561198049884937,"connected_time":3536000000000,"state":"active","ping":129},{"user_id":456,"name":"PieSpie","steam_id":76561198054531169,"connected_time":695000000000,"state":"active","ping":94},{"user_id":451,"name":"i hate my bitchmade son","steam_id":76561198044034546,"connected_time":1254000000000,"state":"active","ping":64},{"user_id":452,"name":"can we wipe your ass","steam_id":76561198108795835,"connected_time":1200000000000,"state":"active","ping":44},{"user_id":433,"name":"HUESO","steam_id":76561198276383681,"connected_time":3203000000000,"state":"active","ping":75},{"user_id":457,"name":"Top Quacker","steam_id":76561198261316128,"connected_time":694000000000,"state":"active","ping":59},{"user_id":442,"name":"Link!","steam_id":76561198090113742,"connected_time":2415000000000,"state":"active","ping":79},{"user_id":431,"name":"stormfoam","steam_id":76561198936871387,"connected_time":3400000000000,"state":"active","ping":74},{"user_id":420,"name":"Bunni","steam_id":76561198065169997,"connected_time":5084000000000,"state":"active","ping":77},{"user_id":443,"name":"Nacho Slug","steam_id":76561198069161360,"connected_time":2402000000000,"state":"active","ping":65},{"user_id":446,"name":"vanta","steam_id":76561198084317504,"connected_time":2042000000000,"state":"active","ping":60},{"user_id":462,"name":"dilfbot","steam_id":76561198099988165,"connected_time":433000000000,"state":"active","ping":91},{"user_id":458,"name":"Chechens Spotted","steam_id":76561199028910893,"connected_time":692000000000,"state":"active","ping":72},{"user_id":437,"name":"Idiotden","steam_id":76561199340950135,"connected_time":3144000000000,"state":"active","ping":104},{"user_id":465,"name":"John","steam_id":76561198131179444,"connected_time":310000000000,"state":"active","ping":103},{"user_id":461,"name":"Cobalt Blues","steam_id":76561198309195794,"connected_time":583000000000,"state":"active","ping":92},{"user_id":463,"name":"Zero","steam_id":76561198033384990,"connected_time":432000000000,"state":"active","ping":58},{"user_id":355,"name":"bendera","steam_id":76561197965486503,"connected_time":10423000000000,"state":"active","ping":82},{"user_id":464,"name":"Bee","steam_id":76561198074681324,"connected_time":419000000000,"state":"active","ping":50}]},{"server_id":14,"name":"Uncletopia | New York City | 2 | All Maps","name_short":"nyc-2","host":"nyc-1.us.uncletopia.com","port":27025,"enabled":true,"region":"us-east","cc":"us","latitude":40.73061,"longitude":-73.93524,"reserved":0,"last_update":"0001-01-01T00:00:00Z","name_a2s":"Uncletopia | New York City | 2 | All Maps","protocol":17,"map":"cp_dustbowl","folder":"tf","game":"Team Fortress","app_id":440,"player_count":23,"max_players":24,"Bots":0,"server_type":"Dedicated","server_os":"Linux","password":true,"vac":true,"version":"7961495","steam_id":85568392924469994,"keywords":["cp","nocrits","nodmgspread","uncletopia"],"game_id":440,"stv_port":27026,"stv_name":"Uncletopia | New York City | 2 | All Maps | STV","players":[{"user_id":330,"name":"Leonator™","steam_id":76561198043713041,"connected_time":581000000000,"state":"active","ping":165},{"user_id":272,"name":"Natalie","steam_id":76561198090613781,"connected_time":5919000000000,"state":"active","ping":72},{"user_id":325,"name":"elso","steam_id":76561198058209902,"connected_time":983000000000,"state":"active","ping":83},{"user_id":321,"name":"Spiral Mountain","steam_id":76561198058683715,"connected_time":1210000000000,"state":"active","ping":74},{"user_id":237,"name":"Matlock","steam_id":76561198012092071,"connected_time":7713000000000,"state":"active","ping":56},{"user_id":277,"name":"brian damage","steam_id":76561198118455606,"connected_time":5517000000000,"state":"active","ping":59},{"user_id":193,"name":"Connection","steam_id":76561199230740231,"connected_time":10822000000000,"state":"active","ping":55},{"user_id":320,"name":"Schnitz","steam_id":76561198265484253,"connected_time":1488000000000,"state":"active","ping":120},{"user_id":322,"name":"Fiendish Frog","steam_id":76561198029478821,"connected_time":1123000000000,"state":"active","ping":55},{"user_id":327,"name":"The Wave","steam_id":76561198268225109,"connected_time":859000000000,"state":"active","ping":76},{"user_id":326,"name":"Yoozer","steam_id":76561198420257694,"connected_time":967000000000,"state":"active","ping":113},{"user_id":270,"name":"can man (cigarette advocate)","steam_id":76561197967844454,"connected_time":6035000000000,"state":"active","ping":86},{"user_id":286,"name":"gooseman95","steam_id":76561198001781616,"connected_time":4541000000000,"state":"active","ping":43},{"user_id":323,"name":"Herdez Hot Salsa","steam_id":76561197991740906,"connected_time":988000000000,"state":"active","ping":69},{"user_id":308,"name":"Ludcmorais","steam_id":76561198359217809,"connected_time":3048000000000,"state":"active","ping":182},{"user_id":328,"name":"cyclops","steam_id":76561197970370198,"connected_time":855000000000,"state":"active","ping":80},{"user_id":331,"name":"supersabir","steam_id":76561198303055397,"connected_time":368000000000,"state":"active","ping":117},{"user_id":312,"name":"defcon","steam_id":76561198100656328,"connected_time":2229000000000,"state":"active","ping":89},{"user_id":307,"name":"Pinhead Larry","steam_id":76561199088542196,"connected_time":3053000000000,"state":"active","ping":46},{"user_id":316,"name":"oppenheimer style","steam_id":76561198026664629,"connected_time":1763000000000,"state":"active","ping":50},{"user_id":314,"name":"Teepawt","steam_id":76561198383835469,"connected_time":1971000000000,"state":"active","ping":76},{"user_id":306,"name":"Sporp","steam_id":76561197987957133,"connected_time":3423000000000,"state":"active","ping":59},{"user_id":324,"name":"MinusSoup918","steam_id":76561198060902773,"connected_time":988000000000,"state":"active","ping":136}]},{"server_id":15,"name":"Uncletopia | New York City | 3 | Stopwatch","name_short":"nyc-3","host":"nyc-1.us.uncletopia.com","port":27035,"enabled":true,"region":"us-east","cc":"us","latitude":40.73061,"longitude":-73.93524,"reserved":0,"last_update":"0001-01-01T00:00:00Z","name_a2s":"Uncletopia | New York City | 3 | Stopwatch","protocol":17,"map":"cp_granary","folder":"tf","game":"Team Fortress","app_id":440,"player_count":0,"max_players":24,"Bots":0,"server_type":"Dedicated","server_os":"Linux","password":true,"vac":true,"version":"7961495","steam_id":85568392924742820,"keywords":["cp","nocrits","nodmgspread","uncletopia"],"game_id":440,"stv_port":27036,"stv_name":"Uncletopia | New York City | 3 | Stopwatch | STV","players":null},{"server_id":16,"name":"Uncletopia | New York City | 4 | Community","name_short":"nyc-4","host":"nyc-1.us.uncletopia.com","port":27045,"enabled":true,"region":"us-east","cc":"us","latitude":40.73061,"longitude":-73.93524,"reserved":0,"last_update":"0001-01-01T00:00:00Z","name_a2s":"Uncletopia | New York City | 4 | Community","protocol":17,"map":"workshop/cp_overgrown_rc8.ugc503939302","folder":"tf","game":"Team Fortress","app_id":440,"player_count":24,"max_players":24,"Bots":0,"server_type":"Dedicated","server_os":"Linux","password":true,"vac":true,"version":"7961495","steam_id":85568392924742821,"keywords":["cp","nocrits","nodmgspread","uncletopia"],"game_id":440,"stv_port":27046,"stv_name":"Uncletopia | New York City | 4 | Community | STV","players":[{"user_id":207,"name":"abcdefghijklmnopqrstuvwxyz","steam_id":76561198966277057,"connected_time":3425000000000,"state":"active","ping":114},{"user_id":236,"name":"shoxidizer","steam_id":76561198981983698,"connected_time":1186000000000,"state":"active","ping":64},{"user_id":234,"name":"dave","steam_id":76561198135961731,"connected_time":1251000000000,"state":"active","ping":95},{"user_id":186,"name":"Virtual Zorua","steam_id":76561198196180302,"connected_time":5126000000000,"state":"active","ping":85},{"user_id":243,"name":"Aldinach","steam_id":76561198079912615,"connected_time":481000000000,"state":"active","ping":60},{"user_id":216,"name":"Golurk with some bitches","steam_id":76561198085888959,"connected_time":2880000000000,"state":"active","ping":49},{"user_id":170,"name":"♡Ame♡","steam_id":76561198071217748,"connected_time":6118000000000,"state":"active","ping":57},{"user_id":217,"name":"ryan","steam_id":76561198139411911,"connected_time":2866000000000,"state":"active","ping":71},{"user_id":240,"name":"Joseph","steam_id":76561198392871557,"connected_time":1020000000000,"state":"active","ping":51},{"user_id":218,"name":"Disco Fever","steam_id":76561198069532215,"connected_time":2816000000000,"state":"active","ping":55},{"user_id":171,"name":"Ty?","steam_id":76561198132068284,"connected_time":6082000000000,"state":"active","ping":59},{"user_id":244,"name":"Tom Crúaich","steam_id":76561197999439911,"connected_time":422000000000,"state":"active","ping":95},{"user_id":222,"name":"StarLy","steam_id":76561198174428289,"connected_time":2266000000000,"state":"active","ping":91},{"user_id":153,"name":"Ripping Heads","steam_id":76561198006146062,"connected_time":6817000000000,"state":"active","ping":63},{"user_id":235,"name":"Khorne Looney","steam_id":76561197988500167,"connected_time":1215000000000,"state":"active","ping":75},{"user_id":238,"name":"peee pee man","steam_id":76561198044979205,"connected_time":1134000000000,"state":"active","ping":59},{"user_id":245,"name":"Mekko","steam_id":76561198880989086,"connected_time":384000000000,"state":"active","ping":192},{"user_id":246,"name":"snow","steam_id":76561198018184698,"connected_time":333000000000,"state":"active","ping":56},{"user_id":242,"name":"tooba","steam_id":76561198202589758,"connected_time":828000000000,"state":"active","ping":61},{"user_id":247,"name":"litroolay","steam_id":76561197995226856,"connected_time":327000000000,"state":"active","ping":106},{"user_id":228,"name":"My wife left 238","steam_id":76561198943944502,"connected_time":1682000000000,"state":"active","ping":95},{"user_id":226,"name":"Dotshin","steam_id":76561198452926392,"connected_time":1753000000000,"state":"active","ping":118},{"user_id":223,"name":"Sanamsam1","steam_id":76561198051890899,"connected_time":2178000000000,"state":"active","ping":48},{"user_id":173,"name":"memories lie","steam_id":76561198138221795,"connected_time":6045000000000,"state":"active","ping":101}]},{"server_id":142,"name":"Uncletopia | São Paulo | 1 | All Maps","name_short":"sao-1","host":"sao-1.br.uncletopia.com","port":27015,"enabled":true,"region":"sa","cc":"br","latitude":-23.533773,"longitude":-46.62529,"reserved":0,"last_update":"0001-01-01T00:00:00Z","name_a2s":"Uncletopia | São Paulo | 1 | All Maps","protocol":17,"map":"koth_viaduct","folder":"tf","game":"Team Fortress","app_id":440,"player_count":0,"max_players":24,"Bots":0,"server_type":"Dedicated","server_os":"Linux","password":true,"vac":true,"version":"7961495","steam_id":85568392924469996,"keywords":["cp","nocrits","nodmgspread","uncletopia"],"game_id":440,"stv_port":27016,"stv_name":"Uncletopia | São Paulo | 1 | All Maps | STV","players":null},{"server_id":143,"name":"Uncletopia | São Paulo | 2 | Community","name_short":"sao-2","host":"sao-2.br.uncletopia.com","port":27015,"enabled":true,"region":"sa","cc":"br","latitude":-23.533773,"longitude":-46.62529,"reserved":0,"last_update":"0001-01-01T00:00:00Z","name_a2s":"Uncletopia | São Paulo | 2 | Community","protocol":17,"map":"workshop/cp_reckoner_rc6.ugc674719999","folder":"tf","game":"Team Fortress","app_id":440,"player_count":0,"max_players":24,"Bots":0,"server_type":"Dedicated","server_os":"Linux","password":true,"vac":true,"version":"7961495","steam_id":85568392924485349,"keywords":["cp","nocrits","nodmgspread","uncletopia"],"game_id":440,"stv_port":27016,"stv_name":"Uncletopia | São Paulo | 2 | Community | STV","players":null},{"server_id":7,"name":"Uncletopia | Seattle | 1 | All Maps","name_short":"sea-1","host":"sea-1.us.uncletopia.com","port":27015,"enabled":true,"region":"us-west","cc":"us","latitude":47.608013,"longitude":-122.33517,"reserved":0,"last_update":"0001-01-01T00:00:00Z","name_a2s":"Uncletopia | Seattle | 1 | All Maps","protocol":17,"map":"pl_borneo","folder":"tf","game":"Team Fortress","app_id":440,"player_count":22,"max_players":24,"Bots":0,"server_type":"Dedicated","server_os":"Linux","password":true,"vac":true,"version":"7961495","steam_id":85568392924469997,"keywords":["nocrits","nodmgspread","payload","uncletopia"],"game_id":440,"stv_port":27016,"stv_name":"Uncletopia | Seattle | 1 | All Maps | STV","players":[{"user_id":516,"name":"CampinCarl","steam_id":76561197997373624,"connected_time":24000000000,"state":"connecting","ping":77},{"user_id":508,"name":"THAT CAT","steam_id":76561198010828625,"connected_time":760000000000,"state":"connecting","ping":60},{"user_id":507,"name":"S Q U I S H E  T H A T  C A T","steam_id":76561198293865429,"connected_time":779000000000,"state":"connecting","ping":58},{"user_id":503,"name":"jole","steam_id":76561198037292232,"connected_time":1282000000000,"state":"connecting","ping":133},{"user_id":505,"name":"dash","steam_id":76561198043889548,"connected_time":831000000000,"state":"connecting","ping":94},{"user_id":478,"name":"MonteJT","steam_id":76561198055409360,"connected_time":3312000000000,"state":"connecting","ping":52},{"user_id":497,"name":"Mustapha Lemieux","steam_id":76561198151666102,"connected_time":2033000000000,"state":"connecting","ping":90},{"user_id":489,"name":"RainboomCrash","steam_id":76561198065612273,"connected_time":2429000000000,"state":"connecting","ping":59},{"user_id":496,"name":"onionman0106","steam_id":76561199067766868,"connected_time":2051000000000,"state":"connecting","ping":72},{"user_id":493,"name":"The_Pacific_gamer","steam_id":76561198089491446,"connected_time":2299000000000,"state":"connecting","ping":60},{"user_id":515,"name":"Poundcake","steam_id":76561198042196918,"connected_time":111000000000,"state":"connecting","ping":59},{"user_id":443,"name":"Ayayayayayahuasca","steam_id":76561199002906056,"connected_time":6437000000000,"state":"connecting","ping":56},{"user_id":346,"name":"The King of Piss World","steam_id":76561198082806956,"connected_time":15566000000000,"state":"connecting","ping":165},{"user_id":491,"name":"soup","steam_id":76561198043209046,"connected_time":2357000000000,"state":"connecting","ping":81},{"user_id":492,"name":"cringy","steam_id":76561198323000455,"connected_time":2348000000000,"state":"connecting","ping":100},{"user_id":509,"name":"https://fr.wikipedia.org/","steam_id":76561198051834684,"connected_time":748000000000,"state":"connecting","ping":92},{"user_id":510,"name":"fwoov","steam_id":76561198129166260,"connected_time":524000000000,"state":"connecting","ping":95},{"user_id":470,"name":"Blanke","steam_id":76561198064100364,"connected_time":4895000000000,"state":"connecting","ping":119},{"user_id":514,"name":"Dr. Karl, the AUS Science Guy","steam_id":76561198031278747,"connected_time":242000000000,"state":"connecting","ping":60},{"user_id":481,"name":"Daz","steam_id":76561198041431938,"connected_time":3181000000000,"state":"connecting","ping":66},{"user_id":482,"name":"Dog","steam_id":76561198041841128,"connected_time":3151000000000,"state":"connecting","ping":100}]},{"server_id":119,"name":"Uncletopia | Seattle | 2 | All Maps","name_short":"sea-2","host":"sea-1.us.uncletopia.com","port":27025,"enabled":true,"region":"us-west","cc":"us","latitude":47.608013,"longitude":-122.33517,"reserved":0,"last_update":"0001-01-01T00:00:00Z","name_a2s":"Uncletopia | Seattle | 2 | All Maps","protocol":17,"map":"pl_barnblitz","folder":"tf","game":"Team Fortress","app_id":440,"player_count":24,"max_players":24,"Bots":0,"server_type":"Dedicated","server_os":"Linux","password":true,"vac":true,"version":"7961495","steam_id":85568392924469998,"keywords":["nocrits","nodmgspread","payload","uncletopia"],"game_id":440,"stv_port":27026,"stv_name":"Uncletopia | Seattle | 2 | All Maps | STV","players":[{"user_id":620,"name":"mn","steam_id":76561198042357436,"connected_time":744000000000,"state":"active","ping":38},{"user_id":602,"name":"There is a hot muffler up my as","steam_id":76561198213863907,"connected_time":2293000000000,"state":"active","ping":81},{"user_id":616,"name":"Iadork","steam_id":76561198405128441,"connected_time":1240000000000,"state":"active","ping":120},{"user_id":621,"name":"Simonator","steam_id":76561198242718444,"connected_time":742000000000,"state":"active","ping":44},{"user_id":610,"name":"hart","steam_id":76561198046073848,"connected_time":1976000000000,"state":"active","ping":51},{"user_id":586,"name":"mmmBoyo","steam_id":76561198821360261,"connected_time":3225000000000,"state":"active","ping":64},{"user_id":605,"name":"R R R R R","steam_id":76561198149902575,"connected_time":2057000000000,"state":"active","ping":54},{"user_id":603,"name":"NOfreckingIdea","steam_id":76561199169383818,"connected_time":2105000000000,"state":"active","ping":55},{"user_id":598,"name":"the archmage","steam_id":76561198380018244,"connected_time":2562000000000,"state":"active","ping":62},{"user_id":613,"name":"im mr war","steam_id":76561198131467867,"connected_time":1697000000000,"state":"active","ping":57},{"user_id":594,"name":"SeeNik","steam_id":76561198149499817,"connected_time":2695000000000,"state":"active","ping":70},{"user_id":570,"name":"MadVillain","steam_id":76561199251331156,"connected_time":5302000000000,"state":"active","ping":83},{"user_id":611,"name":"DesertFroggo","steam_id":76561198015607829,"connected_time":1868000000000,"state":"active","ping":117},{"user_id":580,"name":"jerss","steam_id":76561199034027802,"connected_time":4306000000000,"state":"active","ping":66},{"user_id":596,"name":"blossssssommmmm","steam_id":76561198042735130,"connected_time":2686000000000,"state":"active","ping":54},{"user_id":619,"name":"Crater","steam_id":76561198071106479,"connected_time":780000000000,"state":"active","ping":67},{"user_id":607,"name":"Human?","steam_id":76561198882047684,"connected_time":2039000000000,"state":"active","ping":87},{"user_id":615,"name":"HanakoToast","steam_id":76561198045233131,"connected_time":1552000000000,"state":"active","ping":102},{"user_id":622,"name":"Kold","steam_id":76561197989295748,"connected_time":718000000000,"state":"active","ping":52},{"user_id":623,"name":"Maniacal Rage","steam_id":76561197970758925,"connected_time":576000000000,"state":"active","ping":105},{"user_id":583,"name":"Inflight","steam_id":76561198920049475,"connected_time":3676000000000,"state":"active","ping":108},{"user_id":547,"name":"Butterscotch Poopies","steam_id":76561197985260403,"connected_time":7422000000000,"state":"active","ping":48},{"user_id":617,"name":"MrMind","steam_id":76561199321657653,"connected_time":1230000000000,"state":"active","ping":83},{"user_id":618,"name":"H-keyLF","steam_id":76561198376014891,"connected_time":1052000000000,"state":"active","ping":69}]},{"server_id":406,"name":"Uncletopia | Seattle | 3 | Stopwatch","name_short":"sea-3","host":"sea-1.us.uncletopia.com","port":27035,"enabled":true,"region":"us-west","cc":"us","latitude":47.608013,"longitude":-122.33517,"reserved":0,"last_update":"0001-01-01T00:00:00Z","name_a2s":"Uncletopia | Seattle | 3 | Stopwatch","protocol":17,"map":"workshop/koth_product_final.ugc454272353","folder":"tf","game":"Team Fortress","app_id":440,"player_count":0,"max_players":24,"Bots":0,"server_type":"Dedicated","server_os":"Linux","password":true,"vac":true,"version":"7961495","steam_id":85568392924515217,"keywords":["cp","nocrits","nodmgspread","uncletopia"],"game_id":440,"stv_port":27036,"stv_name":"Uncletopia | Seattle | 3 | Stopwatch | STV","players":null},{"server_id":17,"name":"Uncletopia | San Francisco | 1 | All Maps","name_short":"sfo-1","host":"sfo-1.us.uncletopia.com","port":27015,"enabled":true,"region":"us-west","cc":"us","latitude":37.77397,"longitude":-122.4313,"reserved":0,"last_update":"0001-01-01T00:00:00Z","name_a2s":"Uncletopia | San Francisco | 1 | All Maps","protocol":17,"map":"pl_badwater","folder":"tf","game":"Team Fortress","app_id":440,"player_count":21,"max_players":24,"Bots":0,"server_type":"Dedicated","server_os":"Linux","password":true,"vac":true,"version":"7961495","steam_id":85568392924469999,"keywords":["nocrits","nodmgspread","payload","uncletopia"],"game_id":440,"stv_port":27016,"stv_name":"Uncletopia | San Francisco | 1 | All Maps | STV","players":[{"user_id":211,"name":"ohnocringe","steam_id":76561199381232082,"connected_time":2033000000000,"state":"active","ping":99},{"user_id":239,"name":"Nobody","steam_id":76561199352089107,"connected_time":184000000000,"state":"active","ping":62},{"user_id":213,"name":"ĐïɐȐɹɦɆa","steam_id":76561198981411945,"connected_time":1915000000000,"state":"active","ping":41},{"user_id":233,"name":"flarifier","steam_id":76561198315072848,"connected_time":623000000000,"state":"active","ping":108},{"user_id":242,"name":"Frontier Justice Enthusiast","steam_id":76561198837570484,"connected_time":59000000000,"state":"active","ping":65},{"user_id":227,"name":"MechanizedContortion","steam_id":76561199146092247,"connected_time":900000000000,"state":"active","ping":63},{"user_id":196,"name":"Kris-The Moss Eater","steam_id":76561198060061139,"connected_time":3709000000000,"state":"active","ping":46},{"user_id":243,"name":"EdxTheFig","steam_id":76561198108650109,"connected_time":11000000000,"state":"active","ping":58},{"user_id":228,"name":"박소담","steam_id":76561199047439055,"connected_time":894000000000,"state":"active","ping":58},{"user_id":191,"name":"Higuma","steam_id":76561198375229012,"connected_time":3730000000000,"state":"active","ping":58},{"user_id":229,"name":"ElBentz","steam_id":76561199059582221,"connected_time":885000000000,"state":"active","ping":116},{"user_id":193,"name":"LordGooch","steam_id":76561198968335919,"connected_time":3721000000000,"state":"active","ping":55},{"user_id":216,"name":"zeltwood","steam_id":76561198982593544,"connected_time":1772000000000,"state":"active","ping":57},{"user_id":240,"name":"Keamy","steam_id":76561199471434875,"connected_time":140000000000,"state":"active","ping":59},{"user_id":237,"name":"I THINK COOLSVILLE SUCKS","steam_id":76561198066855998,"connected_time":345000000000,"state":"active","ping":60},{"user_id":244,"name":"BLØRG","steam_id":76561198036126673,"connected_time":11000000000,"state":"spawning","ping":78},{"user_id":245,"name":"Mint Widget","steam_id":76561198036875245,"connected_time":3000000000,"state":"spawning","ping":68},{"user_id":219,"name":"Tang","steam_id":76561198121340574,"connected_time":1758000000000,"state":"active","ping":72},{"user_id":236,"name":"Adolf west","steam_id":76561199056701141,"connected_time":408000000000,"state":"active","ping":125},{"user_id":221,"name":"what da dog doin","steam_id":76561198090573639,"connected_time":1751000000000,"state":"active","ping":53},{"user_id":235,"name":"Catherine","steam_id":76561198125233120,"connected_time":514000000000,"state":"active","ping":48}]},{"server_id":18,"name":"Uncletopia | San Francisco | 2 | All Maps","name_short":"sfo-2","host":"sfo-1.us.uncletopia.com","port":27025,"enabled":true,"region":"us-west","cc":"us","latitude":37.77397,"longitude":-122.4313,"reserved":0,"last_update":"0001-01-01T00:00:00Z","name_a2s":"Uncletopia | San Francisco | 2 | All Maps","protocol":17,"map":"koth_lakeside_final","folder":"tf","game":"Team Fortress","app_id":440,"player_count":21,"max_players":24,"Bots":0,"server_type":"Dedicated","server_os":"Linux","password":true,"vac":true,"version":"7961495","steam_id":85568392924470000,"keywords":["cp","nocrits","nodmgspread","uncletopia"],"game_id":440,"stv_port":27026,"stv_name":"Uncletopia | San Francisco | 2 | All Maps | STV","players":[{"user_id":333,"name":"011sra","steam_id":76561199489542125,"connected_time":261000000000,"state":"active","ping":72},{"user_id":281,"name":"Medic","steam_id":76561198157878163,"connected_time":4419000000000,"state":"active","ping":86},{"user_id":313,"name":"TheCrookedClown","steam_id":76561198082067309,"connected_time":1563000000000,"state":"active","ping":88},{"user_id":282,"name":"SanitysEdge","steam_id":76561198130732813,"connected_time":4405000000000,"state":"active","ping":51},{"user_id":332,"name":"kwetzal","steam_id":76561198845749671,"connected_time":295000000000,"state":"active","ping":57},{"user_id":309,"name":"Jerry","steam_id":76561198847369985,"connected_time":2057000000000,"state":"active","ping":87},{"user_id":316,"name":"SAP","steam_id":76561198005186905,"connected_time":1502000000000,"state":"active","ping":72},{"user_id":334,"name":"Firedust19","steam_id":76561198153238631,"connected_time":212000000000,"state":"active","ping":77},{"user_id":335,"name":"AWildCheeseFish","steam_id":76561198846504974,"connected_time":154000000000,"state":"active","ping":72},{"user_id":287,"name":"GIGAHAXX","steam_id":76561197993714726,"connected_time":4291000000000,"state":"active","ping":62},{"user_id":300,"name":"biblically accurate angel","steam_id":76561198095121758,"connected_time":2569000000000,"state":"active","ping":40},{"user_id":337,"name":"basedgod boybutt","steam_id":76561198050871240,"connected_time":97000000000,"state":"active","ping":55},{"user_id":336,"name":"Sean","steam_id":76561199367470003,"connected_time":119000000000,"state":"active","ping":51},{"user_id":328,"name":"Aux","steam_id":76561199091651065,"connected_time":687000000000,"state":"active","ping":56},{"user_id":302,"name":"er","steam_id":76561198060762287,"connected_time":2452000000000,"state":"active","ping":60},{"user_id":338,"name":"SOGGY DOGGY","steam_id":76561199158847498,"connected_time":50000000000,"state":"spawning","ping":64},{"user_id":339,"name":"nivek","steam_id":76561198056288107,"connected_time":43000000000,"state":"active","ping":77},{"user_id":306,"name":"CaiGaming","steam_id":76561198313023508,"connected_time":2256000000000,"state":"active","ping":55},{"user_id":340,"name":"Farseer Ulwithy","steam_id":76561197965179245,"connected_time":15000000000,"state":"spawning","ping":208},{"user_id":329,"name":"Admiral Catradora","steam_id":76561198017271944,"connected_time":501000000000,"state":"active","ping":134},{"user_id":331,"name":"Kazakami","steam_id":76561198074578849,"connected_time":315000000000,"state":"active","ping":48}]},{"server_id":19,"name":"Uncletopia | San Francisco | 3 | Stopwatch","name_short":"sfo-3","host":"sfo-1.us.uncletopia.com","port":27035,"enabled":true,"region":"us-west","cc":"us","latitude":37.77397,"longitude":-122.4313,"reserved":0,"last_update":"0001-01-01T00:00:00Z","name_a2s":"Uncletopia | San Francisco | 3 | Stopwatch","protocol":17,"map":"pl_pier","folder":"tf","game":"Team Fortress","app_id":440,"player_count":0,"max_players":24,"Bots":0,"server_type":"Dedicated","server_os":"Linux","password":true,"vac":true,"version":"7961495","steam_id":85568392924742824,"keywords":["nocrits","nodmgspread","payload","uncletopia"],"game_id":440,"stv_port":27036,"stv_name":"Uncletopia | San Francisco | 3 | Stopwatch | STV","players":null},{"server_id":20,"name":"Uncletopia | San Francisco | 4 | Community","name_short":"sfo-4","host":"sfo-1.us.uncletopia.com","port":27045,"enabled":true,"region":"us-west","cc":"us","latitude":37.77397,"longitude":-122.4313,"reserved":0,"last_update":"0001-01-01T00:00:00Z","name_a2s":"Uncletopia | San Francisco | 4 | Community","protocol":17,"map":"workshop/cp_reckoner_rc6.ugc674719999","folder":"tf","game":"Team Fortress","app_id":440,"player_count":0,"max_players":24,"Bots":0,"server_type":"Dedicated","server_os":"Linux","password":true,"vac":true,"version":"7961495","steam_id":85568392924742826,"keywords":["cp","nocrits","nodmgspread","uncletopia"],"game_id":440,"stv_port":27046,"stv_name":"Uncletopia | San Francisco | 4 | Community | STV","players":null},{"server_id":141,"name":"Uncletopia | Sydney | 1 | All Maps","name_short":"syd-1","host":"syd-1.au.uncletopia.com","port":27015,"enabled":true,"region":"au","cc":"au","latitude":-33.865143,"longitude":151.2099,"reserved":0,"last_update":"0001-01-01T00:00:00Z","name_a2s":"Uncletopia | Sydney | 1 | All Maps","protocol":17,"map":"pl_pier","folder":"tf","game":"Team Fortress","app_id":440,"player_count":19,"max_players":24,"Bots":0,"server_type":"Dedicated","server_os":"Linux","password":true,"vac":true,"version":"7961495","steam_id":85568392924470001,"keywords":["nocrits","nodmgspread","payload","uncletopia"],"game_id":440,"stv_port":27016,"stv_name":"Uncletopia | Sydney | 1 | All Maps | STV","players":[{"user_id":149,"name":"Bigrichard","steam_id":76561198032092945,"connected_time":300000000000,"state":"active","ping":86},{"user_id":152,"name":"Mooty","steam_id":76561198301293435,"connected_time":153000000000,"state":"active","ping":327},{"user_id":153,"name":"Emerald the Snake","steam_id":76561199013344853,"connected_time":118000000000,"state":"active","ping":56},{"user_id":148,"name":"Pingy","steam_id":76561198057558644,"connected_time":488000000000,"state":"active","ping":57},{"user_id":154,"name":"th0masl._","steam_id":76561199088165554,"connected_time":110000000000,"state":"active","ping":163},{"user_id":50,"name":"NEVERLUCKY","steam_id":76561198098948455,"connected_time":9133000000000,"state":"active","ping":83},{"user_id":142,"name":"dsturbxeyesrollinxlaserbeamssss","steam_id":76561198116828800,"connected_time":945000000000,"state":"active","ping":45},{"user_id":129,"name":"michael","steam_id":76561198052848358,"connected_time":2695000000000,"state":"active","ping":64},{"user_id":88,"name":"LeoJoeD","steam_id":76561198161848749,"connected_time":6095000000000,"state":"active","ping":40},{"user_id":145,"name":"pants money","steam_id":76561198066256359,"connected_time":633000000000,"state":"active","ping":57},{"user_id":126,"name":"canned tuna","steam_id":76561198420727269,"connected_time":2986000000000,"state":"active","ping":45},{"user_id":108,"name":"Cylinda","steam_id":76561198094041769,"connected_time":4454000000000,"state":"active","ping":30},{"user_id":144,"name":"Vallis","steam_id":76561198054493101,"connected_time":752000000000,"state":"active","ping":50},{"user_id":140,"name":"Killer Beans","steam_id":76561199107069046,"connected_time":1713000000000,"state":"active","ping":57},{"user_id":146,"name":"-Ech0-","steam_id":76561199121536801,"connected_time":589000000000,"state":"active","ping":59},{"user_id":137,"name":"Jimmy \"Pre-Firing\" Wong the 5th","steam_id":76561198152485272,"connected_time":1782000000000,"state":"active","ping":39},{"user_id":136,"name":"Chris","steam_id":76561198088227961,"connected_time":1810000000000,"state":"active","ping":70},{"user_id":113,"name":"Pickled Cow","steam_id":76561198292517991,"connected_time":3747000000000,"state":"active","ping":43},{"user_id":133,"name":"whiteshaq","steam_id":76561198131988811,"connected_time":2164000000000,"state":"active","ping":82}]},{"server_id":123,"name":"Uncletopia | Sydney | 2 | All Maps","name_short":"syd-2","host":"syd-1.au.uncletopia.com","port":27025,"enabled":true,"region":"au","cc":"au","latitude":-33.865143,"longitude":151.2099,"reserved":0,"last_update":"0001-01-01T00:00:00Z","name_a2s":"Uncletopia | Sydney | 2 | All Maps","protocol":17,"map":"pl_barnblitz","folder":"tf","game":"Team Fortress","app_id":440,"player_count":0,"max_players":24,"Bots":0,"server_type":"Dedicated","server_os":"Linux","password":true,"vac":true,"version":"7961495","steam_id":85568392924470002,"keywords":["nocrits","nodmgspread","payload","uncletopia"],"game_id":440,"stv_port":27026,"stv_name":"Uncletopia | Sydney | 2 | All Maps | STV","players":null},{"server_id":395,"name":"Uncletopia | Sydney | 3 | All Maps","name_short":"syd-3","host":"syd-1.au.uncletopia.com","port":27035,"enabled":true,"region":"au","cc":"au","latitude":-33.865143,"longitude":151.2099,"reserved":0,"last_update":"0001-01-01T00:00:00Z","name_a2s":"Uncletopia | Sydney | 3 | All Maps","protocol":17,"map":"pl_upward","folder":"tf","game":"Team Fortress","app_id":440,"player_count":5,"max_players":24,"Bots":0,"server_type":"Dedicated","server_os":"Linux","password":true,"vac":true,"version":"7961495","steam_id":85568392925194467,"keywords":["nocrits","nodmgspread","payload","uncletopia"],"game_id":440,"stv_port":27036,"stv_name":"Uncletopia | Sydney | 3 | All Maps | STV","players":[{"user_id":72,"name":"4LOW","steam_id":76561199156942316,"connected_time":365000000000,"state":"active","ping":80},{"user_id":71,"name":"Respiro X","steam_id":76561199242261652,"connected_time":620000000000,"state":"active","ping":112},{"user_id":64,"name":"FaZe_Jewbacca","steam_id":76561198151745989,"connected_time":1517000000000,"state":"active","ping":70},{"user_id":73,"name":"gamergod_27","steam_id":76561199089531604,"connected_time":161000000000,"state":"active","ping":61},{"user_id":11,"name":"Captain Autismo","steam_id":76561198096745769,"connected_time":13131000000000,"state":"active","ping":60}]},{"server_id":396,"name":"Uncletopia | Sydney | 4 | All Maps","name_short":"syd-4","host":"syd-1.au.uncletopia.com","port":27045,"enabled":true,"region":"au","cc":"au","latitude":-33.865143,"longitude":151.2099,"reserved":0,"last_update":"0001-01-01T00:00:00Z","name_a2s":"Uncletopia | Sydney | 4 | All Maps","protocol":17,"map":"cp_process_final","folder":"tf","game":"Team Fortress","app_id":440,"player_count":0,"max_players":24,"Bots":0,"server_type":"Dedicated","server_os":"Linux","password":true,"vac":true,"version":"7961495","steam_id":85568392925397958,"keywords":["cp","nocrits","nodmgspread","uncletopia"],"game_id":440,"stv_port":27046,"stv_name":"Uncletopia | Sydney | 4 | All Maps | STV","players":null},{"server_id":58,"name":"Uncletopia | Sydney | 5 | Stopwatch","name_short":"syd-5","host":"syd-1.au.uncletopia.com","port":27055,"enabled":true,"region":"au","cc":"au","latitude":-33.865143,"longitude":151.2099,"reserved":0,"last_update":"0001-01-01T00:00:00Z","name_a2s":"Uncletopia | Sydney | 5 | Stopwatch","protocol":17,"map":"workshop/koth_clearcut_b15.ugc2107050255","folder":"tf","game":"Team Fortress","app_id":440,"player_count":0,"max_players":24,"Bots":0,"server_type":"Dedicated","server_os":"Linux","password":true,"vac":true,"version":"7961495","steam_id":85568392925397959,"keywords":["cp","nocrits","nodmgspread","uncletopia"],"game_id":440,"stv_port":27056,"stv_name":"Uncletopia | Sydney | 5 | Stopwatch | STV","players":null},{"server_id":59,"name":"Uncletopia | Sydney | 6 | Community","name_short":"syd-6","host":"syd-1.au.uncletopia.com","port":27065,"enabled":true,"region":"au","cc":"au","latitude":-33.865143,"longitude":151.2099,"reserved":0,"last_update":"0001-01-01T00:00:00Z","name_a2s":"Uncletopia | Sydney | 6 | Community","protocol":17,"map":"workshop/cp_overgrown_rc8.ugc503939302","folder":"tf","game":"Team Fortress","app_id":440,"player_count":0,"max_players":24,"Bots":0,"server_type":"Dedicated","server_os":"Linux","password":true,"vac":true,"version":"7961495","steam_id":85568392925397960,"keywords":["cp","nocrits","nodmgspread","uncletopia"],"game_id":440,"stv_port":27066,"stv_name":"Uncletopia | Sydney | 6 | Community | STV","players":null},{"server_id":49,"name":"Uncletopia | Warsaw | 1 | All Maps","name_short":"waw-1","host":"waw-1.pl.uncletopia.com","port":27015,"enabled":true,"region":"eu","cc":"pl","latitude":52.2297,"longitude":21.017532,"reserved":0,"last_update":"0001-01-01T00:00:00Z","name_a2s":"Uncletopia | Warsaw | 1 | All Maps","protocol":17,"map":"koth_lakeside_final","folder":"tf","game":"Team Fortress","app_id":440,"player_count":0,"max_players":24,"Bots":0,"server_type":"Dedicated","server_os":"Linux","password":true,"vac":true,"version":"7961495","steam_id":85568392925397850,"keywords":["cp","nocrits","nodmgspread","uncletopia"],"game_id":440,"stv_port":27016,"stv_name":"Uncletopia | Warsaw | 1 | All Maps | STV","players":null},{"server_id":50,"name":"Uncletopia | Warsaw | 2 | All Maps","name_short":"waw-2","host":"waw-1.pl.uncletopia.com","port":27025,"enabled":true,"region":"eu","cc":"pl","latitude":52.2297,"longitude":21.017532,"reserved":0,"last_update":"0001-01-01T00:00:00Z","name_a2s":"Uncletopia | Warsaw | 2 | All Maps","protocol":17,"map":"pl_borneo","folder":"tf","game":"Team Fortress","app_id":440,"player_count":0,"max_players":24,"Bots":0,"server_type":"Dedicated","server_os":"Linux","password":true,"vac":true,"version":"7961495","steam_id":85568392925397851,"keywords":["nocrits","nodmgspread","payload","uncletopia"],"game_id":440,"stv_port":27026,"stv_name":"Uncletopia | Warsaw | 2 | All Maps | STV","players":null},{"server_id":51,"name":"Uncletopia | Warsaw | 3 | All Maps","name_short":"waw-3","host":"waw-1.pl.uncletopia.com","port":27035,"enabled":true,"region":"eu","cc":"pl","latitude":52.2297,"longitude":21.017532,"reserved":0,"last_update":"0001-01-01T00:00:00Z","name_a2s":"Uncletopia | Warsaw | 3 | All Maps","protocol":17,"map":"pl_barnblitz","folder":"tf","game":"Team Fortress","app_id":440,"player_count":0,"max_players":24,"Bots":0,"server_type":"Dedicated","server_os":"Linux","password":true,"vac":true,"version":"7961495","steam_id":85568392925397852,"keywords":["nocrits","nodmgspread","payload","uncletopia"],"game_id":440,"stv_port":27036,"stv_name":"Uncletopia | Warsaw | 3 | All Maps | STV","players":null},{"server_id":52,"name":"Uncletopia | Warsaw | 4 | All Maps","name_short":"waw-4","host":"waw-1.pl.uncletopia.com","port":27045,"enabled":true,"region":"eu","cc":"pl","latitude":52.2297,"longitude":21.017532,"reserved":0,"last_update":"0001-01-01T00:00:00Z","name_a2s":"Uncletopia | Warsaw | 4 | All Maps","protocol":17,"map":"pl_borneo","folder":"tf","game":"Team Fortress","app_id":440,"player_count":0,"max_players":24,"Bots":0,"server_type":"Dedicated","server_os":"Linux","password":true,"vac":true,"version":"7961495","steam_id":85568392925397853,"keywords":["nocrits","nodmgspread","payload","uncletopia"],"game_id":440,"stv_port":27046,"stv_name":"Uncletopia | Warsaw | 4 | All Maps | STV","players":null},{"server_id":53,"name":"Uncletopia | Warsaw | 5 | Stopwatch","name_short":"waw-5","host":"waw-1.pl.uncletopia.com","port":27055,"enabled":true,"region":"eu","cc":"pl","latitude":52.2297,"longitude":21.017532,"reserved":0,"last_update":"0001-01-01T00:00:00Z","name_a2s":"Uncletopia | Warsaw | 5 | Stopwatch","protocol":17,"map":"pl_barnblitz","folder":"tf","game":"Team Fortress","app_id":440,"player_count":0,"max_players":24,"Bots":0,"server_type":"Dedicated","server_os":"Linux","password":true,"vac":true,"version":"7961495","steam_id":85568392925397854,"keywords":["nocrits","nodmgspread","payload","uncletopia"],"game_id":440,"stv_port":27056,"stv_name":"Uncletopia | Warsaw | 5 | Stopwatch | STV","players":null},{"server_id":54,"name":"Uncletopia | Warsaw | 6 | Community","name_short":"waw-6","host":"waw-1.pl.uncletopia.com","port":27065,"enabled":true,"region":"eu","cc":"pl","latitude":52.2297,"longitude":21.017532,"reserved":0,"last_update":"0001-01-01T00:00:00Z","name_a2s":"Uncletopia | Warsaw | 6 | Community","protocol":17,"map":"cp_altitude","folder":"tf","game":"Team Fortress","app_id":440,"player_count":0,"max_players":24,"Bots":0,"server_type":"Dedicated","server_os":"Linux","password":true,"vac":true,"version":"7961495","steam_id":85568392925397856,"keywords":["cp","nocrits","nodmgspread","uncletopia"],"game_id":440,"stv_port":27066,"stv_name":"Uncletopia | Warsaw | 6 | Community | STV","players":null}]}