{"status":true,"message":"","result":[{"server_id":9,"name":"Uncletopia | Atlanta | 1 | All Maps","name_short":"atl-1","host":"atl-1.us.uncletopia.com","port":27015,"enabled":true,"region":"us-east","cc":"us","latitude":33.753746,"longitude":-84.38633,"reserved":0,"last_update":"0001-01-01T00:00:00Z","name_a2s":"Uncletopia | Atlanta | 1 | All Maps","protocol":17,"map":"pl_badwater","folder":"tf","game":"Team Fortress","app_id":440,"player_count":24,"max_players":24,"Bots":0,"server_type":"Dedicated","server_os":"Linux","password":true,"vac":true,"version":"7757534","steam_id":85568392924469982,"keywords":["nocrits","nodmgspread","payload","uncletopia"],"game_id":440,"stv_port":27016,"stv_name":"Uncletopia | Atlanta | 1 | All Maps | STV","players":[{"user_id":117,"name":"ammo delivery","steam_id":76561198328618417,"connected_time":11080000000000,"state":"active","ping":96},{"user_id":241,"name":"Raptortastico","steam_id":76561198105613110,"connected_time":2342000000000,"state":"active","ping":70},{"user_id":254,"name":".Eitho","steam_id":76561199036099287,"connected_time":569000000000,"state":"active","ping":53},{"user_id":250,"name":"oopsboom24","steam_id":76561199105248648,"connected_time":1267000000000,"state":"active","ping":68},{"user_id":245,"name":"bad","steam_id":76561198090531755,"connected_time":1947000000000,"state":"active","ping":74},{"user_id":222,"name":"CRWND","steam_id":76561198329810027,"connected_time":4227000000000,"state":"active","ping":143},{"user_id":256,"name":"Yom","steam_id":76561198065464198,"connected_time":372000000000,"state":"active","ping":85},{"user_id":233,"name":"William Wallace","steam_id":76561199343316814,"connected_time":3189000000000,"state":"active","ping":56},{"user_id":234,"name":"viaodeegsm","steam_id":76561198025295263,"connected_time":3181000000000,"state":"active","ping":87},{"user_id":258,"name":"Cosmic sR","steam_id":76561198081738675,"connected_time":332000000000,"state":"active","ping":66},{"user_id":236,"name":"Broken Cereal‚àö","steam_id":76561198087489795,"connected_time":3146000000000,"state":"active","ping":61},{"user_id":154,"name":"Albino Jellyfish","steam_id":76561198208561097,"connected_time":8276000000000,"state":"active","ping":69},{"user_id":155,"name":"NovaSc6ut","steam_id":76561198277163301,"connected_time":8253000000000,"state":"active","ping":81},{"user_id":253,"name":"Epifiny","steam_id":76561198027958086,"connected_time":734000000000,"state":"active","ping":86},{"user_id":247,"name":"Thotimus Begonimus","steam_id":76561197970275938,"connected_time":1604000000000,"state":"active","ping":42},{"user_id":246,"name":"im the beef","steam_id":76561198069506128,"connected_time":1890000000000,"state":"active","ping":71},{"user_id":211,"name":"Ashes!","steam_id":76561197998475441,"connected_time":5073000000000,"state":"active","ping":79},{"user_id":239,"name":"Oopsie Daisy ‚ùã","steam_id":76561198042144492,"connected_time":3088000000000,"state":"active","ping":56},{"user_id":225,"name":"Toonice","steam_id":76561198402994885,"connected_time":3670000000000,"state":"active","ping":87},{"user_id":242,"name":"NBA Youngboy","steam_id":76561199118797200,"connected_time":2309000000000,"state":"active","ping":66},{"user_id":37,"name":"creepycrawler","steam_id":76561198352016831,"connected_time":17179000000000,"state":"active","ping":75},{"user_id":229,"name":"C Papi","steam_id":76561198027779564,"connected_time":3462000000000,"state":"active","ping":56},{"user_id":238,"name":"FreonAddict9x19","steam_id":76561198060010824,"connected_time":3108000000000,"state":"active","ping":69},{"user_id":249,"name":"BERBBLES","steam_id":76561198815107994,"connected_time":1289000000000,"state":"active","ping":61}]},{"server_id":104,"name":"Uncletopia | Atlanta | 2 | All Maps","name_short":"atl-2","host":"atl-1.us.uncletopia.com","port":27025,"enabled":true,"region":"us-east","cc":"us","latitude":33.753746,"longitude":-84.38633,"reserved":0,"last_update":"0001-01-01T00:00:00Z","name_a2s":"Uncletopia | Atlanta | 2 | All Maps","protocol":17,"map":"cp_mountainlab","folder":"tf","game":"Team Fortress","app_id":440,"player_count":18,"max_players":24,"Bots":0,"server_type":"Dedicated","server_os":"Linux","password":true,"vac":true,"version":"7757534","steam_id":85568392924469983,"keywords":["cp","nocrits","nodmgspread","uncletopia"],"game_id":440,"stv_port":27026,"stv_name":"Uncletopia | Atlanta | 2 | All Maps | STV","players":[{"user_id":110,"name":"Eosson","steam_id":76561198108642113,"connected_time":24000000000,"state":"active","ping":85},{"user_id":97,"name":"corpach","steam_id":76561198150418268,"connected_time":1600000000000,"state":"active","ping":84},{"user_id":111,"name":"Dabbledornk","steam_id":76561198065241300,"connected_time":9000000000,"state":"spawning","ping":45},{"user_id":103,"name":"Pascal","steam_id":76561198902657591,"connected_time":1103000000000,"state":"active","ping":45},{"user_id":98,"name":"\u003cBLAH\u003e","steam_id":76561198094826838,"connected_time":1570000000000,"state":"active","ping":86},{"user_id":92,"name":"troll","steam_id":76561198040890252,"connected_time":2056000000000,"state":"active","ping":45},{"user_id":70,"name":"SHiFT_DeL3TE","steam_id":76561198234965064,"connected_time":4343000000000,"state":"active","ping":34},{"user_id":86,"name":"MaybeMars","steam_id":76561198084736804,"connected_time":2701000000000,"state":"active","ping":67},{"user_id":52,"name":"Testosteroblerone","steam_id":76561199031278496,"connected_time":5008000000000,"state":"active","ping":86},{"user_id":100,"name":"∆ê’å—¥∆≥","steam_id":76561198099470277,"connected_time":1322000000000,"state":"active","ping":53},{"user_id":87,"name":"insane clown pussy","steam_id":76561198329087915,"connected_time":2694000000000,"state":"active","ping":90},{"user_id":73,"name":"Doorhinge","steam_id":76561198872501684,"connected_time":3976000000000,"state":"active","ping":152},{"user_id":74,"name":"Reaper","steam_id":76561198435826103,"connected_time":3911000000000,"state":"active","ping":72},{"user_id":106,"name":"Massa Gaming","steam_id":76561198881383557,"connected_time":919000000000,"state":"active","ping":58},{"user_id":59,"name":"BigBubble42","steam_id":76561198136286123,"connected_time":4753000000000,"state":"active","ping":43},{"user_id":84,"name":"Anax Alter","steam_id":76561198110249546,"connected_time":3043000000000,"state":"active","ping":58},{"user_id":107,"name":"nnobi","steam_id":76561198878729277,"connected_time":903000000000,"state":"active","ping":53},{"user_id":109,"name":"The Pope","steam_id":76561198313560302,"connected_time":611000000000,"state":"active","ping":40}]},{"server_id":400,"name":"Uncletopia | Atlanta | 3 | Community","name_short":"atl-3","host":"atl-1.us.uncletopia.com","port":27035,"enabled":true,"region":"us-east","cc":"us","latitude":33.753746,"longitude":-84.38633,"reserved":0,"last_update":"0001-01-01T00:00:00Z","name_a2s":"Uncletopia | Atlanta | 3 | Community","protocol":17,"map":"workshop/cp_glacier_rc6.ugc2905735376","folder":"tf","game":"Team Fortress","app_id":440,"player_count":0,"max_players":24,"Bots":0,"server_type":"Dedicated","server_os":"Linux","password":true,"vac":true,"version":"7757534","steam_id":85568392924515187,"keywords":["cp","nocrits","nodmgspread","uncletopia"],"game_id":440,"stv_port":27036,"stv_name":"Uncletopia | Atlanta | 3 | Community | STV","players":null},{"server_id":401,"name":"Uncletopia | Atlanta | 4 | No Payload","name_short":"atl-4","host":"atl-1.us.uncletopia.com","port":27045,"enabled":true,"region":"us-east","cc":"us","latitude":33.753746,"longitude":-84.38633,"reserved":0,"last_update":"0001-01-01T00:00:00Z","name_a2s":"","protocol":0,"map":"","folder":"","game":"","app_id":0,"player_count":0,"max_players":0,"Bots":0,"server_type":"","server_os":"","password":false,"vac":false,"version":"","steam_id":0,"keywords":null,"game_id":0,"stv_port":0,"stv_name":"","players":null},{"server_id":2,"name":"Uncletopia | Chicago | 1 | All Maps","name_short":"chi-1","host":"chi-1.us.uncletopia.com","port":27015,"enabled":true,"region":"us-central","cc":"us","latitude":41.881832,"longitude":-87.62318,"reserved":0,"last_update":"0001-01-01T00:00:00Z","name_a2s":"Uncletopia | Chicago | 1 | All Maps","protocol":17,"map":"pl_upward","folder":"tf","game":"Team Fortress","app_id":440,"player_count":24,"max_players":24,"Bots":0,"server_type":"Dedicated","server_os":"Linux","password":true,"vac":true,"version":"7757534","steam_id":85568392924469984,"keywords":["nocrits","nodmgspread","payload","uncletopia"],"game_id":440,"stv_port":27016,"stv_name":"Uncletopia | Chicago | 1 | All Maps | STV","players":[{"user_id":258,"name":"i really like this dog :)","steam_id":76561198882404753,"connected_time":7443000000000,"state":"active","ping":78},{"user_id":356,"name":"yes","steam_id":76561199481070178,"connected_time":487000000000,"state":"active","ping":55},{"user_id":328,"name":"Vile Gunner","steam_id":76561198806668514,"connected_time":2257000000000,"state":"active","ping":101},{"user_id":345,"name":"Influrrno","steam_id":76561198398893302,"connected_time":1637000000000,"state":"active","ping":64},{"user_id":344,"name":"asbestos","steam_id":76561198079178866,"connected_time":1657000000000,"state":"active","ping":67},{"user_id":330,"name":"lambmyth","steam_id":76561199215261209,"connected_time":2138000000000,"state":"active","ping":86},{"user_id":331,"name":"Zero","steam_id":76561199383267408,"connected_time":2111000000000,"state":"active","ping":74},{"user_id":354,"name":"Atoc","steam_id":76561198300877325,"connected_time":608000000000,"state":"active","ping":62},{"user_id":317,"name":"macabre","steam_id":76561198220125111,"connected_time":2990000000000,"state":"active","ping":80},{"user_id":333,"name":"GreatColorGreen","steam_id":76561198284546954,"connected_time":2068000000000,"state":"active","ping":59},{"user_id":261,"name":"hotdog water","steam_id":76561198031675881,"connected_time":7220000000000,"state":"active","ping":73},{"user_id":298,"name":"Doctor Bear  ï ‚Ä¢·¥•‚Ä¢ î","steam_id":76561197968103161,"connected_time":4266000000000,"state":"active","ping":63},{"user_id":355,"name":"Luigi9037","steam_id":76561199078496102,"connected_time":526000000000,"state":"active","ping":71},{"user_id":346,"name":"ContinuedBear","steam_id":76561198265176919,"connected_time":1513000000000,"state":"active","ping":55},{"user_id":336,"name":"THEDINKY","steam_id":76561198190077399,"connected_time":2042000000000,"state":"active","ping":64},{"user_id":337,"name":"Kieran","steam_id":76561198072788168,"connected_time":2036000000000,"state":"active","ping":76},{"user_id":353,"name":"Sonidad","steam_id":76561198082763204,"connected_time":656000000000,"state":"active","ping":84},{"user_id":347,"name":"SaucySandwichKid","steam_id":76561199372590934,"connected_time":995000000000,"state":"active","ping":79},{"user_id":325,"name":"rori","steam_id":76561198021227843,"connected_time":2363000000000,"state":"active","ping":56},{"user_id":310,"name":"Kartyac","steam_id":76561197991069005,"connected_time":3352000000000,"state":"active","ping":81},{"user_id":324,"name":"MR MODE","steam_id":76561198046775352,"connected_time":2402000000000,"state":"active","ping":94},{"user_id":340,"name":"PoisonIvy","steam_id":76561198072384574,"connected_time":1976000000000,"state":"active","ping":52},{"user_id":341,"name":"EmptyB33R","steam_id":76561198993166528,"connected_time":1955000000000,"state":"active","ping":131},{"user_id":343,"name":"Fred the Beard","steam_id":76561198009310649,"connected_time":1666000000000,"state":"active","ping":60}]},{"server_id":106,"name":"Uncletopia | Chicago | 2 | All Maps","name_short":"chi-2","host":"chi-1.us.uncletopia.com","port":27025,"enabled":true,"region":"us-central","cc":"us","latitude":41.881832,"longitude":-87.62318,"reserved":0,"last_update":"0001-01-01T00:00:00Z","name_a2s":"Uncletopia | Chicago | 2 | All Maps","protocol":17,"map":"pl_upward","folder":"tf","game":"Team Fortress","app_id":440,"player_count":24,"max_players":24,"Bots":0,"server_type":"Dedicated","server_os":"Linux","password":true,"vac":true,"version":"7757534","steam_id":85568392924469985,"keywords":["nocrits","nodmgspread","payload","uncletopia"],"game_id":440,"stv_port":27026,"stv_name":"Uncletopia | Chicago | 2 | All Maps | STV","players":[{"user_id":324,"name":"Goldoche","steam_id":76561197995065045,"connected_time":2975000000000,"state":"active","ping":78},{"user_id":370,"name":"Hi","steam_id":76561198068113077,"connected_time":611000000000,"state":"active","ping":103},{"user_id":351,"name":"Scorpie Doodle","steam_id":76561198021845763,"connected_time":1292000000000,"state":"active","ping":52},{"user_id":353,"name":"Cynicalrage #TF2center","steam_id":76561198085805532,"connected_time":1257000000000,"state":"active","ping":45},{"user_id":364,"name":"Dwarfo","steam_id":76561198119220289,"connected_time":798000000000,"state":"active","ping":74},{"user_id":379,"name":"sagejay","steam_id":76561198118149530,"connected_time":8000000000,"state":"active","ping":77},{"user_id":357,"name":"koompa_stomp","steam_id":76561198073081735,"connected_time":1148000000000,"state":"active","ping":100},{"user_id":365,"name":"Hi, I'm Jesus","steam_id":76561198015327152,"connected_time":758000000000,"state":"active","ping":66},{"user_id":302,"name":"YourLocalArsonist","steam_id":76561199111922751,"connected_time":5342000000000,"state":"active","ping":111},{"user_id":329,"name":"LerN","steam_id":76561198083463877,"connected_time":2899000000000,"state":"active","ping":56},{"user_id":373,"name":"Female Gamer","steam_id":76561199366482682,"connected_time":312000000000,"state":"active","ping":103},{"user_id":325,"name":"heavyArmor","steam_id":76561198191056059,"connected_time":2975000000000,"state":"active","ping":70},{"user_id":345,"name":"femboy foxgirl","steam_id":76561198056432756,"connected_time":1677000000000,"state":"active","ping":57},{"user_id":358,"name":"Technic","steam_id":76561198200302281,"connected_time":1138000000000,"state":"active","ping":74},{"user_id":363,"name":"Florist","steam_id":76561198009121060,"connected_time":813000000000,"state":"active","ping":91},{"user_id":304,"name":"O o g","steam_id":76561199267535506,"connected_time":5314000000000,"state":"active","ping":68},{"user_id":367,"name":"BonnieDrag","steam_id":76561199149216429,"connected_time":734000000000,"state":"active","ping":171},{"user_id":369,"name":"ZeN","steam_id":76561199098746585,"connected_time":725000000000,"state":"active","ping":66},{"user_id":362,"name":"fractaldunes","steam_id":76561198118102935,"connected_time":819000000000,"state":"active","ping":54},{"user_id":361,"name":"top 10 bruh moments","steam_id":76561198977633937,"connected_time":910000000000,"state":"active","ping":62},{"user_id":336,"name":"BOO HAWND","steam_id":76561198141617142,"connected_time":2780000000000,"state":"active","ping":98},{"user_id":374,"name":"pl_upward","steam_id":76561198328109873,"connected_time":286000000000,"state":"active","ping":70},{"user_id":349,"name":"auts","steam_id":76561198055198646,"connected_time":1515000000000,"state":"active","ping":78},{"user_id":377,"name":"Lilac","steam_id":76561198977523626,"connected_time":43000000000,"state":"active","ping":94}]},{"server_id":402,"name":"Uncletopia | Chicago | 3 | All Maps","name_short":"chi-3","host":"chi-1.us.uncletopia.com","port":27035,"enabled":true,"region":"us-central","cc":"us","latitude":41.881832,"longitude":-87.62318,"reserved":0,"last_update":"0001-01-01T00:00:00Z","name_a2s":"Uncletopia | Chicago | 3 | All Maps","protocol":17,"map":"koth_lakeside_final","folder":"tf","game":"Team Fortress","app_id":440,"player_count":0,"max_players":24,"Bots":0,"server_type":"Dedicated","server_os":"Linux","password":true,"vac":true,"version":"7757534","steam_id":85568392924515191,"keywords":["cp","nocrits","nodmgspread","uncletopia"],"game_id":440,"stv_port":27036,"stv_name":"Uncletopia | Chicago | 3 | All Maps | STV","players":null},{"server_id":403,"name":"Uncletopia | Chicago | 4 | All Maps","name_short":"chi-4","host":"chi-1.us.uncletopia.com","port":27045,"enabled":true,"region":"us-central","cc":"us","latitude":41.881832,"longitude":-87.62318,"reserved":0,"last_update":"0001-01-01T00:00:00Z","name_a2s":"Uncletopia | Chicago | 4 | All Maps","protocol":17,"map":"pl_swiftwater_final1","folder":"tf","game":"Team Fortress","app_id":440,"player_count":23,"max_players":24,"Bots":0,"server_type":"Dedicated","server_os":"Linux","password":true,"vac":true,"version":"7757534","steam_id":85568392924515193,"keywords":["nocrits","nodmgspread","payload","uncletopia"],"game_id":440,"stv_port":27046,"stv_name":"Uncletopia | Chicago | 4 | All Maps | STV","players":[{"user_id":173,"name":"jimmyfnaf172198yay","steam_id":76561198311446636,"connected_time":878000000000,"state":"active","ping":59},{"user_id":174,"name":"Baleaf","steam_id":76561199193980999,"connected_time":876000000000,"state":"active","ping":56},{"user_id":175,"name":"Mister36","steam_id":76561198019132100,"connected_time":853000000000,"state":"active","ping":55},{"user_id":110,"name":"Ringo x Seiran","steam_id":76561198357437908,"connected_time":4337000000000,"state":"active","ping":62},{"user_id":193,"name":"WatchWill","steam_id":76561198157237945,"connected_time":254000000000,"state":"active","ping":71},{"user_id":154,"name":"ECCO","steam_id":76561198002821513,"connected_time":2417000000000,"state":"active","ping":58},{"user_id":171,"name":"DeSynthed","steam_id":76561198098768007,"connected_time":1375000000000,"state":"active","ping":62},{"user_id":186,"name":"bary","steam_id":76561197988317087,"connected_time":623000000000,"state":"active","ping":61},{"user_id":149,"name":"LW | [wrd]HaloLagann","steam_id":76561198047561568,"connected_time":2485000000000,"state":"active","ping":74},{"user_id":151,"name":"Also Known As Assteeth","steam_id":76561198049837377,"connected_time":2453000000000,"state":"active","ping":45},{"user_id":177,"name":"Disgruntled Dragon","steam_id":76561198046132176,"connected_time":845000000000,"state":"active","ping":47},{"user_id":194,"name":"Penny #girl","steam_id":76561198144281771,"connected_time":187000000000,"state":"active","ping":76},{"user_id":168,"name":"Karrot","steam_id":76561198058970903,"connected_time":1568000000000,"state":"active","ping":68},{"user_id":96,"name":"dabri88","steam_id":76561198103645497,"connected_time":5137000000000,"state":"active","ping":61},{"user_id":195,"name":"Mr. Dry Lips","steam_id":76561198028157625,"connected_time":163000000000,"state":"active","ping":173},{"user_id":140,"name":"Nassu","steam_id":76561198147367577,"connected_time":3142000000000,"state":"active","ping":71},{"user_id":156,"name":"Unicorn","steam_id":76561198119261280,"connected_time":2396000000000,"state":"active","ping":91},{"user_id":162,"name":"Mug Moment Gaming","steam_id":76561198233098136,"connected_time":2258000000000,"state":"active","ping":52},{"user_id":180,"name":"Try Gardening","steam_id":76561198120311340,"connected_time":790000000000,"state":"active","ping":50},{"user_id":187,"name":"Deputy Dog","steam_id":76561197960441667,"connected_time":618000000000,"state":"active","ping":75},{"user_id":133,"name":"craig dishwasher","steam_id":76561198402235691,"connected_time":3383000000000,"state":"active","ping":68},{"user_id":182,"name":"HansBanans","steam_id":76561198167894050,"connected_time":778000000000,"state":"active","ping":69},{"user_id":190,"name":"Waffle Wannabe","steam_id":76561198064510650,"connected_time":533000000000,"state":"active","ping":64}]},{"server_id":36,"name":"Uncletopia | Chicago | 5 | All Maps","name_short":"chi-5","host":"chi-2.us.uncletopia.com","port":27015,"enabled":true,"region":"us-central","cc":"us","latitude":41.881832,"longitude":-87.62318,"reserved":0,"last_update":"0001-01-01T00:00:00Z","name_a2s":"Uncletopia | Chicago | 5 | All Maps","protocol":17,"map":"koth_cascade","folder":"tf","game":"Team Fortress","app_id":440,"player_count":0,"max_players":24,"Bots":0,"server_type":"Dedicated","server_os":"Linux","password":true,"vac":true,"version":"7757534","steam_id":85568392924866362,"keywords":["cp","nocrits","nodmgspread","uncletopia"],"game_id":440,"stv_port":27016,"stv_name":"Uncletopia | Chicago | 5 | All Maps | STV","players":null},{"server_id":37,"name":"Uncletopia | Chicago | 6 | All Maps","name_short":"chi-6","host":"chi-2.us.uncletopia.com","port":27025,"enabled":true,"region":"us-central","cc":"us","latitude":41.881832,"longitude":-87.62318,"reserved":0,"last_update":"0001-01-01T00:00:00Z","name_a2s":"Uncletopia | Chicago | 6 | All Maps","protocol":17,"map":"koth_cascade","folder":"tf","game":"Team Fortress","app_id":440,"player_count":3,"max_players":24,"Bots":0,"server_type":"Dedicated","server_os":"Linux","password":true,"vac":true,"version":"7757534","steam_id":85568392924866363,"keywords":["cp","nocrits","nodmgspread","uncletopia"],"game_id":440,"stv_port":27026,"stv_name":"Uncletopia | Chicago | 6 | All Maps | STV","players":[{"user_id":8,"name":"brandoncg04","steam_id":76561199189398427,"connected_time":899000000000,"state":"active","ping":56},{"user_id":11,"name":"SNaKe","steam_id":76561198249832738,"connected_time":61000000000,"state":"active","ping":86},{"user_id":10,"name":"DraGoN","steam_id":76561198006224312,"connected_time":98000000000,"state":"active","ping":82}]},{"server_id":38,"name":"Uncletopia | Chicago | 7 | Stopwatch Beta","name_short":"chi-7","host":"chi-2.us.uncletopia.com","port":27035,"enabled":true,"region":"us-central","cc":"us","latitude":41.881832,"longitude":-87.62318,"reserved":0,"last_update":"0001-01-01T00:00:00Z","name_a2s":"Uncletopia | Chicago | 7 | Stopwatch Beta","protocol":17,"map":"pl_barnblitz","folder":"tf","game":"Team Fortress","app_id":440,"player_count":0,"max_players":24,"Bots":0,"server_type":"Dedicated","server_os":"Linux","password":true,"vac":true,"version":"7757534","steam_id":85568392924866364,"keywords":["nocrits","nodmgspread","payload","uncletopia"],"game_id":440,"stv_port":27036,"stv_name":"Uncletopia | Chicago | 7 | Stopwatch Beta | STV","players":null},{"server_id":39,"name":"Uncletopia | Chicago | 8 | Community","name_short":"chi-8","host":"chi-2.us.uncletopia.com","port":27045,"enabled":true,"region":"us-central","cc":"us","latitude":41.881832,"longitude":-87.62318,"reserved":0,"last_update":"0001-01-01T00:00:00Z","name_a2s":"Uncletopia | Chicago | 8 | Community","protocol":17,"map":"koth_cascade","folder":"tf","game":"Team Fortress","app_id":440,"player_count":0,"max_players":24,"Bots":0,"server_type":"Dedicated","server_os":"Linux","password":true,"vac":true,"version":"7757534","steam_id":85568392924866365,"keywords":["cp","nocrits","nodmgspread","uncletopia"],"game_id":440,"stv_port":27046,"stv_name":"Uncletopia | Chicago | 8 | Community | STV","players":null},{"server_id":8,"name":"Uncletopia | Dallas | 1 | All Maps","name_short":"dal-1","host":"dal-1.us.uncletopia.com","port":27015,"enabled":true,"region":"us-central","cc":"us","latitude":32.779167,"longitude":-96.80889,"reserved":0,"last_update":"0001-01-01T00:00:00Z","name_a2s":"Uncletopia | Dallas | 1 | All Maps","protocol":17,"map":"koth_badlands","folder":"tf","game":"Team Fortress","app_id":440,"player_count":24,"max_players":24,"Bots":0,"server_type":"Dedicated","server_os":"Linux","password":true,"vac":true,"version":"7757534","steam_id":85568392924469986,"keywords":["cp","nocrits","nodmgspread","uncletopia"],"game_id":440,"stv_port":27016,"stv_name":"Uncletopia | Dallas | 1 | All Maps | STV","players":[{"user_id":62,"name":"mkl","steam_id":76561197986401685,"connected_time":1180000000000,"state":"active","ping":60},{"user_id":58,"name":"Conjurer","steam_id":76561198316256275,"connected_time":1306000000000,"state":"active","ping":69},{"user_id":12,"name":"Pillagon","steam_id":76561198183894834,"connected_time":4956000000000,"state":"active","ping":75},{"user_id":73,"name":"oddulus","steam_id":76561199131213115,"connected_time":470000000000,"state":"active","ping":180},{"user_id":66,"name":"Gaiduk","steam_id":76561198112323877,"connected_time":760000000000,"state":"active","ping":116},{"user_id":67,"name":"Tangerine","steam_id":76561198373668488,"connected_time":732000000000,"state":"active","ping":89},{"user_id":72,"name":"Blake Belladonna","steam_id":76561198010169911,"connected_time":534000000000,"state":"active","ping":80},{"user_id":22,"name":"Nico_Ven_2017","steam_id":76561199088238413,"connected_time":3964000000000,"state":"active","ping":143},{"user_id":18,"name":"briggs","steam_id":76561198045655893,"connected_time":4438000000000,"state":"active","ping":87},{"user_id":76,"name":"Shamrock Shake Oct.10.2020 @8pm","steam_id":76561198833313201,"connected_time":116000000000,"state":"active","ping":88},{"user_id":69,"name":"Taser? I Hardly Know Her!","steam_id":76561198180935161,"connected_time":654000000000,"state":"active","ping":75},{"user_id":27,"name":"Metbol","steam_id":76561198001362410,"connected_time":3643000000000,"state":"active","ping":52},{"user_id":43,"name":"Ice Tray","steam_id":76561198156184504,"connected_time":3046000000000,"state":"active","ping":88},{"user_id":57,"name":"JamesSetRadio","steam_id":76561198444320809,"connected_time":1399000000000,"state":"active","ping":150},{"user_id":56,"name":"nurp","steam_id":76561198071687616,"connected_time":1665000000000,"state":"active","ping":68},{"user_id":78,"name":"Jake from FedEx","steam_id":76561198051258256,"connected_time":63000000000,"state":"active","ping":81},{"user_id":71,"name":"VaL-ASROC","steam_id":76561198886493635,"connected_time":595000000000,"state":"active","ping":72},{"user_id":32,"name":"MetalTao","steam_id":76561198189408110,"connected_time":3402000000000,"state":"active","ping":114},{"user_id":64,"name":"Quomples","steam_id":76561198140996628,"connected_time":802000000000,"state":"active","ping":64},{"user_id":34,"name":"Felwyn","steam_id":76561198031280239,"connected_time":3370000000000,"state":"active","ping":162},{"user_id":63,"name":"Jankyo","steam_id":76561198083339492,"connected_time":1041000000000,"state":"active","ping":87},{"user_id":50,"name":"‚ô•Npenplz‚ô•","steam_id":76561197999605423,"connected_time":2562000000000,"state":"active","ping":87},{"user_id":77,"name":"Josip Broz Tito","steam_id":76561199445527020,"connected_time":111000000000,"state":"active","ping":293},{"user_id":38,"name":"Lonely Hat","steam_id":76561199098253679,"connected_time":3330000000000,"state":"active","ping":107}]},{"server_id":108,"name":"Uncletopia | Dallas | 2 | All Maps","name_short":"dal-2","host":"dal-1.us.uncletopia.com","port":27025,"enabled":true,"region":"us-central","cc":"us","latitude":32.779167,"longitude":-96.80889,"reserved":0,"last_update":"0001-01-01T00:00:00Z","name_a2s":"Uncletopia | Dallas | 2 | All Maps","protocol":17,"map":"pl_swiftwater_final1","folder":"tf","game":"Team Fortress","app_id":440,"player_count":17,"max_players":24,"Bots":0,"server_type":"Dedicated","server_os":"Linux","password":true,"vac":true,"version":"7757534","steam_id":85568392924469988,"keywords":["nocrits","nodmgspread","payload","uncletopia"],"game_id":440,"stv_port":27026,"stv_name":"Uncletopia | Dallas | 2 | All Maps | STV","players":[{"user_id":7,"name":"clenZORZ","steam_id":76561198835570628,"connected_time":1649000000000,"state":"active","ping":66},{"user_id":24,"name":"name420","steam_id":76561198129374525,"connected_time":151000000000,"state":"active","ping":60},{"user_id":9,"name":"pleasehelpidonthavefingers","steam_id":76561199367935846,"connected_time":1174000000000,"state":"active","ping":66},{"user_id":23,"name":"Curlytop","steam_id":76561198368845472,"connected_time":208000000000,"state":"active","ping":105},{"user_id":25,"name":"Superman123389","steam_id":76561198267472539,"connected_time":149000000000,"state":"active","ping":91},{"user_id":13,"name":"Special","steam_id":76561199073634881,"connected_time":466000000000,"state":"active","ping":90},{"user_id":14,"name":"Glisc0r","steam_id":76561199105956374,"connected_time":458000000000,"state":"active","ping":155},{"user_id":15,"name":"HOMIQ5","steam_id":76561199175820843,"connected_time":423000000000,"state":"active","ping":203},{"user_id":16,"name":"Drusalem","steam_id":76561199078547218,"connected_time":356000000000,"state":"active","ping":84},{"user_id":17,"name":"Peter Popoff","steam_id":76561198027171160,"connected_time":352000000000,"state":"active","ping":69},{"user_id":18,"name":"Ginger Jesus","steam_id":76561198052386458,"connected_time":322000000000,"state":"active","ping":80},{"user_id":19,"name":"ashtondavid1108","steam_id":76561199182234670,"connected_time":277000000000,"state":"active","ping":81},{"user_id":20,"name":"doghouse","steam_id":76561198000319035,"connected_time":245000000000,"state":"active","ping":72},{"user_id":21,"name":"Zenabie","steam_id":76561198088372680,"connected_time":229000000000,"state":"active","ping":113},{"user_id":22,"name":"„ÄåÍú±·¥õ…™…¥·¥ã è„Äç","steam_id":76561198190323610,"connected_time":227000000000,"state":"active","ping":110},{"user_id":26,"name":"Fish","steam_id":76561199016308078,"connected_time":136000000000,"state":"active","ping":82},{"user_id":27,"name":"Dabidio","steam_id":76561198347107425,"connected_time":107000000000,"state":"active","ping":104}]},{"server_id":5,"name":"Uncletopia | Frankfurt | 1 | All Maps","name_short":"frk-1","host":"frk-1.de.uncletopia.com","port":27015,"enabled":true,"region":"eu","cc":"de","latitude":50.110924,"longitude":8.682127,"reserved":0,"last_update":"0001-01-01T00:00:00Z","name_a2s":"Uncletopia | Frankfurt | 1 | All Maps","protocol":17,"map":"pl_snowycoast","folder":"tf","game":"Team Fortress","app_id":440,"player_count":24,"max_players":24,"Bots":0,"server_type":"Dedicated","server_os":"Linux","password":true,"vac":true,"version":"7757534","steam_id":85568392924469989,"keywords":["nocrits","nodmgspread","payload","uncletopia"],"game_id":440,"stv_port":27016,"stv_name":"Uncletopia | Frankfurt | 1 | All Maps | STV","players":[{"user_id":222,"name":"tayro","steam_id":76561198202990635,"connected_time":64000000000,"state":"active","ping":55},{"user_id":224,"name":"Fritz","steam_id":76561198129181164,"connected_time":47000000000,"state":"active","ping":59},{"user_id":136,"name":"Artemis","steam_id":76561198199091801,"connected_time":5695000000000,"state":"active","ping":50},{"user_id":223,"name":"GetExp","steam_id":76561198410131881,"connected_time":56000000000,"state":"active","ping":92},{"user_id":210,"name":"mt","steam_id":76561197961319303,"connected_time":974000000000,"state":"active","ping":49},{"user_id":179,"name":"askulap","steam_id":76561197992018795,"connected_time":3588000000000,"state":"active","ping":80},{"user_id":211,"name":"Noob_with_source","steam_id":76561198870362103,"connected_time":873000000000,"state":"active","ping":60},{"user_id":135,"name":"sloppy transgirl toppy","steam_id":76561198057092208,"connected_time":5707000000000,"state":"active","ping":60},{"user_id":212,"name":"Tzujko","steam_id":76561198414707694,"connected_time":872000000000,"state":"active","ping":78},{"user_id":181,"name":"Krefa12","steam_id":76561198268375393,"connected_time":3557000000000,"state":"active","ping":102},{"user_id":184,"name":"Pope John Paul III","steam_id":76561197999421201,"connected_time":3375000000000,"state":"active","ping":78},{"user_id":203,"name":"Dimitri_612","steam_id":76561199223984137,"connected_time":2109000000000,"state":"active","ping":45},{"user_id":219,"name":"Udinese Dion","steam_id":76561198067931573,"connected_time":301000000000,"state":"active","ping":46},{"user_id":217,"name":"Lemon","steam_id":76561198188535947,"connected_time":618000000000,"state":"active","ping":76},{"user_id":218,"name":"YuraGreek","steam_id":76561198050182252,"connected_time":543000000000,"state":"active","ping":77},{"user_id":220,"name":"noodlehairronaldoprime","steam_id":76561199471954402,"connected_time":290000000000,"state":"active","ping":69},{"user_id":187,"name":"Doohickey mechanic","steam_id":76561198146180114,"connected_time":3289000000000,"state":"active","ping":82},{"user_id":198,"name":"REN","steam_id":76561198000596385,"connected_time":2478000000000,"state":"active","ping":116},{"user_id":206,"name":"That Phlog mfer","steam_id":76561198050416948,"connected_time":1372000000000,"state":"active","ping":59},{"user_id":200,"name":"r√∂v","steam_id":76561198170330563,"connected_time":2226000000000,"state":"active","ping":108},{"user_id":201,"name":"YisusTheYellow","steam_id":76561198111343446,"connected_time":2126000000000,"state":"active","ping":91},{"user_id":205,"name":"1ggy","steam_id":76561199051285912,"connected_time":1924000000000,"state":"active","ping":80},{"user_id":164,"name":"howabe","steam_id":76561197996486818,"connected_time":4371000000000,"state":"active","ping":55},{"user_id":216,"name":"BoPoe","steam_id":76561198093333882,"connected_time":740000000000,"state":"active","ping":102}]},{"server_id":110,"name":"Uncletopia | Frankfurt | 2 | All Maps","name_short":"frk-2","host":"frk-1.de.uncletopia.com","port":27025,"enabled":true,"region":"eu","cc":"de","latitude":50.110924,"longitude":8.682127,"reserved":0,"last_update":"0001-01-01T00:00:00Z","name_a2s":"Uncletopia | Frankfurt | 2 | All Maps","protocol":17,"map":"pl_badwater","folder":"tf","game":"Team Fortress","app_id":440,"player_count":24,"max_players":24,"Bots":0,"server_type":"Dedicated","server_os":"Linux","password":true,"vac":true,"version":"7757534","steam_id":85568392924469990,"keywords":["nocrits","nodmgspread","payload","uncletopia"],"game_id":440,"stv_port":27026,"stv_name":"Uncletopia | Frankfurt | 2 | All Maps | STV","players":[{"user_id":443,"name":"Spurt","steam_id":76561198078523852,"connected_time":1646000000000,"state":"active","ping":52},{"user_id":446,"name":"slug","steam_id":76561198065902089,"connected_time":1172000000000,"state":"active","ping":69},{"user_id":405,"name":"Russenluster","steam_id":76561198118016220,"connected_time":4416000000000,"state":"active","ping":60},{"user_id":460,"name":"I Bleed Butter","steam_id":76561198130814770,"connected_time":219000000000,"state":"active","ping":83},{"user_id":425,"name":"Bob Sacamano","steam_id":76561198085610701,"connected_time":2527000000000,"state":"active","ping":86},{"user_id":420,"name":"Edmost","steam_id":76561198090748165,"connected_time":2567000000000,"state":"active","ping":57},{"user_id":438,"name":"The one who knocks","steam_id":76561198089341471,"connected_time":2129000000000,"state":"active","ping":78},{"user_id":444,"name":"Megapuncher","steam_id":76561198023536780,"connected_time":1448000000000,"state":"active","ping":46},{"user_id":449,"name":"SMhjatt","steam_id":76561198856879110,"connected_time":1140000000000,"state":"active","ping":89},{"user_id":435,"name":"Maxim Prime","steam_id":76561198001342231,"connected_time":2303000000000,"state":"active","ping":75},{"user_id":384,"name":"Ita","steam_id":76561198147277460,"connected_time":5395000000000,"state":"active","ping":54},{"user_id":338,"name":"T der Ba","steam_id":76561198091189185,"connected_time":7996000000000,"state":"active","ping":47},{"user_id":442,"name":"Igoreshkin","steam_id":76561197990780500,"connected_time":1739000000000,"state":"active","ping":79},{"user_id":385,"name":"johnny dorito","steam_id":76561198148074472,"connected_time":5395000000000,"state":"active","ping":42},{"user_id":401,"name":"Johan","steam_id":76561199380849468,"connected_time":4534000000000,"state":"active","ping":63},{"user_id":457,"name":"Supreme Sads","steam_id":76561198061061147,"connected_time":333000000000,"state":"active","ping":65},{"user_id":448,"name":"Hardway","steam_id":76561198272529254,"connected_time":1146000000000,"state":"active","ping":54},{"user_id":429,"name":"Shingo the Brit","steam_id":76561198439680647,"connected_time":2465000000000,"state":"active","ping":80},{"user_id":456,"name":"Gul Dukat","steam_id":76561199171591060,"connected_time":547000000000,"state":"active","ping":75},{"user_id":458,"name":"Aesthetic Alcoholism","steam_id":76561198044418968,"connected_time":314000000000,"state":"active","ping":50},{"user_id":459,"name":"Seb, Comrade","steam_id":76561198040279587,"connected_time":259000000000,"state":"active","ping":91},{"user_id":453,"name":"Soldier Boy","steam_id":76561198042593027,"connected_time":859000000000,"state":"active","ping":89},{"user_id":407,"name":"The tiniest boy","steam_id":76561198044165189,"connected_time":4373000000000,"state":"active","ping":71},{"user_id":455,"name":"WarAndroid","steam_id":76561198873727435,"connected_time":711000000000,"state":"active","ping":64}]},{"server_id":308,"name":"Uncletopia | Frankfurt | 3 | All Maps","name_short":"frk-3","host":"frk-1.de.uncletopia.com","port":27035,"enabled":true,"region":"eu","cc":"de","latitude":50.110924,"longitude":8.682127,"reserved":0,"last_update":"0001-01-01T00:00:00Z","name_a2s":"Uncletopia | Frankfurt | 3 | All Maps","protocol":17,"map":"cp_sunshine","folder":"tf","game":"Team Fortress","app_id":440,"player_count":0,"max_players":24,"Bots":0,"server_type":"Dedicated","server_os":"Linux","password":true,"vac":true,"version":"7757534","steam_id":85568392924504274,"keywords":["cp","nocrits","nodmgspread","uncletopia"],"game_id":440,"stv_port":27036,"stv_name":"Uncletopia | Frankfurt | 3 | All Maps | STV","players":null},{"server_id":309,"name":"Uncletopia | Frankfurt | 4 | All Maps","name_short":"frk-4","host":"frk-1.de.uncletopia.com","port":27045,"enabled":true,"region":"eu","cc":"de","latitude":50.110924,"longitude":8.682127,"reserved":0,"last_update":"0001-01-01T00:00:00Z","name_a2s":"Uncletopia | Frankfurt | 4 | All Maps","protocol":17,"map":"pl_frontier_final","folder":"tf","game":"Team Fortress","app_id":440,"player_count":24,"max_players":24,"Bots":0,"server_type":"Dedicated","server_os":"Linux","password":true,"vac":true,"version":"7757534","steam_id":85568392924504275,"keywords":["nocrits","nodmgspread","payload","uncletopia"],"game_id":440,"stv_port":27046,"stv_name":"Uncletopia | Frankfurt | 4 | All Maps | STV","players":[{"user_id":774,"name":"–ù—ñ–∫—ñ—Ç—Ä–æ–Ω","steam_id":76561198044401080,"connected_time":1439000000000,"state":"active","ping":62},{"user_id":778,"name":"Hotshot","steam_id":76561198082355470,"connected_time":784000000000,"state":"active","ping":192},{"user_id":779,"name":"Manza","steam_id":76561198982262924,"connected_time":517000000000,"state":"active","ping":57},{"user_id":757,"name":"Carrot","steam_id":76561198119340863,"connected_time":2552000000000,"state":"active","ping":52},{"user_id":720,"name":"roblan11","steam_id":76561198066839258,"connected_time":5199000000000,"state":"active","ping":44},{"user_id":743,"name":"Syll","steam_id":76561198040736202,"connected_time":2940000000000,"state":"active","ping":99},{"user_id":780,"name":"Gray","steam_id":76561198449128916,"connected_time":504000000000,"state":"active","ping":73},{"user_id":735,"name":"KR Illusion","steam_id":76561198058968100,"connected_time":3238000000000,"state":"active","ping":162},{"user_id":768,"name":"Currently wearing crocs","steam_id":76561198139404261,"connected_time":1693000000000,"state":"active","ping":54},{"user_id":733,"name":"ufomaster1111111","steam_id":76561198837347666,"connected_time":3269000000000,"state":"active","ping":74},{"user_id":770,"name":"Dewotter","steam_id":76561198007653168,"connected_time":1617000000000,"state":"active","ping":70},{"user_id":771,"name":"Maddox","steam_id":76561198026419869,"connected_time":1611000000000,"state":"active","ping":69},{"user_id":781,"name":"eeeeee","steam_id":76561198017786875,"connected_time":500000000000,"state":"active","ping":59},{"user_id":736,"name":"VaporFrog","steam_id":76561198429688289,"connected_time":3230000000000,"state":"active","ping":151},{"user_id":767,"name":"Spectral Sloth","steam_id":76561198170083139,"connected_time":1695000000000,"state":"active","ping":83},{"user_id":776,"name":"Vorge","steam_id":76561198411852459,"connected_time":1358000000000,"state":"active","ping":128},{"user_id":782,"name":"BlinkedUp","steam_id":76561198249985618,"connected_time":485000000000,"state":"active","ping":65},{"user_id":755,"name":"sape (huntsman enjoyer)","steam_id":76561198089322416,"connected_time":2557000000000,"state":"active","ping":112},{"user_id":783,"name":"‡πñ€£€úSir Robbiewolf","steam_id":76561198001357988,"connected_time":442000000000,"state":"active","ping":71},{"user_id":784,"name":"David \"Crash\" Murphy","steam_id":76561198292845505,"connected_time":398000000000,"state":"active","ping":92},{"user_id":728,"name":"kornetov.vitalya","steam_id":76561199286034833,"connected_time":4978000000000,"state":"active","ping":99},{"user_id":775,"name":"zek","steam_id":76561198862763731,"connected_time":1437000000000,"state":"active","ping":61},{"user_id":716,"name":"LiterallyRyanGosling","steam_id":76561199017856691,"connected_time":5683000000000,"state":"active","ping":69},{"user_id":785,"name":"KingVoker","steam_id":76561198039602539,"connected_time":368000000000,"state":"active","ping":65}]},{"server_id":310,"name":"Uncletopia | Frankfurt | 5 | All Maps","name_short":"frk-5","host":"frk-1.de.uncletopia.com","port":27055,"enabled":true,"region":"eu","cc":"de","latitude":50.110924,"longitude":8.682127,"reserved":0,"last_update":"0001-01-01T00:00:00Z","name_a2s":"Uncletopia | Frankfurt | 5 | All Maps","protocol":17,"map":"pl_pier","folder":"tf","game":"Team Fortress","app_id":440,"player_count":0,"max_players":24,"Bots":0,"server_type":"Dedicated","server_os":"Linux","password":true,"vac":true,"version":"7757534","steam_id":85568392924504277,"keywords":["nocrits","nodmgspread","payload","uncletopia"],"game_id":440,"stv_port":27056,"stv_name":"Uncletopia | Frankfurt | 5 | All Maps | STV","players":null},{"server_id":311,"name":"Uncletopia | Frankfurt | 6 | All Maps","name_short":"frk-6","host":"frk-1.de.uncletopia.com","port":27065,"enabled":true,"region":"eu","cc":"de","latitude":50.110924,"longitude":8.682127,"reserved":0,"last_update":"0001-01-01T00:00:00Z","name_a2s":"Uncletopia | Frankfurt | 6 | All Maps","protocol":17,"map":"pl_barnblitz","folder":"tf","game":"Team Fortress","app_id":440,"player_count":24,"max_players":24,"Bots":0,"server_type":"Dedicated","server_os":"Linux","password":true,"vac":true,"version":"7757534","steam_id":85568392924504278,"keywords":["nocrits","nodmgspread","payload","uncletopia"],"game_id":440,"stv_port":27066,"stv_name":"Uncletopia | Frankfurt | 6 | All Maps | STV","players":[{"user_id":378,"name":"all quiet on the wanker front","steam_id":76561198011155232,"connected_time":40000000000,"state":"active","ping":71},{"user_id":346,"name":"limbicsystem","steam_id":76561198025612680,"connected_time":1967000000000,"state":"active","ping":67},{"user_id":374,"name":"symbiome","steam_id":76561198047548582,"connected_time":432000000000,"state":"active","ping":67},{"user_id":301,"name":"New","steam_id":76561198402195911,"connected_time":4982000000000,"state":"active","ping":117},{"user_id":373,"name":"Flej","steam_id":76561198212366369,"connected_time":447000000000,"state":"active","ping":70},{"user_id":338,"name":"Pixie","steam_id":76561198044038797,"connected_time":2371000000000,"state":"active","ping":84},{"user_id":339,"name":"teddyswk","steam_id":76561198404939571,"connected_time":2250000000000,"state":"active","ping":96},{"user_id":379,"name":"Drewbinz[Ow]","steam_id":76561197983576789,"connected_time":29000000000,"state":"spawning","ping":59},{"user_id":334,"name":"0","steam_id":76561198267909207,"connected_time":2637000000000,"state":"active","ping":78},{"user_id":366,"name":"Huntierier","steam_id":76561198113676508,"connected_time":1086000000000,"state":"active","ping":77},{"user_id":367,"name":"Eno","steam_id":76561198387892963,"connected_time":942000000000,"state":"active","ping":61},{"user_id":343,"name":"ÊÇ™","steam_id":76561198095879087,"connected_time":2051000000000,"state":"active","ping":60},{"user_id":356,"name":"(wm) Das Fleisch","steam_id":76561198001250715,"connected_time":1314000000000,"state":"active","ping":54},{"user_id":381,"name":"Frigo [1g‚Ñ¢]","steam_id":76561197980853294,"connected_time":15000000000,"state":"active","ping":549},{"user_id":345,"name":"‚ú™ m_br3","steam_id":76561198044981990,"connected_time":1999000000000,"state":"active","ping":74},{"user_id":380,"name":"ScottishWolf141","steam_id":76561199122304112,"connected_time":26000000000,"state":"active","ping":78},{"user_id":371,"name":"Jeppe","steam_id":76561198036055494,"connected_time":561000000000,"state":"active","ping":69},{"user_id":375,"name":"Ôº≠ÔΩÅÔΩÉÔΩâÔΩéÔΩîÔΩèÔΩìÔΩà","steam_id":76561198074294565,"connected_time":421000000000,"state":"active","ping":74},{"user_id":359,"name":"a Regurar Barroon","steam_id":76561198834913692,"connected_time":1296000000000,"state":"active","ping":67},{"user_id":360,"name":"Dozer","steam_id":76561197998742338,"connected_time":1279000000000,"state":"active","ping":69},{"user_id":382,"name":"hichem","steam_id":76561198056197307,"connected_time":8000000000,"state":"spawning","ping":44},{"user_id":383,"name":"bass solo","steam_id":76561199117720299,"connected_time":1000000000,"state":"spawning","ping":34},{"user_id":369,"name":"unbumchik228","steam_id":76561199210604129,"connected_time":870000000000,"state":"active","ping":86},{"user_id":364,"name":"Ducky[WADZ]","steam_id":76561198060341245,"connected_time":1208000000000,"state":"active","ping":92}]},{"server_id":23,"name":"Uncletopia | Frankfurt | 7 | Stopwatch Beta","name_short":"frk-7","host":"frk-1.de.uncletopia.com","port":27075,"enabled":true,"region":"eu","cc":"de","latitude":50.110924,"longitude":8.682127,"reserved":0,"last_update":"0001-01-01T00:00:00Z","name_a2s":"Uncletopia | Frankfurt | 7 | Stopwatch Beta","protocol":17,"map":"workshop/pl_barnblitz_pro7.ugc582280235","folder":"tf","game":"Team Fortress","app_id":440,"player_count":0,"max_players":24,"Bots":0,"server_type":"Dedicated","server_os":"Linux","password":true,"vac":true,"version":"7757534","steam_id":85568392924742827,"keywords":["nocrits","nodmgspread","payload","uncletopia"],"game_id":440,"stv_port":27076,"stv_name":"Uncletopia | Frankfurt | 7 | Stopwatch Beta | STV","players":null},{"server_id":24,"name":"Uncletopia | Frankfurt | 8 | Community","name_short":"frk-8","host":"frk-1.de.uncletopia.com","port":27085,"enabled":true,"region":"eu","cc":"de","latitude":50.110924,"longitude":8.682127,"reserved":0,"last_update":"0001-01-01T00:00:00Z","name_a2s":"Uncletopia | Frankfurt | 8 | Community","protocol":17,"map":"workshop/rd_asteroid_redux_b1.ugc2154902912","folder":"tf","game":"Team Fortress","app_id":440,"player_count":10,"max_players":24,"Bots":0,"server_type":"Dedicated","server_os":"Linux","password":true,"vac":true,"version":"7757534","steam_id":85568392924742828,"keywords":["beta","nocrits","nodmgspread","rd","uncletopia"],"game_id":440,"stv_port":27086,"stv_name":"Uncletopia | Frankfurt | 8 | Community | STV","players":[{"user_id":35,"name":"i heal gay people","steam_id":76561198032167311,"connected_time":2089000000000,"state":"active","ping":90},{"user_id":19,"name":"(can't chat)mafutbolero","steam_id":76561199233664005,"connected_time":6963000000000,"state":"active","ping":73},{"user_id":47,"name":"Like Ahayo LXIX","steam_id":76561198368508349,"connected_time":147000000000,"state":"active","ping":90},{"user_id":21,"name":"Osmo","steam_id":76561199286764992,"connected_time":6376000000000,"state":"active","ping":75},{"user_id":38,"name":"Black Sheep","steam_id":76561198042244701,"connected_time":1399000000000,"state":"active","ping":76},{"user_id":33,"name":"[waffles]","steam_id":76561198951206047,"connected_time":2702000000000,"state":"active","ping":84},{"user_id":41,"name":"xepnfogon","steam_id":76561198107127340,"connected_time":575000000000,"state":"active","ping":66},{"user_id":40,"name":"Andrei12264","steam_id":76561199123066659,"connected_time":767000000000,"state":"active","ping":90},{"user_id":42,"name":"kaa","steam_id":76561198044061430,"connected_time":575000000000,"state":"active","ping":51},{"user_id":43,"name":"Battersüå∏","steam_id":76561198927992205,"connected_time":393000000000,"state":"active","ping":63}]},{"server_id":202,"name":"Uncletopia | Hong Kong | 1 | All Maps","name_short":"hgk-1","host":"hgk-1.hk.uncletopia.com","port":27015,"enabled":true,"region":"asia","cc":"hk","latitude":22.302711,"longitude":114.177216,"reserved":0,"last_update":"0001-01-01T00:00:00Z","name_a2s":"Uncletopia | Hong Kong | 1 | All Maps","protocol":17,"map":"koth_cascade","folder":"tf","game":"Team Fortress","app_id":440,"player_count":0,"max_players":24,"Bots":0,"server_type":"Dedicated","server_os":"Linux","password":true,"vac":true,"version":"7757534","steam_id":85568392924494504,"keywords":["cp","nocrits","nodmgspread","uncletopia"],"game_id":440,"stv_port":27016,"stv_name":"Uncletopia | Hong Kong | 1 | All Maps | STV","players":null},{"server_id":1,"name":"Uncletopia | Los Angeles | 1 | All Maps","name_short":"lax-1","host":"lax-1.us.uncletopia.com","port":27015,"enabled":true,"region":"us-west","cc":"us","latitude":33.94279,"longitude":-118.41004,"reserved":0,"last_update":"0001-01-01T00:00:00Z","name_a2s":"Uncletopia | Los Angeles | 1 | All Maps","protocol":17,"map":"koth_lakeside_final","folder":"tf","game":"Team Fortress","app_id":440,"player_count":0,"max_players":24,"Bots":0,"server_type":"Dedicated","server_os":"Linux","password":true,"vac":true,"version":"7757534","steam_id":85568392924469991,"keywords":["cp","nocrits","nodmgspread","uncletopia"],"game_id":440,"stv_port":27016,"stv_name":"Uncletopia | Los Angeles | 1 | All Maps | STV","players":null},{"server_id":112,"name":"Uncletopia | Los Angeles | 2 | All Maps","name_short":"lax-2","host":"lax-1.us.uncletopia.com","port":27025,"enabled":true,"region":"us-west","cc":"us","latitude":33.94279,"longitude":-118.41004,"reserved":0,"last_update":"0001-01-01T00:00:00Z","name_a2s":"Uncletopia | Los Angeles | 2 | All Maps","protocol":17,"map":"cp_altitude","folder":"tf","game":"Team Fortress","app_id":440,"player_count":24,"max_players":24,"Bots":0,"server_type":"Dedicated","server_os":"Linux","password":true,"vac":true,"version":"7757534","steam_id":85568392924469992,"keywords":["cp","nocrits","nodmgspread","uncletopia"],"game_id":440,"stv_port":27026,"stv_name":"Uncletopia | Los Angeles | 2 | All Maps | STV","players":[{"user_id":73,"name":"JOHNWICK","steam_id":76561199472940786,"connected_time":56000000000,"state":"active","ping":105},{"user_id":68,"name":"Honey Boo Boo","steam_id":76561198119340886,"connected_time":258000000000,"state":"active","ping":153},{"user_id":56,"name":"klonoaaaaaaaAAAAAAA","steam_id":76561198067196509,"connected_time":1448000000000,"state":"active","ping":30},{"user_id":69,"name":"DeathSushi","steam_id":76561199156131540,"connected_time":233000000000,"state":"active","ping":85},{"user_id":31,"name":"Risky","steam_id":76561198231029328,"connected_time":2737000000000,"state":"active","ping":50},{"user_id":21,"name":"Enforcer Enthusiast","steam_id":76561199124102271,"connected_time":3642000000000,"state":"active","ping":76},{"user_id":48,"name":"poopshitter33","steam_id":76561199135483712,"connected_time":1705000000000,"state":"active","ping":104},{"user_id":72,"name":"2Fort Cactus","steam_id":76561199273395913,"connected_time":177000000000,"state":"active","ping":70},{"user_id":43,"name":"emarkyu ü¶ê","steam_id":76561198420328039,"connected_time":1909000000000,"state":"active","ping":58},{"user_id":39,"name":"stwoom","steam_id":76561199388774711,"connected_time":1979000000000,"state":"active","ping":93},{"user_id":63,"name":"Skinny Pete","steam_id":76561198801608576,"connected_time":1013000000000,"state":"active","ping":87},{"user_id":70,"name":"Rofl","steam_id":76561198854136945,"connected_time":229000000000,"state":"active","ping":183},{"user_id":40,"name":"Ducksen","steam_id":76561198063952058,"connected_time":1955000000000,"state":"active","ping":61},{"user_id":65,"name":"Sir. Swiss","steam_id":76561198970543457,"connected_time":612000000000,"state":"active","ping":119},{"user_id":64,"name":"Jake","steam_id":76561198118425600,"connected_time":827000000000,"state":"active","ping":93},{"user_id":45,"name":"‚ñ≤‚ñº‚ñ≤ Paul Atreideeznuts","steam_id":76561198015714075,"connected_time":1861000000000,"state":"active","ping":123},{"user_id":47,"name":"Shalom","steam_id":76561198410005222,"connected_time":1806000000000,"state":"active","ping":68},{"user_id":66,"name":"EleventhGoose","steam_id":76561198912390211,"connected_time":553000000000,"state":"active","ping":61},{"user_id":51,"name":"Sentry Bustin' A Move","steam_id":76561198851536991,"connected_time":1677000000000,"state":"active","ping":54},{"user_id":52,"name":"squid","steam_id":76561198070236972,"connected_time":1602000000000,"state":"active","ping":60},{"user_id":57,"name":"Magnus","steam_id":76561198061634483,"connected_time":1442000000000,"state":"active","ping":85},{"user_id":58,"name":"Shiverse","steam_id":76561199136548914,"connected_time":1350000000000,"state":"active","ping":117},{"user_id":60,"name":"Critical","steam_id":76561198123744966,"connected_time":1276000000000,"state":"active","ping":119},{"user_id":71,"name":"Luffa Rigno","steam_id":76561197998700507,"connected_time":226000000000,"state":"active","ping":91}]},{"server_id":324,"name":"Uncletopia | Los Angeles | 3 | All Maps","name_short":"lax-3","host":"lax-1.us.uncletopia.com","port":27035,"enabled":true,"region":"us-west","cc":"us","latitude":33.94279,"longitude":-118.41004,"reserved":0,"last_update":"0001-01-01T00:00:00Z","name_a2s":"Uncletopia | Los Angeles | 3 | All Maps","protocol":17,"map":"pl_borneo","folder":"tf","game":"Team Fortress","app_id":440,"player_count":1,"max_players":24,"Bots":0,"server_type":"Dedicated","server_os":"Linux","password":true,"vac":true,"version":"7757534","steam_id":85568392924510198,"keywords":["nocrits","nodmgspread","payload","uncletopia"],"game_id":440,"stv_port":27036,"stv_name":"Uncletopia | Los Angeles | 3 | All Maps | STV","players":[{"user_id":5,"name":"Unknown","steam_id":76561199091800965,"connected_time":45000000000,"state":"active","ping":228}]},{"server_id":25,"name":"Uncletopia | Los Angeles | 4 | Stopwatch Beta","name_short":"lax-4","host":"lax-1.us.uncletopia.com","port":27045,"enabled":true,"region":"us-west","cc":"us","latitude":33.94279,"longitude":-118.41004,"reserved":0,"last_update":"0001-01-01T00:00:00Z","name_a2s":"Uncletopia | Los Angeles | 4 | Stopwatch Beta","protocol":17,"map":"pl_swiftwater_final1","folder":"tf","game":"Team Fortress","app_id":440,"player_count":0,"max_players":24,"Bots":0,"server_type":"Dedicated","server_os":"Linux","password":true,"vac":true,"version":"7757534","steam_id":85568392924510199,"keywords":["nocrits","nodmgspread","payload","uncletopia"],"game_id":440,"stv_port":27046,"stv_name":"Uncletopia | Los Angeles | 4 | Stopwatch Beta | STV","players":null},{"server_id":11,"name":"Uncletopia | London | 1 | All Maps","name_short":"lon-1","host":"lon-1.uk.uncletopia.com","port":27015,"enabled":true,"region":"eu","cc":"gb","latitude":51.509865,"longitude":-0.118092,"reserved":0,"last_update":"0001-01-01T00:00:00Z","name_a2s":"Uncletopia | London | 1 | All Maps","protocol":17,"map":"pl_badwater","folder":"tf","game":"Team Fortress","app_id":440,"player_count":24,"max_players":24,"Bots":0,"server_type":"Dedicated","server_os":"Linux","password":true,"vac":true,"version":"7757534","steam_id":85568392924367362,"keywords":["nocrits","nodmgspread","payload","uncletopia"],"game_id":440,"stv_port":27016,"stv_name":"Uncletopia | London | 1 | All Maps | STV","players":[{"user_id":518,"name":"leg","steam_id":76561199026097466,"connected_time":5048000000000,"state":"active","ping":67},{"user_id":576,"name":"Iountzululululululululululululu","steam_id":76561198956308470,"connected_time":1250000000000,"state":"active","ping":95},{"user_id":578,"name":"Gideon","steam_id":76561198045132575,"connected_time":1043000000000,"state":"active","ping":39},{"user_id":577,"name":"Random","steam_id":76561199116602799,"connected_time":1191000000000,"state":"active","ping":49},{"user_id":476,"name":"Jesus Enjoyer","steam_id":76561198840259819,"connected_time":7358000000000,"state":"active","ping":54},{"user_id":501,"name":"Kvicha Kvaratskhelia","steam_id":76561198179339326,"connected_time":5781000000000,"state":"active","ping":81},{"user_id":559,"name":"fox^","steam_id":76561198173355995,"connected_time":2575000000000,"state":"active","ping":79},{"user_id":574,"name":"KPhii","steam_id":76561198970587061,"connected_time":1343000000000,"state":"active","ping":70},{"user_id":579,"name":"arowin24","steam_id":76561198077342689,"connected_time":1021000000000,"state":"active","ping":69},{"user_id":569,"name":"The Fellow Feller","steam_id":76561198188864306,"connected_time":1789000000000,"state":"active","ping":82},{"user_id":494,"name":"Mi Manchi","steam_id":76561198171573129,"connected_time":5984000000000,"state":"active","ping":65},{"user_id":547,"name":"Caerot","steam_id":76561198839000676,"connected_time":3780000000000,"state":"active","ping":69},{"user_id":588,"name":"Vershal Smershal","steam_id":76561198116223995,"connected_time":309000000000,"state":"active","ping":55},{"user_id":587,"name":"R0mulone","steam_id":76561198352513792,"connected_time":407000000000,"state":"active","ping":62},{"user_id":575,"name":"duck","steam_id":76561198030677425,"connected_time":1271000000000,"state":"active","ping":60},{"user_id":581,"name":"mud","steam_id":76561198141497461,"connected_time":923000000000,"state":"active","ping":68},{"user_id":571,"name":"thepro-strong","steam_id":76561198047359132,"connected_time":1625000000000,"state":"active","ping":75},{"user_id":582,"name":"Grim","steam_id":76561198040346281,"connected_time":915000000000,"state":"active","ping":61},{"user_id":538,"name":"united chunk","steam_id":76561199017850298,"connected_time":3952000000000,"state":"active","ping":75},{"user_id":583,"name":"SpyGunning27","steam_id":76561199234795819,"connected_time":908000000000,"state":"active","ping":87},{"user_id":570,"name":"Aaron","steam_id":76561197990046953,"connected_time":1654000000000,"state":"active","ping":63},{"user_id":584,"name":"generic alias","steam_id":76561198271607226,"connected_time":893000000000,"state":"active","ping":85},{"user_id":573,"name":"Meth","steam_id":76561199300394949,"connected_time":1440000000000,"state":"active","ping":63},{"user_id":585,"name":"Cypher","steam_id":76561197996967254,"connected_time":761000000000,"state":"active","ping":61}]},{"server_id":114,"name":"Uncletopia | London | 2 | All Maps","name_short":"lon-2","host":"lon-1.uk.uncletopia.com","port":27025,"enabled":true,"region":"eu","cc":"gb","latitude":51.509865,"longitude":-0.118092,"reserved":0,"last_update":"0001-01-01T00:00:00Z","name_a2s":"Uncletopia | London | 2 | All Maps","protocol":17,"map":"pl_frontier_final","folder":"tf","game":"Team Fortress","app_id":440,"player_count":24,"max_players":24,"Bots":0,"server_type":"Dedicated","server_os":"Linux","password":true,"vac":true,"version":"7757534","steam_id":85568392924470941,"keywords":["nocrits","nodmgspread","payload","uncletopia"],"game_id":440,"stv_port":27026,"stv_name":"Uncletopia | London | 2 | All Maps | STV","players":[{"user_id":323,"name":"the indomitable human spirit","steam_id":76561198718760200,"connected_time":1843000000000,"state":"active","ping":55},{"user_id":358,"name":"Princess Fluffy Butt","steam_id":76561198060033696,"connected_time":321000000000,"state":"active","ping":47},{"user_id":351,"name":"Qwichi","steam_id":76561198264893430,"connected_time":678000000000,"state":"active","ping":92},{"user_id":333,"name":"onionich","steam_id":76561198835619904,"connected_time":1698000000000,"state":"active","ping":119},{"user_id":359,"name":"Shovelhalfrusty","steam_id":76561198346447513,"connected_time":264000000000,"state":"active","ping":69},{"user_id":354,"name":"Kikuri Hiroi","steam_id":76561198376786609,"connected_time":607000000000,"state":"active","ping":103},{"user_id":300,"name":"Ôº≤ ÔºØ Ôº¢ Ôº¢ Ôº• Ôº≤ Ôº¥","steam_id":76561198134404830,"connected_time":3151000000000,"state":"active","ping":118},{"user_id":292,"name":"Vanilla","steam_id":76561198073933435,"connected_time":3979000000000,"state":"active","ping":65},{"user_id":268,"name":"[T]aKer","steam_id":76561198001778013,"connected_time":6754000000000,"state":"active","ping":47},{"user_id":328,"name":"Misctek","steam_id":76561199037541925,"connected_time":1782000000000,"state":"active","ping":72},{"user_id":360,"name":"Dwevy","steam_id":76561198090379437,"connected_time":61000000000,"state":"active","ping":54},{"user_id":329,"name":"Acid","steam_id":76561198102110680,"connected_time":1780000000000,"state":"active","ping":143},{"user_id":345,"name":"homeinvasion$","steam_id":76561199111905021,"connected_time":1350000000000,"state":"active","ping":124},{"user_id":339,"name":"quickfast","steam_id":76561199438900919,"connected_time":1632000000000,"state":"active","ping":43},{"user_id":346,"name":"Kristianma","steam_id":76561198021772843,"connected_time":1333000000000,"state":"active","ping":60},{"user_id":335,"name":"kojitori","steam_id":76561198838072150,"connected_time":1681000000000,"state":"active","ping":45},{"user_id":353,"name":"dartling gunner","steam_id":76561199042470246,"connected_time":645000000000,"state":"active","ping":60},{"user_id":336,"name":"I Don't Know","steam_id":76561198841011430,"connected_time":1680000000000,"state":"active","ping":76},{"user_id":356,"name":"–¢—Ä—É–ø –í–æ–ª–æ–¥—è","steam_id":76561198035718457,"connected_time":507000000000,"state":"active","ping":94},{"user_id":341,"name":"Testicular torsion","steam_id":76561198119547399,"connected_time":1535000000000,"state":"active","ping":75},{"user_id":357,"name":"i AM the medic gf","steam_id":76561198247284680,"connected_time":347000000000,"state":"active","ping":75},{"user_id":343,"name":"Rz!","steam_id":76561198364380889,"connected_time":1451000000000,"state":"active","ping":131},{"user_id":350,"name":"Hoff","steam_id":76561198026537318,"connected_time":693000000000,"state":"active","ping":36},{"user_id":361,"name":"Axord","steam_id":76561199289652176,"connected_time":19000000000,"state":"active","ping":77}]},{"server_id":320,"name":"Uncletopia | London | 3 | All Maps","name_short":"lon-3","host":"lon-1.uk.uncletopia.com","port":27035,"enabled":true,"region":"eu","cc":"gb","latitude":51.509865,"longitude":-0.118092,"reserved":0,"last_update":"0001-01-01T00:00:00Z","name_a2s":"Uncletopia | London | 3 | All Maps","protocol":17,"map":"cp_sunshine","folder":"tf","game":"Team Fortress","app_id":440,"player_count":24,"max_players":24,"Bots":0,"server_type":"Dedicated","server_os":"Linux","password":true,"vac":true,"version":"7757534","steam_id":85568392924510192,"keywords":["cp","nocrits","nodmgspread","uncletopia"],"game_id":440,"stv_port":27036,"stv_name":"Uncletopia | London | 3 | All Maps | STV","players":[{"user_id":529,"name":"Mario","steam_id":76561198321794277,"connected_time":3389000000000,"state":"active","ping":145},{"user_id":524,"name":"Madmoose96","steam_id":76561198081888486,"connected_time":3972000000000,"state":"active","ping":77},{"user_id":503,"name":"Davey","steam_id":76561198256879107,"connected_time":4886000000000,"state":"active","ping":77},{"user_id":558,"name":"Lessoz","steam_id":76561199211572036,"connected_time":33000000000,"state":"active","ping":90},{"user_id":536,"name":"‚ô¨ ·¥õ·¥á·¥ã…™·¥õ ‚ô¨","steam_id":76561198111704722,"connected_time":2963000000000,"state":"active","ping":104},{"user_id":526,"name":"true","steam_id":76561198031145243,"connected_time":3744000000000,"state":"active","ping":80},{"user_id":505,"name":"Vanes #savetf2","steam_id":76561198070099171,"connected_time":4855000000000,"state":"active","ping":71},{"user_id":557,"name":"OlkiSoup","steam_id":76561199209805904,"connected_time":96000000000,"state":"active","ping":86},{"user_id":538,"name":"GMsU | AuxiliusM","steam_id":76561198071903356,"connected_time":2659000000000,"state":"active","ping":58},{"user_id":492,"name":"zvekan","steam_id":76561198381101196,"connected_time":5814000000000,"state":"active","ping":63},{"user_id":547,"name":"NuGs","steam_id":76561198305550934,"connected_time":1570000000000,"state":"active","ping":54},{"user_id":553,"name":"Tywhip","steam_id":76561199207545191,"connected_time":1274000000000,"state":"active","ping":57},{"user_id":545,"name":"JownCenta","steam_id":76561198121397124,"connected_time":1676000000000,"state":"active","ping":55},{"user_id":549,"name":"8 Ball","steam_id":76561197960988736,"connected_time":1408000000000,"state":"active","ping":46},{"user_id":556,"name":"Uncle Terry","steam_id":76561198396415736,"connected_time":364000000000,"state":"active","ping":45},{"user_id":550,"name":"Bottom feeder","steam_id":76561198181298169,"connected_time":1397000000000,"state":"active","ping":138},{"user_id":551,"name":"oddlyobtuselemon1654","steam_id":76561198877069773,"connected_time":1357000000000,"state":"active","ping":159},{"user_id":525,"name":"KnugenIV","steam_id":76561198127091993,"connected_time":3896000000000,"state":"active","ping":62},{"user_id":540,"name":"GMsU | Smiley","steam_id":76561198121494414,"connected_time":2601000000000,"state":"active","ping":104},{"user_id":515,"name":"Gorogaz","steam_id":76561198207157679,"connected_time":4603000000000,"state":"active","ping":67},{"user_id":555,"name":"Jeg","steam_id":76561197994059603,"connected_time":788000000000,"state":"active","ping":60},{"user_id":534,"name":"Petight","steam_id":76561197999438798,"connected_time":3214000000000,"state":"active","ping":31},{"user_id":521,"name":"non guardo sanremo (e ne vado f","steam_id":76561198340262024,"connected_time":4210000000000,"state":"active","ping":65},{"user_id":450,"name":"Pan Piotr","steam_id":76561198140016126,"connected_time":8500000000000,"state":"active","ping":82}]},{"server_id":321,"name":"Uncletopia | London | 4 | All Maps","name_short":"lon-4","host":"lon-1.uk.uncletopia.com","port":27045,"enabled":true,"region":"eu","cc":"gb","latitude":51.509865,"longitude":-0.118092,"reserved":0,"last_update":"0001-01-01T00:00:00Z","name_a2s":"Uncletopia | London | 4 | All Maps","protocol":17,"map":"cp_5gorge","folder":"tf","game":"Team Fortress","app_id":440,"player_count":24,"max_players":24,"Bots":0,"server_type":"Dedicated","server_os":"Linux","password":true,"vac":true,"version":"7757534","steam_id":85568392924510193,"keywords":["cp","nocrits","nodmgspread","uncletopia"],"game_id":440,"stv_port":27046,"stv_name":"Uncletopia | London | 4 | All Maps | STV","players":[{"user_id":248,"name":"tube","steam_id":76561198188642265,"connected_time":1133000000000,"state":"active","ping":58},{"user_id":264,"name":"Certified Hood pybro (ua)","steam_id":76561198970562699,"connected_time":354000000000,"state":"active","ping":62},{"user_id":252,"name":"DooWooD","steam_id":76561198335810106,"connected_time":931000000000,"state":"active","ping":77},{"user_id":255,"name":"tWx","steam_id":76561198123145824,"connected_time":887000000000,"state":"active","ping":75},{"user_id":249,"name":"gosi","steam_id":76561198084111532,"connected_time":1038000000000,"state":"active","ping":64},{"user_id":247,"name":"‚ò© Knightz ‚ò©","steam_id":76561198040936414,"connected_time":1178000000000,"state":"active","ping":120},{"user_id":171,"name":"Dabman","steam_id":76561199207417437,"connected_time":6990000000000,"state":"active","ping":115},{"user_id":64,"name":"brokenphilip","steam_id":76561198080960604,"connected_time":14062000000000,"state":"active","ping":79},{"user_id":258,"name":"Gry","steam_id":76561198053961616,"connected_time":706000000000,"state":"active","ping":48},{"user_id":257,"name":"beheading video from 2009","steam_id":76561198834897089,"connected_time":725000000000,"state":"active","ping":71},{"user_id":226,"name":"KFD","steam_id":76561198157183003,"connected_time":3183000000000,"state":"active","ping":84},{"user_id":183,"name":"king251311","steam_id":76561199063310889,"connected_time":6067000000000,"state":"active","ping":86},{"user_id":243,"name":"Malkuth","steam_id":76561198058567662,"connected_time":1697000000000,"state":"active","ping":83},{"user_id":256,"name":"AXAL","steam_id":76561198178250598,"connected_time":794000000000,"state":"active","ping":57},{"user_id":265,"name":"Sta≈Ñczyk","steam_id":76561197998906563,"connected_time":54000000000,"state":"active","ping":43},{"user_id":111,"name":"Smash hit enjoyer","steam_id":76561198311322738,"connected_time":11441000000000,"state":"active","ping":61},{"user_id":216,"name":"Flint","steam_id":76561197995920776,"connected_time":4077000000000,"state":"active","ping":52},{"user_id":233,"name":"ASDF656565","steam_id":76561197995676953,"connected_time":2611000000000,"state":"active","ping":60},{"user_id":254,"name":"cortex","steam_id":76561198839790230,"connected_time":916000000000,"state":"active","ping":74},{"user_id":236,"name":"„Åà„Å™„Å™„Çì","steam_id":76561199427679148,"connected_time":1840000000000,"state":"active","ping":131},{"user_id":48,"name":"syndenz","steam_id":76561198176063813,"connected_time":15256000000000,"state":"active","ping":64},{"user_id":263,"name":"Thors","steam_id":76561197968739075,"connected_time":388000000000,"state":"active","ping":45},{"user_id":210,"name":"One Shiny Boi‚Ñ¢","steam_id":76561198199193627,"connected_time":4560000000000,"state":"active","ping":75},{"user_id":261,"name":"let me cook","steam_id":76561198010380786,"connected_time":610000000000,"state":"active","ping":47}]},{"server_id":21,"name":"Uncletopia | London | 5 | All Maps","name_short":"lon-5","host":"lon-1.uk.uncletopia.com","port":27055,"enabled":true,"region":"eu","cc":"gb","latitude":51.509865,"longitude":-0.118092,"reserved":0,"last_update":"0001-01-01T00:00:00Z","name_a2s":"Uncletopia | London | 5 | All Maps","protocol":17,"map":"cp_sunshine","folder":"tf","game":"Team Fortress","app_id":440,"player_count":24,"max_players":24,"Bots":0,"server_type":"Dedicated","server_os":"Linux","password":true,"vac":true,"version":"7757534","steam_id":85568392924742829,"keywords":["cp","nocrits","nodmgspread","uncletopia"],"game_id":440,"stv_port":27056,"stv_name":"Uncletopia | London | 5 | All Maps | STV","players":[{"user_id":191,"name":"Hans Regenkurt","steam_id":76561199100937553,"connected_time":3315000000000,"state":"active","ping":90},{"user_id":253,"name":"Kanga The Elder Roo","steam_id":76561198154907579,"connected_time":1160000000000,"state":"active","ping":58},{"user_id":248,"name":"soofoul","steam_id":76561198285862099,"connected_time":1549000000000,"state":"active","ping":39},{"user_id":257,"name":"MatesThePlayer","steam_id":76561198066156449,"connected_time":1076000000000,"state":"active","ping":64},{"user_id":268,"name":"Hooodeeney","steam_id":76561199013654263,"connected_time":423000000000,"state":"active","ping":72},{"user_id":282,"name":"BING CHILLING","steam_id":76561198065438030,"connected_time":4000000000,"state":"spawning","ping":117},{"user_id":255,"name":"Tort","steam_id":76561198329646769,"connected_time":1142000000000,"state":"active","ping":56},{"user_id":264,"name":"heavy sings (real)","steam_id":76561199023804405,"connected_time":833000000000,"state":"active","ping":61},{"user_id":269,"name":"Absolute_clamp","steam_id":76561198958563865,"connected_time":420000000000,"state":"active","ping":30},{"user_id":234,"name":"Dilski","steam_id":76561198048896546,"connected_time":1886000000000,"state":"active","ping":55},{"user_id":256,"name":"what is he doing?","steam_id":76561198139303045,"connected_time":1141000000000,"state":"active","ping":92},{"user_id":249,"name":"nay ners","steam_id":76561199238480644,"connected_time":1443000000000,"state":"active","ping":140},{"user_id":218,"name":"WeegeePJ","steam_id":76561199383362382,"connected_time":2255000000000,"state":"active","ping":128},{"user_id":199,"name":"Hubble","steam_id":76561198329002678,"connected_time":2880000000000,"state":"active","ping":52},{"user_id":267,"name":"aphextwinsucks","steam_id":76561198132185926,"connected_time":453000000000,"state":"active","ping":71},{"user_id":270,"name":"Kleiner Engel","steam_id":76561198009922500,"connected_time":420000000000,"state":"active","ping":72},{"user_id":265,"name":"mesi","steam_id":76561198152458174,"connected_time":802000000000,"state":"active","ping":84},{"user_id":266,"name":"Kiif","steam_id":76561198175271494,"connected_time":629000000000,"state":"active","ping":94},{"user_id":262,"name":"I I","steam_id":76561199101935057,"connected_time":856000000000,"state":"active","ping":94},{"user_id":172,"name":"a straight white male","steam_id":76561198381120660,"connected_time":4450000000000,"state":"active","ping":94},{"user_id":272,"name":"Ruke 1","steam_id":76561198409908008,"connected_time":268000000000,"state":"active","ping":63},{"user_id":263,"name":"Gekoloniseerd","steam_id":76561198819871606,"connected_time":844000000000,"state":"active","ping":110},{"user_id":247,"name":"mike erhmentraut","steam_id":76561199025378498,"connected_time":1585000000000,"state":"active","ping":39},{"user_id":274,"name":"(1)tapeworms!","steam_id":76561198069649097,"connected_time":180000000000,"state":"active","ping":54}]},{"server_id":22,"name":"Uncletopia | London | 6 | All Maps","name_short":"lon-6","host":"lon-1.uk.uncletopia.com","port":27065,"enabled":true,"region":"eu","cc":"gb","latitude":51.509865,"longitude":-0.118092,"reserved":0,"last_update":"0001-01-01T00:00:00Z","name_a2s":"Uncletopia | London | 6 | All Maps","protocol":17,"map":"pl_snowycoast","folder":"tf","game":"Team Fortress","app_id":440,"player_count":0,"max_players":24,"Bots":0,"server_type":"Dedicated","server_os":"Linux","password":true,"vac":true,"version":"7757534","steam_id":85568392924742830,"keywords":["nocrits","nodmgspread","payload","uncletopia"],"game_id":440,"stv_port":27066,"stv_name":"Uncletopia | London | 6 | All Maps | STV","players":null},{"server_id":40,"name":"Uncletopia | London | 7 | No Payload","name_short":"lon-7","host":"lon-1.uk.uncletopia.com","port":27075,"enabled":true,"region":"eu","cc":"gb","latitude":51.509865,"longitude":-0.118092,"reserved":0,"last_update":"0001-01-01T00:00:00Z","name_a2s":"Uncletopia | London | 7 | No Payload","protocol":17,"map":"cp_dustbowl","folder":"tf","game":"Team Fortress","app_id":440,"player_count":10,"max_players":24,"Bots":0,"server_type":"Dedicated","server_os":"Linux","password":true,"vac":true,"version":"7757534","steam_id":85568392924964314,"keywords":["cp","nocrits","nodmgspread","uncletopia"],"game_id":440,"stv_port":27076,"stv_name":"Uncletopia | London | 7 | No Payload | STV","players":[{"user_id":104,"name":"Anonymous47007","steam_id":76561199005211417,"connected_time":686000000000,"state":"active","ping":84},{"user_id":108,"name":"127x Shaped Glass","steam_id":76561199171315453,"connected_time":293000000000,"state":"active","ping":54},{"user_id":100,"name":"Lengard","steam_id":76561198094189180,"connected_time":1398000000000,"state":"active","ping":106},{"user_id":102,"name":"Birdseye","steam_id":76561198025852216,"connected_time":1153000000000,"state":"active","ping":46},{"user_id":109,"name":"ATastyAsty","steam_id":76561198353233738,"connected_time":286000000000,"state":"active","ping":85},{"user_id":110,"name":"Flying skyhigh","steam_id":76561198372971096,"connected_time":209000000000,"state":"active","ping":78},{"user_id":111,"name":"63756d","steam_id":76561198808699024,"connected_time":33000000000,"state":"active","ping":74},{"user_id":112,"name":"Avitz","steam_id":76561197986150359,"connected_time":26000000000,"state":"active","ping":43},{"user_id":37,"name":"Space","steam_id":76561198021572167,"connected_time":5462000000000,"state":"active","ping":45},{"user_id":86,"name":"Kibby","steam_id":76561197990056450,"connected_time":2258000000000,"state":"active","ping":46}]},{"server_id":41,"name":"Uncletopia | London | 8 | Community","name_short":"lon-8","host":"lon-1.uk.uncletopia.com","port":27085,"enabled":true,"region":"eu","cc":"gb","latitude":51.509865,"longitude":-0.118092,"reserved":0,"last_update":"0001-01-01T00:00:00Z","name_a2s":"Uncletopia | London | 8 | Community","protocol":17,"map":"pl_barnblitz","folder":"tf","game":"Team Fortress","app_id":440,"player_count":0,"max_players":24,"Bots":0,"server_type":"Dedicated","server_os":"Linux","password":true,"vac":true,"version":"7757534","steam_id":85568392924964315,"keywords":["nocrits","nodmgspread","payload","uncletopia"],"game_id":440,"stv_port":27086,"stv_name":"Uncletopia | London | 8 | Community | STV","players":null},{"server_id":300,"name":"Uncletopia | Montr√©al | 1 | All Maps","name_short":"mtl-1","host":"mtl-1.ca.uncletopia.com","port":27015,"enabled":true,"region":"us-east","cc":"ca","latitude":45.50889,"longitude":-73.56167,"reserved":0,"last_update":"0001-01-01T00:00:00Z","name_a2s":"Uncletopia | Montr√©al | 1 | All Maps","protocol":17,"map":"cp_sunshine","folder":"tf","game":"Team Fortress","app_id":440,"player_count":0,"max_players":24,"Bots":0,"server_type":"Dedicated","server_os":"Linux","password":true,"vac":true,"version":"7757534","steam_id":85568392924500087,"keywords":["cp","nocrits","nodmgspread","uncletopia"],"game_id":440,"stv_port":27016,"stv_name":"Uncletopia | Montr√©al | 1 | All Maps | STV","players":null},{"server_id":301,"name":"Uncletopia | Montr√©al | 2 | All Maps","name_short":"mtl-2","host":"mtl-1.ca.uncletopia.com","port":27025,"enabled":true,"region":"us-east","cc":"ca","latitude":45.50889,"longitude":-73.56167,"reserved":0,"last_update":"0001-01-01T00:00:00Z","name_a2s":"Uncletopia | Montr√©al | 2 | All Maps","protocol":17,"map":"pl_snowycoast","folder":"tf","game":"Team Fortress","app_id":440,"player_count":0,"max_players":24,"Bots":0,"server_type":"Dedicated","server_os":"Linux","password":true,"vac":true,"version":"7757534","steam_id":85568392924500088,"keywords":["nocrits","nodmgspread","payload","uncletopia"],"game_id":440,"stv_port":27026,"stv_name":"Uncletopia | Montr√©al | 2 | All Maps | STV","players":null},{"server_id":302,"name":"Uncletopia | Montr√©al | 3 | All Maps","name_short":"mtl-3","host":"mtl-1.ca.uncletopia.com","port":27035,"enabled":true,"region":"us-east","cc":"ca","latitude":45.50889,"longitude":-73.56167,"reserved":0,"last_update":"0001-01-01T00:00:00Z","name_a2s":"Uncletopia | Montr√©al | 3 | All Maps","protocol":17,"map":"pl_swiftwater_final1","folder":"tf","game":"Team Fortress","app_id":440,"player_count":0,"max_players":24,"Bots":0,"server_type":"Dedicated","server_os":"Linux","password":true,"vac":true,"version":"7757534","steam_id":85568392924500089,"keywords":["nocrits","nodmgspread","payload","uncletopia"],"game_id":440,"stv_port":27036,"stv_name":"Uncletopia | Montr√©al | 3 | All Maps | STV","players":null},{"server_id":303,"name":"Uncletopia | Montr√©al | 4 | No Payload","name_short":"mtl-4","host":"mtl-1.ca.uncletopia.com","port":27045,"enabled":true,"region":"us-east","cc":"ca","latitude":45.50889,"longitude":-73.56167,"reserved":0,"last_update":"0001-01-01T00:00:00Z","name_a2s":"Uncletopia | Montr√©al | 4 | No Payload","protocol":17,"map":"cp_steel","folder":"tf","game":"Team Fortress","app_id":440,"player_count":0,"max_players":24,"Bots":0,"server_type":"Dedicated","server_os":"Linux","password":true,"vac":true,"version":"7757534","steam_id":85568392924500090,"keywords":["cp","nocrits","nodmgspread","uncletopia"],"game_id":440,"stv_port":27046,"stv_name":"Uncletopia | Montr√©al | 4 | No Payload | STV","players":null},{"server_id":13,"name":"Uncletopia | New York City | 1 | All Maps","name_short":"nyc-1","host":"nyc-1.us.uncletopia.com","port":27015,"enabled":true,"region":"us-east","cc":"us","latitude":40.73061,"longitude":-73.93524,"reserved":0,"last_update":"0001-01-01T00:00:00Z","name_a2s":"Uncletopia | New York City | 1 | All Maps","protocol":17,"map":"pl_borneo","folder":"tf","game":"Team Fortress","app_id":440,"player_count":22,"max_players":24,"Bots":0,"server_type":"Dedicated","server_os":"Linux","password":true,"vac":true,"version":"7757534","steam_id":85568392924469993,"keywords":["nocrits","nodmgspread","payload","uncletopia"],"game_id":440,"stv_port":27016,"stv_name":"Uncletopia | New York City | 1 | All Maps | STV","players":[{"user_id":262,"name":"CupcakeWarlock","steam_id":76561198179963697,"connected_time":1074000000000,"state":"active","ping":51},{"user_id":270,"name":"Seedkns","steam_id":76561199092210172,"connected_time":456000000000,"state":"active","ping":44},{"user_id":186,"name":"Wattle","steam_id":76561198036756626,"connected_time":6499000000000,"state":"active","ping":56},{"user_id":259,"name":"Havok","steam_id":76561198063455003,"connected_time":1693000000000,"state":"active","ping":54},{"user_id":244,"name":"p","steam_id":76561198030291655,"connected_time":2898000000000,"state":"active","ping":62},{"user_id":208,"name":"burger king fries on the dash","steam_id":76561199049096532,"connected_time":5255000000000,"state":"active","ping":89},{"user_id":218,"name":"Tomcouger","steam_id":76561198022866923,"connected_time":4546000000000,"state":"active","ping":125},{"user_id":275,"name":"[hammer]DMX","steam_id":76561198033476718,"connected_time":76000000000,"state":"spawning","ping":192},{"user_id":263,"name":"jema","steam_id":76561198276513608,"connected_time":1026000000000,"state":"active","ping":157},{"user_id":219,"name":"Bipolar Beary","steam_id":76561198042027933,"connected_time":4539000000000,"state":"active","ping":118},{"user_id":272,"name":"Solo Survivor Enjoyer","steam_id":76561198983866005,"connected_time":424000000000,"state":"active","ping":59},{"user_id":267,"name":"AINT SHIT FUNNY THE TIME IS N:O","steam_id":76561198052572890,"connected_time":558000000000,"state":"active","ping":45},{"user_id":276,"name":"Bob The Frenchy","steam_id":76561198042180206,"connected_time":57000000000,"state":"active","ping":51},{"user_id":221,"name":"Training Arc","steam_id":76561198038832034,"connected_time":4459000000000,"state":"active","ping":120},{"user_id":264,"name":"lker","steam_id":76561197976975075,"connected_time":1017000000000,"state":"active","ping":60},{"user_id":271,"name":"Oh no","steam_id":76561198123441203,"connected_time":435000000000,"state":"active","ping":77},{"user_id":277,"name":"Grimdiggy","steam_id":76561198257422459,"connected_time":4000000000,"state":"spawning","ping":51},{"user_id":273,"name":"Junko","steam_id":76561198146089003,"connected_time":392000000000,"state":"active","ping":30},{"user_id":210,"name":"roby","steam_id":76561198044660393,"connected_time":5148000000000,"state":"active","ping":126},{"user_id":274,"name":"Sha-Woompa","steam_id":76561199068063459,"connected_time":368000000000,"state":"active","ping":84},{"user_id":215,"name":"Aeonspassed","steam_id":76561198014016451,"connected_time":4577000000000,"state":"active","ping":76},{"user_id":217,"name":"Dastardly","steam_id":76561198028351509,"connected_time":4576000000000,"state":"active","ping":160}]},{"server_id":14,"name":"Uncletopia | New York City | 2 | All Maps","name_short":"nyc-2","host":"nyc-1.us.uncletopia.com","port":27025,"enabled":true,"region":"us-east","cc":"us","latitude":40.73061,"longitude":-73.93524,"reserved":0,"last_update":"0001-01-01T00:00:00Z","name_a2s":"Uncletopia | New York City | 2 | All Maps","protocol":17,"map":"pl_upward","folder":"tf","game":"Team Fortress","app_id":440,"player_count":23,"max_players":24,"Bots":0,"server_type":"Dedicated","server_os":"Linux","password":true,"vac":true,"version":"7757534","steam_id":85568392924469994,"keywords":["nocrits","nodmgspread","payload","uncletopia"],"game_id":440,"stv_port":27026,"stv_name":"Uncletopia | New York City | 2 | All Maps | STV","players":[{"user_id":193,"name":"James Earl Carter Jr","steam_id":76561198069735882,"connected_time":646000000000,"state":"active","ping":75},{"user_id":201,"name":"BigMacEnjoyer","steam_id":76561198076612543,"connected_time":113000000000,"state":"active","ping":81},{"user_id":192,"name":"barbara","steam_id":76561198072417792,"connected_time":673000000000,"state":"active","ping":129},{"user_id":202,"name":"Beanz (Medic Gaming)","steam_id":76561198251165666,"connected_time":61000000000,"state":"active","ping":64},{"user_id":117,"name":"Notafraid90","steam_id":76561198104072542,"connected_time":6154000000000,"state":"active","ping":59},{"user_id":203,"name":"heywaitasecond","steam_id":76561199064548292,"connected_time":59000000000,"state":"active","ping":66},{"user_id":204,"name":"the bane","steam_id":76561198053046161,"connected_time":48000000000,"state":"active","ping":44},{"user_id":200,"name":"A_Malebolgia","steam_id":76561198097722818,"connected_time":195000000000,"state":"active","ping":82},{"user_id":194,"name":"gIBBY","steam_id":76561198080099598,"connected_time":635000000000,"state":"active","ping":41},{"user_id":154,"name":"QwilfishFan22","steam_id":76561198078565975,"connected_time":3479000000000,"state":"active","ping":50},{"user_id":177,"name":"custodian","steam_id":76561198058793778,"connected_time":1179000000000,"state":"active","ping":59},{"user_id":169,"name":"h","steam_id":76561198319179446,"connected_time":2202000000000,"state":"active","ping":92},{"user_id":146,"name":"Schmingus","steam_id":76561199476148332,"connected_time":4172000000000,"state":"active","ping":97},{"user_id":205,"name":"MurpAMurp","steam_id":76561198374437261,"connected_time":3000000000,"state":"spawning","ping":56},{"user_id":167,"name":"NanoBite","steam_id":76561197999426452,"connected_time":2403000000000,"state":"active","ping":111},{"user_id":198,"name":"JBRHURTZ","steam_id":76561198966827195,"connected_time":303000000000,"state":"active","ping":59},{"user_id":170,"name":"Chestnut","steam_id":76561198078198968,"connected_time":2157000000000,"state":"active","ping":78},{"user_id":173,"name":"Genne","steam_id":76561198153434791,"connected_time":1344000000000,"state":"active","ping":60},{"user_id":149,"name":"SINEPLLAMS","steam_id":76561198316993833,"connected_time":3895000000000,"state":"active","ping":44},{"user_id":180,"name":"Fstev ‚úò","steam_id":76561198358766202,"connected_time":1114000000000,"state":"active","ping":142},{"user_id":195,"name":"TheArachnidGamer","steam_id":76561198304986752,"connected_time":571000000000,"state":"active","ping":91},{"user_id":196,"name":"„Äé Ethereal „Äè","steam_id":76561199385170644,"connected_time":553000000000,"state":"active","ping":71},{"user_id":199,"name":"Penrose42","steam_id":76561198288577396,"connected_time":261000000000,"state":"active","ping":83}]},{"server_id":15,"name":"Uncletopia | New York City | 3 | Stopwatch Beta","name_short":"nyc-3","host":"nyc-1.us.uncletopia.com","port":27035,"enabled":true,"region":"us-east","cc":"us","latitude":40.73061,"longitude":-73.93524,"reserved":0,"last_update":"0001-01-01T00:00:00Z","name_a2s":"Uncletopia | New York City | 3 | Stopwatch Beta","protocol":17,"map":"cp_gullywash_final1","folder":"tf","game":"Team Fortress","app_id":440,"player_count":0,"max_players":24,"Bots":0,"server_type":"Dedicated","server_os":"Linux","password":true,"vac":true,"version":"7757534","steam_id":85568392924742820,"keywords":["cp","nocrits","nodmgspread","uncletopia"],"game_id":440,"stv_port":27036,"stv_name":"Uncletopia | New York City | 3 | Stopwatch Beta | STV","players":null},{"server_id":16,"name":"Uncletopia | New York City | 4 | Community","name_short":"nyc-4","host":"nyc-1.us.uncletopia.com","port":27045,"enabled":true,"region":"us-east","cc":"us","latitude":40.73061,"longitude":-73.93524,"reserved":0,"last_update":"0001-01-01T00:00:00Z","name_a2s":"Uncletopia | New York City | 4 | Community","protocol":17,"map":"workshop/koth_ramjam_rc1.ugc459778887","folder":"tf","game":"Team Fortress","app_id":440,"player_count":3,"max_players":24,"Bots":0,"server_type":"Dedicated","server_os":"Linux","password":true,"vac":true,"version":"7757534","steam_id":85568392924742821,"keywords":["cp","nocrits","nodmgspread","uncletopia"],"game_id":440,"stv_port":27046,"stv_name":"Uncletopia | New York City | 4 | Community | STV","players":[{"user_id":5,"name":"waffleiron692","steam_id":76561199202145798,"connected_time":658000000000,"state":"active","ping":73},{"user_id":6,"name":"M16A1Sauce","steam_id":76561199058049384,"connected_time":323000000000,"state":"active","ping":57},{"user_id":7,"name":"Super D Duper","steam_id":76561198078203677,"connected_time":239000000000,"state":"active","ping":46}]},{"server_id":142,"name":"Uncletopia | S√£o Paulo | 1 | All Maps","name_short":"sao-1","host":"sao-1.br.uncletopia.com","port":27015,"enabled":true,"region":"sa","cc":"br","latitude":-23.533773,"longitude":-46.62529,"reserved":0,"last_update":"0001-01-01T00:00:00Z","name_a2s":"Uncletopia | S√£o Paulo | 1 | All Maps","protocol":17,"map":"koth_highpass","folder":"tf","game":"Team Fortress","app_id":440,"player_count":0,"max_players":24,"Bots":0,"server_type":"Dedicated","server_os":"Linux","password":true,"vac":true,"version":"7757534","steam_id":85568392924469996,"keywords":["cp","nocrits","nodmgspread","uncletopia"],"game_id":440,"stv_port":27016,"stv_name":"Uncletopia | S√£o Paulo | 1 | All Maps | STV","players":null},{"server_id":143,"name":"Uncletopia | S√£o Paulo | 2 | All Maps","name_short":"sao-2","host":"sao-2.br.uncletopia.com","port":27015,"enabled":true,"region":"sa","cc":"br","latitude":-23.533773,"longitude":-46.62529,"reserved":0,"last_update":"0001-01-01T00:00:00Z","name_a2s":"Uncletopia | S√£o Paulo | 2 | All Maps","protocol":17,"map":"pl_upward","folder":"tf","game":"Team Fortress","app_id":440,"player_count":10,"max_players":24,"Bots":0,"server_type":"Dedicated","server_os":"Linux","password":true,"vac":true,"version":"7757534","steam_id":85568392924485349,"keywords":["nocrits","nodmgspread","payload","uncletopia"],"game_id":440,"stv_port":27016,"stv_name":"Uncletopia | S√£o Paulo | 2 | All Maps | STV","players":[{"user_id":10,"name":"Meenctory","steam_id":76561198268374166,"connected_time":3143000000000,"state":"active","ping":56},{"user_id":11,"name":"dudescore","steam_id":76561199091453555,"connected_time":2961000000000,"state":"active","ping":243},{"user_id":25,"name":"Alface935","steam_id":76561199198440027,"connected_time":1180000000000,"state":"active","ping":46},{"user_id":26,"name":"Milkman","steam_id":76561199089290269,"connected_time":981000000000,"state":"active","ping":247},{"user_id":27,"name":"Vaxi [CZ]","steam_id":76561198105428295,"connected_time":301000000000,"state":"active","ping":263},{"user_id":29,"name":"CrystalSquirtle","steam_id":76561198204052717,"connected_time":182000000000,"state":"active","ping":191},{"user_id":28,"name":"DemoManCZ","steam_id":76561198086949771,"connected_time":288000000000,"state":"active","ping":263},{"user_id":24,"name":"Malverine","steam_id":76561198161441046,"connected_time":1277000000000,"state":"active","ping":60},{"user_id":30,"name":"sandrovalentinomartine","steam_id":76561199378580869,"connected_time":149000000000,"state":"spawning","ping":153},{"user_id":31,"name":"miscellaneous","steam_id":76561199436642954,"connected_time":56000000000,"state":"active","ping":229}]},{"server_id":7,"name":"Uncletopia | Seattle | 1 | All Maps","name_short":"sea-1","host":"sea-1.us.uncletopia.com","port":27015,"enabled":true,"region":"us-west","cc":"us","latitude":47.608013,"longitude":-122.33517,"reserved":0,"last_update":"0001-01-01T00:00:00Z","name_a2s":"Uncletopia | Seattle | 1 | All Maps","protocol":17,"map":"pl_frontier_final","folder":"tf","game":"Team Fortress","app_id":440,"player_count":24,"max_players":24,"Bots":0,"server_type":"Dedicated","server_os":"Linux","password":true,"vac":true,"version":"7757534","steam_id":85568392924469997,"keywords":["nocrits","nodmgspread","payload","uncletopia"],"game_id":440,"stv_port":27016,"stv_name":"Uncletopia | Seattle | 1 | All Maps | STV","players":[{"user_id":287,"name":"Mediarch","steam_id":76561198050765729,"connected_time":876000000000,"state":"active","ping":46},{"user_id":236,"name":"soda","steam_id":76561198105924953,"connected_time":5057000000000,"state":"active","ping":69},{"user_id":288,"name":"pogchampion","steam_id":76561198848661766,"connected_time":819000000000,"state":"active","ping":69},{"user_id":259,"name":"aden","steam_id":76561199083568754,"connected_time":3873000000000,"state":"active","ping":76},{"user_id":289,"name":"Evil Table Corner","steam_id":76561198045499333,"connected_time":793000000000,"state":"active","ping":102},{"user_id":285,"name":"yaoi knight","steam_id":76561199047969318,"connected_time":1161000000000,"state":"active","ping":58},{"user_id":290,"name":"5392vin","steam_id":76561198880493511,"connected_time":769000000000,"state":"active","ping":62},{"user_id":250,"name":"purple‚Ñ¢ | they/she","steam_id":76561198057459725,"connected_time":4160000000000,"state":"active","ping":45},{"user_id":304,"name":"CacoDemon","steam_id":76561199122784612,"connected_time":84000000000,"state":"active","ping":215},{"user_id":291,"name":"Goose","steam_id":76561198036774894,"connected_time":765000000000,"state":"active","ping":57},{"user_id":292,"name":"Lightish Red","steam_id":76561198060879701,"connected_time":762000000000,"state":"active","ping":93},{"user_id":293,"name":"Zeke McGeeks","steam_id":76561198067050258,"connected_time":679000000000,"state":"active","ping":39},{"user_id":294,"name":"Lime","steam_id":76561198080786408,"connected_time":612000000000,"state":"active","ping":56},{"user_id":244,"name":"Lou Wii Gee","steam_id":76561198308449320,"connected_time":4770000000000,"state":"active","ping":87},{"user_id":305,"name":"mega","steam_id":76561198089520959,"connected_time":7000000000,"state":"spawning","ping":126},{"user_id":282,"name":"lavender","steam_id":76561199069518286,"connected_time":1532000000000,"state":"active","ping":68},{"user_id":300,"name":"EDJRMorpheus95","steam_id":76561198830669778,"connected_time":299000000000,"state":"active","ping":124},{"user_id":298,"name":"‚ô• President Shitfart ‚ô•","steam_id":76561198141819053,"connected_time":458000000000,"state":"active","ping":96},{"user_id":276,"name":"weenie hut jr","steam_id":76561198206922028,"connected_time":1774000000000,"state":"active","ping":77},{"user_id":283,"name":"RagingBagon","steam_id":76561198255453127,"connected_time":1197000000000,"state":"active","ping":74},{"user_id":301,"name":"Username","steam_id":76561198855586261,"connected_time":149000000000,"state":"active","ping":61},{"user_id":272,"name":"help","steam_id":76561199056338917,"connected_time":2380000000000,"state":"active","ping":130},{"user_id":286,"name":"MegumiTame","steam_id":76561198450280686,"connected_time":1108000000000,"state":"active","ping":46},{"user_id":303,"name":"!numa","steam_id":76561198856016840,"connected_time":103000000000,"state":"active","ping":119}]},{"server_id":119,"name":"Uncletopia | Seattle | 2 | All Maps","name_short":"sea-2","host":"sea-1.us.uncletopia.com","port":27025,"enabled":true,"region":"us-west","cc":"us","latitude":47.608013,"longitude":-122.33517,"reserved":0,"last_update":"0001-01-01T00:00:00Z","name_a2s":"Uncletopia | Seattle | 2 | All Maps","protocol":17,"map":"koth_nucleus","folder":"tf","game":"Team Fortress","app_id":440,"player_count":23,"max_players":24,"Bots":0,"server_type":"Dedicated","server_os":"Linux","password":true,"vac":true,"version":"7757534","steam_id":85568392924469998,"keywords":["cp","nocrits","nodmgspread","uncletopia"],"game_id":440,"stv_port":27026,"stv_name":"Uncletopia | Seattle | 2 | All Maps | STV","players":[{"user_id":207,"name":"joe rippa","steam_id":76561198170402666,"connected_time":90000000000,"state":"active","ping":64},{"user_id":183,"name":"Shattered Glass","steam_id":76561198116835391,"connected_time":1411000000000,"state":"active","ping":145},{"user_id":184,"name":"Owl of Delos","steam_id":76561198437116566,"connected_time":1404000000000,"state":"active","ping":63},{"user_id":172,"name":"DK360","steam_id":76561198796783094,"connected_time":1830000000000,"state":"active","ping":41},{"user_id":136,"name":"PinguEnjoyer6","steam_id":76561199186723516,"connected_time":3948000000000,"state":"active","ping":63},{"user_id":206,"name":"Keamy","steam_id":76561199471434875,"connected_time":150000000000,"state":"active","ping":43},{"user_id":205,"name":"Capitalist","steam_id":76561198054534866,"connected_time":381000000000,"state":"active","ping":115},{"user_id":194,"name":"Duck nut","steam_id":76561198355475831,"connected_time":1140000000000,"state":"active","ping":89},{"user_id":173,"name":"earthbound393","steam_id":76561199444276547,"connected_time":1828000000000,"state":"active","ping":114},{"user_id":118,"name":"Rango","steam_id":76561198067275912,"connected_time":5828000000000,"state":"active","ping":96},{"user_id":185,"name":"trackpad gaming | f2p","steam_id":76561198840414371,"connected_time":1372000000000,"state":"active","ping":52},{"user_id":161,"name":"MisterManne","steam_id":76561198106598600,"connected_time":2619000000000,"state":"active","ping":57},{"user_id":51,"name":"Little Linguine","steam_id":76561198816986370,"connected_time":9755000000000,"state":"active","ping":55},{"user_id":202,"name":"cat","steam_id":76561198118751831,"connected_time":494000000000,"state":"active","ping":111},{"user_id":187,"name":"CoopIsHere112234","steam_id":76561199145266151,"connected_time":1288000000000,"state":"active","ping":38},{"user_id":188,"name":"cool beans","steam_id":76561198045758072,"connected_time":1286000000000,"state":"active","ping":60},{"user_id":191,"name":"JPMÂ≤©","steam_id":76561198043967997,"connected_time":1178000000000,"state":"active","ping":74},{"user_id":203,"name":"Lampy","steam_id":76561199196536318,"connected_time":442000000000,"state":"active","ping":112},{"user_id":190,"name":"CreativeUsername","steam_id":76561198186045503,"connected_time":1182000000000,"state":"active","ping":97},{"user_id":204,"name":"Algibruh","steam_id":76561199221599415,"connected_time":426000000000,"state":"active","ping":49},{"user_id":199,"name":"touka","steam_id":76561198171521806,"connected_time":967000000000,"state":"active","ping":70},{"user_id":201,"name":"Lucky Ninja","steam_id":76561198053366752,"connected_time":677000000000,"state":"active","ping":108},{"user_id":198,"name":"ROGUE-PLANET","steam_id":76561198116023052,"connected_time":997000000000,"state":"active","ping":76}]},{"server_id":406,"name":"Uncletopia | Seattle | 3 | Stopwatch Beta","name_short":"sea-3","host":"sea-1.us.uncletopia.com","port":27035,"enabled":true,"region":"us-west","cc":"us","latitude":47.608013,"longitude":-122.33517,"reserved":0,"last_update":"0001-01-01T00:00:00Z","name_a2s":"Uncletopia | Seattle | 3 | Stopwatch Beta","protocol":17,"map":"cp_metalworks","folder":"tf","game":"Team Fortress","app_id":440,"player_count":0,"max_players":24,"Bots":0,"server_type":"Dedicated","server_os":"Linux","password":true,"vac":true,"version":"7757534","steam_id":85568392924515217,"keywords":["cp","nocrits","nodmgspread","uncletopia"],"game_id":440,"stv_port":27036,"stv_name":"Uncletopia | Seattle | 3 | Stopwatch Beta | STV","players":null},{"server_id":17,"name":"Uncletopia | San Francisco | 1 | All Maps","name_short":"sfo-1","host":"sfo-1.us.uncletopia.com","port":27015,"enabled":true,"region":"us-west","cc":"us","latitude":37.77397,"longitude":-122.4313,"reserved":0,"last_update":"0001-01-01T00:00:00Z","name_a2s":"Uncletopia | San Francisco | 1 | All Maps","protocol":17,"map":"cp_snakewater_final1","folder":"tf","game":"Team Fortress","app_id":440,"player_count":1,"max_players":24,"Bots":0,"server_type":"Dedicated","server_os":"Linux","password":true,"vac":true,"version":"7757534","steam_id":85568392924469999,"keywords":["cp","nocrits","nodmgspread","uncletopia"],"game_id":440,"stv_port":27016,"stv_name":"Uncletopia | San Francisco | 1 | All Maps | STV","players":[{"user_id":10,"name":"PheebsyDeebsy","steam_id":76561198101509436,"connected_time":72000000000,"state":"active","ping":46}]},{"server_id":18,"name":"Uncletopia | San Francisco | 2 | All Maps","name_short":"sfo-2","host":"sfo-1.us.uncletopia.com","port":27025,"enabled":true,"region":"us-west","cc":"us","latitude":37.77397,"longitude":-122.4313,"reserved":0,"last_update":"0001-01-01T00:00:00Z","name_a2s":"Uncletopia | San Francisco | 2 | All Maps","protocol":17,"map":"koth_highpass","folder":"tf","game":"Team Fortress","app_id":440,"player_count":0,"max_players":24,"Bots":0,"server_type":"Dedicated","server_os":"Linux","password":true,"vac":true,"version":"7757534","steam_id":85568392924470000,"keywords":["cp","nocrits","nodmgspread","uncletopia"],"game_id":440,"stv_port":27026,"stv_name":"Uncletopia | San Francisco | 2 | All Maps | STV","players":null},{"server_id":19,"name":"Uncletopia | San Francisco | 3 | Stopwatch Beta","name_short":"sfo-3","host":"sfo-1.us.uncletopia.com","port":27035,"enabled":true,"region":"us-west","cc":"us","latitude":37.77397,"longitude":-122.4313,"reserved":0,"last_update":"0001-01-01T00:00:00Z","name_a2s":"Uncletopia | San Francisco | 3 | Stopwatch Beta","protocol":17,"map":"koth_lakeside_final","folder":"tf","game":"Team Fortress","app_id":440,"player_count":0,"max_players":24,"Bots":0,"server_type":"Dedicated","server_os":"Linux","password":true,"vac":true,"version":"7757534","steam_id":85568392924742824,"keywords":["cp","nocrits","nodmgspread","uncletopia"],"game_id":440,"stv_port":27036,"stv_name":"Uncletopia | San Francisco | 3 | Stopwatch Beta | STV","players":null},{"server_id":20,"name":"Uncletopia | San Francisco | 4 | Community","name_short":"sfo-4","host":"sfo-1.us.uncletopia.com","port":27045,"enabled":true,"region":"us-west","cc":"us","latitude":37.77397,"longitude":-122.4313,"reserved":0,"last_update":"0001-01-01T00:00:00Z","name_a2s":"Uncletopia | San Francisco | 4 | Community","protocol":17,"map":"workshop/pl_cashworks_final1.ugc2904065412","folder":"tf","game":"Team Fortress","app_id":440,"player_count":0,"max_players":24,"Bots":0,"server_type":"Dedicated","server_os":"Linux","password":true,"vac":true,"version":"7757534","steam_id":85568392924742826,"keywords":["nocrits","nodmgspread","payload","uncletopia"],"game_id":440,"stv_port":27046,"stv_name":"Uncletopia | San Francisco | 4 | Community | STV","players":null},{"server_id":141,"name":"Uncletopia | Sydney | 1 | All Maps","name_short":"syd-1","host":"syd-1.au.uncletopia.com","port":27015,"enabled":true,"region":"au","cc":"au","latitude":-33.865143,"longitude":151.2099,"reserved":0,"last_update":"0001-01-01T00:00:00Z","name_a2s":"Uncletopia | Sydney | 1 | All Maps","protocol":17,"map":"koth_viaduct","folder":"tf","game":"Team Fortress","app_id":440,"player_count":0,"max_players":24,"Bots":0,"server_type":"Dedicated","server_os":"Linux","password":true,"vac":true,"version":"7757534","steam_id":85568392924470001,"keywords":["cp","nocrits","nodmgspread","uncletopia"],"game_id":440,"stv_port":27016,"stv_name":"Uncletopia | Sydney | 1 | All Maps | STV","players":null},{"server_id":123,"name":"Uncletopia | Sydney | 2 | All Maps","name_short":"syd-2","host":"syd-1.au.uncletopia.com","port":27025,"enabled":true,"region":"au","cc":"au","latitude":-33.865143,"longitude":151.2099,"reserved":0,"last_update":"0001-01-01T00:00:00Z","name_a2s":"Uncletopia | Sydney | 2 | All Maps","protocol":17,"map":"cp_process_final","folder":"tf","game":"Team Fortress","app_id":440,"player_count":0,"max_players":24,"Bots":0,"server_type":"Dedicated","server_os":"Linux","password":true,"vac":true,"version":"7757534","steam_id":85568392924470002,"keywords":["cp","nocrits","nodmgspread","uncletopia"],"game_id":440,"stv_port":27026,"stv_name":"Uncletopia | Sydney | 2 | All Maps | STV","players":null},{"server_id":395,"name":"Uncletopia | Sydney | 3 | All Maps","name_short":"syd-3","host":"syd-1.au.uncletopia.com","port":27035,"enabled":true,"region":"au","cc":"au","latitude":-33.865143,"longitude":151.2099,"reserved":0,"last_update":"0001-01-01T00:00:00Z","name_a2s":"Uncletopia | Sydney | 3 | All Maps","protocol":17,"map":"pl_swiftwater_final1","folder":"tf","game":"Team Fortress","app_id":440,"player_count":0,"max_players":24,"Bots":0,"server_type":"Dedicated","server_os":"Linux","password":true,"vac":true,"version":"7757534","steam_id":85568392925194467,"keywords":["nocrits","nodmgspread","payload","uncletopia"],"game_id":440,"stv_port":27036,"stv_name":"Uncletopia | Sydney | 3 | All Maps | STV","players":null},{"server_id":396,"name":"Uncletopia | Sydney | 4 | All Maps","name_short":"syd-4","host":"syd-1.au.uncletopia.com","port":27045,"enabled":true,"region":"au","cc":"au","latitude":-33.865143,"longitude":151.2099,"reserved":0,"last_update":"0001-01-01T00:00:00Z","name_a2s":"Uncletopia | Sydney | 4 | All Maps","protocol":17,"map":"koth_highpass","folder":"tf","game":"Team Fortress","app_id":440,"player_count":0,"max_players":24,"Bots":0,"server_type":"Dedicated","server_os":"Linux","password":true,"vac":true,"version":"7757534","steam_id":85568392925397958,"keywords":["cp","nocrits","nodmgspread","uncletopia"],"game_id":440,"stv_port":27046,"stv_name":"Uncletopia | Sydney | 4 | All Maps | STV","players":null},{"server_id":58,"name":"Uncletopia | Sydney | 5 | Stopwatch Beta","name_short":"syd-5","host":"syd-1.au.uncletopia.com","port":27055,"enabled":true,"region":"au","cc":"au","latitude":-33.865143,"longitude":151.2099,"reserved":0,"last_update":"0001-01-01T00:00:00Z","name_a2s":"Uncletopia | Sydney | 5 | Stopwatch Beta","protocol":17,"map":"koth_cascade","folder":"tf","game":"Team Fortress","app_id":440,"player_count":0,"max_players":24,"Bots":0,"server_type":"Dedicated","server_os":"Linux","password":true,"vac":true,"version":"7757534","steam_id":85568392925397959,"keywords":["cp","nocrits","nodmgspread","uncletopia"],"game_id":440,"stv_port":27056,"stv_name":"Uncletopia | Sydney | 5 | Stopwatch Beta | STV","players":null},{"server_id":59,"name":"Uncletopia | Sydney | 6 | Community","name_short":"syd-6","host":"syd-1.au.uncletopia.com","port":27065,"enabled":true,"region":"au","cc":"au","latitude":-33.865143,"longitude":151.2099,"reserved":0,"last_update":"0001-01-01T00:00:00Z","name_a2s":"Uncletopia | Sydney | 6 | Community","protocol":17,"map":"cp_snakewater_final1","folder":"tf","game":"Team Fortress","app_id":440,"player_count":0,"max_players":24,"Bots":0,"server_type":"Dedicated","server_os":"Linux","password":true,"vac":true,"version":"7757534","steam_id":85568392925397960,"keywords":["cp","nocrits","nodmgspread","uncletopia"],"game_id":440,"stv_port":27066,"stv_name":"Uncletopia | Sydney | 6 | Community | STV","players":null},{"server_id":49,"name":"Uncletopia | Warsaw | 1 | All Maps","name_short":"waw-1","host":"waw-1.pl.uncletopia.com","port":27015,"enabled":true,"region":"eu","cc":"pl","latitude":52.2297,"longitude":21.017532,"reserved":0,"last_update":"0001-01-01T00:00:00Z","name_a2s":"","protocol":0,"map":"","folder":"","game":"","app_id":0,"player_count":0,"max_players":0,"Bots":0,"server_type":"","server_os":"","password":false,"vac":false,"version":"","steam_id":0,"keywords":null,"game_id":0,"stv_port":0,"stv_name":"","players":null},{"server_id":50,"name":"Uncletopia | Warsaw | 2 | All Maps","name_short":"waw-2","host":"waw-1.pl.uncletopia.com","port":27025,"enabled":true,"region":"eu","cc":"pl","latitude":52.2297,"longitude":21.017532,"reserved":0,"last_update":"0001-01-01T00:00:00Z","name_a2s":"Uncletopia | Warsaw | 2 | All Maps","protocol":17,"map":"pl_frontier_final","folder":"tf","game":"Team Fortress","app_id":440,"player_count":0,"max_players":24,"Bots":0,"server_type":"Dedicated","server_os":"Linux","password":true,"vac":true,"version":"7757534","steam_id":85568392925397851,"keywords":["nocrits","nodmgspread","payload","uncletopia"],"game_id":440,"stv_port":27026,"stv_name":"Uncletopia | Warsaw | 2 | All Maps | STV","players":null},{"server_id":51,"name":"Uncletopia | Warsaw | 3 | All Maps","name_short":"waw-3","host":"waw-1.pl.uncletopia.com","port":27035,"enabled":true,"region":"eu","cc":"pl","latitude":52.2297,"longitude":21.017532,"reserved":0,"last_update":"0001-01-01T00:00:00Z","name_a2s":"Uncletopia | Warsaw | 3 | All Maps","protocol":17,"map":"pl_badwater","folder":"tf","game":"Team Fortress","app_id":440,"player_count":0,"max_players":24,"Bots":0,"server_type":"Dedicated","server_os":"Linux","password":true,"vac":true,"version":"7757534","steam_id":85568392925397852,"keywords":["nocrits","nodmgspread","payload","uncletopia"],"game_id":440,"stv_port":27036,"stv_name":"Uncletopia | Warsaw | 3 | All Maps | STV","players":null},{"server_id":52,"name":"Uncletopia | Warsaw | 4 | All Maps","name_short":"waw-4","host":"waw-1.pl.uncletopia.com","port":27045,"enabled":true,"region":"eu","cc":"pl","latitude":52.2297,"longitude":21.017532,"reserved":0,"last_update":"0001-01-01T00:00:00Z","name_a2s":"Uncletopia | Warsaw | 4 | All Maps","protocol":17,"map":"koth_lakeside_final","folder":"tf","game":"Team Fortress","app_id":440,"player_count":0,"max_players":24,"Bots":0,"server_type":"Dedicated","server_os":"Linux","password":true,"vac":true,"version":"7757534","steam_id":85568392925397853,"keywords":["cp","nocrits","nodmgspread","uncletopia"],"game_id":440,"stv_port":27046,"stv_name":"Uncletopia | Warsaw | 4 | All Maps | STV","players":null},{"server_id":53,"name":"Uncletopia | Warsaw | 5 | Stopwatch Beta","name_short":"waw-5","host":"waw-1.pl.uncletopia.com","port":27055,"enabled":true,"region":"eu","cc":"pl","latitude":52.2297,"longitude":21.017532,"reserved":0,"last_update":"0001-01-01T00:00:00Z","name_a2s":"Uncletopia | Warsaw | 5 | Stopwatch Beta","protocol":17,"map":"pl_borneo","folder":"tf","game":"Team Fortress","app_id":440,"player_count":0,"max_players":24,"Bots":0,"server_type":"Dedicated","server_os":"Linux","password":true,"vac":true,"version":"7757534","steam_id":85568392925397854,"keywords":["nocrits","nodmgspread","payload","uncletopia"],"game_id":440,"stv_port":27056,"stv_name":"Uncletopia | Warsaw | 5 | Stopwatch Beta | STV","players":null},{"server_id":54,"name":"Uncletopia | Warsaw | 6 | Community","name_short":"waw-6","host":"waw-1.pl.uncletopia.com","port":27065,"enabled":true,"region":"eu","cc":"pl","latitude":52.2297,"longitude":21.017532,"reserved":0,"last_update":"0001-01-01T00:00:00Z","name_a2s":"Uncletopia | Warsaw | 6 | Community","protocol":17,"map":"koth_lakeside_final","folder":"tf","game":"Team Fortress","app_id":440,"player_count":0,"max_players":24,"Bots":0,"server_type":"Dedicated","server_os":"Linux","password":true,"vac":true,"version":"7757534","steam_id":85568392925397856,"keywords":["cp","nocrits","nodmgspread","uncletopia"],"game_id":440,"stv_port":27066,"stv_name":"Uncletopia | Warsaw | 6 | Community | STV","players":null}]}