{"status":true,"message":"","result":[{"server_id":9,"name":"Uncletopia | Atlanta | 1 | All Maps","name_short":"atl-1","host":"atl-1.us.uncletopia.com","port":27015,"enabled":true,"region":"us-east","cc":"us","latitude":33.753746,"longitude":-84.38633,"reserved":0,"last_update":"0001-01-01T00:00:00Z","name_a2s":"Uncletopia | Atlanta | 1 | All Maps","protocol":17,"map":"pl_upward","folder":"tf","game":"Team Fortress","app_id":440,"player_count":22,"max_players":24,"Bots":0,"server_type":"Dedicated","server_os":"Linux","password":true,"vac":true,"version":"7757534","steam_id":85568392924469982,"keywords":["nocrits","nodmgspread","payload","uncletopia"],"game_id":440,"stv_port":27016,"stv_name":"Uncletopia | Atlanta | 1 | All Maps | STV","players":[{"user_id":280,"name":"William Wallace","steam_id":76561199343316814,"connected_time":1001000000000,"state":"active","ping":56},{"user_id":288,"name":"Ashes!","steam_id":76561197998475441,"connected_time":517000000000,"state":"active","ping":75},{"user_id":245,"name":"Deeply","steam_id":76561199000786530,"connected_time":2316000000000,"state":"active","ping":87},{"user_id":263,"name":"Pizza Wario","steam_id":76561199031172409,"connected_time":1683000000000,"state":"active","ping":81},{"user_id":257,"name":"Caoticaos","steam_id":76561198114800227,"connected_time":2085000000000,"state":"active","ping":127},{"user_id":291,"name":"Dededoo","steam_id":76561198279033471,"connected_time":150000000000,"state":"active","ping":85},{"user_id":272,"name":"Error 4 Oh Four","steam_id":76561198121637567,"connected_time":1208000000000,"state":"active","ping":100},{"user_id":273,"name":"im with femboy","steam_id":76561198103496593,"connected_time":1197000000000,"state":"active","ping":44},{"user_id":274,"name":"im with stupid","steam_id":76561198406252824,"connected_time":1186000000000,"state":"active","ping":117},{"user_id":265,"name":"FREAKONALEASH","steam_id":76561199228347398,"connected_time":1529000000000,"state":"active","ping":111},{"user_id":289,"name":"basil","steam_id":76561198075758026,"connected_time":196000000000,"state":"active","ping":63},{"user_id":293,"name":"J1Hug","steam_id":76561198278432509,"connected_time":125000000000,"state":"active","ping":66},{"user_id":284,"name":"ogenez","steam_id":76561198252596234,"connected_time":916000000000,"state":"active","ping":61},{"user_id":282,"name":"Towns","steam_id":76561198984662863,"connected_time":996000000000,"state":"active","ping":57},{"user_id":276,"name":"werterioso","steam_id":76561198339254386,"connected_time":1169000000000,"state":"active","ping":133},{"user_id":277,"name":"Nitschco","steam_id":76561199276030915,"connected_time":1117000000000,"state":"active","ping":149},{"user_id":278,"name":"Non-Euclidian Beatdown","steam_id":76561199443302709,"connected_time":1116000000000,"state":"active","ping":92},{"user_id":294,"name":"a narwhal","steam_id":76561198014527353,"connected_time":89000000000,"state":"active","ping":70},{"user_id":255,"name":"indi","steam_id":76561198045917538,"connected_time":2125000000000,"state":"active","ping":60},{"user_id":235,"name":"AmC","steam_id":76561198109731140,"connected_time":3459000000000,"state":"active","ping":111},{"user_id":279,"name":"SC|Formuoli","steam_id":76561198254354595,"connected_time":1074000000000,"state":"active","ping":57},{"user_id":262,"name":"lu","steam_id":76561198080731872,"connected_time":1799000000000,"state":"active","ping":70}]},{"server_id":104,"name":"Uncletopia | Atlanta | 2 | All Maps","name_short":"atl-2","host":"atl-1.us.uncletopia.com","port":27025,"enabled":true,"region":"us-east","cc":"us","latitude":33.753746,"longitude":-84.38633,"reserved":0,"last_update":"0001-01-01T00:00:00Z","name_a2s":"Uncletopia | Atlanta | 2 | All Maps","protocol":17,"map":"koth_badlands","folder":"tf","game":"Team Fortress","app_id":440,"player_count":0,"max_players":24,"Bots":0,"server_type":"Dedicated","server_os":"Linux","password":true,"vac":true,"version":"7757534","steam_id":85568392924469983,"keywords":["cp","nocrits","nodmgspread","uncletopia"],"game_id":440,"stv_port":27026,"stv_name":"Uncletopia | Atlanta | 2 | All Maps | STV","players":null},{"server_id":400,"name":"Uncletopia | Atlanta | 3 | Community","name_short":"atl-3","host":"atl-1.us.uncletopia.com","port":27035,"enabled":true,"region":"us-east","cc":"us","latitude":33.753746,"longitude":-84.38633,"reserved":0,"last_update":"0001-01-01T00:00:00Z","name_a2s":"Uncletopia | Atlanta | 3 | Community","protocol":17,"map":"workshop/koth_synthetic_rc6a.ugc1549817316","folder":"tf","game":"Team Fortress","app_id":440,"player_count":0,"max_players":24,"Bots":0,"server_type":"Dedicated","server_os":"Linux","password":true,"vac":true,"version":"7757534","steam_id":85568392924515187,"keywords":["cp","nocrits","nodmgspread","uncletopia"],"game_id":440,"stv_port":27036,"stv_name":"Uncletopia | Atlanta | 3 | Community | STV","players":null},{"server_id":401,"name":"Uncletopia | Atlanta | 4 | No Payload","name_short":"atl-4","host":"atl-1.us.uncletopia.com","port":27045,"enabled":true,"region":"us-east","cc":"us","latitude":33.753746,"longitude":-84.38633,"reserved":0,"last_update":"0001-01-01T00:00:00Z","name_a2s":"","protocol":0,"map":"","folder":"","game":"","app_id":0,"player_count":0,"max_players":0,"Bots":0,"server_type":"","server_os":"","password":false,"vac":false,"version":"","steam_id":0,"keywords":null,"game_id":0,"stv_port":0,"stv_name":"","players":null},{"server_id":2,"name":"Uncletopia | Chicago | 1 | All Maps","name_short":"chi-1","host":"chi-1.us.uncletopia.com","port":27015,"enabled":true,"region":"us-central","cc":"us","latitude":41.881832,"longitude":-87.62318,"reserved":0,"last_update":"0001-01-01T00:00:00Z","name_a2s":"Uncletopia | Chicago | 1 | All Maps","protocol":17,"map":"pl_barnblitz","folder":"tf","game":"Team Fortress","app_id":440,"player_count":24,"max_players":24,"Bots":0,"server_type":"Dedicated","server_os":"Linux","password":true,"vac":true,"version":"7757534","steam_id":85568392924469984,"keywords":["nocrits","nodmgspread","payload","uncletopia"],"game_id":440,"stv_port":27016,"stv_name":"Uncletopia | Chicago | 1 | All Maps | STV","players":[{"user_id":180,"name":"Don Day el Bano","steam_id":76561198392985381,"connected_time":1611000000000,"state":"active","ping":118},{"user_id":178,"name":"Smoky","steam_id":76561198041551259,"connected_time":1724000000000,"state":"active","ping":173},{"user_id":181,"name":"RainbowLlama","steam_id":76561198129467214,"connected_time":1557000000000,"state":"active","ping":164},{"user_id":152,"name":"heisenburger","steam_id":76561198986534519,"connected_time":4103000000000,"state":"active","ping":85},{"user_id":187,"name":"Piss Champion","steam_id":76561198059362878,"connected_time":1293000000000,"state":"active","ping":45},{"user_id":179,"name":"THE GLONG!","steam_id":76561199097050224,"connected_time":1665000000000,"state":"active","ping":78},{"user_id":182,"name":"bananalover5","steam_id":76561199143854578,"connected_time":1552000000000,"state":"active","ping":78},{"user_id":175,"name":"charm quark","steam_id":76561198098770777,"connected_time":1797000000000,"state":"active","ping":100},{"user_id":190,"name":"poato","steam_id":76561198325865082,"connected_time":608000000000,"state":"active","ping":72},{"user_id":168,"name":"Jared Fogle from Prison","steam_id":76561198111259720,"connected_time":2465000000000,"state":"active","ping":62},{"user_id":163,"name":"tyg","steam_id":76561198056246867,"connected_time":3121000000000,"state":"active","ping":74},{"user_id":191,"name":"n√Æsh√©‚Ñ¢ #saveTF2","steam_id":76561198046869760,"connected_time":333000000000,"state":"active","ping":48},{"user_id":183,"name":"Bon Gripper","steam_id":76561198090074621,"connected_time":1545000000000,"state":"active","ping":65},{"user_id":23,"name":"grimp gromp","steam_id":76561199267535506,"connected_time":14041000000000,"state":"active","ping":80},{"user_id":112,"name":"Ejaculation Zach","steam_id":76561198203765200,"connected_time":6772000000000,"state":"active","ping":62},{"user_id":184,"name":"felted","steam_id":76561198099507130,"connected_time":1537000000000,"state":"active","ping":175},{"user_id":29,"name":"177013","steam_id":76561198072303290,"connected_time":13834000000000,"state":"active","ping":63},{"user_id":115,"name":"heavy guy","steam_id":76561197984047460,"connected_time":6309000000000,"state":"active","ping":54},{"user_id":160,"name":"Crazed Gunman loose in Walmart","steam_id":76561198413125750,"connected_time":3260000000000,"state":"active","ping":65},{"user_id":159,"name":"Jared In Target","steam_id":76561198372449718,"connected_time":3588000000000,"state":"active","ping":71},{"user_id":156,"name":"tablepiN","steam_id":76561198348930428,"connected_time":4035000000000,"state":"active","ping":70},{"user_id":189,"name":"StrandedDonnie","steam_id":76561198273529989,"connected_time":1001000000000,"state":"active","ping":115},{"user_id":185,"name":"Mr. Dick‚Ñ¢","steam_id":76561198047309044,"connected_time":1536000000000,"state":"active","ping":60},{"user_id":188,"name":"DonutDinner54","steam_id":76561199010542612,"connected_time":1230000000000,"state":"active","ping":102}]},{"server_id":106,"name":"Uncletopia | Chicago | 2 | All Maps","name_short":"chi-2","host":"chi-1.us.uncletopia.com","port":27025,"enabled":true,"region":"us-central","cc":"us","latitude":41.881832,"longitude":-87.62318,"reserved":0,"last_update":"0001-01-01T00:00:00Z","name_a2s":"Uncletopia | Chicago | 2 | All Maps","protocol":17,"map":"pl_frontier_final","folder":"tf","game":"Team Fortress","app_id":440,"player_count":20,"max_players":24,"Bots":0,"server_type":"Dedicated","server_os":"Linux","password":true,"vac":true,"version":"7757534","steam_id":85568392924469985,"keywords":["nocrits","nodmgspread","payload","uncletopia"],"game_id":440,"stv_port":27026,"stv_name":"Uncletopia | Chicago | 2 | All Maps | STV","players":[{"user_id":200,"name":"juhg, koop","steam_id":76561198388955908,"connected_time":261000000000,"state":"active","ping":68},{"user_id":154,"name":"SoundSmith","steam_id":76561198936412406,"connected_time":4665000000000,"state":"active","ping":84},{"user_id":151,"name":"Kritzburgh","steam_id":76561198149466938,"connected_time":5369000000000,"state":"active","ping":63},{"user_id":191,"name":"N0SNitro","steam_id":76561198026157327,"connected_time":1098000000000,"state":"active","ping":63},{"user_id":179,"name":"TheGreatDong","steam_id":76561198000634178,"connected_time":2422000000000,"state":"active","ping":195},{"user_id":74,"name":"Cliff Uppercut","steam_id":76561197999439391,"connected_time":11412000000000,"state":"active","ping":179},{"user_id":157,"name":"bussy destroyer","steam_id":76561199471715987,"connected_time":4437000000000,"state":"active","ping":62},{"user_id":195,"name":"sigma male grindset","steam_id":76561198086090527,"connected_time":317000000000,"state":"active","ping":55},{"user_id":198,"name":"st3shk4a","steam_id":76561198025322638,"connected_time":284000000000,"state":"active","ping":87},{"user_id":192,"name":"auts","steam_id":76561198055198646,"connected_time":540000000000,"state":"active","ping":72},{"user_id":203,"name":"nat","steam_id":76561198865090309,"connected_time":176000000000,"state":"active","ping":78},{"user_id":201,"name":"FortressGamer #SaveTF2","steam_id":76561198144049265,"connected_time":251000000000,"state":"active","ping":82},{"user_id":189,"name":"GamerMan","steam_id":76561199058616824,"connected_time":1331000000000,"state":"active","ping":69},{"user_id":183,"name":"golem","steam_id":76561198355040593,"connected_time":1817000000000,"state":"active","ping":73},{"user_id":98,"name":"Ajax","steam_id":76561197962240140,"connected_time":10206000000000,"state":"active","ping":70},{"user_id":181,"name":"AnonymousCritter","steam_id":76561198864475187,"connected_time":2227000000000,"state":"active","ping":52},{"user_id":202,"name":"blitzibb","steam_id":76561198109469469,"connected_time":251000000000,"state":"active","ping":114},{"user_id":190,"name":"Slingwolf","steam_id":76561198132720460,"connected_time":1321000000000,"state":"active","ping":111},{"user_id":171,"name":"Red","steam_id":76561198082958231,"connected_time":3390000000000,"state":"active","ping":65}]},{"server_id":402,"name":"Uncletopia | Chicago | 3 | All Maps","name_short":"chi-3","host":"chi-1.us.uncletopia.com","port":27035,"enabled":true,"region":"us-central","cc":"us","latitude":41.881832,"longitude":-87.62318,"reserved":0,"last_update":"0001-01-01T00:00:00Z","name_a2s":"Uncletopia | Chicago | 3 | All Maps","protocol":17,"map":"cp_sunshine","folder":"tf","game":"Team Fortress","app_id":440,"player_count":0,"max_players":24,"Bots":0,"server_type":"Dedicated","server_os":"Linux","password":true,"vac":true,"version":"7757534","steam_id":85568392924515191,"keywords":["cp","nocrits","nodmgspread","uncletopia"],"game_id":440,"stv_port":27036,"stv_name":"Uncletopia | Chicago | 3 | All Maps | STV","players":null},{"server_id":403,"name":"Uncletopia | Chicago | 4 | All Maps","name_short":"chi-4","host":"chi-1.us.uncletopia.com","port":27045,"enabled":true,"region":"us-central","cc":"us","latitude":41.881832,"longitude":-87.62318,"reserved":0,"last_update":"0001-01-01T00:00:00Z","name_a2s":"Uncletopia | Chicago | 4 | All Maps","protocol":17,"map":"pl_badwater","folder":"tf","game":"Team Fortress","app_id":440,"player_count":24,"max_players":24,"Bots":0,"server_type":"Dedicated","server_os":"Linux","password":true,"vac":true,"version":"7757534","steam_id":85568392924515193,"keywords":["nocrits","nodmgspread","payload","uncletopia"],"game_id":440,"stv_port":27046,"stv_name":"Uncletopia | Chicago | 4 | All Maps | STV","players":[{"user_id":64,"name":"Tlaloc","steam_id":76561198375215983,"connected_time":533000000000,"state":"active","ping":116},{"user_id":56,"name":"Spore_Captain","steam_id":76561198060839271,"connected_time":997000000000,"state":"active","ping":72},{"user_id":59,"name":"rumidog","steam_id":76561198046896005,"connected_time":979000000000,"state":"active","ping":85},{"user_id":12,"name":"Nelson Your F2p Friend","steam_id":76561198850327678,"connected_time":3711000000000,"state":"active","ping":191},{"user_id":62,"name":"Majestic-A","steam_id":76561198988062101,"connected_time":895000000000,"state":"active","ping":93},{"user_id":50,"name":"penguinlord","steam_id":76561198305192692,"connected_time":1630000000000,"state":"active","ping":60},{"user_id":42,"name":"Katy","steam_id":76561198079395814,"connected_time":2108000000000,"state":"active","ping":170},{"user_id":61,"name":"MeatShield 2000","steam_id":76561199375192850,"connected_time":957000000000,"state":"active","ping":97},{"user_id":38,"name":"LovingKindnesz","steam_id":76561199064932372,"connected_time":2257000000000,"state":"active","ping":104},{"user_id":47,"name":"Zandzz","steam_id":76561198083918902,"connected_time":1717000000000,"state":"active","ping":153},{"user_id":40,"name":"feenman","steam_id":76561199383834799,"connected_time":2141000000000,"state":"active","ping":101},{"user_id":41,"name":"Mikeonut","steam_id":76561198305752102,"connected_time":2140000000000,"state":"active","ping":97},{"user_id":63,"name":"Vimh","steam_id":76561198384938589,"connected_time":720000000000,"state":"active","ping":95},{"user_id":67,"name":"recycle","steam_id":76561198819562111,"connected_time":337000000000,"state":"active","ping":74},{"user_id":66,"name":"Its Dr.Stoned","steam_id":76561198079622791,"connected_time":356000000000,"state":"active","ping":75},{"user_id":57,"name":"Blud walked 0 miles üò≠üò≠\ufffd\ufffd\ufffd","steam_id":76561199285074344,"connected_time":996000000000,"state":"active","ping":60},{"user_id":30,"name":"kiracaroso","steam_id":76561198165859543,"connected_time":2774000000000,"state":"active","ping":196},{"user_id":31,"name":"Parker","steam_id":76561198046044893,"connected_time":2755000000000,"state":"active","ping":53},{"user_id":32,"name":"Judy Hopps‚Ñ¢ Simp","steam_id":76561198029322539,"connected_time":2707000000000,"state":"active","ping":200},{"user_id":58,"name":"Rornir","steam_id":76561198081829615,"connected_time":995000000000,"state":"active","ping":39},{"user_id":49,"name":"Sh/7 Stain","steam_id":76561198408817739,"connected_time":1661000000000,"state":"active","ping":60},{"user_id":35,"name":"Deltaco","steam_id":76561198094572694,"connected_time":2645000000000,"state":"active","ping":120},{"user_id":37,"name":"Heroofchaos","steam_id":76561199106660090,"connected_time":2619000000000,"state":"active","ping":76},{"user_id":60,"name":"caljay","steam_id":76561198059257854,"connected_time":974000000000,"state":"active","ping":57}]},{"server_id":36,"name":"Uncletopia | Chicago | 5 | All Maps","name_short":"chi-5","host":"chi-2.us.uncletopia.com","port":27015,"enabled":true,"region":"us-central","cc":"us","latitude":41.881832,"longitude":-87.62318,"reserved":0,"last_update":"0001-01-01T00:00:00Z","name_a2s":"Uncletopia | Chicago | 5 | All Maps","protocol":17,"map":"koth_cascade","folder":"tf","game":"Team Fortress","app_id":440,"player_count":0,"max_players":24,"Bots":0,"server_type":"Dedicated","server_os":"Linux","password":true,"vac":true,"version":"7757534","steam_id":85568392924866362,"keywords":["cp","nocrits","nodmgspread","uncletopia"],"game_id":440,"stv_port":27016,"stv_name":"Uncletopia | Chicago | 5 | All Maps | STV","players":null},{"server_id":37,"name":"Uncletopia | Chicago | 6 | All Maps","name_short":"chi-6","host":"chi-2.us.uncletopia.com","port":27025,"enabled":true,"region":"us-central","cc":"us","latitude":41.881832,"longitude":-87.62318,"reserved":0,"last_update":"0001-01-01T00:00:00Z","name_a2s":"Uncletopia | Chicago | 6 | All Maps","protocol":17,"map":"cp_dustbowl","folder":"tf","game":"Team Fortress","app_id":440,"player_count":0,"max_players":24,"Bots":0,"server_type":"Dedicated","server_os":"Linux","password":true,"vac":true,"version":"7757534","steam_id":85568392924866363,"keywords":["cp","nocrits","nodmgspread","uncletopia"],"game_id":440,"stv_port":27026,"stv_name":"Uncletopia | Chicago | 6 | All Maps | STV","players":null},{"server_id":38,"name":"Uncletopia | Chicago | 7 | Stopwatch Beta","name_short":"chi-7","host":"chi-2.us.uncletopia.com","port":27035,"enabled":true,"region":"us-central","cc":"us","latitude":41.881832,"longitude":-87.62318,"reserved":0,"last_update":"0001-01-01T00:00:00Z","name_a2s":"Uncletopia | Chicago | 7 | Stopwatch Beta","protocol":17,"map":"pl_barnblitz","folder":"tf","game":"Team Fortress","app_id":440,"player_count":0,"max_players":24,"Bots":0,"server_type":"Dedicated","server_os":"Linux","password":true,"vac":true,"version":"7757534","steam_id":85568392924866364,"keywords":["nocrits","nodmgspread","payload","uncletopia"],"game_id":440,"stv_port":27036,"stv_name":"Uncletopia | Chicago | 7 | Stopwatch Beta | STV","players":null},{"server_id":39,"name":"Uncletopia | Chicago | 8 | Community","name_short":"chi-8","host":"chi-2.us.uncletopia.com","port":27045,"enabled":true,"region":"us-central","cc":"us","latitude":41.881832,"longitude":-87.62318,"reserved":0,"last_update":"0001-01-01T00:00:00Z","name_a2s":"Uncletopia | Chicago | 8 | Community","protocol":17,"map":"koth_cascade","folder":"tf","game":"Team Fortress","app_id":440,"player_count":0,"max_players":24,"Bots":0,"server_type":"Dedicated","server_os":"Linux","password":true,"vac":true,"version":"7757534","steam_id":85568392924866365,"keywords":["cp","nocrits","nodmgspread","uncletopia"],"game_id":440,"stv_port":27046,"stv_name":"Uncletopia | Chicago | 8 | Community | STV","players":null},{"server_id":8,"name":"Uncletopia | Dallas | 1 | All Maps","name_short":"dal-1","host":"dal-1.us.uncletopia.com","port":27015,"enabled":true,"region":"us-central","cc":"us","latitude":32.779167,"longitude":-96.80889,"reserved":0,"last_update":"0001-01-01T00:00:00Z","name_a2s":"Uncletopia | Dallas | 1 | All Maps","protocol":17,"map":"pl_pier","folder":"tf","game":"Team Fortress","app_id":440,"player_count":24,"max_players":24,"Bots":0,"server_type":"Dedicated","server_os":"Linux","password":true,"vac":true,"version":"7757534","steam_id":85568392924469986,"keywords":["nocrits","nodmgspread","payload","uncletopia"],"game_id":440,"stv_port":27016,"stv_name":"Uncletopia | Dallas | 1 | All Maps | STV","players":[{"user_id":56,"name":"Cepheid","steam_id":76561198093333511,"connected_time":827000000000,"state":"active","ping":77},{"user_id":23,"name":"carp","steam_id":76561198262554336,"connected_time":2005000000000,"state":"active","ping":178},{"user_id":62,"name":"lost in spaaaaace","steam_id":76561199085974120,"connected_time":724000000000,"state":"active","ping":88},{"user_id":13,"name":"Engineer Gaming","steam_id":76561198840761529,"connected_time":3276000000000,"state":"active","ping":58},{"user_id":76,"name":"BAINS BIANS BAINS MUAHHAA BAINS","steam_id":76561199228410814,"connected_time":42000000000,"state":"active","ping":79},{"user_id":57,"name":"trobin120","steam_id":76561199122420273,"connected_time":803000000000,"state":"active","ping":79},{"user_id":67,"name":"double tap 2.0","steam_id":76561198062146253,"connected_time":553000000000,"state":"active","ping":100},{"user_id":72,"name":"MAJICBUCKET","steam_id":76561198825268471,"connected_time":78000000000,"state":"active","ping":97},{"user_id":59,"name":"ole_diggy","steam_id":76561198970212746,"connected_time":796000000000,"state":"active","ping":88},{"user_id":68,"name":"Sparky","steam_id":76561198114574421,"connected_time":512000000000,"state":"active","ping":87},{"user_id":70,"name":"Unreliable Narrator","steam_id":76561198021303959,"connected_time":240000000000,"state":"active","ping":77},{"user_id":73,"name":"Garfield","steam_id":76561198037803087,"connected_time":74000000000,"state":"active","ping":65},{"user_id":64,"name":"W00FR","steam_id":76561198010635986,"connected_time":678000000000,"state":"active","ping":90},{"user_id":34,"name":"god gamer","steam_id":76561198168149434,"connected_time":1715000000000,"state":"active","ping":129},{"user_id":43,"name":"Lord GabeN","steam_id":76561198140862723,"connected_time":1579000000000,"state":"active","ping":86},{"user_id":65,"name":"Lepa Radiƒá","steam_id":76561198014698593,"connected_time":641000000000,"state":"active","ping":148},{"user_id":45,"name":"VixianUwU „ÉÉ ‚ù§","steam_id":76561198948815060,"connected_time":1539000000000,"state":"active","ping":75},{"user_id":50,"name":"rip ghost mountain","steam_id":76561198357132470,"connected_time":1283000000000,"state":"active","ping":97},{"user_id":75,"name":"mago -iA-","steam_id":76561198880309324,"connected_time":54000000000,"state":"active","ping":92},{"user_id":77,"name":"nnobi","steam_id":76561198878729277,"connected_time":25000000000,"state":"active","ping":76},{"user_id":54,"name":"Batarmaneus Butt Fart III","steam_id":76561198844434119,"connected_time":863000000000,"state":"active","ping":73},{"user_id":74,"name":"Dejected Jester","steam_id":76561197972171675,"connected_time":70000000000,"state":"active","ping":60},{"user_id":52,"name":"Grilled Cheese Obama Sandwich","steam_id":76561199129002905,"connected_time":1141000000000,"state":"active","ping":84},{"user_id":47,"name":"[DEEP] offrow","steam_id":76561198123596791,"connected_time":1503000000000,"state":"active","ping":75}]},{"server_id":108,"name":"Uncletopia | Dallas | 2 | All Maps","name_short":"dal-2","host":"dal-1.us.uncletopia.com","port":27025,"enabled":true,"region":"us-central","cc":"us","latitude":32.779167,"longitude":-96.80889,"reserved":0,"last_update":"0001-01-01T00:00:00Z","name_a2s":"Uncletopia | Dallas | 2 | All Maps","protocol":17,"map":"cp_mountainlab","folder":"tf","game":"Team Fortress","app_id":440,"player_count":0,"max_players":24,"Bots":0,"server_type":"Dedicated","server_os":"Linux","password":true,"vac":true,"version":"7757534","steam_id":85568392924469988,"keywords":["cp","nocrits","nodmgspread","uncletopia"],"game_id":440,"stv_port":27026,"stv_name":"Uncletopia | Dallas | 2 | All Maps | STV","players":null},{"server_id":5,"name":"Uncletopia | Frankfurt | 1 | All Maps","name_short":"frk-1","host":"frk-1.de.uncletopia.com","port":27015,"enabled":true,"region":"eu","cc":"de","latitude":50.110924,"longitude":8.682127,"reserved":0,"last_update":"0001-01-01T00:00:00Z","name_a2s":"Uncletopia | Frankfurt | 1 | All Maps","protocol":17,"map":"pl_badwater","folder":"tf","game":"Team Fortress","app_id":440,"player_count":23,"max_players":24,"Bots":0,"server_type":"Dedicated","server_os":"Linux","password":true,"vac":true,"version":"7757534","steam_id":85568392924469989,"keywords":["nocrits","nodmgspread","payload","uncletopia"],"game_id":440,"stv_port":27016,"stv_name":"Uncletopia | Frankfurt | 1 | All Maps | STV","players":[{"user_id":168,"name":"kadayifpro124","steam_id":76561198159462501,"connected_time":1664000000000,"state":"active","ping":71},{"user_id":172,"name":"Errrrrm","steam_id":76561198178802211,"connected_time":1591000000000,"state":"active","ping":81},{"user_id":188,"name":"tm","steam_id":76561198256619964,"connected_time":600000000000,"state":"active","ping":79},{"user_id":189,"name":"ransuS","steam_id":76561198352769801,"connected_time":228000000000,"state":"active","ping":60},{"user_id":191,"name":"Deadly Queen","steam_id":76561198352144873,"connected_time":176000000000,"state":"active","ping":72},{"user_id":193,"name":"9o6o","steam_id":76561198194080319,"connected_time":150000000000,"state":"active","ping":71},{"user_id":187,"name":"Naginacz","steam_id":76561199099232534,"connected_time":1149000000000,"state":"active","ping":62},{"user_id":162,"name":"KillerQueen (he/they/she)","steam_id":76561199019399725,"connected_time":1801000000000,"state":"active","ping":60},{"user_id":194,"name":"Cherinaifu #SaveTF2","steam_id":76561198345158754,"connected_time":126000000000,"state":"spawning","ping":80},{"user_id":182,"name":"stock piano music","steam_id":76561198163244605,"connected_time":1260000000000,"state":"active","ping":76},{"user_id":190,"name":"Kleiner Engel","steam_id":76561198009922500,"connected_time":224000000000,"state":"active","ping":101},{"user_id":106,"name":"giclure :;","steam_id":76561197986362828,"connected_time":5736000000000,"state":"active","ping":61},{"user_id":164,"name":"willus212","steam_id":76561199182615246,"connected_time":1760000000000,"state":"active","ping":87},{"user_id":195,"name":"Septicmotion","steam_id":76561199090085056,"connected_time":122000000000,"state":"active","ping":76},{"user_id":198,"name":"C.H.E.R.E.P.","steam_id":76561198026938595,"connected_time":76000000000,"state":"active","ping":82},{"user_id":185,"name":"CAMON ENGELAND","steam_id":76561198054301125,"connected_time":1230000000000,"state":"active","ping":98},{"user_id":166,"name":"Lorelei","steam_id":76561198056341754,"connected_time":1750000000000,"state":"active","ping":45},{"user_id":200,"name":"Mr. Hunts","steam_id":76561197981910397,"connected_time":54000000000,"state":"active","ping":63},{"user_id":176,"name":"Miss.Sparklez","steam_id":76561198101745576,"connected_time":1525000000000,"state":"active","ping":58},{"user_id":199,"name":"Phanto-","steam_id":76561199110557595,"connected_time":73000000000,"state":"active","ping":192},{"user_id":186,"name":"Soyboy","steam_id":76561198053885716,"connected_time":1230000000000,"state":"active","ping":85},{"user_id":125,"name":"clouds","steam_id":76561198111134021,"connected_time":4485000000000,"state":"active","ping":75},{"user_id":181,"name":"Duck","steam_id":76561198841587079,"connected_time":1449000000000,"state":"active","ping":64}]},{"server_id":110,"name":"Uncletopia | Frankfurt | 2 | All Maps","name_short":"frk-2","host":"frk-1.de.uncletopia.com","port":27025,"enabled":true,"region":"eu","cc":"de","latitude":50.110924,"longitude":8.682127,"reserved":0,"last_update":"0001-01-01T00:00:00Z","name_a2s":"Uncletopia | Frankfurt | 2 | All Maps","protocol":17,"map":"koth_lakeside_final","folder":"tf","game":"Team Fortress","app_id":440,"player_count":0,"max_players":24,"Bots":0,"server_type":"Dedicated","server_os":"Linux","password":true,"vac":true,"version":"7757534","steam_id":85568392924469990,"keywords":["cp","nocrits","nodmgspread","uncletopia"],"game_id":440,"stv_port":27026,"stv_name":"Uncletopia | Frankfurt | 2 | All Maps | STV","players":null},{"server_id":308,"name":"Uncletopia | Frankfurt | 3 | All Maps","name_short":"frk-3","host":"frk-1.de.uncletopia.com","port":27035,"enabled":true,"region":"eu","cc":"de","latitude":50.110924,"longitude":8.682127,"reserved":0,"last_update":"0001-01-01T00:00:00Z","name_a2s":"Uncletopia | Frankfurt | 3 | All Maps","protocol":17,"map":"pl_borneo","folder":"tf","game":"Team Fortress","app_id":440,"player_count":24,"max_players":24,"Bots":0,"server_type":"Dedicated","server_os":"Linux","password":true,"vac":true,"version":"7757534","steam_id":85568392924504274,"keywords":["nocrits","nodmgspread","payload","uncletopia"],"game_id":440,"stv_port":27036,"stv_name":"Uncletopia | Frankfurt | 3 | All Maps | STV","players":[{"user_id":326,"name":"Gorogaz","steam_id":76561198207157679,"connected_time":7435000000000,"state":"active","ping":61},{"user_id":428,"name":"Krefa12","steam_id":76561198268375393,"connected_time":12000000000,"state":"active","ping":99},{"user_id":417,"name":"Cookies and Bakies","steam_id":76561198017442928,"connected_time":396000000000,"state":"active","ping":83},{"user_id":426,"name":"citronous","steam_id":76561198093290934,"connected_time":122000000000,"state":"active","ping":52},{"user_id":427,"name":"369","steam_id":76561198149967445,"connected_time":59000000000,"state":"active","ping":47},{"user_id":409,"name":"Koli","steam_id":76561197992428783,"connected_time":1289000000000,"state":"active","ping":46},{"user_id":391,"name":"Rambi","steam_id":76561199058078505,"connected_time":2388000000000,"state":"active","ping":149},{"user_id":412,"name":"ASAP","steam_id":76561198322078500,"connected_time":1007000000000,"state":"active","ping":132},{"user_id":414,"name":"Wardruna96","steam_id":76561199057083828,"connected_time":483000000000,"state":"active","ping":89},{"user_id":387,"name":"Usame bin Muhammed","steam_id":76561199198844185,"connected_time":3203000000000,"state":"active","ping":76},{"user_id":389,"name":"CiVillain","steam_id":76561198059617732,"connected_time":2825000000000,"state":"active","ping":57},{"user_id":413,"name":"WolfmanCZ","steam_id":76561199157141414,"connected_time":644000000000,"state":"active","ping":69},{"user_id":408,"name":"poo brother","steam_id":76561199368726811,"connected_time":1548000000000,"state":"active","ping":80},{"user_id":416,"name":"Matael","steam_id":76561198452200894,"connected_time":441000000000,"state":"active","ping":72},{"user_id":429,"name":"night.s","steam_id":76561198326287823,"connected_time":4000000000,"state":"spawning","ping":74},{"user_id":366,"name":"Solymr ibn Wali Barad","steam_id":76561198044008976,"connected_time":4427000000000,"state":"active","ping":72},{"user_id":404,"name":"hbivnm","steam_id":76561197996468677,"connected_time":1648000000000,"state":"active","ping":59},{"user_id":410,"name":"Fish 'n' Chips","steam_id":76561198033476886,"connected_time":1280000000000,"state":"active","ping":46},{"user_id":254,"name":"Devil","steam_id":76561198129721935,"connected_time":12511000000000,"state":"active","ping":88},{"user_id":421,"name":"brtaba","steam_id":76561198796334790,"connected_time":266000000000,"state":"active","ping":63},{"user_id":422,"name":"etc","steam_id":76561197998394797,"connected_time":260000000000,"state":"active","ping":63},{"user_id":286,"name":"Smoke","steam_id":76561198140627349,"connected_time":9790000000000,"state":"active","ping":152},{"user_id":424,"name":"2BCD","steam_id":76561198178254946,"connected_time":223000000000,"state":"active","ping":67},{"user_id":430,"name":"toast with butter","steam_id":76561198044824504,"connected_time":0,"state":"spawning","ping":29}]},{"server_id":309,"name":"Uncletopia | Frankfurt | 4 | All Maps","name_short":"frk-4","host":"frk-1.de.uncletopia.com","port":27045,"enabled":true,"region":"eu","cc":"de","latitude":50.110924,"longitude":8.682127,"reserved":0,"last_update":"0001-01-01T00:00:00Z","name_a2s":"Uncletopia | Frankfurt | 4 | All Maps","protocol":17,"map":"koth_viaduct","folder":"tf","game":"Team Fortress","app_id":440,"player_count":0,"max_players":24,"Bots":0,"server_type":"Dedicated","server_os":"Linux","password":true,"vac":true,"version":"7757534","steam_id":85568392924504275,"keywords":["cp","nocrits","nodmgspread","uncletopia"],"game_id":440,"stv_port":27046,"stv_name":"Uncletopia | Frankfurt | 4 | All Maps | STV","players":null},{"server_id":310,"name":"Uncletopia | Frankfurt | 5 | All Maps","name_short":"frk-5","host":"frk-1.de.uncletopia.com","port":27055,"enabled":true,"region":"eu","cc":"de","latitude":50.110924,"longitude":8.682127,"reserved":0,"last_update":"0001-01-01T00:00:00Z","name_a2s":"Uncletopia | Frankfurt | 5 | All Maps","protocol":17,"map":"pl_barnblitz","folder":"tf","game":"Team Fortress","app_id":440,"player_count":24,"max_players":24,"Bots":0,"server_type":"Dedicated","server_os":"Linux","password":true,"vac":true,"version":"7757534","steam_id":85568392924504277,"keywords":["nocrits","nodmgspread","payload","uncletopia"],"game_id":440,"stv_port":27056,"stv_name":"Uncletopia | Frankfurt | 5 | All Maps | STV","players":[{"user_id":318,"name":"Ziltoid","steam_id":76561198020753675,"connected_time":702000000000,"state":"active","ping":62},{"user_id":263,"name":"sAmasam","steam_id":76561198114953928,"connected_time":3565000000000,"state":"active","ping":60},{"user_id":325,"name":"Pingus","steam_id":76561198164880756,"connected_time":227000000000,"state":"active","ping":72},{"user_id":307,"name":"Gabys","steam_id":76561198282892553,"connected_time":1694000000000,"state":"active","ping":72},{"user_id":288,"name":"Tekky","steam_id":76561197990987315,"connected_time":2483000000000,"state":"active","ping":53},{"user_id":289,"name":"Spieller","steam_id":76561198057197847,"connected_time":2480000000000,"state":"active","ping":77},{"user_id":290,"name":"The Fellow Feller","steam_id":76561198188864306,"connected_time":2446000000000,"state":"active","ping":68},{"user_id":221,"name":"Moobin","steam_id":76561198099999156,"connected_time":5302000000000,"state":"active","ping":73},{"user_id":267,"name":"t0ksi","steam_id":76561198107240798,"connected_time":3320000000000,"state":"active","ping":65},{"user_id":321,"name":"Swedish Vegan","steam_id":76561198042775020,"connected_time":538000000000,"state":"active","ping":76},{"user_id":229,"name":"I hate binkson","steam_id":76561198057403817,"connected_time":5087000000000,"state":"active","ping":72},{"user_id":317,"name":"Doriian","steam_id":76561198071438810,"connected_time":739000000000,"state":"active","ping":87},{"user_id":303,"name":"Aximus","steam_id":76561198024575710,"connected_time":2133000000000,"state":"active","ping":69},{"user_id":249,"name":"akademia UPO","steam_id":76561199238754087,"connected_time":4132000000000,"state":"active","ping":116},{"user_id":322,"name":"noobdog","steam_id":76561198036486671,"connected_time":525000000000,"state":"active","ping":66},{"user_id":327,"name":"Wacka Wacka","steam_id":76561198146194820,"connected_time":33000000000,"state":"active","ping":57},{"user_id":311,"name":"a straight white male","steam_id":76561198381120660,"connected_time":1609000000000,"state":"active","ping":89},{"user_id":312,"name":"Comrade Sprinkles","steam_id":76561198035672576,"connected_time":1598000000000,"state":"active","ping":72},{"user_id":323,"name":":weed:","steam_id":76561198388750592,"connected_time":521000000000,"state":"active","ping":58},{"user_id":294,"name":"Dark Wizart","steam_id":76561198377689439,"connected_time":2407000000000,"state":"active","ping":70},{"user_id":314,"name":"Quacksterhand","steam_id":76561197999080808,"connected_time":1019000000000,"state":"active","ping":86},{"user_id":316,"name":"a Regurar Barroon","steam_id":76561198834913692,"connected_time":944000000000,"state":"active","ping":73},{"user_id":305,"name":"Mental","steam_id":76561198057117092,"connected_time":1855000000000,"state":"active","ping":53},{"user_id":320,"name":"My left foot itches","steam_id":76561198078411001,"connected_time":662000000000,"state":"active","ping":77}]},{"server_id":311,"name":"Uncletopia | Frankfurt | 6 | All Maps","name_short":"frk-6","host":"frk-1.de.uncletopia.com","port":27065,"enabled":true,"region":"eu","cc":"de","latitude":50.110924,"longitude":8.682127,"reserved":0,"last_update":"0001-01-01T00:00:00Z","name_a2s":"Uncletopia | Frankfurt | 6 | All Maps","protocol":17,"map":"koth_viaduct","folder":"tf","game":"Team Fortress","app_id":440,"player_count":24,"max_players":24,"Bots":0,"server_type":"Dedicated","server_os":"Linux","password":true,"vac":true,"version":"7757534","steam_id":85568392924504278,"keywords":["cp","nocrits","nodmgspread","uncletopia"],"game_id":440,"stv_port":27066,"stv_name":"Uncletopia | Frankfurt | 6 | All Maps | STV","players":[{"user_id":432,"name":"0xDEADBEEF","steam_id":76561199075416111,"connected_time":4874000000000,"state":"active","ping":91},{"user_id":500,"name":"balanced diet","steam_id":76561198240320806,"connected_time":230000000000,"state":"active","ping":60},{"user_id":494,"name":"TJ1212","steam_id":76561199013575313,"connected_time":901000000000,"state":"active","ping":65},{"user_id":496,"name":"soopeli","steam_id":76561198003350251,"connected_time":761000000000,"state":"active","ping":64},{"user_id":414,"name":"bibib17","steam_id":76561198143319217,"connected_time":6070000000000,"state":"active","ping":86},{"user_id":491,"name":"Weenie Hut Jr's","steam_id":76561198050515739,"connected_time":963000000000,"state":"active","ping":61},{"user_id":477,"name":"Mr.B","steam_id":76561199204478925,"connected_time":1850000000000,"state":"active","ping":117},{"user_id":462,"name":"Charged","steam_id":76561199127215130,"connected_time":3400000000000,"state":"active","ping":84},{"user_id":443,"name":"sven5011","steam_id":76561198064398200,"connected_time":4111000000000,"state":"active","ping":60},{"user_id":476,"name":":)","steam_id":76561198039964082,"connected_time":2070000000000,"state":"active","ping":58},{"user_id":501,"name":"Hunter","steam_id":76561198202549163,"connected_time":222000000000,"state":"active","ping":67},{"user_id":434,"name":"walluu","steam_id":76561198121830870,"connected_time":4699000000000,"state":"active","ping":75},{"user_id":481,"name":"sexgod","steam_id":76561198978125535,"connected_time":1511000000000,"state":"active","ping":71},{"user_id":482,"name":"Kkikok","steam_id":76561198055767709,"connected_time":1016000000000,"state":"active","ping":88},{"user_id":487,"name":"WHUSSKEY","steam_id":76561198137827441,"connected_time":1002000000000,"state":"active","ping":65},{"user_id":497,"name":"tzeentch enjoyer","steam_id":76561199147345765,"connected_time":532000000000,"state":"active","ping":85},{"user_id":483,"name":"somehow danced","steam_id":76561198128250460,"connected_time":1015000000000,"state":"active","ping":103},{"user_id":498,"name":"A fish and sea","steam_id":76561198194745827,"connected_time":499000000000,"state":"active","ping":54},{"user_id":427,"name":"Menty","steam_id":76561198036748212,"connected_time":5242000000000,"state":"active","ping":47},{"user_id":411,"name":"RiX","steam_id":76561197969053733,"connected_time":6143000000000,"state":"active","ping":69},{"user_id":499,"name":"Omni","steam_id":76561197964320557,"connected_time":276000000000,"state":"active","ping":62},{"user_id":489,"name":"Lyell","steam_id":76561198350329389,"connected_time":995000000000,"state":"active","ping":89},{"user_id":405,"name":"XPullaHiiri","steam_id":76561198031652375,"connected_time":6630000000000,"state":"active","ping":89},{"user_id":495,"name":"rajAs","steam_id":76561198035928111,"connected_time":878000000000,"state":"active","ping":82}]},{"server_id":23,"name":"Uncletopia | Frankfurt | 7 | Stopwatch Beta","name_short":"frk-7","host":"frk-1.de.uncletopia.com","port":27075,"enabled":true,"region":"eu","cc":"de","latitude":50.110924,"longitude":8.682127,"reserved":0,"last_update":"0001-01-01T00:00:00Z","name_a2s":"Uncletopia | Frankfurt | 7 | Stopwatch Beta","protocol":17,"map":"workshop/koth_clearcut_b15.ugc2107050255","folder":"tf","game":"Team Fortress","app_id":440,"player_count":0,"max_players":24,"Bots":0,"server_type":"Dedicated","server_os":"Linux","password":true,"vac":true,"version":"7757534","steam_id":85568392924742827,"keywords":["cp","nocrits","nodmgspread","uncletopia"],"game_id":440,"stv_port":27076,"stv_name":"Uncletopia | Frankfurt | 7 | Stopwatch Beta | STV","players":null},{"server_id":24,"name":"Uncletopia | Frankfurt | 8 | Community","name_short":"frk-8","host":"frk-1.de.uncletopia.com","port":27085,"enabled":true,"region":"eu","cc":"de","latitude":50.110924,"longitude":8.682127,"reserved":0,"last_update":"0001-01-01T00:00:00Z","name_a2s":"Uncletopia | Frankfurt | 8 | Community","protocol":17,"map":"workshop/pl_barnblitz_pro7.ugc582280235","folder":"tf","game":"Team Fortress","app_id":440,"player_count":2,"max_players":24,"Bots":0,"server_type":"Dedicated","server_os":"Linux","password":true,"vac":true,"version":"7757534","steam_id":85568392924742828,"keywords":["nocrits","nodmgspread","payload","uncletopia"],"game_id":440,"stv_port":27086,"stv_name":"Uncletopia | Frankfurt | 8 | Community | STV","players":[{"user_id":9,"name":"Z0r1t","steam_id":76561199120241220,"connected_time":2603000000000,"state":"active","ping":76},{"user_id":12,"name":"Shadow Jesus","steam_id":76561198272980963,"connected_time":1010000000000,"state":"active","ping":59}]},{"server_id":202,"name":"Uncletopia | Hong Kong | 1 | All Maps","name_short":"hgk-1","host":"hgk-1.hk.uncletopia.com","port":27015,"enabled":true,"region":"asia","cc":"hk","latitude":22.302711,"longitude":114.177216,"reserved":0,"last_update":"0001-01-01T00:00:00Z","name_a2s":"Uncletopia | Hong Kong | 1 | All Maps","protocol":17,"map":"ctf_2fort","folder":"tf","game":"Team Fortress","app_id":440,"player_count":0,"max_players":24,"Bots":0,"server_type":"Dedicated","server_os":"Linux","password":true,"vac":true,"version":"7757534","steam_id":85568392924494504,"keywords":["ctf","nocrits","nodmgspread","uncletopia"],"game_id":440,"stv_port":27016,"stv_name":"Uncletopia | Hong Kong | 1 | All Maps | STV","players":null},{"server_id":1,"name":"Uncletopia | Los Angeles | 1 | All Maps","name_short":"lax-1","host":"lax-1.us.uncletopia.com","port":27015,"enabled":true,"region":"us-west","cc":"us","latitude":33.94279,"longitude":-118.41004,"reserved":0,"last_update":"0001-01-01T00:00:00Z","name_a2s":"Uncletopia | Los Angeles | 1 | All Maps","protocol":17,"map":"koth_lakeside_final","folder":"tf","game":"Team Fortress","app_id":440,"player_count":0,"max_players":24,"Bots":0,"server_type":"Dedicated","server_os":"Linux","password":true,"vac":true,"version":"7757534","steam_id":85568392924469991,"keywords":["cp","nocrits","nodmgspread","uncletopia"],"game_id":440,"stv_port":27016,"stv_name":"Uncletopia | Los Angeles | 1 | All Maps | STV","players":null},{"server_id":112,"name":"Uncletopia | Los Angeles | 2 | All Maps","name_short":"lax-2","host":"lax-1.us.uncletopia.com","port":27025,"enabled":true,"region":"us-west","cc":"us","latitude":33.94279,"longitude":-118.41004,"reserved":0,"last_update":"0001-01-01T00:00:00Z","name_a2s":"Uncletopia | Los Angeles | 2 | All Maps","protocol":17,"map":"pl_frontier_final","folder":"tf","game":"Team Fortress","app_id":440,"player_count":0,"max_players":24,"Bots":0,"server_type":"Dedicated","server_os":"Linux","password":true,"vac":true,"version":"7757534","steam_id":85568392924469992,"keywords":["nocrits","nodmgspread","payload","uncletopia"],"game_id":440,"stv_port":27026,"stv_name":"Uncletopia | Los Angeles | 2 | All Maps | STV","players":null},{"server_id":324,"name":"Uncletopia | Los Angeles | 3 | All Maps","name_short":"lax-3","host":"lax-1.us.uncletopia.com","port":27035,"enabled":true,"region":"us-west","cc":"us","latitude":33.94279,"longitude":-118.41004,"reserved":0,"last_update":"0001-01-01T00:00:00Z","name_a2s":"Uncletopia | Los Angeles | 3 | All Maps","protocol":17,"map":"pl_borneo","folder":"tf","game":"Team Fortress","app_id":440,"player_count":0,"max_players":24,"Bots":0,"server_type":"Dedicated","server_os":"Linux","password":true,"vac":true,"version":"7757534","steam_id":85568392924510198,"keywords":["nocrits","nodmgspread","payload","uncletopia"],"game_id":440,"stv_port":27036,"stv_name":"Uncletopia | Los Angeles | 3 | All Maps | STV","players":null},{"server_id":25,"name":"Uncletopia | Los Angeles | 4 | Stopwatch Beta","name_short":"lax-4","host":"lax-1.us.uncletopia.com","port":27045,"enabled":true,"region":"us-west","cc":"us","latitude":33.94279,"longitude":-118.41004,"reserved":0,"last_update":"0001-01-01T00:00:00Z","name_a2s":"Uncletopia | Los Angeles | 4 | Stopwatch Beta","protocol":17,"map":"pl_swiftwater_final1","folder":"tf","game":"Team Fortress","app_id":440,"player_count":0,"max_players":24,"Bots":0,"server_type":"Dedicated","server_os":"Linux","password":true,"vac":true,"version":"7757534","steam_id":85568392924510199,"keywords":["nocrits","nodmgspread","payload","uncletopia"],"game_id":440,"stv_port":27046,"stv_name":"Uncletopia | Los Angeles | 4 | Stopwatch Beta | STV","players":null},{"server_id":11,"name":"Uncletopia | London | 1 | All Maps","name_short":"lon-1","host":"lon-1.uk.uncletopia.com","port":27015,"enabled":true,"region":"eu","cc":"gb","latitude":51.509865,"longitude":-0.118092,"reserved":0,"last_update":"0001-01-01T00:00:00Z","name_a2s":"Uncletopia | London | 1 | All Maps","protocol":17,"map":"pl_upward","folder":"tf","game":"Team Fortress","app_id":440,"player_count":24,"max_players":24,"Bots":0,"server_type":"Dedicated","server_os":"Linux","password":true,"vac":true,"version":"7757534","steam_id":85568392924367362,"keywords":["nocrits","nodmgspread","payload","uncletopia"],"game_id":440,"stv_port":27016,"stv_name":"Uncletopia | London | 1 | All Maps | STV","players":[{"user_id":592,"name":"SirToast","steam_id":76561199229729107,"connected_time":157000000000,"state":"active","ping":66},{"user_id":578,"name":"Dovakin","steam_id":76561198103265377,"connected_time":1068000000000,"state":"active","ping":133},{"user_id":546,"name":"Anonymous47007","steam_id":76561199005211417,"connected_time":3232000000000,"state":"active","ping":81},{"user_id":532,"name":"AsuX","steam_id":76561197990333289,"connected_time":3804000000000,"state":"active","ping":60},{"user_id":586,"name":"GoatLord1","steam_id":76561198157964544,"connected_time":408000000000,"state":"active","ping":54},{"user_id":557,"name":"JOHN GAMING (depressed)","steam_id":76561199085822219,"connected_time":2338000000000,"state":"active","ping":89},{"user_id":593,"name":"ninjadogs14","steam_id":76561198144983985,"connected_time":99000000000,"state":"active","ping":51},{"user_id":558,"name":"astra","steam_id":76561198042980579,"connected_time":2310000000000,"state":"active","ping":68},{"user_id":565,"name":"hawkblob","steam_id":76561198803720565,"connected_time":2096000000000,"state":"active","ping":65},{"user_id":581,"name":"Majima Gaming HD","steam_id":76561198365750503,"connected_time":913000000000,"state":"active","ping":41},{"user_id":579,"name":"‚ú™ Danny","steam_id":76561198104483241,"connected_time":1067000000000,"state":"active","ping":53},{"user_id":594,"name":"Sentry Gun (jessie)","steam_id":76561198063093802,"connected_time":83000000000,"state":"active","ping":48},{"user_id":582,"name":"Prome","steam_id":76561199050383942,"connected_time":771000000000,"state":"active","ping":58},{"user_id":574,"name":" á·¥âu…ê","steam_id":76561198044204428,"connected_time":1281000000000,"state":"active","ping":72},{"user_id":583,"name":"kojitori","steam_id":76561198838072150,"connected_time":499000000000,"state":"active","ping":47},{"user_id":510,"name":"rz-/Atomic Punch","steam_id":76561199195508541,"connected_time":5742000000000,"state":"active","ping":75},{"user_id":589,"name":"Lavir","steam_id":76561198008619442,"connected_time":225000000000,"state":"active","ping":114},{"user_id":465,"name":"SnowShot","steam_id":76561198004766638,"connected_time":8632000000000,"state":"active","ping":70},{"user_id":550,"name":"wexes","steam_id":76561198058769738,"connected_time":3115000000000,"state":"active","ping":128},{"user_id":518,"name":"Guru","steam_id":76561198093853069,"connected_time":5105000000000,"state":"active","ping":70},{"user_id":590,"name":"Lucky_Pierre","steam_id":76561197965662752,"connected_time":225000000000,"state":"active","ping":43},{"user_id":536,"name":"Economic crisis","steam_id":76561198063562843,"connected_time":3704000000000,"state":"active","ping":57},{"user_id":571,"name":"„Éñ„É≠„Éº„Éã„É£","steam_id":76561198037810091,"connected_time":1845000000000,"state":"active","ping":111},{"user_id":572,"name":"ruskie (fake)","steam_id":76561199106215999,"connected_time":1821000000000,"state":"active","ping":125}]},{"server_id":114,"name":"Uncletopia | London | 2 | All Maps","name_short":"lon-2","host":"lon-1.uk.uncletopia.com","port":27025,"enabled":true,"region":"eu","cc":"gb","latitude":51.509865,"longitude":-0.118092,"reserved":0,"last_update":"0001-01-01T00:00:00Z","name_a2s":"Uncletopia | London | 2 | All Maps","protocol":17,"map":"pl_barnblitz","folder":"tf","game":"Team Fortress","app_id":440,"player_count":23,"max_players":24,"Bots":0,"server_type":"Dedicated","server_os":"Linux","password":true,"vac":true,"version":"7757534","steam_id":85568392924470941,"keywords":["nocrits","nodmgspread","payload","uncletopia"],"game_id":440,"stv_port":27026,"stv_name":"Uncletopia | London | 2 | All Maps | STV","players":[{"user_id":188,"name":"2b","steam_id":76561199149307190,"connected_time":3365000000000,"state":"active","ping":86},{"user_id":226,"name":"Ôº≤ ÔºØ Ôº¢ Ôº¢ Ôº• Ôº≤ Ôº¥","steam_id":76561198134404830,"connected_time":885000000000,"state":"active","ping":125},{"user_id":243,"name":"bigfutacock56","steam_id":76561198835619904,"connected_time":609000000000,"state":"active","ping":120},{"user_id":166,"name":"A Pigeon","steam_id":76561198114090555,"connected_time":4367000000000,"state":"active","ping":74},{"user_id":181,"name":"powej","steam_id":76561198056381418,"connected_time":3694000000000,"state":"active","ping":32},{"user_id":129,"name":"shooer","steam_id":76561198110531281,"connected_time":6523000000000,"state":"active","ping":64},{"user_id":193,"name":"Wat Means?","steam_id":76561197966629582,"connected_time":3157000000000,"state":"active","ping":63},{"user_id":249,"name":"engineer drip","steam_id":76561198991032570,"connected_time":27000000000,"state":"spawning","ping":107},{"user_id":219,"name":"B@yka","steam_id":76561198986736592,"connected_time":1293000000000,"state":"active","ping":63},{"user_id":207,"name":"Zerfesh","steam_id":76561198117534358,"connected_time":2761000000000,"state":"active","ping":98},{"user_id":145,"name":"generic alias","steam_id":76561198271607226,"connected_time":5735000000000,"state":"active","ping":90},{"user_id":179,"name":"Caliban","steam_id":76561197999696839,"connected_time":3883000000000,"state":"active","ping":112},{"user_id":246,"name":":\u003ezem","steam_id":76561198864329072,"connected_time":488000000000,"state":"active","ping":84},{"user_id":206,"name":"Hetmanych","steam_id":76561198870926865,"connected_time":2878000000000,"state":"active","ping":39},{"user_id":240,"name":"zoinks!","steam_id":76561198068645362,"connected_time":659000000000,"state":"active","ping":42},{"user_id":245,"name":"S√úLEYMAN √áAKIR","steam_id":76561199068170005,"connected_time":535000000000,"state":"active","ping":117},{"user_id":248,"name":"Sputnik","steam_id":76561198138660241,"connected_time":384000000000,"state":"active","ping":78},{"user_id":184,"name":"awesome rat","steam_id":76561198252656316,"connected_time":3636000000000,"state":"active","ping":62},{"user_id":221,"name":"·†å ·†å ·†å·†å ·†å ·†å ·†å","steam_id":76561198312906114,"connected_time":1259000000000,"state":"active","ping":53},{"user_id":228,"name":"Dispenser","steam_id":76561198088898260,"connected_time":882000000000,"state":"active","ping":66},{"user_id":224,"name":"Karl Heinrich Marx","steam_id":76561197987837486,"connected_time":1011000000000,"state":"active","ping":63},{"user_id":204,"name":"twitch.tv/vision515","steam_id":76561198065293729,"connected_time":2926000000000,"state":"active","ping":163},{"user_id":205,"name":"gibb (official)","steam_id":76561198074097655,"connected_time":2925000000000,"state":"active","ping":44}]},{"server_id":320,"name":"Uncletopia | London | 3 | All Maps","name_short":"lon-3","host":"lon-1.uk.uncletopia.com","port":27035,"enabled":true,"region":"eu","cc":"gb","latitude":51.509865,"longitude":-0.118092,"reserved":0,"last_update":"0001-01-01T00:00:00Z","name_a2s":"Uncletopia | London | 3 | All Maps","protocol":17,"map":"ctf_2fort","folder":"tf","game":"Team Fortress","app_id":440,"player_count":24,"max_players":24,"Bots":0,"server_type":"Dedicated","server_os":"Linux","password":true,"vac":true,"version":"7757534","steam_id":85568392924510192,"keywords":["ctf","nocrits","nodmgspread","uncletopia"],"game_id":440,"stv_port":27036,"stv_name":"Uncletopia | London | 3 | All Maps | STV","players":[{"user_id":127,"name":"shinji crank that soulja boy","steam_id":76561198099696876,"connected_time":1634000000000,"state":"active","ping":73},{"user_id":131,"name":"clems17","steam_id":76561199420685482,"connected_time":1407000000000,"state":"active","ping":73},{"user_id":156,"name":"Robbie","steam_id":76561198017504503,"connected_time":163000000000,"state":"active","ping":50},{"user_id":95,"name":"Jughead","steam_id":76561198000355410,"connected_time":2996000000000,"state":"active","ping":55},{"user_id":125,"name":"riz","steam_id":76561198055010039,"connected_time":1708000000000,"state":"active","ping":62},{"user_id":135,"name":"lactose father","steam_id":76561199408853457,"connected_time":1322000000000,"state":"active","ping":83},{"user_id":88,"name":"maakgis","steam_id":76561198851703804,"connected_time":3500000000000,"state":"active","ping":129},{"user_id":150,"name":"a dollop of bird","steam_id":76561198089003514,"connected_time":840000000000,"state":"active","ping":48},{"user_id":105,"name":"Spetse","steam_id":76561197990649972,"connected_time":2586000000000,"state":"active","ping":93},{"user_id":148,"name":"gmem","steam_id":76561198070006725,"connected_time":1080000000000,"state":"active","ping":55},{"user_id":136,"name":"Nobaddy","steam_id":76561198037871007,"connected_time":1320000000000,"state":"active","ping":83},{"user_id":130,"name":"ErJu","steam_id":76561198106273165,"connected_time":1424000000000,"state":"active","ping":77},{"user_id":64,"name":"Nope.avi","steam_id":76561198396687651,"connected_time":4658000000000,"state":"active","ping":90},{"user_id":152,"name":"midlpsyzl47","steam_id":76561199475972637,"connected_time":640000000000,"state":"active","ping":62},{"user_id":65,"name":"medic appreciator","steam_id":76561198055389492,"connected_time":4654000000000,"state":"active","ping":40},{"user_id":107,"name":"humpyhump","steam_id":76561198142007160,"connected_time":2411000000000,"state":"active","ping":74},{"user_id":144,"name":"BONK-TEC!","steam_id":76561198272667029,"connected_time":1237000000000,"state":"active","ping":50},{"user_id":93,"name":"Weather Report","steam_id":76561199109494283,"connected_time":3057000000000,"state":"active","ping":119},{"user_id":158,"name":"TinkyWinky","steam_id":76561197989926561,"connected_time":17000000000,"state":"active","ping":342},{"user_id":146,"name":"Noob_with_source","steam_id":76561198870362103,"connected_time":1191000000000,"state":"active","ping":57},{"user_id":100,"name":"FlameTheGame","steam_id":76561198841108519,"connected_time":2769000000000,"state":"active","ping":99},{"user_id":140,"name":"crafteen","steam_id":76561198362185755,"connected_time":1286000000000,"state":"active","ping":46},{"user_id":147,"name":"dagoth ur","steam_id":76561198208045069,"connected_time":1090000000000,"state":"active","ping":55},{"user_id":122,"name":"alan","steam_id":76561198133532980,"connected_time":2053000000000,"state":"active","ping":46}]},{"server_id":321,"name":"Uncletopia | London | 4 | All Maps","name_short":"lon-4","host":"lon-1.uk.uncletopia.com","port":27045,"enabled":true,"region":"eu","cc":"gb","latitude":51.509865,"longitude":-0.118092,"reserved":0,"last_update":"0001-01-01T00:00:00Z","name_a2s":"Uncletopia | London | 4 | All Maps","protocol":17,"map":"pl_rumford_event","folder":"tf","game":"Team Fortress","app_id":440,"player_count":24,"max_players":24,"Bots":0,"server_type":"Dedicated","server_os":"Linux","password":true,"vac":true,"version":"7757534","steam_id":85568392924510193,"keywords":["nocrits","nodmgspread","payload","uncletopia"],"game_id":440,"stv_port":27046,"stv_name":"Uncletopia | London | 4 | All Maps | STV","players":[{"user_id":423,"name":"Lwyz016","steam_id":76561199164626058,"connected_time":780000000000,"state":"active","ping":80},{"user_id":405,"name":"Unvid","steam_id":76561198031588080,"connected_time":1479000000000,"state":"active","ping":48},{"user_id":401,"name":"nutlube","steam_id":76561198128831131,"connected_time":1919000000000,"state":"active","ping":66},{"user_id":426,"name":"Little Rascal","steam_id":76561197969825907,"connected_time":459000000000,"state":"active","ping":50},{"user_id":397,"name":"Depressed","steam_id":76561198154405093,"connected_time":2167000000000,"state":"active","ping":79},{"user_id":353,"name":"Topme","steam_id":76561198091734693,"connected_time":5567000000000,"state":"active","ping":62},{"user_id":415,"name":"RoxieRabbit","steam_id":76561198195687847,"connected_time":1031000000000,"state":"active","ping":70},{"user_id":427,"name":"Cheeze","steam_id":76561198936604657,"connected_time":449000000000,"state":"active","ping":77},{"user_id":347,"name":"whimsy.","steam_id":76561198878171763,"connected_time":6160000000000,"state":"active","ping":49},{"user_id":408,"name":"PrimeTarget","steam_id":76561198046409289,"connected_time":1331000000000,"state":"active","ping":65},{"user_id":428,"name":"Raingnome @SaveTF2","steam_id":76561198007394958,"connected_time":414000000000,"state":"active","ping":58},{"user_id":318,"name":"LarsInABox","steam_id":76561198028329262,"connected_time":8528000000000,"state":"active","ping":75},{"user_id":398,"name":"Sinny","steam_id":76561197999598422,"connected_time":2077000000000,"state":"active","ping":83},{"user_id":374,"name":"elsuedi","steam_id":76561198074722832,"connected_time":3494000000000,"state":"active","ping":60},{"user_id":338,"name":"‚ô• aura ‚ô•","steam_id":76561198066258544,"connected_time":7066000000000,"state":"active","ping":66},{"user_id":421,"name":"Mean Green Peen","steam_id":76561198228455736,"connected_time":792000000000,"state":"active","ping":50},{"user_id":419,"name":"SausageRoll","steam_id":76561197994072622,"connected_time":859000000000,"state":"active","ping":45},{"user_id":418,"name":"SpeddyMeddy","steam_id":76561197999693825,"connected_time":871000000000,"state":"active","ping":81},{"user_id":368,"name":"wasto-/-‚Ñ¢","steam_id":76561198102888038,"connected_time":3837000000000,"state":"active","ping":57},{"user_id":417,"name":"Serton‚ôù","steam_id":76561198011061126,"connected_time":897000000000,"state":"active","ping":74},{"user_id":424,"name":"Davey","steam_id":76561198256879107,"connected_time":760000000000,"state":"active","ping":76},{"user_id":409,"name":"Sandvich","steam_id":76561199079493666,"connected_time":1285000000000,"state":"active","ping":108},{"user_id":412,"name":"Raymus","steam_id":76561198021330407,"connected_time":1132000000000,"state":"active","ping":53},{"user_id":407,"name":"SoundTurnedUp","steam_id":76561198307093224,"connected_time":1382000000000,"state":"active","ping":42}]},{"server_id":21,"name":"Uncletopia | London | 5 | All Maps","name_short":"lon-5","host":"lon-1.uk.uncletopia.com","port":27055,"enabled":true,"region":"eu","cc":"gb","latitude":51.509865,"longitude":-0.118092,"reserved":0,"last_update":"0001-01-01T00:00:00Z","name_a2s":"Uncletopia | London | 5 | All Maps","protocol":17,"map":"pl_frontier_final","folder":"tf","game":"Team Fortress","app_id":440,"player_count":0,"max_players":24,"Bots":0,"server_type":"Dedicated","server_os":"Linux","password":true,"vac":true,"version":"7757534","steam_id":85568392924742829,"keywords":["nocrits","nodmgspread","payload","uncletopia"],"game_id":440,"stv_port":27056,"stv_name":"Uncletopia | London | 5 | All Maps | STV","players":null},{"server_id":22,"name":"Uncletopia | London | 6 | All Maps","name_short":"lon-6","host":"lon-1.uk.uncletopia.com","port":27065,"enabled":true,"region":"eu","cc":"gb","latitude":51.509865,"longitude":-0.118092,"reserved":0,"last_update":"0001-01-01T00:00:00Z","name_a2s":"Uncletopia | London | 6 | All Maps","protocol":17,"map":"pl_upward","folder":"tf","game":"Team Fortress","app_id":440,"player_count":0,"max_players":24,"Bots":0,"server_type":"Dedicated","server_os":"Linux","password":true,"vac":true,"version":"7757534","steam_id":85568392924742830,"keywords":["nocrits","nodmgspread","payload","uncletopia"],"game_id":440,"stv_port":27066,"stv_name":"Uncletopia | London | 6 | All Maps | STV","players":null},{"server_id":40,"name":"Uncletopia | London | 7 | No Payload","name_short":"lon-7","host":"lon-1.uk.uncletopia.com","port":27075,"enabled":true,"region":"eu","cc":"gb","latitude":51.509865,"longitude":-0.118092,"reserved":0,"last_update":"0001-01-01T00:00:00Z","name_a2s":"Uncletopia | London | 7 | No Payload","protocol":17,"map":"koth_brazil","folder":"tf","game":"Team Fortress","app_id":440,"player_count":0,"max_players":24,"Bots":0,"server_type":"Dedicated","server_os":"Linux","password":true,"vac":true,"version":"7757534","steam_id":85568392924964314,"keywords":["cp","nocrits","nodmgspread","uncletopia"],"game_id":440,"stv_port":27076,"stv_name":"Uncletopia | London | 7 | No Payload | STV","players":null},{"server_id":41,"name":"Uncletopia | London | 8 | Community","name_short":"lon-8","host":"lon-1.uk.uncletopia.com","port":27085,"enabled":true,"region":"eu","cc":"gb","latitude":51.509865,"longitude":-0.118092,"reserved":0,"last_update":"0001-01-01T00:00:00Z","name_a2s":"Uncletopia | London | 8 | Community","protocol":17,"map":"workshop/cp_logjam_rc12.ugc454812035","folder":"tf","game":"Team Fortress","app_id":440,"player_count":15,"max_players":24,"Bots":0,"server_type":"Dedicated","server_os":"Linux","password":true,"vac":true,"version":"7757534","steam_id":85568392924964315,"keywords":["cp","nocrits","nodmgspread","uncletopia"],"game_id":440,"stv_port":27086,"stv_name":"Uncletopia | London | 8 | Community | STV","players":[{"user_id":75,"name":"SaSSolino","steam_id":76561198011308018,"connected_time":3588000000000,"state":"active","ping":61},{"user_id":76,"name":"Pauler le one","steam_id":76561198398152855,"connected_time":3456000000000,"state":"active","ping":84},{"user_id":77,"name":"Wilson","steam_id":76561198804477862,"connected_time":2368000000000,"state":"active","ping":61},{"user_id":82,"name":"‚ôö‚òÆ‚ñ∫Red Lee‚óÑ‚òÆ‚ôö","steam_id":76561198045744536,"connected_time":1094000000000,"state":"active","ping":57},{"user_id":74,"name":"Magirby","steam_id":76561198818777390,"connected_time":3886000000000,"state":"active","ping":108},{"user_id":84,"name":"PixelHyde","steam_id":76561198040878617,"connected_time":1052000000000,"state":"active","ping":63},{"user_id":101,"name":"Belgorodec","steam_id":76561199383879505,"connected_time":485000000000,"state":"active","ping":94},{"user_id":85,"name":"Zappron","steam_id":76561198058014558,"connected_time":1003000000000,"state":"active","ping":79},{"user_id":97,"name":"lolgast210(NL)","steam_id":76561198118817234,"connected_time":553000000000,"state":"active","ping":58},{"user_id":102,"name":"Aeon_","steam_id":76561198089361405,"connected_time":481000000000,"state":"active","ping":37},{"user_id":108,"name":"LANGERS","steam_id":76561198046966693,"connected_time":5000000000,"state":"spawning","ping":57},{"user_id":98,"name":"t.tv/FamilyGuyFunnyMoments277","steam_id":76561198416047580,"connected_time":548000000000,"state":"active","ping":139},{"user_id":107,"name":"akakez","steam_id":76561198095432821,"connected_time":86000000000,"state":"active","ping":106},{"user_id":104,"name":"FeminineAtom [LOS]","steam_id":76561198311208470,"connected_time":479000000000,"state":"active","ping":47},{"user_id":105,"name":"Rowan Atkinson","steam_id":76561199378865926,"connected_time":425000000000,"state":"active","ping":74}]},{"server_id":300,"name":"Uncletopia | Montr√©al | 1 | All Maps","name_short":"mtl-1","host":"mtl-1.ca.uncletopia.com","port":27015,"enabled":true,"region":"us-east","cc":"ca","latitude":45.50889,"longitude":-73.56167,"reserved":0,"last_update":"0001-01-01T00:00:00Z","name_a2s":"Uncletopia | Montr√©al | 1 | All Maps","protocol":17,"map":"pl_upward","folder":"tf","game":"Team Fortress","app_id":440,"player_count":0,"max_players":24,"Bots":0,"server_type":"Dedicated","server_os":"Linux","password":true,"vac":true,"version":"7757534","steam_id":85568392924500087,"keywords":["nocrits","nodmgspread","payload","uncletopia"],"game_id":440,"stv_port":27016,"stv_name":"Uncletopia | Montr√©al | 1 | All Maps | STV","players":null},{"server_id":301,"name":"Uncletopia | Montr√©al | 2 | All Maps","name_short":"mtl-2","host":"mtl-1.ca.uncletopia.com","port":27025,"enabled":true,"region":"us-east","cc":"ca","latitude":45.50889,"longitude":-73.56167,"reserved":0,"last_update":"0001-01-01T00:00:00Z","name_a2s":"Uncletopia | Montr√©al | 2 | All Maps","protocol":17,"map":"pl_snowycoast","folder":"tf","game":"Team Fortress","app_id":440,"player_count":0,"max_players":24,"Bots":0,"server_type":"Dedicated","server_os":"Linux","password":true,"vac":true,"version":"7757534","steam_id":85568392924500088,"keywords":["nocrits","nodmgspread","payload","uncletopia"],"game_id":440,"stv_port":27026,"stv_name":"Uncletopia | Montr√©al | 2 | All Maps | STV","players":null},{"server_id":302,"name":"Uncletopia | Montr√©al | 3 | All Maps","name_short":"mtl-3","host":"mtl-1.ca.uncletopia.com","port":27035,"enabled":true,"region":"us-east","cc":"ca","latitude":45.50889,"longitude":-73.56167,"reserved":0,"last_update":"0001-01-01T00:00:00Z","name_a2s":"Uncletopia | Montr√©al | 3 | All Maps","protocol":17,"map":"pl_swiftwater_final1","folder":"tf","game":"Team Fortress","app_id":440,"player_count":0,"max_players":24,"Bots":0,"server_type":"Dedicated","server_os":"Linux","password":true,"vac":true,"version":"7757534","steam_id":85568392924500089,"keywords":["nocrits","nodmgspread","payload","uncletopia"],"game_id":440,"stv_port":27036,"stv_name":"Uncletopia | Montr√©al | 3 | All Maps | STV","players":null},{"server_id":303,"name":"Uncletopia | Montr√©al | 4 | No Payload","name_short":"mtl-4","host":"mtl-1.ca.uncletopia.com","port":27045,"enabled":true,"region":"us-east","cc":"ca","latitude":45.50889,"longitude":-73.56167,"reserved":0,"last_update":"0001-01-01T00:00:00Z","name_a2s":"Uncletopia | Montr√©al | 4 | No Payload","protocol":17,"map":"pl_pier","folder":"tf","game":"Team Fortress","app_id":440,"player_count":0,"max_players":24,"Bots":0,"server_type":"Dedicated","server_os":"Linux","password":true,"vac":true,"version":"7757534","steam_id":85568392924500090,"keywords":["nocrits","nodmgspread","payload","uncletopia"],"game_id":440,"stv_port":27046,"stv_name":"Uncletopia | Montr√©al | 4 | No Payload | STV","players":null},{"server_id":13,"name":"Uncletopia | New York City | 1 | All Maps","name_short":"nyc-1","host":"nyc-1.us.uncletopia.com","port":27015,"enabled":true,"region":"us-east","cc":"us","latitude":40.73061,"longitude":-73.93524,"reserved":0,"last_update":"0001-01-01T00:00:00Z","name_a2s":"Uncletopia | New York City | 1 | All Maps","protocol":17,"map":"cp_dustbowl","folder":"tf","game":"Team Fortress","app_id":440,"player_count":24,"max_players":24,"Bots":0,"server_type":"Dedicated","server_os":"Linux","password":true,"vac":true,"version":"7757534","steam_id":85568392924469993,"keywords":["cp","nocrits","nodmgspread","uncletopia"],"game_id":440,"stv_port":27016,"stv_name":"Uncletopia | New York City | 1 | All Maps | STV","players":[{"user_id":27,"name":"Mochi","steam_id":76561199151314140,"connected_time":4450000000000,"state":"active","ping":40},{"user_id":79,"name":"Drilly22","steam_id":76561198068838338,"connected_time":476000000000,"state":"active","ping":97},{"user_id":29,"name":"Grimace","steam_id":76561198297216420,"connected_time":4123000000000,"state":"active","ping":45},{"user_id":46,"name":"Ghost","steam_id":76561198426370628,"connected_time":2599000000000,"state":"active","ping":75},{"user_id":66,"name":"EmJKay","steam_id":76561198884051272,"connected_time":1014000000000,"state":"active","ping":77},{"user_id":83,"name":"Infinity","steam_id":76561199134919099,"connected_time":170000000000,"state":"active","ping":55},{"user_id":64,"name":"Cool_Dude_909","steam_id":76561198313870988,"connected_time":1567000000000,"state":"active","ping":52},{"user_id":49,"name":"„Äé Ethereal „Äè","steam_id":76561199385170644,"connected_time":2472000000000,"state":"active","ping":70},{"user_id":71,"name":"Indigolake","steam_id":76561198202215807,"connected_time":908000000000,"state":"active","ping":68},{"user_id":37,"name":"ok","steam_id":76561198445140249,"connected_time":3019000000000,"state":"active","ping":77},{"user_id":67,"name":"urnotpeter","steam_id":76561198109904696,"connected_time":996000000000,"state":"active","ping":49},{"user_id":76,"name":"MR.CRAB","steam_id":76561198329833659,"connected_time":571000000000,"state":"active","ping":140},{"user_id":65,"name":"Raisin","steam_id":76561198116295334,"connected_time":1180000000000,"state":"active","ping":57},{"user_id":44,"name":"i forgor","steam_id":76561199120622265,"connected_time":2758000000000,"state":"active","ping":94},{"user_id":45,"name":"PotatoSaladMyDood","steam_id":76561198974226056,"connected_time":2744000000000,"state":"active","ping":72},{"user_id":72,"name":"LazyKoala99","steam_id":76561199183623672,"connected_time":835000000000,"state":"active","ping":85},{"user_id":70,"name":"Orangutan","steam_id":76561198151262554,"connected_time":941000000000,"state":"active","ping":59},{"user_id":77,"name":"TF2 players are retarded","steam_id":76561198039763676,"connected_time":553000000000,"state":"active","ping":74},{"user_id":61,"name":"6t26j","steam_id":76561198278282836,"connected_time":1894000000000,"state":"active","ping":60},{"user_id":78,"name":"Gary Budussy","steam_id":76561197969793969,"connected_time":528000000000,"state":"active","ping":84},{"user_id":56,"name":"Bozanimal","steam_id":76561198044096897,"connected_time":2268000000000,"state":"active","ping":43},{"user_id":74,"name":"Ash Ketchup","steam_id":76561199056842761,"connected_time":809000000000,"state":"active","ping":111},{"user_id":82,"name":"kametro4","steam_id":76561198835430429,"connected_time":320000000000,"state":"active","ping":82},{"user_id":63,"name":"Corruptedplatypus","steam_id":76561198193537517,"connected_time":1608000000000,"state":"active","ping":60}]},{"server_id":14,"name":"Uncletopia | New York City | 2 | All Maps","name_short":"nyc-2","host":"nyc-1.us.uncletopia.com","port":27025,"enabled":true,"region":"us-east","cc":"us","latitude":40.73061,"longitude":-73.93524,"reserved":0,"last_update":"0001-01-01T00:00:00Z","name_a2s":"Uncletopia | New York City | 2 | All Maps","protocol":17,"map":"pl_frontier_final","folder":"tf","game":"Team Fortress","app_id":440,"player_count":24,"max_players":24,"Bots":0,"server_type":"Dedicated","server_os":"Linux","password":true,"vac":true,"version":"7757534","steam_id":85568392924469994,"keywords":["nocrits","nodmgspread","payload","uncletopia"],"game_id":440,"stv_port":27026,"stv_name":"Uncletopia | New York City | 2 | All Maps | STV","players":[{"user_id":5,"name":"gurtajwastaken","steam_id":76561199165852862,"connected_time":6877000000000,"state":"active","ping":114},{"user_id":114,"name":"Chancethefapper69","steam_id":76561198173086317,"connected_time":887000000000,"state":"active","ping":61},{"user_id":121,"name":"Lost CS player","steam_id":76561198892387723,"connected_time":366000000000,"state":"active","ping":57},{"user_id":106,"name":"Iron_Dave_Qc","steam_id":76561198159325213,"connected_time":1057000000000,"state":"active","ping":59},{"user_id":107,"name":"Pyromainiac","steam_id":76561199259867180,"connected_time":1042000000000,"state":"active","ping":112},{"user_id":89,"name":"M√£…æ û√≥≈¶ƒß","steam_id":76561198819418878,"connected_time":1626000000000,"state":"active","ping":69},{"user_id":98,"name":"X0X2","steam_id":76561198418503762,"connected_time":1341000000000,"state":"active","ping":92},{"user_id":108,"name":"Armatus","steam_id":76561198325696105,"connected_time":1038000000000,"state":"active","ping":78},{"user_id":93,"name":"WhoWee","steam_id":76561198269471732,"connected_time":1433000000000,"state":"active","ping":88},{"user_id":117,"name":"carrion goat she/it","steam_id":76561198262064871,"connected_time":509000000000,"state":"active","ping":44},{"user_id":109,"name":"·πΩ‚ßâ cookie","steam_id":76561197998884823,"connected_time":1033000000000,"state":"active","ping":68},{"user_id":119,"name":"Legit_Jaxer","steam_id":76561198172234053,"connected_time":401000000000,"state":"active","ping":136},{"user_id":110,"name":"COKEISBAD","steam_id":76561198443746507,"connected_time":1023000000000,"state":"active","ping":86},{"user_id":84,"name":"Duncan Idaho","steam_id":76561197988963861,"connected_time":1885000000000,"state":"active","ping":80},{"user_id":111,"name":"dirkdoo","steam_id":76561199131131820,"connected_time":1017000000000,"state":"active","ping":114},{"user_id":96,"name":"cass","steam_id":76561198074502046,"connected_time":1393000000000,"state":"active","ping":81},{"user_id":112,"name":"urine trouble","steam_id":76561199013266640,"connected_time":1010000000000,"state":"active","ping":51},{"user_id":100,"name":"joachym","steam_id":76561198428579761,"connected_time":1318000000000,"state":"active","ping":154},{"user_id":101,"name":"One week at Frederick's","steam_id":76561198264752535,"connected_time":1309000000000,"state":"active","ping":61},{"user_id":102,"name":"Kraul","steam_id":76561198043682060,"connected_time":1292000000000,"state":"active","ping":114},{"user_id":116,"name":"marksman75u","steam_id":76561198106267574,"connected_time":549000000000,"state":"active","ping":80},{"user_id":118,"name":"Arin The Wolf","steam_id":76561198356310973,"connected_time":493000000000,"state":"active","ping":116},{"user_id":122,"name":"triphob","steam_id":76561198428439375,"connected_time":160000000000,"state":"active","ping":62},{"user_id":115,"name":"ÁßÅ„ÅØ‰∏çÊ≠£Ë°åÁÇ∫„Çí„Åó„Å¶„ÅÑ","steam_id":76561199465653959,"connected_time":870000000000,"state":"active","ping":146}]},{"server_id":15,"name":"Uncletopia | New York City | 3 | Stopwatch Beta","name_short":"nyc-3","host":"nyc-1.us.uncletopia.com","port":27035,"enabled":true,"region":"us-east","cc":"us","latitude":40.73061,"longitude":-73.93524,"reserved":0,"last_update":"0001-01-01T00:00:00Z","name_a2s":"Uncletopia | New York City | 3 | Stopwatch Beta","protocol":17,"map":"pl_upward","folder":"tf","game":"Team Fortress","app_id":440,"player_count":0,"max_players":24,"Bots":0,"server_type":"Dedicated","server_os":"Linux","password":true,"vac":true,"version":"7757534","steam_id":85568392924742820,"keywords":["nocrits","nodmgspread","payload","uncletopia"],"game_id":440,"stv_port":27036,"stv_name":"Uncletopia | New York City | 3 | Stopwatch Beta | STV","players":null},{"server_id":16,"name":"Uncletopia | New York City | 4 | Community","name_short":"nyc-4","host":"nyc-1.us.uncletopia.com","port":27045,"enabled":true,"region":"us-east","cc":"us","latitude":40.73061,"longitude":-73.93524,"reserved":0,"last_update":"0001-01-01T00:00:00Z","name_a2s":"Uncletopia | New York City | 4 | Community","protocol":17,"map":"workshop/cp_reckoner_rc6.ugc674719999","folder":"tf","game":"Team Fortress","app_id":440,"player_count":0,"max_players":24,"Bots":0,"server_type":"Dedicated","server_os":"Linux","password":true,"vac":true,"version":"7757534","steam_id":85568392924742821,"keywords":["cp","nocrits","nodmgspread","uncletopia"],"game_id":440,"stv_port":27046,"stv_name":"Uncletopia | New York City | 4 | Community | STV","players":null},{"server_id":142,"name":"Uncletopia | S√£o Paulo | 1 | All Maps","name_short":"sao-1","host":"sao-1.br.uncletopia.com","port":27015,"enabled":true,"region":"sa","cc":"br","latitude":-23.533773,"longitude":-46.62529,"reserved":0,"last_update":"0001-01-01T00:00:00Z","name_a2s":"Uncletopia | S√£o Paulo | 1 | All Maps","protocol":17,"map":"koth_cascade","folder":"tf","game":"Team Fortress","app_id":440,"player_count":0,"max_players":24,"Bots":0,"server_type":"Dedicated","server_os":"Linux","password":true,"vac":true,"version":"7757534","steam_id":85568392924469996,"keywords":["cp","nocrits","nodmgspread","uncletopia"],"game_id":440,"stv_port":27016,"stv_name":"Uncletopia | S√£o Paulo | 1 | All Maps | STV","players":null},{"server_id":143,"name":"Uncletopia | S√£o Paulo | 2 | All Maps","name_short":"sao-2","host":"sao-2.br.uncletopia.com","port":27015,"enabled":true,"region":"sa","cc":"br","latitude":-23.533773,"longitude":-46.62529,"reserved":0,"last_update":"0001-01-01T00:00:00Z","name_a2s":"Uncletopia | S√£o Paulo | 2 | All Maps","protocol":17,"map":"koth_cascade","folder":"tf","game":"Team Fortress","app_id":440,"player_count":0,"max_players":24,"Bots":0,"server_type":"Dedicated","server_os":"Linux","password":true,"vac":true,"version":"7757534","steam_id":85568392924485349,"keywords":["cp","nocrits","nodmgspread","uncletopia"],"game_id":440,"stv_port":27016,"stv_name":"Uncletopia | S√£o Paulo | 2 | All Maps | STV","players":null},{"server_id":7,"name":"Uncletopia | Seattle | 1 | All Maps","name_short":"sea-1","host":"sea-1.us.uncletopia.com","port":27015,"enabled":true,"region":"us-west","cc":"us","latitude":47.608013,"longitude":-122.33517,"reserved":0,"last_update":"0001-01-01T00:00:00Z","name_a2s":"Uncletopia | Seattle | 1 | All Maps","protocol":17,"map":"pl_borneo","folder":"tf","game":"Team Fortress","app_id":440,"player_count":22,"max_players":24,"Bots":0,"server_type":"Dedicated","server_os":"Linux","password":true,"vac":true,"version":"7757534","steam_id":85568392924469997,"keywords":["nocrits","nodmgspread","payload","uncletopia"],"game_id":440,"stv_port":27016,"stv_name":"Uncletopia | Seattle | 1 | All Maps | STV","players":[{"user_id":193,"name":"weenie hut jr","steam_id":76561198206922028,"connected_time":2732000000000,"state":"active","ping":75},{"user_id":221,"name":"purple‚Ñ¢ | they/she","steam_id":76561198057459725,"connected_time":72000000000,"state":"active","ping":57},{"user_id":222,"name":"TrueDragonNoodle","steam_id":76561198041908961,"connected_time":68000000000,"state":"active","ping":47},{"user_id":106,"name":"Soozy420","steam_id":76561198809074422,"connected_time":8031000000000,"state":"active","ping":75},{"user_id":202,"name":"Perfume Department","steam_id":76561198128299594,"connected_time":2017000000000,"state":"active","ping":76},{"user_id":213,"name":"bear1boss fan","steam_id":76561198047850813,"connected_time":809000000000,"state":"active","ping":44},{"user_id":223,"name":"Zokie0","steam_id":76561198056035567,"connected_time":62000000000,"state":"active","ping":116},{"user_id":224,"name":"Mitchell","steam_id":76561197972922328,"connected_time":39000000000,"state":"active","ping":82},{"user_id":184,"name":"rMuralCDLX","steam_id":76561198975798517,"connected_time":3651000000000,"state":"active","ping":88},{"user_id":209,"name":"mobe","steam_id":76561198121633820,"connected_time":1223000000000,"state":"active","ping":75},{"user_id":200,"name":"Lock'd","steam_id":76561198170108230,"connected_time":2041000000000,"state":"active","ping":73},{"user_id":91,"name":"Treekincko","steam_id":76561198047995911,"connected_time":9136000000000,"state":"active","ping":45},{"user_id":218,"name":"Oxferd Crow","steam_id":76561198096916018,"connected_time":432000000000,"state":"active","ping":74},{"user_id":208,"name":"trackpad gaming | f2p","steam_id":76561198840414371,"connected_time":1300000000000,"state":"active","ping":49},{"user_id":212,"name":"lili spacedust ezili","steam_id":76561199391478575,"connected_time":897000000000,"state":"active","ping":65},{"user_id":211,"name":"TrustyNumberTwo","steam_id":76561199158481147,"connected_time":1135000000000,"state":"active","ping":83},{"user_id":214,"name":"jayeskae","steam_id":76561198144220801,"connected_time":679000000000,"state":"active","ping":48},{"user_id":49,"name":"Neo Kojiro","steam_id":76561198000967076,"connected_time":13392000000000,"state":"active","ping":126},{"user_id":195,"name":"brent8382","steam_id":76561198212374755,"connected_time":2363000000000,"state":"active","ping":43},{"user_id":183,"name":"my monitor is off","steam_id":76561198074499537,"connected_time":3850000000000,"state":"active","ping":85},{"user_id":219,"name":"GeraldyJones65","steam_id":76561199122297098,"connected_time":422000000000,"state":"active","ping":117},{"user_id":189,"name":"mingo","steam_id":76561198308290211,"connected_time":3248000000000,"state":"active","ping":90}]},{"server_id":119,"name":"Uncletopia | Seattle | 2 | All Maps","name_short":"sea-2","host":"sea-1.us.uncletopia.com","port":27025,"enabled":true,"region":"us-west","cc":"us","latitude":47.608013,"longitude":-122.33517,"reserved":0,"last_update":"0001-01-01T00:00:00Z","name_a2s":"Uncletopia | Seattle | 2 | All Maps","protocol":17,"map":"cp_snakewater_final1","folder":"tf","game":"Team Fortress","app_id":440,"player_count":1,"max_players":24,"Bots":0,"server_type":"Dedicated","server_os":"Linux","password":true,"vac":true,"version":"7757534","steam_id":85568392924469998,"keywords":["cp","nocrits","nodmgspread","uncletopia"],"game_id":440,"stv_port":27026,"stv_name":"Uncletopia | Seattle | 2 | All Maps | STV","players":[{"user_id":5,"name":"ChromeOwl","steam_id":76561198953786715,"connected_time":117000000000,"state":"active","ping":55}]},{"server_id":406,"name":"Uncletopia | Seattle | 3 | Stopwatch Beta","name_short":"sea-3","host":"sea-1.us.uncletopia.com","port":27035,"enabled":true,"region":"us-west","cc":"us","latitude":47.608013,"longitude":-122.33517,"reserved":0,"last_update":"0001-01-01T00:00:00Z","name_a2s":"Uncletopia | Seattle | 3 | Stopwatch Beta","protocol":17,"map":"cp_dustbowl","folder":"tf","game":"Team Fortress","app_id":440,"player_count":0,"max_players":24,"Bots":0,"server_type":"Dedicated","server_os":"Linux","password":true,"vac":true,"version":"7757534","steam_id":85568392924515217,"keywords":["cp","nocrits","nodmgspread","uncletopia"],"game_id":440,"stv_port":27036,"stv_name":"Uncletopia | Seattle | 3 | Stopwatch Beta | STV","players":null},{"server_id":17,"name":"Uncletopia | San Francisco | 1 | All Maps","name_short":"sfo-1","host":"sfo-1.us.uncletopia.com","port":27015,"enabled":true,"region":"us-west","cc":"us","latitude":37.77397,"longitude":-122.4313,"reserved":0,"last_update":"0001-01-01T00:00:00Z","name_a2s":"Uncletopia | San Francisco | 1 | All Maps","protocol":17,"map":"pl_upward","folder":"tf","game":"Team Fortress","app_id":440,"player_count":23,"max_players":24,"Bots":0,"server_type":"Dedicated","server_os":"Linux","password":true,"vac":true,"version":"7757534","steam_id":85568392924469999,"keywords":["nocrits","nodmgspread","payload","uncletopia"],"game_id":440,"stv_port":27016,"stv_name":"Uncletopia | San Francisco | 1 | All Maps | STV","players":[{"user_id":26,"name":"Broker gaming","steam_id":76561198050584104,"connected_time":2245000000000,"state":"active","ping":172},{"user_id":47,"name":"Bony","steam_id":76561199001748822,"connected_time":382000000000,"state":"active","ping":52},{"user_id":28,"name":"PheebsyDeebsy","steam_id":76561198101509436,"connected_time":1419000000000,"state":"active","ping":49},{"user_id":45,"name":"Chum","steam_id":76561198299464018,"connected_time":484000000000,"state":"active","ping":67},{"user_id":48,"name":"yourlocaldm","steam_id":76561199220865606,"connected_time":382000000000,"state":"active","ping":114},{"user_id":31,"name":"GaMeRbOi","steam_id":76561199094353617,"connected_time":1060000000000,"state":"active","ping":73},{"user_id":43,"name":"spacetoven","steam_id":76561198115821131,"connected_time":535000000000,"state":"active","ping":45},{"user_id":33,"name":"weed","steam_id":76561198149929071,"connected_time":1020000000000,"state":"active","ping":67},{"user_id":58,"name":"CPUnit","steam_id":76561198162881878,"connected_time":146000000000,"state":"active","ping":88},{"user_id":35,"name":"sand hanitizer","steam_id":76561198109625221,"connected_time":759000000000,"state":"active","ping":113},{"user_id":36,"name":"town.midi","steam_id":76561198059041027,"connected_time":756000000000,"state":"active","ping":82},{"user_id":37,"name":"Remilia","steam_id":76561198055829498,"connected_time":690000000000,"state":"active","ping":124},{"user_id":39,"name":"Blitzy","steam_id":76561198149472890,"connected_time":652000000000,"state":"active","ping":77},{"user_id":40,"name":"Suns","steam_id":76561198272323195,"connected_time":644000000000,"state":"active","ping":113},{"user_id":41,"name":"CSharp","steam_id":76561199185191710,"connected_time":611000000000,"state":"active","ping":120},{"user_id":42,"name":"ratie","steam_id":76561198059399661,"connected_time":593000000000,"state":"active","ping":88},{"user_id":44,"name":"stboncho","steam_id":76561198172275301,"connected_time":535000000000,"state":"active","ping":57},{"user_id":46,"name":"RapidXenophage","steam_id":76561198175149973,"connected_time":481000000000,"state":"active","ping":78},{"user_id":56,"name":"God is real and you're a bot","steam_id":76561198452519031,"connected_time":194000000000,"state":"active","ping":69},{"user_id":57,"name":"HUESO","steam_id":76561198276383681,"connected_time":181000000000,"state":"active","ping":119},{"user_id":52,"name":"CollDragon","steam_id":76561198067534450,"connected_time":270000000000,"state":"active","ping":115},{"user_id":54,"name":"the killer","steam_id":76561198300167622,"connected_time":241000000000,"state":"active","ping":56},{"user_id":55,"name":"Koko","steam_id":76561199227724794,"connected_time":240000000000,"state":"active","ping":152}]},{"server_id":18,"name":"Uncletopia | San Francisco | 2 | All Maps","name_short":"sfo-2","host":"sfo-1.us.uncletopia.com","port":27025,"enabled":true,"region":"us-west","cc":"us","latitude":37.77397,"longitude":-122.4313,"reserved":0,"last_update":"0001-01-01T00:00:00Z","name_a2s":"Uncletopia | San Francisco | 2 | All Maps","protocol":17,"map":"koth_highpass","folder":"tf","game":"Team Fortress","app_id":440,"player_count":0,"max_players":24,"Bots":0,"server_type":"Dedicated","server_os":"Linux","password":true,"vac":true,"version":"7757534","steam_id":85568392924470000,"keywords":["cp","nocrits","nodmgspread","uncletopia"],"game_id":440,"stv_port":27026,"stv_name":"Uncletopia | San Francisco | 2 | All Maps | STV","players":null},{"server_id":19,"name":"Uncletopia | San Francisco | 3 | Stopwatch Beta","name_short":"sfo-3","host":"sfo-1.us.uncletopia.com","port":27035,"enabled":true,"region":"us-west","cc":"us","latitude":37.77397,"longitude":-122.4313,"reserved":0,"last_update":"0001-01-01T00:00:00Z","name_a2s":"Uncletopia | San Francisco | 3 | Stopwatch Beta","protocol":17,"map":"koth_lakeside_final","folder":"tf","game":"Team Fortress","app_id":440,"player_count":0,"max_players":24,"Bots":0,"server_type":"Dedicated","server_os":"Linux","password":true,"vac":true,"version":"7757534","steam_id":85568392924742824,"keywords":["cp","nocrits","nodmgspread","uncletopia"],"game_id":440,"stv_port":27036,"stv_name":"Uncletopia | San Francisco | 3 | Stopwatch Beta | STV","players":null},{"server_id":20,"name":"Uncletopia | San Francisco | 4 | Community","name_short":"sfo-4","host":"sfo-1.us.uncletopia.com","port":27045,"enabled":true,"region":"us-west","cc":"us","latitude":37.77397,"longitude":-122.4313,"reserved":0,"last_update":"0001-01-01T00:00:00Z","name_a2s":"Uncletopia | San Francisco | 4 | Community","protocol":17,"map":"cp_altitude","folder":"tf","game":"Team Fortress","app_id":440,"player_count":0,"max_players":24,"Bots":0,"server_type":"Dedicated","server_os":"Linux","password":true,"vac":true,"version":"7757534","steam_id":85568392924742826,"keywords":["cp","nocrits","nodmgspread","uncletopia"],"game_id":440,"stv_port":27046,"stv_name":"Uncletopia | San Francisco | 4 | Community | STV","players":null},{"server_id":141,"name":"Uncletopia | Sydney | 1 | All Maps","name_short":"syd-1","host":"syd-1.au.uncletopia.com","port":27015,"enabled":true,"region":"au","cc":"au","latitude":-33.865143,"longitude":151.2099,"reserved":0,"last_update":"0001-01-01T00:00:00Z","name_a2s":"Uncletopia | Sydney | 1 | All Maps","protocol":17,"map":"pl_frontier_final","folder":"tf","game":"Team Fortress","app_id":440,"player_count":0,"max_players":24,"Bots":0,"server_type":"Dedicated","server_os":"Linux","password":true,"vac":true,"version":"7757534","steam_id":85568392924470001,"keywords":["nocrits","nodmgspread","payload","uncletopia"],"game_id":440,"stv_port":27016,"stv_name":"Uncletopia | Sydney | 1 | All Maps | STV","players":null},{"server_id":123,"name":"Uncletopia | Sydney | 2 | All Maps","name_short":"syd-2","host":"syd-1.au.uncletopia.com","port":27025,"enabled":true,"region":"au","cc":"au","latitude":-33.865143,"longitude":151.2099,"reserved":0,"last_update":"0001-01-01T00:00:00Z","name_a2s":"Uncletopia | Sydney | 2 | All Maps","protocol":17,"map":"cp_snakewater_final1","folder":"tf","game":"Team Fortress","app_id":440,"player_count":0,"max_players":24,"Bots":0,"server_type":"Dedicated","server_os":"Linux","password":true,"vac":true,"version":"7757534","steam_id":85568392924470002,"keywords":["cp","nocrits","nodmgspread","uncletopia"],"game_id":440,"stv_port":27026,"stv_name":"Uncletopia | Sydney | 2 | All Maps | STV","players":null},{"server_id":395,"name":"Uncletopia | Sydney | 3 | All Maps","name_short":"syd-3","host":"syd-1.au.uncletopia.com","port":27035,"enabled":true,"region":"au","cc":"au","latitude":-33.865143,"longitude":151.2099,"reserved":0,"last_update":"0001-01-01T00:00:00Z","name_a2s":"Uncletopia | Sydney | 3 | All Maps","protocol":17,"map":"cp_dustbowl","folder":"tf","game":"Team Fortress","app_id":440,"player_count":0,"max_players":24,"Bots":0,"server_type":"Dedicated","server_os":"Linux","password":true,"vac":true,"version":"7757534","steam_id":85568392925194467,"keywords":["cp","nocrits","nodmgspread","uncletopia"],"game_id":440,"stv_port":27036,"stv_name":"Uncletopia | Sydney | 3 | All Maps | STV","players":null},{"server_id":396,"name":"Uncletopia | Sydney | 4 | All Maps","name_short":"syd-4","host":"syd-1.au.uncletopia.com","port":27045,"enabled":true,"region":"au","cc":"au","latitude":-33.865143,"longitude":151.2099,"reserved":0,"last_update":"0001-01-01T00:00:00Z","name_a2s":"Uncletopia | Sydney | 4 | All Maps","protocol":17,"map":"koth_lakeside_final","folder":"tf","game":"Team Fortress","app_id":440,"player_count":0,"max_players":24,"Bots":0,"server_type":"Dedicated","server_os":"Linux","password":true,"vac":true,"version":"7757534","steam_id":85568392925397958,"keywords":["cp","nocrits","nodmgspread","uncletopia"],"game_id":440,"stv_port":27046,"stv_name":"Uncletopia | Sydney | 4 | All Maps | STV","players":null},{"server_id":58,"name":"Uncletopia | Sydney | 5 | Stopwatch Beta","name_short":"syd-5","host":"syd-1.au.uncletopia.com","port":27055,"enabled":true,"region":"au","cc":"au","latitude":-33.865143,"longitude":151.2099,"reserved":0,"last_update":"0001-01-01T00:00:00Z","name_a2s":"Uncletopia | Sydney | 5 | Stopwatch Beta","protocol":17,"map":"workshop/pl_badwater_pro_v12.ugc2142942074","folder":"tf","game":"Team Fortress","app_id":440,"player_count":0,"max_players":24,"Bots":0,"server_type":"Dedicated","server_os":"Linux","password":true,"vac":true,"version":"7757534","steam_id":85568392925397959,"keywords":["nocrits","nodmgspread","payload","uncletopia"],"game_id":440,"stv_port":27056,"stv_name":"Uncletopia | Sydney | 5 | Stopwatch Beta | STV","players":null},{"server_id":59,"name":"Uncletopia | Sydney | 6 | Community","name_short":"syd-6","host":"syd-1.au.uncletopia.com","port":27065,"enabled":true,"region":"au","cc":"au","latitude":-33.865143,"longitude":151.2099,"reserved":0,"last_update":"0001-01-01T00:00:00Z","name_a2s":"Uncletopia | Sydney | 6 | Community","protocol":17,"map":"workshop/koth_slaughter_rc1.ugc1712845210","folder":"tf","game":"Team Fortress","app_id":440,"player_count":0,"max_players":24,"Bots":0,"server_type":"Dedicated","server_os":"Linux","password":true,"vac":true,"version":"7757534","steam_id":85568392925397960,"keywords":["cp","nocrits","nodmgspread","uncletopia"],"game_id":440,"stv_port":27066,"stv_name":"Uncletopia | Sydney | 6 | Community | STV","players":null},{"server_id":49,"name":"Uncletopia | Warsaw | 1 | All Maps","name_short":"waw-1","host":"waw-1.pl.uncletopia.com","port":27015,"enabled":true,"region":"eu","cc":"pl","latitude":52.2297,"longitude":21.017532,"reserved":0,"last_update":"0001-01-01T00:00:00Z","name_a2s":"","protocol":0,"map":"","folder":"","game":"","app_id":0,"player_count":0,"max_players":0,"Bots":0,"server_type":"","server_os":"","password":false,"vac":false,"version":"","steam_id":0,"keywords":null,"game_id":0,"stv_port":0,"stv_name":"","players":null},{"server_id":50,"name":"Uncletopia | Warsaw | 2 | All Maps","name_short":"waw-2","host":"waw-1.pl.uncletopia.com","port":27025,"enabled":true,"region":"eu","cc":"pl","latitude":52.2297,"longitude":21.017532,"reserved":0,"last_update":"0001-01-01T00:00:00Z","name_a2s":"Uncletopia | Warsaw | 2 | All Maps","protocol":17,"map":"koth_viaduct","folder":"tf","game":"Team Fortress","app_id":440,"player_count":0,"max_players":24,"Bots":0,"server_type":"Dedicated","server_os":"Linux","password":true,"vac":true,"version":"7757534","steam_id":85568392925397851,"keywords":["cp","nocrits","nodmgspread","uncletopia"],"game_id":440,"stv_port":27026,"stv_name":"Uncletopia | Warsaw | 2 | All Maps | STV","players":null},{"server_id":51,"name":"Uncletopia | Warsaw | 3 | All Maps","name_short":"waw-3","host":"waw-1.pl.uncletopia.com","port":27035,"enabled":true,"region":"eu","cc":"pl","latitude":52.2297,"longitude":21.017532,"reserved":0,"last_update":"0001-01-01T00:00:00Z","name_a2s":"Uncletopia | Warsaw | 3 | All Maps","protocol":17,"map":"pl_pier","folder":"tf","game":"Team Fortress","app_id":440,"player_count":0,"max_players":24,"Bots":0,"server_type":"Dedicated","server_os":"Linux","password":true,"vac":true,"version":"7757534","steam_id":85568392925397852,"keywords":["nocrits","nodmgspread","payload","uncletopia"],"game_id":440,"stv_port":27036,"stv_name":"Uncletopia | Warsaw | 3 | All Maps | STV","players":null},{"server_id":52,"name":"Uncletopia | Warsaw | 4 | All Maps","name_short":"waw-4","host":"waw-1.pl.uncletopia.com","port":27045,"enabled":true,"region":"eu","cc":"pl","latitude":52.2297,"longitude":21.017532,"reserved":0,"last_update":"0001-01-01T00:00:00Z","name_a2s":"Uncletopia | Warsaw | 4 | All Maps","protocol":17,"map":"koth_lakeside_final","folder":"tf","game":"Team Fortress","app_id":440,"player_count":0,"max_players":24,"Bots":0,"server_type":"Dedicated","server_os":"Linux","password":true,"vac":true,"version":"7757534","steam_id":85568392925397853,"keywords":["cp","nocrits","nodmgspread","uncletopia"],"game_id":440,"stv_port":27046,"stv_name":"Uncletopia | Warsaw | 4 | All Maps | STV","players":null},{"server_id":53,"name":"Uncletopia | Warsaw | 5 | Stopwatch Beta","name_short":"waw-5","host":"waw-1.pl.uncletopia.com","port":27055,"enabled":true,"region":"eu","cc":"pl","latitude":52.2297,"longitude":21.017532,"reserved":0,"last_update":"0001-01-01T00:00:00Z","name_a2s":"Uncletopia | Warsaw | 5 | Stopwatch Beta","protocol":17,"map":"pl_borneo","folder":"tf","game":"Team Fortress","app_id":440,"player_count":0,"max_players":24,"Bots":0,"server_type":"Dedicated","server_os":"Linux","password":true,"vac":true,"version":"7757534","steam_id":85568392925397854,"keywords":["nocrits","nodmgspread","payload","uncletopia"],"game_id":440,"stv_port":27056,"stv_name":"Uncletopia | Warsaw | 5 | Stopwatch Beta | STV","players":null},{"server_id":54,"name":"Uncletopia | Warsaw | 6 | Community","name_short":"waw-6","host":"waw-1.pl.uncletopia.com","port":27065,"enabled":true,"region":"eu","cc":"pl","latitude":52.2297,"longitude":21.017532,"reserved":0,"last_update":"0001-01-01T00:00:00Z","name_a2s":"Uncletopia | Warsaw | 6 | Community","protocol":17,"map":"workshop/cp_indulge.ugc528106646","folder":"tf","game":"Team Fortress","app_id":440,"player_count":0,"max_players":24,"Bots":0,"server_type":"Dedicated","server_os":"Linux","password":true,"vac":true,"version":"7757534","steam_id":85568392925397856,"keywords":["cp","nocrits","nodmgspread","uncletopia"],"game_id":440,"stv_port":27066,"stv_name":"Uncletopia | Warsaw | 6 | Community | STV","players":null}]}