{"status":true,"message":"","result":[{"server_id":9,"name":"Uncletopia | Atlanta | 1 | All Maps","name_short":"atl-1","host":"atl-1.us.uncletopia.com","port":27015,"enabled":true,"region":"us-east","cc":"us","latitude":33.753746,"longitude":-84.38633,"reserved":0,"last_update":"0001-01-01T00:00:00Z","name_a2s":"Uncletopia | Atlanta | 1 | All Maps","protocol":17,"map":"koth_lakeside_final","folder":"tf","game":"Team Fortress","app_id":440,"player_count":24,"max_players":24,"Bots":0,"server_type":"Dedicated","server_os":"Linux","password":true,"vac":true,"version":"7961495","steam_id":85568392924469982,"keywords":["cp","nocrits","nodmgspread","uncletopia"],"game_id":440,"stv_port":27016,"stv_name":"Uncletopia | Atlanta | 1 | All Maps | STV","players":[{"user_id":21,"name":"Obelisk","steam_id":76561198049416866,"connected_time":10150000000000,"state":"active","ping":50},{"user_id":143,"name":"ATL 1 | Save your wifi","steam_id":76561198286147372,"connected_time":709000000000,"state":"active","ping":65},{"user_id":138,"name":"Erchius","steam_id":76561198256892300,"connected_time":1142000000000,"state":"active","ping":61},{"user_id":92,"name":"kite","steam_id":76561198346516392,"connected_time":4293000000000,"state":"active","ping":82},{"user_id":146,"name":"pepsibobby","steam_id":76561198853864511,"connected_time":646000000000,"state":"active","ping":63},{"user_id":70,"name":"z","steam_id":76561198377478982,"connected_time":6068000000000,"state":"active","ping":71},{"user_id":148,"name":"THE CUMEST LORD","steam_id":76561198061412592,"connected_time":621000000000,"state":"active","ping":87},{"user_id":140,"name":"lynt","steam_id":76561198988333976,"connected_time":1122000000000,"state":"active","ping":40},{"user_id":147,"name":"Nexusuxen","steam_id":76561198117547131,"connected_time":644000000000,"state":"active","ping":86},{"user_id":145,"name":"Neptune˖⁺｡˚⋆˙♥","steam_id":76561199054203198,"connected_time":680000000000,"state":"active","ping":72},{"user_id":150,"name":"YolkOnYou","steam_id":76561198088760655,"connected_time":402000000000,"state":"active","ping":83},{"user_id":127,"name":"Young-OG","steam_id":76561198058800479,"connected_time":2041000000000,"state":"active","ping":61},{"user_id":72,"name":"ATL1 | cola","steam_id":76561198374390458,"connected_time":5842000000000,"state":"active","ping":66},{"user_id":152,"name":"5-MeO-DMT","steam_id":76561198089527768,"connected_time":118000000000,"state":"active","ping":77},{"user_id":117,"name":"Dread Pierat Squeaks","steam_id":76561198413602368,"connected_time":2165000000000,"state":"active","ping":55},{"user_id":94,"name":"ATL1 | on my hunting trip","steam_id":76561198315341646,"connected_time":4248000000000,"state":"active","ping":73},{"user_id":128,"name":"Hyper","steam_id":76561199102864718,"connected_time":1993000000000,"state":"active","ping":83},{"user_id":139,"name":"FedSmoker","steam_id":76561198255854081,"connected_time":1126000000000,"state":"active","ping":115},{"user_id":83,"name":"Mint Jelly","steam_id":76561197991286751,"connected_time":5286000000000,"state":"active","ping":59},{"user_id":119,"name":"MinimanC","steam_id":76561198071475084,"connected_time":2159000000000,"state":"active","ping":83},{"user_id":134,"name":"diddy bop","steam_id":76561198327633561,"connected_time":1769000000000,"state":"active","ping":86},{"user_id":151,"name":"Ulrich Stern","steam_id":76561198101739682,"connected_time":300000000000,"state":"active","ping":93},{"user_id":111,"name":"freyjaaaaaaaaaaaaaaaaaaaaaaaaaa","steam_id":76561198249206656,"connected_time":3199000000000,"state":"active","ping":77},{"user_id":122,"name":"Joyous Jenny","steam_id":76561198127998866,"connected_time":2157000000000,"state":"active","ping":70}]},{"server_id":104,"name":"Uncletopia | Atlanta | 2 | All Maps","name_short":"atl-2","host":"atl-1.us.uncletopia.com","port":27025,"enabled":true,"region":"us-east","cc":"us","latitude":33.753746,"longitude":-84.38633,"reserved":0,"last_update":"0001-01-01T00:00:00Z","name_a2s":"Uncletopia | Atlanta | 2 | All Maps","protocol":17,"map":"koth_cascade","folder":"tf","game":"Team Fortress","app_id":440,"player_count":0,"max_players":24,"Bots":0,"server_type":"Dedicated","server_os":"Linux","password":true,"vac":true,"version":"7961495","steam_id":85568392924469983,"keywords":["cp","nocrits","nodmgspread","uncletopia"],"game_id":440,"stv_port":27026,"stv_name":"Uncletopia | Atlanta | 2 | All Maps | STV","players":null},{"server_id":400,"name":"Uncletopia | Atlanta | 3 | Stopwatch","name_short":"atl-3","host":"atl-1.us.uncletopia.com","port":27035,"enabled":true,"region":"us-east","cc":"us","latitude":33.753746,"longitude":-84.38633,"reserved":0,"last_update":"0001-01-01T00:00:00Z","name_a2s":"Uncletopia | Atlanta | 3 | Stopwatch","protocol":17,"map":"pl_badwater","folder":"tf","game":"Team Fortress","app_id":440,"player_count":0,"max_players":24,"Bots":0,"server_type":"Dedicated","server_os":"Linux","password":true,"vac":true,"version":"7961495","steam_id":85568392924515187,"keywords":["nocrits","nodmgspread","payload","uncletopia"],"game_id":440,"stv_port":27036,"stv_name":"Uncletopia | Atlanta | 3 | Stopwatch | STV","players":null},{"server_id":401,"name":"Uncletopia | Atlanta | 4 | Community","name_short":"atl-4","host":"atl-1.us.uncletopia.com","port":27045,"enabled":true,"region":"us-east","cc":"us","latitude":33.753746,"longitude":-84.38633,"reserved":0,"last_update":"0001-01-01T00:00:00Z","name_a2s":"Uncletopia | Atlanta | 4 | Community","protocol":17,"map":"cp_sunshine","folder":"tf","game":"Team Fortress","app_id":440,"player_count":0,"max_players":24,"Bots":0,"server_type":"Dedicated","server_os":"Linux","password":true,"vac":true,"version":"7961495","steam_id":85568392924515188,"keywords":["cp","nocrits","nodmgspread","uncletopia"],"game_id":440,"stv_port":27046,"stv_name":"Uncletopia | Atlanta | 4 | Community | STV","players":null},{"server_id":2,"name":"Uncletopia | Chicago | 1 | All Maps","name_short":"chi-1","host":"chi-1.us.uncletopia.com","port":27015,"enabled":true,"region":"us-central","cc":"us","latitude":41.881832,"longitude":-87.62318,"reserved":0,"last_update":"0001-01-01T00:00:00Z","name_a2s":"Uncletopia | Chicago | 1 | All Maps","protocol":17,"map":"pl_barnblitz","folder":"tf","game":"Team Fortress","app_id":440,"player_count":24,"max_players":24,"Bots":0,"server_type":"Dedicated","server_os":"Linux","password":true,"vac":true,"version":"7961495","steam_id":85568392924469984,"keywords":["nocrits","nodmgspread","payload","uncletopia"],"game_id":440,"stv_port":27016,"stv_name":"Uncletopia | Chicago | 1 | All Maps | STV","players":[{"user_id":159,"name":"Boxsnake","steam_id":76561198074526086,"connected_time":57000000000,"state":"active","ping":76},{"user_id":143,"name":"normal human","steam_id":76561198202589758,"connected_time":1365000000000,"state":"active","ping":74},{"user_id":11,"name":"dicksnip","steam_id":76561198356515396,"connected_time":4608000000000,"state":"active","ping":84},{"user_id":149,"name":"Comfy!","steam_id":76561198008818346,"connected_time":894000000000,"state":"active","ping":82},{"user_id":92,"name":"Bobby","steam_id":76561198037803087,"connected_time":2756000000000,"state":"active","ping":69},{"user_id":138,"name":"La Tabda","steam_id":76561198120364620,"connected_time":1527000000000,"state":"active","ping":91},{"user_id":150,"name":"LOW INTELLIGENCE SPECIMEN","steam_id":76561198333985626,"connected_time":882000000000,"state":"active","ping":65},{"user_id":152,"name":"Mog","steam_id":76561198025575870,"connected_time":870000000000,"state":"active","ping":61},{"user_id":105,"name":"Cassini","steam_id":76561198318526294,"connected_time":2662000000000,"state":"active","ping":63},{"user_id":158,"name":"Scuba Steve","steam_id":76561198313018251,"connected_time":275000000000,"state":"active","ping":86},{"user_id":128,"name":"Slip","steam_id":76561199057232579,"connected_time":2150000000000,"state":"active","ping":51},{"user_id":156,"name":"Grunkie_Chubs","steam_id":76561198272017187,"connected_time":832000000000,"state":"active","ping":52},{"user_id":87,"name":"Esteban Delsin","steam_id":76561198433519639,"connected_time":2833000000000,"state":"active","ping":100},{"user_id":29,"name":"Captain","steam_id":76561198155723294,"connected_time":3760000000000,"state":"active","ping":56},{"user_id":130,"name":"Gangbang Venture Capitalist","steam_id":76561198188115438,"connected_time":2056000000000,"state":"active","ping":121},{"user_id":146,"name":"Anth0ny (Lv. 1 Goober)","steam_id":76561198316731410,"connected_time":907000000000,"state":"active","ping":81},{"user_id":157,"name":"LesbianRobot","steam_id":76561199274191548,"connected_time":822000000000,"state":"active","ping":88},{"user_id":140,"name":"Raizen","steam_id":76561199092445367,"connected_time":1451000000000,"state":"active","ping":55},{"user_id":144,"name":"Confused Rock","steam_id":76561198051763034,"connected_time":1087000000000,"state":"active","ping":65},{"user_id":147,"name":"Sea Raider","steam_id":76561198055654064,"connected_time":906000000000,"state":"active","ping":90},{"user_id":95,"name":"Smog","steam_id":76561198043705383,"connected_time":2721000000000,"state":"active","ping":73},{"user_id":148,"name":"epic_corndog","steam_id":76561198061530137,"connected_time":906000000000,"state":"active","ping":38},{"user_id":77,"name":"average haunted mound fan","steam_id":76561198315692300,"connected_time":2947000000000,"state":"active","ping":49},{"user_id":100,"name":"Pvt. Parts","steam_id":76561198375915439,"connected_time":2688000000000,"state":"active","ping":63}]},{"server_id":106,"name":"Uncletopia | Chicago | 2 | All Maps","name_short":"chi-2","host":"chi-1.us.uncletopia.com","port":27025,"enabled":true,"region":"us-central","cc":"us","latitude":41.881832,"longitude":-87.62318,"reserved":0,"last_update":"0001-01-01T00:00:00Z","name_a2s":"Uncletopia | Chicago | 2 | All Maps","protocol":17,"map":"pl_borneo","folder":"tf","game":"Team Fortress","app_id":440,"player_count":1,"max_players":24,"Bots":0,"server_type":"Dedicated","server_os":"Linux","password":true,"vac":true,"version":"7961495","steam_id":85568392924469985,"keywords":["nocrits","nodmgspread","payload","uncletopia"],"game_id":440,"stv_port":27026,"stv_name":"Uncletopia | Chicago | 2 | All Maps | STV","players":[{"user_id":8,"name":"The Heart","steam_id":76561198271979288,"connected_time":185000000000,"state":"active","ping":43}]},{"server_id":402,"name":"Uncletopia | Chicago | 3 | All Maps","name_short":"chi-3","host":"chi-1.us.uncletopia.com","port":27035,"enabled":true,"region":"us-central","cc":"us","latitude":41.881832,"longitude":-87.62318,"reserved":0,"last_update":"0001-01-01T00:00:00Z","name_a2s":"Uncletopia | Chicago | 3 | All Maps","protocol":17,"map":"pl_upward","folder":"tf","game":"Team Fortress","app_id":440,"player_count":0,"max_players":24,"Bots":0,"server_type":"Dedicated","server_os":"Linux","password":true,"vac":true,"version":"7961495","steam_id":85568392924515191,"keywords":["nocrits","nodmgspread","payload","uncletopia"],"game_id":440,"stv_port":27036,"stv_name":"Uncletopia | Chicago | 3 | All Maps | STV","players":null},{"server_id":403,"name":"Uncletopia | Chicago | 4 | All Maps","name_short":"chi-4","host":"chi-1.us.uncletopia.com","port":27045,"enabled":true,"region":"us-central","cc":"us","latitude":41.881832,"longitude":-87.62318,"reserved":0,"last_update":"0001-01-01T00:00:00Z","name_a2s":"Uncletopia | Chicago | 4 | All Maps","protocol":17,"map":"pl_hoodoo_final","folder":"tf","game":"Team Fortress","app_id":440,"player_count":24,"max_players":24,"Bots":0,"server_type":"Dedicated","server_os":"Linux","password":true,"vac":true,"version":"7961495","steam_id":85568392924515193,"keywords":["nocrits","nodmgspread","payload","uncletopia"],"game_id":440,"stv_port":27046,"stv_name":"Uncletopia | Chicago | 4 | All Maps | STV","players":[{"user_id":228,"name":"pea ttv/peabeanz","steam_id":76561198119551968,"connected_time":4225000000000,"state":"active","ping":78},{"user_id":268,"name":"[㏈] Bumpercars","steam_id":76561198061591743,"connected_time":1778000000000,"state":"active","ping":62},{"user_id":287,"name":"Mong","steam_id":76561198891218910,"connected_time":506000000000,"state":"active","ping":172},{"user_id":254,"name":"DanniF360","steam_id":76561198096393812,"connected_time":2408000000000,"state":"active","ping":75},{"user_id":277,"name":"need a dispenser here","steam_id":76561198060912995,"connected_time":1025000000000,"state":"active","ping":78},{"user_id":280,"name":"TheSausageSwiper","steam_id":76561198972869845,"connected_time":945000000000,"state":"active","ping":107},{"user_id":285,"name":"Scorpianswag","steam_id":76561198260651036,"connected_time":658000000000,"state":"active","ping":90},{"user_id":275,"name":"SecondCarpet","steam_id":76561199008323078,"connected_time":1056000000000,"state":"active","ping":71},{"user_id":266,"name":"Lifial","steam_id":76561198271885819,"connected_time":1863000000000,"state":"active","ping":70},{"user_id":243,"name":"Rornir","steam_id":76561198081829615,"connected_time":3103000000000,"state":"active","ping":41},{"user_id":241,"name":"CHAI","steam_id":76561198119556082,"connected_time":3191000000000,"state":"active","ping":56},{"user_id":255,"name":"Gooper Blooper","steam_id":76561198067174070,"connected_time":2405000000000,"state":"active","ping":89},{"user_id":281,"name":"Andrew's Taint","steam_id":76561198131400543,"connected_time":915000000000,"state":"active","ping":68},{"user_id":271,"name":"super clickteam fusion","steam_id":76561198275101482,"connected_time":1616000000000,"state":"active","ping":136},{"user_id":249,"name":"Swedish Crowbar","steam_id":76561199105488936,"connected_time":2924000000000,"state":"active","ping":146},{"user_id":269,"name":"TeriyakiDynamite","steam_id":76561198050049346,"connected_time":1706000000000,"state":"active","ping":118},{"user_id":279,"name":"[㏈] Britsilov","steam_id":76561199170203468,"connected_time":1007000000000,"state":"active","ping":122},{"user_id":264,"name":"god","steam_id":76561198278008225,"connected_time":2215000000000,"state":"active","ping":89},{"user_id":282,"name":"glitch","steam_id":76561197979495589,"connected_time":915000000000,"state":"active","ping":69},{"user_id":231,"name":"ThatGamingKiwi","steam_id":76561199170522237,"connected_time":4217000000000,"state":"active","ping":81},{"user_id":283,"name":"NoobsSlayer","steam_id":76561199102765122,"connected_time":903000000000,"state":"active","ping":143},{"user_id":284,"name":"TJGSASQUATCH","steam_id":76561198077806921,"connected_time":897000000000,"state":"active","ping":80},{"user_id":289,"name":"The Spook","steam_id":76561198017771669,"connected_time":338000000000,"state":"active","ping":176},{"user_id":246,"name":"Tablaro","steam_id":76561198076915673,"connected_time":3085000000000,"state":"active","ping":81}]},{"server_id":36,"name":"Uncletopia | Chicago | 5 | All Maps","name_short":"chi-5","host":"chi-2.us.uncletopia.com","port":27015,"enabled":true,"region":"us-central","cc":"us","latitude":41.881832,"longitude":-87.62318,"reserved":0,"last_update":"0001-01-01T00:00:00Z","name_a2s":"Uncletopia | Chicago | 5 | All Maps","protocol":17,"map":"koth_viaduct","folder":"tf","game":"Team Fortress","app_id":440,"player_count":0,"max_players":24,"Bots":0,"server_type":"Dedicated","server_os":"Linux","password":true,"vac":true,"version":"7961495","steam_id":85568392924866362,"keywords":["cp","nocrits","nodmgspread","uncletopia"],"game_id":440,"stv_port":27016,"stv_name":"Uncletopia | Chicago | 5 | All Maps | STV","players":null},{"server_id":37,"name":"Uncletopia | Chicago | 6 | All Maps","name_short":"chi-6","host":"chi-2.us.uncletopia.com","port":27025,"enabled":true,"region":"us-central","cc":"us","latitude":41.881832,"longitude":-87.62318,"reserved":0,"last_update":"0001-01-01T00:00:00Z","name_a2s":"Uncletopia | Chicago | 6 | All Maps","protocol":17,"map":"cp_snakewater_final1","folder":"tf","game":"Team Fortress","app_id":440,"player_count":0,"max_players":24,"Bots":0,"server_type":"Dedicated","server_os":"Linux","password":true,"vac":true,"version":"7961495","steam_id":85568392924866363,"keywords":["cp","nocrits","nodmgspread","uncletopia"],"game_id":440,"stv_port":27026,"stv_name":"Uncletopia | Chicago | 6 | All Maps | STV","players":null},{"server_id":38,"name":"Uncletopia | Chicago | 7 | Stopwatch","name_short":"chi-7","host":"chi-2.us.uncletopia.com","port":27035,"enabled":true,"region":"us-central","cc":"us","latitude":41.881832,"longitude":-87.62318,"reserved":0,"last_update":"0001-01-01T00:00:00Z","name_a2s":"Uncletopia | Chicago | 7 | Stopwatch","protocol":17,"map":"pl_badwater","folder":"tf","game":"Team Fortress","app_id":440,"player_count":0,"max_players":24,"Bots":0,"server_type":"Dedicated","server_os":"Linux","password":true,"vac":true,"version":"7961495","steam_id":85568392924866364,"keywords":["nocrits","nodmgspread","payload","uncletopia"],"game_id":440,"stv_port":27036,"stv_name":"Uncletopia | Chicago | 7 | Stopwatch | STV","players":null},{"server_id":39,"name":"Uncletopia | Chicago | 8 | Community","name_short":"chi-8","host":"chi-2.us.uncletopia.com","port":27045,"enabled":true,"region":"us-central","cc":"us","latitude":41.881832,"longitude":-87.62318,"reserved":0,"last_update":"0001-01-01T00:00:00Z","name_a2s":"Uncletopia | Chicago | 8 | Community","protocol":17,"map":"workshop/koth_kemptown_rc1.ugc767410655","folder":"tf","game":"Team Fortress","app_id":440,"player_count":0,"max_players":24,"Bots":0,"server_type":"Dedicated","server_os":"Linux","password":true,"vac":true,"version":"7961495","steam_id":85568392924866365,"keywords":["cp","nocrits","nodmgspread","uncletopia"],"game_id":440,"stv_port":27046,"stv_name":"Uncletopia | Chicago | 8 | Community | STV","players":null},{"server_id":8,"name":"Uncletopia | Dallas | 1 | All Maps","name_short":"dal-1","host":"dal-1.us.uncletopia.com","port":27015,"enabled":true,"region":"us-central","cc":"us","latitude":32.779167,"longitude":-96.80889,"reserved":0,"last_update":"0001-01-01T00:00:00Z","name_a2s":"Uncletopia | Dallas | 1 | All Maps","protocol":17,"map":"koth_highpass","folder":"tf","game":"Team Fortress","app_id":440,"player_count":0,"max_players":24,"Bots":0,"server_type":"Dedicated","server_os":"Linux","password":true,"vac":true,"version":"7961495","steam_id":85568392924469986,"keywords":["cp","nocrits","nodmgspread","uncletopia"],"game_id":440,"stv_port":27016,"stv_name":"Uncletopia | Dallas | 1 | All Maps | STV","players":null},{"server_id":108,"name":"Uncletopia | Dallas | 2 | All Maps","name_short":"dal-2","host":"dal-1.us.uncletopia.com","port":27025,"enabled":true,"region":"us-central","cc":"us","latitude":32.779167,"longitude":-96.80889,"reserved":0,"last_update":"0001-01-01T00:00:00Z","name_a2s":"Uncletopia | Dallas | 2 | All Maps","protocol":17,"map":"pl_pier","folder":"tf","game":"Team Fortress","app_id":440,"player_count":0,"max_players":24,"Bots":0,"server_type":"Dedicated","server_os":"Linux","password":true,"vac":true,"version":"7961495","steam_id":85568392924469988,"keywords":["nocrits","nodmgspread","payload","uncletopia"],"game_id":440,"stv_port":27026,"stv_name":"Uncletopia | Dallas | 2 | All Maps | STV","players":null},{"server_id":404,"name":"Uncletopia | Dallas | 3 | All Maps","name_short":"dal-3","host":"dal-1.us.uncletopia.com","port":27035,"enabled":true,"region":"us-central","cc":"us","latitude":32.779167,"longitude":-96.80889,"reserved":0,"last_update":"0001-01-01T00:00:00Z","name_a2s":"Uncletopia | Dallas | 3 | All Maps","protocol":17,"map":"pl_badwater","folder":"tf","game":"Team Fortress","app_id":440,"player_count":0,"max_players":24,"Bots":0,"server_type":"Dedicated","server_os":"Linux","password":true,"vac":true,"version":"7961495","steam_id":85568392924515219,"keywords":["nocrits","nodmgspread","payload","uncletopia"],"game_id":440,"stv_port":27036,"stv_name":"Uncletopia | Dallas | 3 | All Maps | STV","players":null},{"server_id":405,"name":"Uncletopia | Dallas | 4 | Community","name_short":"dal-4","host":"dal-1.us.uncletopia.com","port":27045,"enabled":true,"region":"us-central","cc":"us","latitude":32.779167,"longitude":-96.80889,"reserved":0,"last_update":"0001-01-01T00:00:00Z","name_a2s":"Uncletopia | Dallas | 4 | Community","protocol":17,"map":"pl_pier","folder":"tf","game":"Team Fortress","app_id":440,"player_count":0,"max_players":24,"Bots":0,"server_type":"Dedicated","server_os":"Linux","password":true,"vac":true,"version":"7961495","steam_id":85568392924515220,"keywords":["nocrits","nodmgspread","payload","uncletopia"],"game_id":440,"stv_port":27046,"stv_name":"Uncletopia | Dallas | 4 | Community | STV","players":null},{"server_id":5,"name":"Uncletopia | Frankfurt | 1 | All Maps","name_short":"frk-1","host":"frk-1.de.uncletopia.com","port":27015,"enabled":true,"region":"eu","cc":"de","latitude":50.110924,"longitude":8.682127,"reserved":0,"last_update":"0001-01-01T00:00:00Z","name_a2s":"Uncletopia | Frankfurt | 1 | All Maps","protocol":17,"map":"pl_upward","folder":"tf","game":"Team Fortress","app_id":440,"player_count":24,"max_players":24,"Bots":0,"server_type":"Dedicated","server_os":"Linux","password":true,"vac":true,"version":"7961495","steam_id":85568392924469989,"keywords":["nocrits","nodmgspread","payload","uncletopia"],"game_id":440,"stv_port":27016,"stv_name":"Uncletopia | Frankfurt | 1 | All Maps | STV","players":[{"user_id":287,"name":"LeGerooo","steam_id":76561199110422160,"connected_time":1773000000000,"state":"active","ping":91},{"user_id":297,"name":"Banana khan (F2P)","steam_id":76561198992414056,"connected_time":1178000000000,"state":"active","ping":180},{"user_id":268,"name":"Gaxkang","steam_id":76561198125768571,"connected_time":2871000000000,"state":"active","ping":66},{"user_id":262,"name":"Chopperson_","steam_id":76561198873728497,"connected_time":3524000000000,"state":"active","ping":107},{"user_id":298,"name":"sleeping souls","steam_id":76561198205464653,"connected_time":1080000000000,"state":"active","ping":68},{"user_id":299,"name":"BIG SHOT","steam_id":76561198418020183,"connected_time":1067000000000,"state":"active","ping":86},{"user_id":321,"name":"FNF","steam_id":76561199151422826,"connected_time":207000000000,"state":"active","ping":129},{"user_id":304,"name":"скажи банка","steam_id":76561199299111849,"connected_time":928000000000,"state":"active","ping":61},{"user_id":323,"name":"Hanni","steam_id":76561198374117962,"connected_time":131000000000,"state":"active","ping":67},{"user_id":273,"name":"greezelag","steam_id":76561198053015949,"connected_time":2729000000000,"state":"active","ping":62},{"user_id":281,"name":"Spinya","steam_id":76561198086653667,"connected_time":2186000000000,"state":"active","ping":60},{"user_id":301,"name":"SYLOK","steam_id":76561198117257427,"connected_time":1007000000000,"state":"active","ping":90},{"user_id":240,"name":"Skullflesh","steam_id":76561198286722734,"connected_time":5718000000000,"state":"active","ping":76},{"user_id":264,"name":"PROFILE NAME","steam_id":76561198180056982,"connected_time":3501000000000,"state":"active","ping":63},{"user_id":302,"name":"Luuk","steam_id":76561198088266026,"connected_time":996000000000,"state":"active","ping":45},{"user_id":313,"name":"else1","steam_id":76561197996558319,"connected_time":371000000000,"state":"active","ping":78},{"user_id":320,"name":"void_tech_1234","steam_id":76561198245254406,"connected_time":279000000000,"state":"active","ping":81},{"user_id":295,"name":"Dolcelatte","steam_id":76561198038501770,"connected_time":1215000000000,"state":"active","ping":59},{"user_id":322,"name":"Imperial City Guard","steam_id":76561198083355845,"connected_time":184000000000,"state":"active","ping":50},{"user_id":319,"name":"Glorious Leader Xi Jinping","steam_id":76561198293811839,"connected_time":297000000000,"state":"active","ping":55},{"user_id":306,"name":"Yupx","steam_id":76561199037930703,"connected_time":849000000000,"state":"active","ping":72},{"user_id":324,"name":"666sammy","steam_id":76561198016607625,"connected_time":127000000000,"state":"active","ping":83},{"user_id":309,"name":"silversteellady","steam_id":76561198166953966,"connected_time":411000000000,"state":"active","ping":84},{"user_id":317,"name":"Nuffield","steam_id":76561198009922438,"connected_time":341000000000,"state":"active","ping":53}]},{"server_id":110,"name":"Uncletopia | Frankfurt | 2 | All Maps","name_short":"frk-2","host":"frk-1.de.uncletopia.com","port":27025,"enabled":true,"region":"eu","cc":"de","latitude":50.110924,"longitude":8.682127,"reserved":0,"last_update":"0001-01-01T00:00:00Z","name_a2s":"Uncletopia | Frankfurt | 2 | All Maps","protocol":17,"map":"ctf_2fort","folder":"tf","game":"Team Fortress","app_id":440,"player_count":23,"max_players":24,"Bots":0,"server_type":"Dedicated","server_os":"Linux","password":true,"vac":true,"version":"7961495","steam_id":85568392924469990,"keywords":["ctf","nocrits","nodmgspread","uncletopia"],"game_id":440,"stv_port":27026,"stv_name":"Uncletopia | Frankfurt | 2 | All Maps | STV","players":[{"user_id":382,"name":"Nicu","steam_id":76561198202017361,"connected_time":86000000000,"state":"active","ping":78},{"user_id":386,"name":"WMP™","steam_id":76561198001376594,"connected_time":34000000000,"state":"active","ping":90},{"user_id":387,"name":"miomy","steam_id":76561198056258600,"connected_time":11000000000,"state":"spawning","ping":204},{"user_id":388,"name":"BOOTMAN.EXE","steam_id":76561198300760850,"connected_time":10000000000,"state":"spawning","ping":58},{"user_id":377,"name":"Jakopin","steam_id":76561198331105933,"connected_time":321000000000,"state":"active","ping":53},{"user_id":376,"name":"HUGO","steam_id":76561198317134996,"connected_time":480000000000,"state":"active","ping":88},{"user_id":348,"name":"Igames","steam_id":76561198414062544,"connected_time":2306000000000,"state":"active","ping":67},{"user_id":364,"name":"Avalon","steam_id":76561199176781811,"connected_time":849000000000,"state":"active","ping":77},{"user_id":366,"name":"AleXandriX","steam_id":76561198035203950,"connected_time":745000000000,"state":"active","ping":56},{"user_id":383,"name":"BreadAcres","steam_id":76561198098217082,"connected_time":74000000000,"state":"active","ping":57},{"user_id":375,"name":"Bucky","steam_id":76561198058111951,"connected_time":521000000000,"state":"active","ping":75},{"user_id":389,"name":"kronik","steam_id":76561199160703098,"connected_time":3000000000,"state":"spawning","ping":45},{"user_id":378,"name":"PlayerTwo","steam_id":76561198038282957,"connected_time":263000000000,"state":"active","ping":101},{"user_id":373,"name":"WinterBucket","steam_id":76561198381313801,"connected_time":589000000000,"state":"active","ping":75},{"user_id":380,"name":"Bill Clinton","steam_id":76561198060011032,"connected_time":129000000000,"state":"active","ping":64},{"user_id":379,"name":"Random Player","steam_id":76561199181728590,"connected_time":205000000000,"state":"active","ping":51},{"user_id":374,"name":"rotten milkies","steam_id":76561198401523966,"connected_time":542000000000,"state":"active","ping":79},{"user_id":338,"name":"tensh1","steam_id":76561198282471866,"connected_time":2740000000000,"state":"active","ping":97},{"user_id":340,"name":"marrutkis","steam_id":76561199226525404,"connected_time":2679000000000,"state":"spawning","ping":131},{"user_id":341,"name":"❖ RazzorBee","steam_id":76561198092493838,"connected_time":2670000000000,"state":"active","ping":99},{"user_id":354,"name":"Kinjiko","steam_id":76561199124619827,"connected_time":1850000000000,"state":"active","ping":75},{"user_id":342,"name":"Haghehog","steam_id":76561198075729793,"connected_time":2668000000000,"state":"active","ping":130},{"user_id":372,"name":"Ondřej ✌","steam_id":76561198115905637,"connected_time":642000000000,"state":"active","ping":59}]},{"server_id":308,"name":"Uncletopia | Frankfurt | 3 | All Maps","name_short":"frk-3","host":"frk-1.de.uncletopia.com","port":27035,"enabled":true,"region":"eu","cc":"de","latitude":50.110924,"longitude":8.682127,"reserved":0,"last_update":"0001-01-01T00:00:00Z","name_a2s":"Uncletopia | Frankfurt | 3 | All Maps","protocol":17,"map":"pl_barnblitz","folder":"tf","game":"Team Fortress","app_id":440,"player_count":24,"max_players":24,"Bots":0,"server_type":"Dedicated","server_os":"Linux","password":true,"vac":true,"version":"7961495","steam_id":85568392924504274,"keywords":["nocrits","nodmgspread","payload","uncletopia"],"game_id":440,"stv_port":27036,"stv_name":"Uncletopia | Frankfurt | 3 | All Maps | STV","players":[{"user_id":150,"name":"Tea Follet","steam_id":76561198852408734,"connected_time":1990000000000,"state":"active","ping":84},{"user_id":88,"name":"LOBZIK","steam_id":76561198114830120,"connected_time":6740000000000,"state":"active","ping":76},{"user_id":170,"name":"brtaba","steam_id":76561198796334790,"connected_time":962000000000,"state":"active","ping":65},{"user_id":165,"name":"44.1 Hz ☨","steam_id":76561198066920562,"connected_time":1023000000000,"state":"active","ping":54},{"user_id":163,"name":"Lustadinnye (HUN)","steam_id":76561198280206427,"connected_time":1301000000000,"state":"active","ping":87},{"user_id":166,"name":"Mr_Touchyou","steam_id":76561198452524697,"connected_time":1014000000000,"state":"active","ping":119},{"user_id":171,"name":"sticks","steam_id":76561198127099299,"connected_time":858000000000,"state":"active","ping":49},{"user_id":161,"name":"Unemployedcamel","steam_id":76561198103908668,"connected_time":1336000000000,"state":"active","ping":73},{"user_id":167,"name":"SNEAKY TURTLE","steam_id":76561198172177650,"connected_time":1010000000000,"state":"active","ping":76},{"user_id":141,"name":"ramko_","steam_id":76561198379753516,"connected_time":2541000000000,"state":"active","ping":81},{"user_id":173,"name":"Larry Penus","steam_id":76561198207546233,"connected_time":778000000000,"state":"active","ping":59},{"user_id":120,"name":"Excadrill (GOAT)","steam_id":76561199012566222,"connected_time":4487000000000,"state":"active","ping":50},{"user_id":168,"name":"F2P Challenge","steam_id":76561199498773639,"connected_time":1001000000000,"state":"active","ping":75},{"user_id":169,"name":"Isak","steam_id":76561198085959762,"connected_time":990000000000,"state":"active","ping":77},{"user_id":160,"name":"Francis","steam_id":76561198987134265,"connected_time":1432000000000,"state":"active","ping":71},{"user_id":159,"name":"Zim","steam_id":76561197962903996,"connected_time":1500000000000,"state":"active","ping":58},{"user_id":152,"name":"VIN WEASEL","steam_id":76561198014387066,"connected_time":1802000000000,"state":"active","ping":44},{"user_id":177,"name":"Wild Potato","steam_id":76561198130723912,"connected_time":376000000000,"state":"active","ping":82},{"user_id":162,"name":"manure merchant","steam_id":76561198010109316,"connected_time":1325000000000,"state":"active","ping":56},{"user_id":178,"name":"ChaseRed","steam_id":76561199032986831,"connected_time":373000000000,"state":"active","ping":66},{"user_id":115,"name":"sin","steam_id":76561198193416785,"connected_time":4589000000000,"state":"active","ping":64},{"user_id":172,"name":"Bobo","steam_id":76561198052308399,"connected_time":857000000000,"state":"active","ping":55},{"user_id":174,"name":"Dogdigger","steam_id":76561198032893130,"connected_time":770000000000,"state":"active","ping":90},{"user_id":148,"name":"Hoff","steam_id":76561198138540938,"connected_time":2244000000000,"state":"active","ping":85}]},{"server_id":309,"name":"Uncletopia | Frankfurt | 4 | All Maps","name_short":"frk-4","host":"frk-1.de.uncletopia.com","port":27045,"enabled":true,"region":"eu","cc":"de","latitude":50.110924,"longitude":8.682127,"reserved":0,"last_update":"0001-01-01T00:00:00Z","name_a2s":"Uncletopia | Frankfurt | 4 | All Maps","protocol":17,"map":"pl_snowycoast","folder":"tf","game":"Team Fortress","app_id":440,"player_count":24,"max_players":24,"Bots":0,"server_type":"Dedicated","server_os":"Linux","password":true,"vac":true,"version":"7961495","steam_id":85568392924504275,"keywords":["nocrits","nodmgspread","payload","uncletopia"],"game_id":440,"stv_port":27046,"stv_name":"Uncletopia | Frankfurt | 4 | All Maps | STV","players":[{"user_id":77,"name":"frenchie","steam_id":76561198178298931,"connected_time":492000000000,"state":"active","ping":54},{"user_id":71,"name":"warforge3","steam_id":76561199276024310,"connected_time":1120000000000,"state":"active","ping":91},{"user_id":19,"name":"Adamkarz","steam_id":76561198796428403,"connected_time":4157000000000,"state":"active","ping":92},{"user_id":76,"name":"La Résistance","steam_id":76561198891046692,"connected_time":500000000000,"state":"active","ping":74},{"user_id":58,"name":"Josh","steam_id":76561198274546904,"connected_time":1680000000000,"state":"active","ping":137},{"user_id":42,"name":"Zorutan","steam_id":76561198166758127,"connected_time":2163000000000,"state":"active","ping":85},{"user_id":66,"name":"Tobi Kool","steam_id":76561198421707721,"connected_time":1341000000000,"state":"active","ping":72},{"user_id":85,"name":"NALA","steam_id":76561198039806469,"connected_time":204000000000,"state":"active","ping":69},{"user_id":86,"name":"Thunderhawk9988","steam_id":76561197999383309,"connected_time":165000000000,"state":"active","ping":147},{"user_id":74,"name":"MrNoob","steam_id":76561198800018341,"connected_time":728000000000,"state":"active","ping":104},{"user_id":64,"name":"Mr. Mundy","steam_id":76561198132008918,"connected_time":1450000000000,"state":"active","ping":75},{"user_id":83,"name":"nordstream bomber","steam_id":76561199401283123,"connected_time":401000000000,"state":"active","ping":60},{"user_id":75,"name":"give_bepis","steam_id":76561198012749888,"connected_time":710000000000,"state":"active","ping":58},{"user_id":57,"name":"Hexagon","steam_id":76561198151205758,"connected_time":1710000000000,"state":"active","ping":49},{"user_id":79,"name":"nyaaaaa","steam_id":76561198079458690,"connected_time":487000000000,"state":"active","ping":58},{"user_id":65,"name":"rudolph","steam_id":76561198057399765,"connected_time":1432000000000,"state":"active","ping":44},{"user_id":53,"name":"vetzakski","steam_id":76561198988041775,"connected_time":1951000000000,"state":"active","ping":76},{"user_id":61,"name":"Udinese Dion","steam_id":76561198067931573,"connected_time":1578000000000,"state":"active","ping":51},{"user_id":82,"name":"engineer drip","steam_id":76561198991032570,"connected_time":418000000000,"state":"active","ping":94},{"user_id":63,"name":"wilahl3","steam_id":76561198363415199,"connected_time":1528000000000,"state":"active","ping":87},{"user_id":84,"name":"Ape","steam_id":76561198322703872,"connected_time":401000000000,"state":"active","ping":54},{"user_id":68,"name":"Tuosan","steam_id":76561198062611429,"connected_time":1296000000000,"state":"active","ping":72},{"user_id":70,"name":"Largo","steam_id":76561198844368927,"connected_time":1245000000000,"state":"active","ping":60},{"user_id":80,"name":"legalize anabolic steroids","steam_id":76561198214848887,"connected_time":486000000000,"state":"active","ping":72}]},{"server_id":310,"name":"Uncletopia | Frankfurt | 5 | All Maps","name_short":"frk-5","host":"frk-1.de.uncletopia.com","port":27055,"enabled":true,"region":"eu","cc":"de","latitude":50.110924,"longitude":8.682127,"reserved":0,"last_update":"0001-01-01T00:00:00Z","name_a2s":"Uncletopia | Frankfurt | 5 | All Maps","protocol":17,"map":"koth_lakeside_final","folder":"tf","game":"Team Fortress","app_id":440,"player_count":0,"max_players":24,"Bots":0,"server_type":"Dedicated","server_os":"Linux","password":true,"vac":true,"version":"7961495","steam_id":85568392924504277,"keywords":["cp","nocrits","nodmgspread","uncletopia"],"game_id":440,"stv_port":27056,"stv_name":"Uncletopia | Frankfurt | 5 | All Maps | STV","players":null},{"server_id":311,"name":"Uncletopia | Frankfurt | 6 | All Maps","name_short":"frk-6","host":"frk-1.de.uncletopia.com","port":27065,"enabled":true,"region":"eu","cc":"de","latitude":50.110924,"longitude":8.682127,"reserved":0,"last_update":"0001-01-01T00:00:00Z","name_a2s":"Uncletopia | Frankfurt | 6 | All Maps","protocol":17,"map":"koth_cascade","folder":"tf","game":"Team Fortress","app_id":440,"player_count":0,"max_players":24,"Bots":0,"server_type":"Dedicated","server_os":"Linux","password":true,"vac":true,"version":"7961495","steam_id":85568392924504278,"keywords":["cp","nocrits","nodmgspread","uncletopia"],"game_id":440,"stv_port":27066,"stv_name":"Uncletopia | Frankfurt | 6 | All Maps | STV","players":null},{"server_id":23,"name":"Uncletopia | Frankfurt | 7 | Stopwatch","name_short":"frk-7","host":"frk-1.de.uncletopia.com","port":27075,"enabled":true,"region":"eu","cc":"de","latitude":50.110924,"longitude":8.682127,"reserved":0,"last_update":"0001-01-01T00:00:00Z","name_a2s":"Uncletopia | Frankfurt | 7 | Stopwatch","protocol":17,"map":"workshop/pl_badwater_pro_v12.ugc2142942074","folder":"tf","game":"Team Fortress","app_id":440,"player_count":24,"max_players":24,"Bots":0,"server_type":"Dedicated","server_os":"Linux","password":true,"vac":true,"version":"7961495","steam_id":85568392924742827,"keywords":["nocrits","nodmgspread","payload","uncletopia"],"game_id":440,"stv_port":27076,"stv_name":"Uncletopia | Frankfurt | 7 | Stopwatch | STV","players":[{"user_id":427,"name":"T_bbs","steam_id":76561198272292842,"connected_time":2785000000000,"state":"active","ping":74},{"user_id":457,"name":"Anthony Official Profile","steam_id":76561199020903774,"connected_time":108000000000,"state":"active","ping":48},{"user_id":458,"name":"cetru","steam_id":76561197970703375,"connected_time":94000000000,"state":"active","ping":67},{"user_id":450,"name":"I919I","steam_id":76561198141049923,"connected_time":737000000000,"state":"active","ping":74},{"user_id":436,"name":"Dr. Pinetree","steam_id":76561198802744121,"connected_time":2007000000000,"state":"active","ping":81},{"user_id":437,"name":"L + Maidenless + Tarnished","steam_id":76561198978605490,"connected_time":1934000000000,"state":"active","ping":130},{"user_id":396,"name":"Sparrose","steam_id":76561199050235461,"connected_time":3947000000000,"state":"active","ping":70},{"user_id":451,"name":"Musicano","steam_id":76561198114541088,"connected_time":627000000000,"state":"active","ping":89},{"user_id":429,"name":"Biscuit","steam_id":76561197974632703,"connected_time":2616000000000,"state":"active","ping":74},{"user_id":365,"name":"Elijah123","steam_id":76561199037648021,"connected_time":6276000000000,"state":"active","ping":151},{"user_id":407,"name":"Sham!","steam_id":76561198050434275,"connected_time":3333000000000,"state":"active","ping":54},{"user_id":444,"name":"JosSamLoh","steam_id":76561198111733936,"connected_time":1702000000000,"state":"active","ping":64},{"user_id":452,"name":"f0x","steam_id":76561198072921704,"connected_time":620000000000,"state":"active","ping":50},{"user_id":462,"name":"Bajas","steam_id":76561198179339326,"connected_time":28000000000,"state":"active","ping":80},{"user_id":441,"name":"Truskawka","steam_id":76561198855163602,"connected_time":1854000000000,"state":"active","ping":71},{"user_id":442,"name":"EndZR0","steam_id":76561198207649880,"connected_time":1850000000000,"state":"active","ping":94},{"user_id":443,"name":"Chiers","steam_id":76561198073461642,"connected_time":1726000000000,"state":"active","ping":54},{"user_id":421,"name":"Zembis","steam_id":76561198008017918,"connected_time":2990000000000,"state":"active","ping":87},{"user_id":456,"name":"Marky","steam_id":76561199474556920,"connected_time":249000000000,"state":"active","ping":66},{"user_id":410,"name":"Marukuso","steam_id":76561198154229845,"connected_time":3258000000000,"state":"active","ping":61},{"user_id":454,"name":"Medic Femboy Bf","steam_id":76561198154334102,"connected_time":552000000000,"state":"active","ping":154},{"user_id":411,"name":"Cosmetic brain","steam_id":76561198055936410,"connected_time":3249000000000,"state":"active","ping":84},{"user_id":455,"name":"Olekman","steam_id":76561198035446981,"connected_time":520000000000,"state":"active","ping":62},{"user_id":426,"name":"AMDA10SERIES","steam_id":76561198869269479,"connected_time":2835000000000,"state":"active","ping":57}]},{"server_id":24,"name":"Uncletopia | Frankfurt | 8 | Community","name_short":"frk-8","host":"frk-1.de.uncletopia.com","port":27085,"enabled":true,"region":"eu","cc":"de","latitude":50.110924,"longitude":8.682127,"reserved":0,"last_update":"0001-01-01T00:00:00Z","name_a2s":"Uncletopia | Frankfurt | 8 | Community","protocol":17,"map":"workshop/koth_product_final.ugc454272353","folder":"tf","game":"Team Fortress","app_id":440,"player_count":1,"max_players":24,"Bots":0,"server_type":"Dedicated","server_os":"Linux","password":true,"vac":true,"version":"7961495","steam_id":85568392924742828,"keywords":["cp","nocrits","nodmgspread","uncletopia"],"game_id":440,"stv_port":27086,"stv_name":"Uncletopia | Frankfurt | 8 | Community | STV","players":[{"user_id":8,"name":"The_Dark_Night","steam_id":76561198884257698,"connected_time":22000000000,"state":"spawning","ping":579}]},{"server_id":202,"name":"Uncletopia | Hong Kong | 1 | All Maps","name_short":"hgk-1","host":"hgk-1.hk.uncletopia.com","port":27015,"enabled":true,"region":"asia","cc":"hk","latitude":22.302711,"longitude":114.177216,"reserved":0,"last_update":"0001-01-01T00:00:00Z","name_a2s":"Uncletopia | Hong Kong | 1 | All Maps","protocol":17,"map":"pl_pier","folder":"tf","game":"Team Fortress","app_id":440,"player_count":14,"max_players":24,"Bots":0,"server_type":"Dedicated","server_os":"Linux","password":true,"vac":true,"version":"7961495","steam_id":85568392924494504,"keywords":["nocrits","nodmgspread","payload","uncletopia"],"game_id":440,"stv_port":27016,"stv_name":"Uncletopia | Hong Kong | 1 | All Maps | STV","players":[{"user_id":362,"name":"jeff","steam_id":76561198327306842,"connected_time":4145000000000,"state":"active","ping":63},{"user_id":374,"name":"coldcase","steam_id":76561198093867136,"connected_time":3070000000000,"state":"active","ping":95},{"user_id":277,"name":"Milf (The fan O'Milk)","steam_id":76561198213031155,"connected_time":12549000000000,"state":"active","ping":89},{"user_id":348,"name":"PanDorA The Radioman","steam_id":76561198864942478,"connected_time":6216000000000,"state":"active","ping":101},{"user_id":396,"name":"IRA car dealership","steam_id":76561199224577498,"connected_time":1093000000000,"state":"active","ping":64},{"user_id":398,"name":"WickedTuna","steam_id":76561198815939590,"connected_time":783000000000,"state":"spawning","ping":101},{"user_id":381,"name":"p1st0n","steam_id":76561198992723983,"connected_time":2664000000000,"state":"active","ping":90},{"user_id":344,"name":"母の肉団子@hao123.com","steam_id":76561198069561896,"connected_time":6560000000000,"state":"active","ping":39},{"user_id":399,"name":"Fooc","steam_id":76561198884985358,"connected_time":757000000000,"state":"active","ping":50},{"user_id":394,"name":"StewBحِيْمツ","steam_id":76561198131423270,"connected_time":1227000000000,"state":"active","ping":61},{"user_id":400,"name":"Aerotronics","steam_id":76561198821190704,"connected_time":725000000000,"state":"active","ping":90},{"user_id":332,"name":"map itemtest","steam_id":76561198320532821,"connected_time":7546000000000,"state":"active","ping":77},{"user_id":368,"name":"tiden2000","steam_id":76561198092969425,"connected_time":3287000000000,"state":"active","ping":62}]},{"server_id":1,"name":"Uncletopia | Los Angeles | 1 | All Maps","name_short":"lax-1","host":"lax-1.us.uncletopia.com","port":27015,"enabled":true,"region":"us-west","cc":"us","latitude":33.94279,"longitude":-118.41004,"reserved":0,"last_update":"0001-01-01T00:00:00Z","name_a2s":"Uncletopia | Los Angeles | 1 | All Maps","protocol":17,"map":"pl_snowycoast","folder":"tf","game":"Team Fortress","app_id":440,"player_count":0,"max_players":24,"Bots":0,"server_type":"Dedicated","server_os":"Linux","password":true,"vac":true,"version":"7961495","steam_id":85568392924469991,"keywords":["nocrits","nodmgspread","payload","uncletopia"],"game_id":440,"stv_port":27016,"stv_name":"Uncletopia | Los Angeles | 1 | All Maps | STV","players":null},{"server_id":112,"name":"Uncletopia | Los Angeles | 2 | All Maps","name_short":"lax-2","host":"lax-1.us.uncletopia.com","port":27025,"enabled":true,"region":"us-west","cc":"us","latitude":33.94279,"longitude":-118.41004,"reserved":0,"last_update":"0001-01-01T00:00:00Z","name_a2s":"Uncletopia | Los Angeles | 2 | All Maps","protocol":17,"map":"cp_mountainlab","folder":"tf","game":"Team Fortress","app_id":440,"player_count":0,"max_players":24,"Bots":0,"server_type":"Dedicated","server_os":"Linux","password":true,"vac":true,"version":"7961495","steam_id":85568392924469992,"keywords":["cp","nocrits","nodmgspread","uncletopia"],"game_id":440,"stv_port":27026,"stv_name":"Uncletopia | Los Angeles | 2 | All Maps | STV","players":null},{"server_id":324,"name":"Uncletopia | Los Angeles | 3 | All Maps","name_short":"lax-3","host":"lax-1.us.uncletopia.com","port":27035,"enabled":true,"region":"us-west","cc":"us","latitude":33.94279,"longitude":-118.41004,"reserved":0,"last_update":"0001-01-01T00:00:00Z","name_a2s":"Uncletopia | Los Angeles | 3 | All Maps","protocol":17,"map":"pl_frontier_final","folder":"tf","game":"Team Fortress","app_id":440,"player_count":0,"max_players":24,"Bots":0,"server_type":"Dedicated","server_os":"Linux","password":true,"vac":true,"version":"7961495","steam_id":85568392924510198,"keywords":["nocrits","nodmgspread","payload","uncletopia"],"game_id":440,"stv_port":27036,"stv_name":"Uncletopia | Los Angeles | 3 | All Maps | STV","players":null},{"server_id":25,"name":"Uncletopia | Los Angeles | 4 | Stopwatch","name_short":"lax-4","host":"lax-1.us.uncletopia.com","port":27045,"enabled":true,"region":"us-west","cc":"us","latitude":33.94279,"longitude":-118.41004,"reserved":0,"last_update":"0001-01-01T00:00:00Z","name_a2s":"Uncletopia | Los Angeles | 4 | Stopwatch","protocol":17,"map":"pl_barnblitz","folder":"tf","game":"Team Fortress","app_id":440,"player_count":0,"max_players":24,"Bots":0,"server_type":"Dedicated","server_os":"Linux","password":true,"vac":true,"version":"7961495","steam_id":85568392924510199,"keywords":["nocrits","nodmgspread","payload","uncletopia"],"game_id":440,"stv_port":27046,"stv_name":"Uncletopia | Los Angeles | 4 | Stopwatch | STV","players":null},{"server_id":11,"name":"Uncletopia | London | 1 | All Maps","name_short":"lon-1","host":"lon-1.uk.uncletopia.com","port":27015,"enabled":true,"region":"eu","cc":"gb","latitude":51.509865,"longitude":-0.118092,"reserved":0,"last_update":"0001-01-01T00:00:00Z","name_a2s":"Uncletopia | London | 1 | All Maps","protocol":17,"map":"pl_pier","folder":"tf","game":"Team Fortress","app_id":440,"player_count":24,"max_players":24,"Bots":0,"server_type":"Dedicated","server_os":"Linux","password":true,"vac":true,"version":"7961495","steam_id":85568392924367362,"keywords":["nocrits","nodmgspread","payload","uncletopia"],"game_id":440,"stv_port":27016,"stv_name":"Uncletopia | London | 1 | All Maps | STV","players":[{"user_id":459,"name":"Topia","steam_id":76561198163571788,"connected_time":381000000000,"state":"active","ping":87},{"user_id":457,"name":"0xDEADBEEF","steam_id":76561199075416111,"connected_time":384000000000,"state":"active","ping":85},{"user_id":445,"name":"Phat","steam_id":76561198272293356,"connected_time":1978000000000,"state":"active","ping":70},{"user_id":460,"name":"Oceanic | tuesday maybe","steam_id":76561197979741827,"connected_time":322000000000,"state":"active","ping":77},{"user_id":352,"name":"TheEventGuy","steam_id":76561197972797744,"connected_time":10802000000000,"state":"active","ping":75},{"user_id":453,"name":"kittylover55","steam_id":76561198136297981,"connected_time":977000000000,"state":"active","ping":77},{"user_id":440,"name":"VampireSunflower","steam_id":76561199007012355,"connected_time":2333000000000,"state":"active","ping":54},{"user_id":461,"name":"Zamorocian","steam_id":76561198076604017,"connected_time":246000000000,"state":"active","ping":39},{"user_id":449,"name":"Andy","steam_id":76561198046918834,"connected_time":1700000000000,"state":"active","ping":62},{"user_id":462,"name":"night.s","steam_id":76561198326287823,"connected_time":241000000000,"state":"active","ping":74},{"user_id":412,"name":"sm0ke","steam_id":76561198198977226,"connected_time":4598000000000,"state":"active","ping":81},{"user_id":452,"name":"boston ball","steam_id":76561199121520983,"connected_time":1174000000000,"state":"active","ping":86},{"user_id":417,"name":"Swagmaster","steam_id":76561198045828392,"connected_time":3895000000000,"state":"active","ping":66},{"user_id":442,"name":"neJ","steam_id":76561198003397488,"connected_time":2323000000000,"state":"active","ping":81},{"user_id":394,"name":"ඞauraඞ","steam_id":76561198066258544,"connected_time":7256000000000,"state":"active","ping":61},{"user_id":463,"name":"Kopejda ♡","steam_id":76561198307751517,"connected_time":240000000000,"state":"active","ping":65},{"user_id":446,"name":":)","steam_id":76561198039964082,"connected_time":1738000000000,"state":"active","ping":67},{"user_id":415,"name":"Umme","steam_id":76561198053809566,"connected_time":4230000000000,"state":"active","ping":92},{"user_id":451,"name":"I eat kids","steam_id":76561199195104977,"connected_time":1578000000000,"state":"active","ping":123},{"user_id":458,"name":"MoveInSilence #TF2C","steam_id":76561198121260981,"connected_time":383000000000,"state":"active","ping":38},{"user_id":464,"name":"Not Clickbait (Real)","steam_id":76561198951275407,"connected_time":223000000000,"state":"active","ping":93},{"user_id":455,"name":"Dwarf","steam_id":76561198343932422,"connected_time":815000000000,"state":"active","ping":107},{"user_id":456,"name":"gamerkiddo","steam_id":76561198047380360,"connected_time":752000000000,"state":"active","ping":59},{"user_id":322,"name":"sushii","steam_id":76561198297987372,"connected_time":12642000000000,"state":"active","ping":54}]},{"server_id":114,"name":"Uncletopia | London | 2 | All Maps","name_short":"lon-2","host":"lon-1.uk.uncletopia.com","port":27025,"enabled":true,"region":"eu","cc":"gb","latitude":51.509865,"longitude":-0.118092,"reserved":0,"last_update":"0001-01-01T00:00:00Z","name_a2s":"Uncletopia | London | 2 | All Maps","protocol":17,"map":"pl_borneo","folder":"tf","game":"Team Fortress","app_id":440,"player_count":24,"max_players":24,"Bots":0,"server_type":"Dedicated","server_os":"Linux","password":true,"vac":true,"version":"7961495","steam_id":85568392924470941,"keywords":["nocrits","nodmgspread","payload","uncletopia"],"game_id":440,"stv_port":27026,"stv_name":"Uncletopia | London | 2 | All Maps | STV","players":[{"user_id":147,"name":"Charmedelf","steam_id":76561197993611881,"connected_time":3990000000000,"state":"active","ping":58},{"user_id":160,"name":"necatiekmen","steam_id":76561198859023103,"connected_time":3371000000000,"state":"active","ping":110},{"user_id":214,"name":"Logic Not Found","steam_id":76561198273025576,"connected_time":11000000000,"state":"active","ping":39},{"user_id":173,"name":"Washburne","steam_id":76561198032810579,"connected_time":1942000000000,"state":"active","ping":55},{"user_id":208,"name":"Creamy","steam_id":76561198063907478,"connected_time":841000000000,"state":"active","ping":54},{"user_id":168,"name":"hbdie_","steam_id":76561198109996675,"connected_time":2759000000000,"state":"active","ping":37},{"user_id":213,"name":"Gnarville","steam_id":76561198006373329,"connected_time":150000000000,"state":"active","ping":34},{"user_id":204,"name":"Avitz","steam_id":76561197986150359,"connected_time":974000000000,"state":"active","ping":43},{"user_id":209,"name":"bread boy","steam_id":76561198047845399,"connected_time":795000000000,"state":"active","ping":144},{"user_id":185,"name":"Miloleopard","steam_id":76561199196616680,"connected_time":1551000000000,"state":"active","ping":66},{"user_id":87,"name":"john fortress","steam_id":76561198013237629,"connected_time":6775000000000,"state":"active","ping":106},{"user_id":205,"name":"collateralaoe","steam_id":76561198297151242,"connected_time":883000000000,"state":"active","ping":49},{"user_id":206,"name":"Tavish","steam_id":76561197971486686,"connected_time":860000000000,"state":"active","ping":51},{"user_id":188,"name":"Goofy Goober","steam_id":76561198151550657,"connected_time":1412000000000,"state":"active","ping":61},{"user_id":165,"name":"Rocket Queen's consort","steam_id":76561198092995429,"connected_time":3114000000000,"state":"active","ping":148},{"user_id":198,"name":"Ullr","steam_id":76561198140547483,"connected_time":1255000000000,"state":"active","ping":40},{"user_id":123,"name":"I.AM.THE.BOOP.WHICH.IS.APROACHI","steam_id":76561198049342507,"connected_time":4626000000000,"state":"active","ping":96},{"user_id":166,"name":"lulu","steam_id":76561199147764133,"connected_time":3095000000000,"state":"active","ping":74},{"user_id":215,"name":"beetrootstrawberry2011","steam_id":76561198097239850,"connected_time":11000000000,"state":"active","ping":228},{"user_id":178,"name":"Attomic","steam_id":76561198429145703,"connected_time":1755000000000,"state":"active","ping":63},{"user_id":210,"name":"kallerannar","steam_id":76561199095701143,"connected_time":791000000000,"state":"active","ping":83},{"user_id":201,"name":"Cream","steam_id":76561198204266952,"connected_time":1149000000000,"state":"active","ping":94},{"user_id":212,"name":"Joo ♦","steam_id":76561197987609203,"connected_time":755000000000,"state":"active","ping":74},{"user_id":194,"name":"generic alias","steam_id":76561198271607226,"connected_time":1300000000000,"state":"active","ping":92}]},{"server_id":320,"name":"Uncletopia | London | 3 | All Maps","name_short":"lon-3","host":"lon-1.uk.uncletopia.com","port":27035,"enabled":true,"region":"eu","cc":"gb","latitude":51.509865,"longitude":-0.118092,"reserved":0,"last_update":"0001-01-01T00:00:00Z","name_a2s":"Uncletopia | London | 3 | All Maps","protocol":17,"map":"cp_dustbowl","folder":"tf","game":"Team Fortress","app_id":440,"player_count":24,"max_players":24,"Bots":0,"server_type":"Dedicated","server_os":"Linux","password":true,"vac":true,"version":"7961495","steam_id":85568392924510192,"keywords":["cp","nocrits","nodmgspread","uncletopia"],"game_id":440,"stv_port":27036,"stv_name":"Uncletopia | London | 3 | All Maps | STV","players":[{"user_id":346,"name":"Fallen","steam_id":76561199445283186,"connected_time":1447000000000,"state":"active","ping":151},{"user_id":361,"name":"TomNoSocks","steam_id":76561198114071046,"connected_time":166000000000,"state":"active","ping":64},{"user_id":362,"name":"gothmoth","steam_id":76561198386910896,"connected_time":152000000000,"state":"active","ping":119},{"user_id":351,"name":"Coma","steam_id":76561198049301184,"connected_time":1224000000000,"state":"active","ping":91},{"user_id":309,"name":"pnnce","steam_id":76561198064605955,"connected_time":4081000000000,"state":"active","ping":80},{"user_id":352,"name":"bryophyta","steam_id":76561197968945306,"connected_time":1213000000000,"state":"active","ping":75},{"user_id":338,"name":"HoneyBe_","steam_id":76561198288930154,"connected_time":1810000000000,"state":"active","ping":65},{"user_id":360,"name":"The One (and only)","steam_id":76561198827193499,"connected_time":537000000000,"state":"active","ping":77},{"user_id":321,"name":"Shade","steam_id":76561198087923808,"connected_time":2576000000000,"state":"active","ping":62},{"user_id":341,"name":"Deez nuts","steam_id":76561199429562693,"connected_time":1542000000000,"state":"active","ping":71},{"user_id":318,"name":"Bruschetta","steam_id":76561198251927162,"connected_time":3058000000000,"state":"active","ping":71},{"user_id":310,"name":"Setiago","steam_id":76561198060770498,"connected_time":4071000000000,"state":"active","ping":67},{"user_id":342,"name":"Trollstoy","steam_id":76561198072017175,"connected_time":1538000000000,"state":"active","ping":65},{"user_id":349,"name":"Hecskanu","steam_id":76561198189261567,"connected_time":1378000000000,"state":"active","ping":112},{"user_id":363,"name":"Albon","steam_id":76561198060378881,"connected_time":144000000000,"state":"active","ping":64},{"user_id":364,"name":"pablo","steam_id":76561198089285014,"connected_time":129000000000,"state":"active","ping":69},{"user_id":365,"name":"astrobob911","steam_id":76561199099110654,"connected_time":120000000000,"state":"active","ping":155},{"user_id":335,"name":"install gentoo","steam_id":76561198185257982,"connected_time":1877000000000,"state":"active","ping":74},{"user_id":315,"name":"Jinx","steam_id":76561197976310154,"connected_time":3797000000000,"state":"active","ping":139},{"user_id":344,"name":"AnimaZ3","steam_id":76561198094154845,"connected_time":1494000000000,"state":"active","ping":84},{"user_id":345,"name":"Valleknugen","steam_id":76561198088753644,"connected_time":1493000000000,"state":"active","ping":123},{"user_id":353,"name":"Saul Badman","steam_id":76561199013233409,"connected_time":1169000000000,"state":"active","ping":68},{"user_id":359,"name":"hasky","steam_id":76561197986052798,"connected_time":594000000000,"state":"active","ping":72},{"user_id":316,"name":"Leviathan","steam_id":76561198313092251,"connected_time":3470000000000,"state":"active","ping":116}]},{"server_id":321,"name":"Uncletopia | London | 4 | All Maps","name_short":"lon-4","host":"lon-1.uk.uncletopia.com","port":27045,"enabled":true,"region":"eu","cc":"gb","latitude":51.509865,"longitude":-0.118092,"reserved":0,"last_update":"0001-01-01T00:00:00Z","name_a2s":"Uncletopia | London | 4 | All Maps","protocol":17,"map":"koth_cascade","folder":"tf","game":"Team Fortress","app_id":440,"player_count":0,"max_players":24,"Bots":0,"server_type":"Dedicated","server_os":"Linux","password":true,"vac":true,"version":"7961495","steam_id":85568392924510193,"keywords":["cp","nocrits","nodmgspread","uncletopia"],"game_id":440,"stv_port":27046,"stv_name":"Uncletopia | London | 4 | All Maps | STV","players":null},{"server_id":21,"name":"Uncletopia | London | 5 | All Maps","name_short":"lon-5","host":"lon-1.uk.uncletopia.com","port":27055,"enabled":true,"region":"eu","cc":"gb","latitude":51.509865,"longitude":-0.118092,"reserved":0,"last_update":"0001-01-01T00:00:00Z","name_a2s":"Uncletopia | London | 5 | All Maps","protocol":17,"map":"koth_lakeside_final","folder":"tf","game":"Team Fortress","app_id":440,"player_count":6,"max_players":24,"Bots":0,"server_type":"Dedicated","server_os":"Linux","password":true,"vac":true,"version":"7961495","steam_id":85568392924742829,"keywords":["cp","nocrits","nodmgspread","uncletopia"],"game_id":440,"stv_port":27056,"stv_name":"Uncletopia | London | 5 | All Maps | STV","players":[{"user_id":17,"name":"ran is running","steam_id":76561199443185667,"connected_time":1781000000000,"state":"active","ping":121},{"user_id":18,"name":"piss man (real)","steam_id":76561198839843428,"connected_time":1732000000000,"state":"active","ping":126},{"user_id":21,"name":"Under","steam_id":76561199062841068,"connected_time":397000000000,"state":"active","ping":167},{"user_id":22,"name":"Exdise #Save Tf2","steam_id":76561199122994518,"connected_time":341000000000,"state":"active","ping":55},{"user_id":23,"name":"Bullet magnet (FIN)","steam_id":76561197975715220,"connected_time":173000000000,"state":"active","ping":90},{"user_id":24,"name":"Average Chinese Man","steam_id":76561199076883472,"connected_time":53000000000,"state":"active","ping":81}]},{"server_id":22,"name":"Uncletopia | London | 6 | All Maps","name_short":"lon-6","host":"lon-1.uk.uncletopia.com","port":27065,"enabled":true,"region":"eu","cc":"gb","latitude":51.509865,"longitude":-0.118092,"reserved":0,"last_update":"0001-01-01T00:00:00Z","name_a2s":"Uncletopia | London | 6 | All Maps","protocol":17,"map":"pl_snowycoast","folder":"tf","game":"Team Fortress","app_id":440,"player_count":24,"max_players":24,"Bots":0,"server_type":"Dedicated","server_os":"Linux","password":true,"vac":true,"version":"7961495","steam_id":85568392924742830,"keywords":["nocrits","nodmgspread","payload","uncletopia"],"game_id":440,"stv_port":27066,"stv_name":"Uncletopia | London | 6 | All Maps | STV","players":[{"user_id":70,"name":"Reimu","steam_id":76561198101532240,"connected_time":1844000000000,"state":"active","ping":60},{"user_id":76,"name":"JynxDK","steam_id":76561198194324242,"connected_time":1389000000000,"state":"active","ping":67},{"user_id":52,"name":"Space","steam_id":76561198378357559,"connected_time":3069000000000,"state":"active","ping":41},{"user_id":98,"name":"Bread Teleporter","steam_id":76561198035587273,"connected_time":83000000000,"state":"active","ping":45},{"user_id":92,"name":"D4NTheProtogen","steam_id":76561198206460789,"connected_time":327000000000,"state":"active","ping":61},{"user_id":67,"name":"ciao bella","steam_id":76561198086845387,"connected_time":2083000000000,"state":"active","ping":96},{"user_id":94,"name":"Dr. Livesey","steam_id":76561198071049943,"connected_time":318000000000,"state":"active","ping":70},{"user_id":85,"name":"Rubix Cube™","steam_id":76561198067610940,"connected_time":738000000000,"state":"active","ping":59},{"user_id":89,"name":"Cipher Guy","steam_id":76561198987064749,"connected_time":543000000000,"state":"active","ping":75},{"user_id":96,"name":"mista white","steam_id":76561199387233667,"connected_time":212000000000,"state":"active","ping":63},{"user_id":26,"name":"Xxcoolxx","steam_id":76561199064455737,"connected_time":4304000000000,"state":"active","ping":67},{"user_id":71,"name":"oskaroku00","steam_id":76561199025360128,"connected_time":1613000000000,"state":"active","ping":71},{"user_id":28,"name":"Dr Bondus Bolongus Dongus","steam_id":76561198378657692,"connected_time":4263000000000,"state":"active","ping":48},{"user_id":30,"name":"Doctor Marijuana","steam_id":76561198288289879,"connected_time":4185000000000,"state":"active","ping":47},{"user_id":73,"name":"Dzieciol","steam_id":76561198160237556,"connected_time":1527000000000,"state":"active","ping":74},{"user_id":97,"name":"Codex","steam_id":76561198068748584,"connected_time":201000000000,"state":"active","ping":52},{"user_id":91,"name":"Hex Reflect","steam_id":76561197972572841,"connected_time":336000000000,"state":"active","ping":69},{"user_id":95,"name":"invertO","steam_id":76561198142244174,"connected_time":296000000000,"state":"active","ping":62},{"user_id":55,"name":"Xtreme_Shoot","steam_id":76561198880743413,"connected_time":2953000000000,"state":"active","ping":106},{"user_id":48,"name":"Hugh","steam_id":76561198976348754,"connected_time":3451000000000,"state":"active","ping":40},{"user_id":87,"name":"A Shoelace","steam_id":76561198126726364,"connected_time":726000000000,"state":"active","ping":59},{"user_id":57,"name":"Erenom","steam_id":76561199017383513,"connected_time":2919000000000,"state":"active","ping":90},{"user_id":63,"name":"Caliban","steam_id":76561197999696839,"connected_time":2280000000000,"state":"active","ping":115},{"user_id":78,"name":"cister0","steam_id":76561198130195469,"connected_time":1333000000000,"state":"active","ping":91}]},{"server_id":40,"name":"Uncletopia | London | 7 | Stopwatch","name_short":"lon-7","host":"lon-1.uk.uncletopia.com","port":27075,"enabled":true,"region":"eu","cc":"gb","latitude":51.509865,"longitude":-0.118092,"reserved":0,"last_update":"0001-01-01T00:00:00Z","name_a2s":"Uncletopia | London | 7 | Stopwatch","protocol":17,"map":"cp_sunshine","folder":"tf","game":"Team Fortress","app_id":440,"player_count":0,"max_players":24,"Bots":0,"server_type":"Dedicated","server_os":"Linux","password":true,"vac":true,"version":"7961495","steam_id":85568392924964314,"keywords":["cp","nocrits","nodmgspread","uncletopia"],"game_id":440,"stv_port":27076,"stv_name":"Uncletopia | London | 7 | Stopwatch | STV","players":null},{"server_id":41,"name":"Uncletopia | London | 8 | Community","name_short":"lon-8","host":"lon-1.uk.uncletopia.com","port":27085,"enabled":true,"region":"eu","cc":"gb","latitude":51.509865,"longitude":-0.118092,"reserved":0,"last_update":"0001-01-01T00:00:00Z","name_a2s":"Uncletopia | London | 8 | Community","protocol":17,"map":"workshop/pl_barnblitz_pro7.ugc582280235","folder":"tf","game":"Team Fortress","app_id":440,"player_count":0,"max_players":24,"Bots":0,"server_type":"Dedicated","server_os":"Linux","password":true,"vac":true,"version":"7961495","steam_id":85568392924964315,"keywords":["nocrits","nodmgspread","payload","uncletopia"],"game_id":440,"stv_port":27086,"stv_name":"Uncletopia | London | 8 | Community | STV","players":null},{"server_id":300,"name":"Uncletopia | Montréal | 1 | One Thousand Uncles","name_short":"mtl-1","host":"mtl-1.ca.uncletopia.com","port":27015,"enabled":true,"region":"us-east","cc":"ca","latitude":45.50889,"longitude":-73.56167,"reserved":0,"last_update":"0001-01-01T00:00:00Z","name_a2s":"","protocol":0,"map":"","folder":"","game":"","app_id":0,"player_count":0,"max_players":0,"Bots":0,"server_type":"","server_os":"","password":false,"vac":false,"version":"","steam_id":0,"keywords":null,"game_id":0,"stv_port":0,"stv_name":"","players":null},{"server_id":301,"name":"Uncletopia | Montréal | 2 | One Thousand Uncles","name_short":"mtl-2","host":"mtl-1.ca.uncletopia.com","port":27025,"enabled":true,"region":"us-east","cc":"ca","latitude":45.50889,"longitude":-73.56167,"reserved":0,"last_update":"0001-01-01T00:00:00Z","name_a2s":"","protocol":0,"map":"","folder":"","game":"","app_id":0,"player_count":0,"max_players":0,"Bots":0,"server_type":"","server_os":"","password":false,"vac":false,"version":"","steam_id":0,"keywords":null,"game_id":0,"stv_port":0,"stv_name":"","players":null},{"server_id":302,"name":"Uncletopia | Montréal | 3 | One Thousand Uncles","name_short":"mtl-3","host":"mtl-1.ca.uncletopia.com","port":27035,"enabled":true,"region":"us-east","cc":"ca","latitude":45.50889,"longitude":-73.56167,"reserved":0,"last_update":"0001-01-01T00:00:00Z","name_a2s":"","protocol":0,"map":"","folder":"","game":"","app_id":0,"player_count":0,"max_players":0,"Bots":0,"server_type":"","server_os":"","password":false,"vac":false,"version":"","steam_id":0,"keywords":null,"game_id":0,"stv_port":0,"stv_name":"","players":null},{"server_id":13,"name":"Uncletopia | New York City | 1 | All Maps","name_short":"nyc-1","host":"nyc-1.us.uncletopia.com","port":27015,"enabled":true,"region":"us-east","cc":"us","latitude":40.73061,"longitude":-73.93524,"reserved":0,"last_update":"0001-01-01T00:00:00Z","name_a2s":"Uncletopia | New York City | 1 | All Maps","protocol":17,"map":"koth_cascade","folder":"tf","game":"Team Fortress","app_id":440,"player_count":0,"max_players":24,"Bots":0,"server_type":"Dedicated","server_os":"Linux","password":true,"vac":true,"version":"7961495","steam_id":85568392924469993,"keywords":["cp","nocrits","nodmgspread","uncletopia"],"game_id":440,"stv_port":27016,"stv_name":"Uncletopia | New York City | 1 | All Maps | STV","players":null},{"server_id":14,"name":"Uncletopia | New York City | 2 | All Maps","name_short":"nyc-2","host":"nyc-1.us.uncletopia.com","port":27025,"enabled":true,"region":"us-east","cc":"us","latitude":40.73061,"longitude":-73.93524,"reserved":0,"last_update":"0001-01-01T00:00:00Z","name_a2s":"Uncletopia | New York City | 2 | All Maps","protocol":17,"map":"cp_snakewater_final1","folder":"tf","game":"Team Fortress","app_id":440,"player_count":0,"max_players":24,"Bots":0,"server_type":"Dedicated","server_os":"Linux","password":true,"vac":true,"version":"7961495","steam_id":85568392924469994,"keywords":["cp","nocrits","nodmgspread","uncletopia"],"game_id":440,"stv_port":27026,"stv_name":"Uncletopia | New York City | 2 | All Maps | STV","players":null},{"server_id":15,"name":"Uncletopia | New York City | 3 | Stopwatch","name_short":"nyc-3","host":"nyc-1.us.uncletopia.com","port":27035,"enabled":true,"region":"us-east","cc":"us","latitude":40.73061,"longitude":-73.93524,"reserved":0,"last_update":"0001-01-01T00:00:00Z","name_a2s":"Uncletopia | New York City | 3 | Stopwatch","protocol":17,"map":"cp_process_final","folder":"tf","game":"Team Fortress","app_id":440,"player_count":0,"max_players":24,"Bots":0,"server_type":"Dedicated","server_os":"Linux","password":true,"vac":true,"version":"7961495","steam_id":85568392924742820,"keywords":["cp","nocrits","nodmgspread","uncletopia"],"game_id":440,"stv_port":27036,"stv_name":"Uncletopia | New York City | 3 | Stopwatch | STV","players":null},{"server_id":16,"name":"Uncletopia | New York City | 4 | Community","name_short":"nyc-4","host":"nyc-1.us.uncletopia.com","port":27045,"enabled":true,"region":"us-east","cc":"us","latitude":40.73061,"longitude":-73.93524,"reserved":0,"last_update":"0001-01-01T00:00:00Z","name_a2s":"Uncletopia | New York City | 4 | Community","protocol":17,"map":"workshop/cp_snowbase_b21.ugc2081770490","folder":"tf","game":"Team Fortress","app_id":440,"player_count":0,"max_players":24,"Bots":0,"server_type":"Dedicated","server_os":"Linux","password":true,"vac":true,"version":"7961495","steam_id":85568392924742821,"keywords":["cp","nocrits","nodmgspread","uncletopia"],"game_id":440,"stv_port":27046,"stv_name":"Uncletopia | New York City | 4 | Community | STV","players":null},{"server_id":142,"name":"Uncletopia | São Paulo | 1 | All Maps","name_short":"sao-1","host":"sao-1.br.uncletopia.com","port":27015,"enabled":true,"region":"sa","cc":"br","latitude":-23.533773,"longitude":-46.62529,"reserved":0,"last_update":"0001-01-01T00:00:00Z","name_a2s":"Uncletopia | São Paulo | 1 | All Maps","protocol":17,"map":"pl_barnblitz","folder":"tf","game":"Team Fortress","app_id":440,"player_count":0,"max_players":24,"Bots":0,"server_type":"Dedicated","server_os":"Linux","password":true,"vac":true,"version":"7961495","steam_id":85568392924469996,"keywords":["nocrits","nodmgspread","payload","uncletopia"],"game_id":440,"stv_port":27016,"stv_name":"Uncletopia | São Paulo | 1 | All Maps | STV","players":null},{"server_id":143,"name":"Uncletopia | São Paulo | 2 | Community","name_short":"sao-2","host":"sao-2.br.uncletopia.com","port":27015,"enabled":true,"region":"sa","cc":"br","latitude":-23.533773,"longitude":-46.62529,"reserved":0,"last_update":"0001-01-01T00:00:00Z","name_a2s":"Uncletopia | São Paulo | 2 | Community","protocol":17,"map":"pl_badwater","folder":"tf","game":"Team Fortress","app_id":440,"player_count":0,"max_players":24,"Bots":0,"server_type":"Dedicated","server_os":"Linux","password":true,"vac":true,"version":"7961495","steam_id":85568392924485349,"keywords":["nocrits","nodmgspread","payload","uncletopia"],"game_id":440,"stv_port":27016,"stv_name":"Uncletopia | São Paulo | 2 | Community | STV","players":null},{"server_id":7,"name":"Uncletopia | Seattle | 1 | All Maps","name_short":"sea-1","host":"sea-1.us.uncletopia.com","port":27015,"enabled":true,"region":"us-west","cc":"us","latitude":47.608013,"longitude":-122.33517,"reserved":0,"last_update":"0001-01-01T00:00:00Z","name_a2s":"Uncletopia | Seattle | 1 | All Maps","protocol":17,"map":"pl_badwater","folder":"tf","game":"Team Fortress","app_id":440,"player_count":23,"max_players":24,"Bots":0,"server_type":"Dedicated","server_os":"Linux","password":true,"vac":true,"version":"7961495","steam_id":85568392924469997,"keywords":["nocrits","nodmgspread","payload","uncletopia"],"game_id":440,"stv_port":27016,"stv_name":"Uncletopia | Seattle | 1 | All Maps | STV","players":[{"user_id":152,"name":"Sir Loincloth","steam_id":76561198033073991,"connected_time":5066000000000,"state":"active","ping":62},{"user_id":164,"name":"Power","steam_id":76561197978508626,"connected_time":4622000000000,"state":"active","ping":70},{"user_id":187,"name":"slippery fred","steam_id":76561198803818181,"connected_time":2005000000000,"state":"active","ping":67},{"user_id":196,"name":"Oktayey","steam_id":76561198143213426,"connected_time":915000000000,"state":"active","ping":64},{"user_id":205,"name":"Yom","steam_id":76561198065464198,"connected_time":243000000000,"state":"active","ping":93},{"user_id":193,"name":"Skabbety","steam_id":76561198168044257,"connected_time":1752000000000,"state":"active","ping":44},{"user_id":204,"name":"Question Mark","steam_id":76561198046854832,"connected_time":284000000000,"state":"active","ping":44},{"user_id":212,"name":"Wakadactyl","steam_id":76561198143217984,"connected_time":36000000000,"state":"active","ping":101},{"user_id":195,"name":"Cosmo","steam_id":76561199085643398,"connected_time":1306000000000,"state":"active","ping":76},{"user_id":203,"name":"Saint Laurent Don","steam_id":76561198116820706,"connected_time":285000000000,"state":"active","ping":42},{"user_id":186,"name":"Nassu","steam_id":76561198147367577,"connected_time":2315000000000,"state":"active","ping":110},{"user_id":194,"name":"tek lintowe fan","steam_id":76561198206177593,"connected_time":1425000000000,"state":"active","ping":73},{"user_id":207,"name":"lorient","steam_id":76561198150831438,"connected_time":226000000000,"state":"active","ping":80},{"user_id":189,"name":"Thequirka","steam_id":76561198968058652,"connected_time":1982000000000,"state":"active","ping":55},{"user_id":208,"name":"Frank Horrigan","steam_id":76561198066504831,"connected_time":220000000000,"state":"active","ping":77},{"user_id":182,"name":"UnReLinked","steam_id":76561199366044663,"connected_time":2571000000000,"state":"active","ping":52},{"user_id":166,"name":"RedlineRush","steam_id":76561198122437356,"connected_time":3872000000000,"state":"active","ping":45},{"user_id":202,"name":"bogdagod","steam_id":76561198286968297,"connected_time":292000000000,"state":"active","ping":45},{"user_id":213,"name":"Beef Wellington","steam_id":76561197995635241,"connected_time":15000000000,"state":"active","ping":182},{"user_id":211,"name":"Would You Make Me A Sandwich?","steam_id":76561198152332211,"connected_time":148000000000,"state":"active","ping":90},{"user_id":160,"name":"ACK","steam_id":76561198130390689,"connected_time":4822000000000,"state":"active","ping":65},{"user_id":174,"name":"Rat Smoking a big cigar","steam_id":76561198090419068,"connected_time":2895000000000,"state":"active","ping":78},{"user_id":192,"name":"Coolstuff","steam_id":76561198178350213,"connected_time":1868000000000,"state":"active","ping":76}]},{"server_id":119,"name":"Uncletopia | Seattle | 2 | All Maps","name_short":"sea-2","host":"sea-1.us.uncletopia.com","port":27025,"enabled":true,"region":"us-west","cc":"us","latitude":47.608013,"longitude":-122.33517,"reserved":0,"last_update":"0001-01-01T00:00:00Z","name_a2s":"Uncletopia | Seattle | 2 | All Maps","protocol":17,"map":"pl_borneo","folder":"tf","game":"Team Fortress","app_id":440,"player_count":1,"max_players":24,"Bots":0,"server_type":"Dedicated","server_os":"Linux","password":true,"vac":true,"version":"7961495","steam_id":85568392924469998,"keywords":["nocrits","nodmgspread","payload","uncletopia"],"game_id":440,"stv_port":27026,"stv_name":"Uncletopia | Seattle | 2 | All Maps | STV","players":[{"user_id":6,"name":"bluntsmoker1829","steam_id":76561198238451764,"connected_time":335000000000,"state":"active","ping":57}]},{"server_id":406,"name":"Uncletopia | Seattle | 3 | Stopwatch","name_short":"sea-3","host":"sea-1.us.uncletopia.com","port":27035,"enabled":true,"region":"us-west","cc":"us","latitude":47.608013,"longitude":-122.33517,"reserved":0,"last_update":"0001-01-01T00:00:00Z","name_a2s":"Uncletopia | Seattle | 3 | Stopwatch","protocol":17,"map":"pl_pier","folder":"tf","game":"Team Fortress","app_id":440,"player_count":0,"max_players":24,"Bots":0,"server_type":"Dedicated","server_os":"Linux","password":true,"vac":true,"version":"7961495","steam_id":85568392924515217,"keywords":["nocrits","nodmgspread","payload","uncletopia"],"game_id":440,"stv_port":27036,"stv_name":"Uncletopia | Seattle | 3 | Stopwatch | STV","players":null},{"server_id":17,"name":"Uncletopia | San Francisco | 1 | All Maps","name_short":"sfo-1","host":"sfo-1.us.uncletopia.com","port":27015,"enabled":true,"region":"us-west","cc":"us","latitude":37.77397,"longitude":-122.4313,"reserved":0,"last_update":"0001-01-01T00:00:00Z","name_a2s":"Uncletopia | San Francisco | 1 | All Maps","protocol":17,"map":"koth_cascade","folder":"tf","game":"Team Fortress","app_id":440,"player_count":0,"max_players":24,"Bots":0,"server_type":"Dedicated","server_os":"Linux","password":true,"vac":true,"version":"7961495","steam_id":85568392924469999,"keywords":["cp","nocrits","nodmgspread","uncletopia"],"game_id":440,"stv_port":27016,"stv_name":"Uncletopia | San Francisco | 1 | All Maps | STV","players":null},{"server_id":18,"name":"Uncletopia | San Francisco | 2 | All Maps","name_short":"sfo-2","host":"sfo-1.us.uncletopia.com","port":27025,"enabled":true,"region":"us-west","cc":"us","latitude":37.77397,"longitude":-122.4313,"reserved":0,"last_update":"0001-01-01T00:00:00Z","name_a2s":"Uncletopia | San Francisco | 2 | All Maps","protocol":17,"map":"pl_frontier_final","folder":"tf","game":"Team Fortress","app_id":440,"player_count":0,"max_players":24,"Bots":0,"server_type":"Dedicated","server_os":"Linux","password":true,"vac":true,"version":"7961495","steam_id":85568392924470000,"keywords":["nocrits","nodmgspread","payload","uncletopia"],"game_id":440,"stv_port":27026,"stv_name":"Uncletopia | San Francisco | 2 | All Maps | STV","players":null},{"server_id":19,"name":"Uncletopia | San Francisco | 3 | Stopwatch","name_short":"sfo-3","host":"sfo-1.us.uncletopia.com","port":27035,"enabled":true,"region":"us-west","cc":"us","latitude":37.77397,"longitude":-122.4313,"reserved":0,"last_update":"0001-01-01T00:00:00Z","name_a2s":"Uncletopia | San Francisco | 3 | Stopwatch","protocol":17,"map":"pl_pier","folder":"tf","game":"Team Fortress","app_id":440,"player_count":0,"max_players":24,"Bots":0,"server_type":"Dedicated","server_os":"Linux","password":true,"vac":true,"version":"7961495","steam_id":85568392924742824,"keywords":["nocrits","nodmgspread","payload","uncletopia"],"game_id":440,"stv_port":27036,"stv_name":"Uncletopia | San Francisco | 3 | Stopwatch | STV","players":null},{"server_id":20,"name":"Uncletopia | San Francisco | 4 | Community","name_short":"sfo-4","host":"sfo-1.us.uncletopia.com","port":27045,"enabled":true,"region":"us-west","cc":"us","latitude":37.77397,"longitude":-122.4313,"reserved":0,"last_update":"0001-01-01T00:00:00Z","name_a2s":"Uncletopia | San Francisco | 4 | Community","protocol":17,"map":"pl_pier","folder":"tf","game":"Team Fortress","app_id":440,"player_count":0,"max_players":24,"Bots":0,"server_type":"Dedicated","server_os":"Linux","password":true,"vac":true,"version":"7961495","steam_id":85568392924742826,"keywords":["nocrits","nodmgspread","payload","uncletopia"],"game_id":440,"stv_port":27046,"stv_name":"Uncletopia | San Francisco | 4 | Community | STV","players":null},{"server_id":141,"name":"Uncletopia | Sydney | 1 | All Maps","name_short":"syd-1","host":"syd-1.au.uncletopia.com","port":27015,"enabled":true,"region":"au","cc":"au","latitude":-33.865143,"longitude":151.2099,"reserved":0,"last_update":"0001-01-01T00:00:00Z","name_a2s":"Uncletopia | Sydney | 1 | All Maps","protocol":17,"map":"cp_process_final","folder":"tf","game":"Team Fortress","app_id":440,"player_count":0,"max_players":24,"Bots":0,"server_type":"Dedicated","server_os":"Linux","password":true,"vac":true,"version":"7961495","steam_id":85568392924470001,"keywords":["cp","nocrits","nodmgspread","uncletopia"],"game_id":440,"stv_port":27016,"stv_name":"Uncletopia | Sydney | 1 | All Maps | STV","players":null},{"server_id":123,"name":"Uncletopia | Sydney | 2 | All Maps","name_short":"syd-2","host":"syd-1.au.uncletopia.com","port":27025,"enabled":true,"region":"au","cc":"au","latitude":-33.865143,"longitude":151.2099,"reserved":0,"last_update":"0001-01-01T00:00:00Z","name_a2s":"Uncletopia | Sydney | 2 | All Maps","protocol":17,"map":"koth_lakeside_final","folder":"tf","game":"Team Fortress","app_id":440,"player_count":0,"max_players":24,"Bots":0,"server_type":"Dedicated","server_os":"Linux","password":true,"vac":true,"version":"7961495","steam_id":85568392924470002,"keywords":["cp","nocrits","nodmgspread","uncletopia"],"game_id":440,"stv_port":27026,"stv_name":"Uncletopia | Sydney | 2 | All Maps | STV","players":null},{"server_id":395,"name":"Uncletopia | Sydney | 3 | All Maps","name_short":"syd-3","host":"syd-1.au.uncletopia.com","port":27035,"enabled":true,"region":"au","cc":"au","latitude":-33.865143,"longitude":151.2099,"reserved":0,"last_update":"0001-01-01T00:00:00Z","name_a2s":"Uncletopia | Sydney | 3 | All Maps","protocol":17,"map":"cp_sunshine","folder":"tf","game":"Team Fortress","app_id":440,"player_count":0,"max_players":24,"Bots":0,"server_type":"Dedicated","server_os":"Linux","password":true,"vac":true,"version":"7961495","steam_id":85568392925194467,"keywords":["cp","nocrits","nodmgspread","uncletopia"],"game_id":440,"stv_port":27036,"stv_name":"Uncletopia | Sydney | 3 | All Maps | STV","players":null},{"server_id":396,"name":"Uncletopia | Sydney | 4 | All Maps","name_short":"syd-4","host":"syd-1.au.uncletopia.com","port":27045,"enabled":true,"region":"au","cc":"au","latitude":-33.865143,"longitude":151.2099,"reserved":0,"last_update":"0001-01-01T00:00:00Z","name_a2s":"Uncletopia | Sydney | 4 | All Maps","protocol":17,"map":"koth_viaduct","folder":"tf","game":"Team Fortress","app_id":440,"player_count":0,"max_players":24,"Bots":0,"server_type":"Dedicated","server_os":"Linux","password":true,"vac":true,"version":"7961495","steam_id":85568392925397958,"keywords":["cp","nocrits","nodmgspread","uncletopia"],"game_id":440,"stv_port":27046,"stv_name":"Uncletopia | Sydney | 4 | All Maps | STV","players":null},{"server_id":58,"name":"Uncletopia | Sydney | 5 | Stopwatch","name_short":"syd-5","host":"syd-1.au.uncletopia.com","port":27055,"enabled":true,"region":"au","cc":"au","latitude":-33.865143,"longitude":151.2099,"reserved":0,"last_update":"0001-01-01T00:00:00Z","name_a2s":"Uncletopia | Sydney | 5 | Stopwatch","protocol":17,"map":"pl_upward","folder":"tf","game":"Team Fortress","app_id":440,"player_count":0,"max_players":24,"Bots":0,"server_type":"Dedicated","server_os":"Linux","password":true,"vac":true,"version":"7961495","steam_id":85568392925397959,"keywords":["nocrits","nodmgspread","payload","uncletopia"],"game_id":440,"stv_port":27056,"stv_name":"Uncletopia | Sydney | 5 | Stopwatch | STV","players":null},{"server_id":59,"name":"Uncletopia | Sydney | 6 | Community","name_short":"syd-6","host":"syd-1.au.uncletopia.com","port":27065,"enabled":true,"region":"au","cc":"au","latitude":-33.865143,"longitude":151.2099,"reserved":0,"last_update":"0001-01-01T00:00:00Z","name_a2s":"Uncletopia | Sydney | 6 | Community","protocol":17,"map":"cp_sunshine","folder":"tf","game":"Team Fortress","app_id":440,"player_count":0,"max_players":24,"Bots":0,"server_type":"Dedicated","server_os":"Linux","password":true,"vac":true,"version":"7961495","steam_id":85568392925397960,"keywords":["cp","nocrits","nodmgspread","uncletopia"],"game_id":440,"stv_port":27066,"stv_name":"Uncletopia | Sydney | 6 | Community | STV","players":null},{"server_id":49,"name":"Uncletopia | Warsaw | 1 | One Thousand Uncles","name_short":"waw-1","host":"waw-1.pl.uncletopia.com","port":27015,"enabled":true,"region":"eu","cc":"pl","latitude":52.2297,"longitude":21.017532,"reserved":0,"last_update":"0001-01-01T00:00:00Z","name_a2s":"Uncletopia | Warsaw | 1 | One Thousand Uncles","protocol":17,"map":"cp_mercenarypark","folder":"tf","game":"Team Fortress","app_id":440,"player_count":23,"max_players":32,"Bots":16,"server_type":"Dedicated","server_os":"Linux","password":true,"vac":true,"version":"7961495","steam_id":85568392925397850,"keywords":["alltalk","bots","cp","danepve","increased_maxplayers","nocrits","norespawntime","uncletopia"],"game_id":440,"stv_port":0,"stv_name":"","players":[{"user_id":522,"name":"DaNugget_Prime","steam_id":76561198360512945,"connected_time":3009000000000,"state":"active","ping":62},{"user_id":561,"name":"Benzo Fury","steam_id":76561198025259336,"connected_time":163000000000,"state":"active","ping":75},{"user_id":555,"name":"progamercoast","steam_id":76561199240271445,"connected_time":932000000000,"state":"active","ping":75},{"user_id":562,"name":"Tispy","steam_id":76561199207410049,"connected_time":45000000000,"state":"spawning","ping":157},{"user_id":560,"name":"Shadowgamer","steam_id":76561198386147275,"connected_time":328000000000,"state":"active","ping":50},{"user_id":533,"name":"Kotlet schabowy","steam_id":76561198048983509,"connected_time":2232000000000,"state":"active","ping":44},{"user_id":558,"name":"Brozy","steam_id":76561199014951849,"connected_time":693000000000,"state":"active","ping":137}]},{"server_id":50,"name":"Uncletopia | Warsaw | 2 | One Thousand Uncles","name_short":"waw-2","host":"waw-1.pl.uncletopia.com","port":27025,"enabled":true,"region":"eu","cc":"pl","latitude":52.2297,"longitude":21.017532,"reserved":0,"last_update":"0001-01-01T00:00:00Z","name_a2s":"Uncletopia | Warsaw | 2 | One Thousand Uncles","protocol":17,"map":"pl_barnblitz","folder":"tf","game":"Team Fortress","app_id":440,"player_count":28,"max_players":32,"Bots":16,"server_type":"Dedicated","server_os":"Linux","password":true,"vac":true,"version":"7961495","steam_id":85568392925397851,"keywords":["alltalk","bots","danepve","increased_maxplayers","nocrits","norespawntime","payload","uncletopia"],"game_id":440,"stv_port":0,"stv_name":"","players":[{"user_id":269,"name":"Heavy Neutron Blaster II","steam_id":76561199038779220,"connected_time":218000000000,"state":"active","ping":77},{"user_id":207,"name":"DemPh","steam_id":76561199176198351,"connected_time":3604000000000,"state":"active","ping":124},{"user_id":213,"name":"Pascal Darras","steam_id":76561198052136478,"connected_time":3162000000000,"state":"active","ping":72},{"user_id":267,"name":"Penguin","steam_id":76561198146621168,"connected_time":610000000000,"state":"active","ping":96},{"user_id":211,"name":"[SQ UA] MartianDill","steam_id":76561198405382822,"connected_time":3251000000000,"state":"active","ping":54},{"user_id":270,"name":"Danny Mullen Freed The Slaves","steam_id":76561198198803773,"connected_time":183000000000,"state":"active","ping":90},{"user_id":215,"name":"Mönkey","steam_id":76561198120175506,"connected_time":2980000000000,"state":"active","ping":71},{"user_id":271,"name":"FalconBalcon","steam_id":76561199123991020,"connected_time":130000000000,"state":"active","ping":80},{"user_id":218,"name":"Major Suchodolski","steam_id":76561198088919990,"connected_time":2577000000000,"state":"active","ping":42},{"user_id":272,"name":"Aven","steam_id":76561198974343597,"connected_time":126000000000,"state":"active","ping":102},{"user_id":222,"name":"Zero-Xyfer","steam_id":76561198351621003,"connected_time":2328000000000,"state":"active","ping":168},{"user_id":273,"name":"polujacykotXX_001252","steam_id":76561199084002612,"connected_time":93000000000,"state":"active","ping":36}]},{"server_id":51,"name":"Uncletopia | Warsaw | 3 | All Maps","name_short":"waw-3","host":"waw-1.pl.uncletopia.com","port":27035,"enabled":true,"region":"eu","cc":"pl","latitude":52.2297,"longitude":21.017532,"reserved":0,"last_update":"0001-01-01T00:00:00Z","name_a2s":"Uncletopia | Warsaw | 3 | All Maps","protocol":17,"map":"cp_steel","folder":"tf","game":"Team Fortress","app_id":440,"player_count":0,"max_players":24,"Bots":0,"server_type":"Dedicated","server_os":"Linux","password":true,"vac":true,"version":"7961495","steam_id":85568392925397852,"keywords":["cp","nocrits","nodmgspread","uncletopia"],"game_id":440,"stv_port":27036,"stv_name":"Uncletopia | Warsaw | 3 | All Maps | STV","players":null},{"server_id":52,"name":"Uncletopia | Warsaw | 4 | All Maps","name_short":"waw-4","host":"waw-1.pl.uncletopia.com","port":27045,"enabled":true,"region":"eu","cc":"pl","latitude":52.2297,"longitude":21.017532,"reserved":0,"last_update":"0001-01-01T00:00:00Z","name_a2s":"Uncletopia | Warsaw | 4 | All Maps","protocol":17,"map":"cp_sunshine","folder":"tf","game":"Team Fortress","app_id":440,"player_count":1,"max_players":24,"Bots":0,"server_type":"Dedicated","server_os":"Linux","password":true,"vac":true,"version":"7961495","steam_id":85568392925397853,"keywords":["cp","nocrits","nodmgspread","uncletopia"],"game_id":440,"stv_port":27046,"stv_name":"Uncletopia | Warsaw | 4 | All Maps | STV","players":[{"user_id":5,"name":"Commander Pootis","steam_id":76561198796976439,"connected_time":201000000000,"state":"active","ping":63}]},{"server_id":53,"name":"Uncletopia | Warsaw | 5 | Stopwatch","name_short":"waw-5","host":"waw-1.pl.uncletopia.com","port":27055,"enabled":true,"region":"eu","cc":"pl","latitude":52.2297,"longitude":21.017532,"reserved":0,"last_update":"0001-01-01T00:00:00Z","name_a2s":"Uncletopia | Warsaw | 5 | Stopwatch","protocol":17,"map":"workshop/pl_barnblitz_pro7.ugc582280235","folder":"tf","game":"Team Fortress","app_id":440,"player_count":0,"max_players":24,"Bots":0,"server_type":"Dedicated","server_os":"Linux","password":true,"vac":true,"version":"7961495","steam_id":85568392925397854,"keywords":["nocrits","nodmgspread","payload","uncletopia"],"game_id":440,"stv_port":27056,"stv_name":"Uncletopia | Warsaw | 5 | Stopwatch | STV","players":null},{"server_id":54,"name":"Uncletopia | Warsaw | 6 | Community","name_short":"waw-6","host":"waw-1.pl.uncletopia.com","port":27065,"enabled":true,"region":"eu","cc":"pl","latitude":52.2297,"longitude":21.017532,"reserved":0,"last_update":"0001-01-01T00:00:00Z","name_a2s":"Uncletopia | Warsaw | 6 | Community","protocol":17,"map":"workshop/cp_coilblaze_rc7.ugc1272700588","folder":"tf","game":"Team Fortress","app_id":440,"player_count":0,"max_players":24,"Bots":0,"server_type":"Dedicated","server_os":"Linux","password":true,"vac":true,"version":"7961495","steam_id":85568392925397856,"keywords":["cp","nocrits","nodmgspread","uncletopia"],"game_id":440,"stv_port":27066,"stv_name":"Uncletopia | Warsaw | 6 | Community | STV","players":null}]}