{"status":true,"message":"","result":[{"server_id":9,"name":"Uncletopia | Atlanta | 1 | All Maps","name_short":"atl-1","host":"atl-1.us.uncletopia.com","port":27015,"enabled":true,"region":"us-east","cc":"us","latitude":33.753746,"longitude":-84.38633,"reserved":0,"last_update":"0001-01-01T00:00:00Z","name_a2s":"Uncletopia | Atlanta | 1 | All Maps","protocol":17,"map":"pl_barnblitz","folder":"tf","game":"Team Fortress","app_id":440,"player_count":23,"max_players":24,"Bots":0,"server_type":"Dedicated","server_os":"Linux","password":true,"vac":true,"version":"7757534","steam_id":85568392924469982,"keywords":["nocrits","nodmgspread","payload","uncletopia"],"game_id":440,"stv_port":27016,"stv_name":"Uncletopia | Atlanta | 1 | All Maps | STV","players":[{"user_id":155,"name":"Deep Peepus","steam_id":76561198205395757,"connected_time":3445000000000,"state":"active","ping":76},{"user_id":178,"name":"Bottom feeder","steam_id":76561198181298169,"connected_time":1745000000000,"state":"active","ping":71},{"user_id":113,"name":"basil","steam_id":76561198075758026,"connected_time":4721000000000,"state":"active","ping":73},{"user_id":198,"name":"Eosson","steam_id":76561198108642113,"connected_time":148000000000,"state":"active","ping":85},{"user_id":74,"name":"Ashes!","steam_id":76561197998475441,"connected_time":7533000000000,"state":"active","ping":77},{"user_id":176,"name":"Epifiny","steam_id":76561198027958086,"connected_time":2018000000000,"state":"active","ping":91},{"user_id":200,"name":"Ricky Dicky Doo Dah Grimes","steam_id":76561198143221900,"connected_time":116000000000,"state":"active","ping":78},{"user_id":201,"name":"Walter White","steam_id":76561198875469297,"connected_time":93000000000,"state":"active","ping":86},{"user_id":164,"name":"Bad Rollout","steam_id":76561197971948876,"connected_time":3212000000000,"state":"active","ping":66},{"user_id":183,"name":"ZodiacThundaga","steam_id":76561199025117814,"connected_time":1605000000000,"state":"active","ping":88},{"user_id":188,"name":"Jona2180","steam_id":76561198807012900,"connected_time":1155000000000,"state":"active","ping":63},{"user_id":180,"name":"Centipede on a Game Boy","steam_id":76561199016285746,"connected_time":1656000000000,"state":"active","ping":75},{"user_id":119,"name":"Just PYE","steam_id":76561199439622967,"connected_time":3886000000000,"state":"active","ping":83},{"user_id":196,"name":"fortnite.jimmy.2014","steam_id":76561199177672325,"connected_time":174000000000,"state":"active","ping":44},{"user_id":177,"name":"xiii","steam_id":76561198079416036,"connected_time":1959000000000,"state":"active","ping":75},{"user_id":192,"name":"Xraverz","steam_id":76561198008891628,"connected_time":524000000000,"state":"active","ping":87},{"user_id":92,"name":"Mister","steam_id":76561198097164652,"connected_time":6810000000000,"state":"active","ping":68},{"user_id":186,"name":"atl1icyy","steam_id":76561198968001329,"connected_time":1469000000000,"state":"active","ping":47},{"user_id":193,"name":"Lovedaddy","steam_id":76561198006569710,"connected_time":427000000000,"state":"active","ping":90},{"user_id":185,"name":"inky (Coolest)","steam_id":76561198968337022,"connected_time":1546000000000,"state":"active","ping":57},{"user_id":189,"name":"Carl, Good to see you","steam_id":76561198070574075,"connected_time":1147000000000,"state":"active","ping":62},{"user_id":191,"name":"The Pope","steam_id":76561198313560302,"connected_time":621000000000,"state":"active","ping":44},{"user_id":167,"name":"luxin","steam_id":76561198399383047,"connected_time":3168000000000,"state":"active","ping":55}]},{"server_id":104,"name":"Uncletopia | Atlanta | 2 | All Maps","name_short":"atl-2","host":"atl-1.us.uncletopia.com","port":27025,"enabled":true,"region":"us-east","cc":"us","latitude":33.753746,"longitude":-84.38633,"reserved":0,"last_update":"0001-01-01T00:00:00Z","name_a2s":"Uncletopia | Atlanta | 2 | All Maps","protocol":17,"map":"pl_upward","folder":"tf","game":"Team Fortress","app_id":440,"player_count":22,"max_players":24,"Bots":0,"server_type":"Dedicated","server_os":"Linux","password":true,"vac":true,"version":"7757534","steam_id":85568392924469983,"keywords":["nocrits","nodmgspread","payload","uncletopia"],"game_id":440,"stv_port":27026,"stv_name":"Uncletopia | Atlanta | 2 | All Maps | STV","players":[{"user_id":14,"name":"SebastionFletcher2005","steam_id":76561198878574189,"connected_time":2578000000000,"state":"active","ping":85},{"user_id":30,"name":"Starving African Kid","steam_id":76561199018754605,"connected_time":925000000000,"state":"active","ping":78},{"user_id":42,"name":"Fish","steam_id":76561199439676949,"connected_time":540000000000,"state":"active","ping":83},{"user_id":31,"name":"balls_on_toast","steam_id":76561198307702552,"connected_time":848000000000,"state":"active","ping":130},{"user_id":22,"name":"cheapdisplay","steam_id":76561199206448493,"connected_time":1492000000000,"state":"active","ping":70},{"user_id":53,"name":"Dask","steam_id":76561198043385839,"connected_time":303000000000,"state":"active","ping":71},{"user_id":57,"name":"Squiliam Fancyson","steam_id":76561199029458936,"connected_time":223000000000,"state":"active","ping":67},{"user_id":55,"name":"carrion goat she/it","steam_id":76561198262064871,"connected_time":290000000000,"state":"active","ping":60},{"user_id":33,"name":"Greasy Guavas","steam_id":76561198089650428,"connected_time":823000000000,"state":"active","ping":82},{"user_id":34,"name":"A Lost CAWs","steam_id":76561198127120212,"connected_time":788000000000,"state":"active","ping":84},{"user_id":48,"name":"Kit kyat","steam_id":76561198235786296,"connected_time":427000000000,"state":"active","ping":75},{"user_id":52,"name":"MasterDoge17","steam_id":76561198917443549,"connected_time":333000000000,"state":"active","ping":87},{"user_id":38,"name":"Mr_Frosty","steam_id":76561199380389079,"connected_time":650000000000,"state":"active","ping":92},{"user_id":41,"name":"Shuu","steam_id":76561199199180558,"connected_time":593000000000,"state":"active","ping":71},{"user_id":40,"name":"MEATSHOTBOYZ","steam_id":76561198112297509,"connected_time":613000000000,"state":"active","ping":62},{"user_id":46,"name":"Knight","steam_id":76561198154529952,"connected_time":447000000000,"state":"active","ping":109},{"user_id":50,"name":"The Ghost of Jay Leno","steam_id":76561198058938897,"connected_time":364000000000,"state":"active","ping":74},{"user_id":49,"name":"Drinking on the Job","steam_id":76561199158508890,"connected_time":421000000000,"state":"active","ping":63},{"user_id":51,"name":"kermitcreeper(ZAZA)","steam_id":76561199222829972,"connected_time":356000000000,"state":"active","ping":74},{"user_id":56,"name":"Piss Scoundrel","steam_id":76561197995562098,"connected_time":265000000000,"state":"active","ping":167},{"user_id":58,"name":"peace dog","steam_id":76561198267988522,"connected_time":214000000000,"state":"active","ping":79},{"user_id":59,"name":"James","steam_id":76561198055687973,"connected_time":146000000000,"state":"active","ping":46}]},{"server_id":400,"name":"Uncletopia | Atlanta | 3 | Community","name_short":"atl-3","host":"atl-1.us.uncletopia.com","port":27035,"enabled":true,"region":"us-east","cc":"us","latitude":33.753746,"longitude":-84.38633,"reserved":0,"last_update":"0001-01-01T00:00:00Z","name_a2s":"Uncletopia | Atlanta | 3 | Community","protocol":17,"map":"workshop/rd_asteroid_redux_b1.ugc2154902912","folder":"tf","game":"Team Fortress","app_id":440,"player_count":0,"max_players":24,"Bots":0,"server_type":"Dedicated","server_os":"Linux","password":true,"vac":true,"version":"7757534","steam_id":85568392924515187,"keywords":["beta","nocrits","nodmgspread","rd","uncletopia"],"game_id":440,"stv_port":27036,"stv_name":"Uncletopia | Atlanta | 3 | Community | STV","players":null},{"server_id":401,"name":"Uncletopia | Atlanta | 4 | No Payload","name_short":"atl-4","host":"atl-1.us.uncletopia.com","port":27045,"enabled":true,"region":"us-east","cc":"us","latitude":33.753746,"longitude":-84.38633,"reserved":0,"last_update":"0001-01-01T00:00:00Z","name_a2s":"","protocol":0,"map":"","folder":"","game":"","app_id":0,"player_count":0,"max_players":0,"Bots":0,"server_type":"","server_os":"","password":false,"vac":false,"version":"","steam_id":0,"keywords":null,"game_id":0,"stv_port":0,"stv_name":"","players":null},{"server_id":2,"name":"Uncletopia | Chicago | 1 | All Maps","name_short":"chi-1","host":"chi-1.us.uncletopia.com","port":27015,"enabled":true,"region":"us-central","cc":"us","latitude":41.881832,"longitude":-87.62318,"reserved":0,"last_update":"0001-01-01T00:00:00Z","name_a2s":"Uncletopia | Chicago | 1 | All Maps","protocol":17,"map":"pl_badwater","folder":"tf","game":"Team Fortress","app_id":440,"player_count":24,"max_players":24,"Bots":0,"server_type":"Dedicated","server_os":"Linux","password":true,"vac":true,"version":"7757534","steam_id":85568392924469984,"keywords":["nocrits","nodmgspread","payload","uncletopia"],"game_id":440,"stv_port":27016,"stv_name":"Uncletopia | Chicago | 1 | All Maps | STV","players":[{"user_id":392,"name":"big ol' buford","steam_id":76561198290675957,"connected_time":1113000000000,"state":"active","ping":74},{"user_id":376,"name":"FUSION","steam_id":76561197972659738,"connected_time":2339000000000,"state":"active","ping":57},{"user_id":390,"name":"JESSE_JAMES12","steam_id":76561198388675641,"connected_time":1537000000000,"state":"active","ping":114},{"user_id":339,"name":"Your Local Coffee","steam_id":76561198272364611,"connected_time":3877000000000,"state":"active","ping":80},{"user_id":394,"name":"vv","steam_id":76561198134813102,"connected_time":759000000000,"state":"active","ping":56},{"user_id":377,"name":"nemaxilb :3","steam_id":76561199074875663,"connected_time":2313000000000,"state":"active","ping":76},{"user_id":371,"name":"Real Hefty Trout","steam_id":76561198059286399,"connected_time":2541000000000,"state":"active","ping":63},{"user_id":378,"name":"Cornman","steam_id":76561198320865504,"connected_time":2303000000000,"state":"active","ping":95},{"user_id":395,"name":"Raydn","steam_id":76561198418414338,"connected_time":736000000000,"state":"active","ping":76},{"user_id":393,"name":"[UHS] K24A4 2.4","steam_id":76561199072970627,"connected_time":882000000000,"state":"active","ping":45},{"user_id":409,"name":"Cerabond","steam_id":76561199230915333,"connected_time":329000000000,"state":"active","ping":83},{"user_id":406,"name":"ZeN","steam_id":76561199098746585,"connected_time":447000000000,"state":"active","ping":65},{"user_id":408,"name":"oxycodone overdose","steam_id":76561198805511159,"connected_time":408000000000,"state":"active","ping":60},{"user_id":391,"name":"Loashes","steam_id":76561198119608299,"connected_time":1465000000000,"state":"active","ping":75},{"user_id":396,"name":"Kiss Master","steam_id":76561198289572271,"connected_time":727000000000,"state":"active","ping":74},{"user_id":398,"name":"Kidzbopsicle","steam_id":76561198047660691,"connected_time":719000000000,"state":"active","ping":59},{"user_id":380,"name":"H.","steam_id":76561198074951179,"connected_time":2289000000000,"state":"active","ping":60},{"user_id":403,"name":"edwinbrood","steam_id":76561198044848769,"connected_time":593000000000,"state":"active","ping":62},{"user_id":399,"name":"CEO of Great Value Rootbeer","steam_id":76561198255823904,"connected_time":716000000000,"state":"active","ping":82},{"user_id":369,"name":"DeadlyDora","steam_id":76561198356453866,"connected_time":2723000000000,"state":"active","ping":63},{"user_id":404,"name":"Boo! Boo I Say!","steam_id":76561198272427405,"connected_time":560000000000,"state":"active","ping":70},{"user_id":362,"name":"cr","steam_id":76561198365304129,"connected_time":3340000000000,"state":"active","ping":71},{"user_id":373,"name":"Alliegatordilesaurus","steam_id":76561198073115783,"connected_time":2518000000000,"state":"active","ping":122},{"user_id":405,"name":"Yarn","steam_id":76561199227148369,"connected_time":482000000000,"state":"active","ping":85}]},{"server_id":106,"name":"Uncletopia | Chicago | 2 | All Maps","name_short":"chi-2","host":"chi-1.us.uncletopia.com","port":27025,"enabled":true,"region":"us-central","cc":"us","latitude":41.881832,"longitude":-87.62318,"reserved":0,"last_update":"0001-01-01T00:00:00Z","name_a2s":"Uncletopia | Chicago | 2 | All Maps","protocol":17,"map":"pl_pier","folder":"tf","game":"Team Fortress","app_id":440,"player_count":24,"max_players":24,"Bots":0,"server_type":"Dedicated","server_os":"Linux","password":true,"vac":true,"version":"7757534","steam_id":85568392924469985,"keywords":["nocrits","nodmgspread","payload","uncletopia"],"game_id":440,"stv_port":27026,"stv_name":"Uncletopia | Chicago | 2 | All Maps | STV","players":[{"user_id":417,"name":"Waaagh!","steam_id":76561197995317887,"connected_time":359000000000,"state":"active","ping":69},{"user_id":375,"name":"Fireball7d7________________WANG","steam_id":76561198087251749,"connected_time":2698000000000,"state":"active","ping":60},{"user_id":418,"name":"demoknight tf2","steam_id":76561198070393998,"connected_time":354000000000,"state":"active","ping":74},{"user_id":413,"name":"Siless","steam_id":76561198040803878,"connected_time":749000000000,"state":"active","ping":47},{"user_id":426,"name":"Phocae (She/Her)","steam_id":76561199317584594,"connected_time":156000000000,"state":"active","ping":78},{"user_id":414,"name":"Mikael_01","steam_id":76561199080253129,"connected_time":690000000000,"state":"active","ping":186},{"user_id":373,"name":"Smiles","steam_id":76561198107197973,"connected_time":3109000000000,"state":"active","ping":54},{"user_id":323,"name":"Peter Popoff","steam_id":76561198027171160,"connected_time":7286000000000,"state":"active","ping":54},{"user_id":420,"name":"Cooldude_15","steam_id":76561198346713382,"connected_time":334000000000,"state":"active","ping":45},{"user_id":427,"name":"MAXIMUM OVERDRIVE","steam_id":76561198113992547,"connected_time":44000000000,"state":"active","ping":103},{"user_id":380,"name":"imeancereal","steam_id":76561199477267466,"connected_time":2654000000000,"state":"active","ping":115},{"user_id":320,"name":"Ajax","steam_id":76561197962240140,"connected_time":7388000000000,"state":"active","ping":61},{"user_id":367,"name":"LikeASir","steam_id":76561198042209721,"connected_time":3628000000000,"state":"active","ping":46},{"user_id":410,"name":"Sex Enjoyer","steam_id":76561198972105423,"connected_time":1102000000000,"state":"active","ping":68},{"user_id":392,"name":"Seedkns","steam_id":76561199092210172,"connected_time":2038000000000,"state":"active","ping":69},{"user_id":405,"name":"Jill the Owl","steam_id":76561197999210583,"connected_time":1383000000000,"state":"active","ping":81},{"user_id":422,"name":"Menachem","steam_id":76561198041226420,"connected_time":235000000000,"state":"active","ping":49},{"user_id":399,"name":"Kick Down Door 6:00AM TUCK‚òÉRO","steam_id":76561197976146738,"connected_time":1468000000000,"state":"active","ping":84},{"user_id":415,"name":"Scoober","steam_id":76561198079736959,"connected_time":482000000000,"state":"active","ping":84},{"user_id":362,"name":"Schlebecke","steam_id":76561199044752122,"connected_time":4512000000000,"state":"active","ping":58},{"user_id":423,"name":"Mablinlok","steam_id":76561197992718242,"connected_time":235000000000,"state":"active","ping":75},{"user_id":407,"name":"Anubis","steam_id":76561198084130137,"connected_time":1378000000000,"state":"active","ping":88},{"user_id":424,"name":"Herr M√ºller","steam_id":76561198064876829,"connected_time":209000000000,"state":"active","ping":97},{"user_id":425,"name":"Amish Tornado","steam_id":76561198132953790,"connected_time":203000000000,"state":"active","ping":132}]},{"server_id":402,"name":"Uncletopia | Chicago | 3 | All Maps","name_short":"chi-3","host":"chi-1.us.uncletopia.com","port":27035,"enabled":true,"region":"us-central","cc":"us","latitude":41.881832,"longitude":-87.62318,"reserved":0,"last_update":"0001-01-01T00:00:00Z","name_a2s":"Uncletopia | Chicago | 3 | All Maps","protocol":17,"map":"cp_dustbowl","folder":"tf","game":"Team Fortress","app_id":440,"player_count":0,"max_players":24,"Bots":0,"server_type":"Dedicated","server_os":"Linux","password":true,"vac":true,"version":"7757534","steam_id":85568392924515191,"keywords":["cp","nocrits","nodmgspread","uncletopia"],"game_id":440,"stv_port":27036,"stv_name":"Uncletopia | Chicago | 3 | All Maps | STV","players":null},{"server_id":403,"name":"Uncletopia | Chicago | 4 | All Maps","name_short":"chi-4","host":"chi-1.us.uncletopia.com","port":27045,"enabled":true,"region":"us-central","cc":"us","latitude":41.881832,"longitude":-87.62318,"reserved":0,"last_update":"0001-01-01T00:00:00Z","name_a2s":"Uncletopia | Chicago | 4 | All Maps","protocol":17,"map":"koth_lakeside_final","folder":"tf","game":"Team Fortress","app_id":440,"player_count":0,"max_players":24,"Bots":0,"server_type":"Dedicated","server_os":"Linux","password":true,"vac":true,"version":"7757534","steam_id":85568392924515193,"keywords":["cp","nocrits","nodmgspread","uncletopia"],"game_id":440,"stv_port":27046,"stv_name":"Uncletopia | Chicago | 4 | All Maps | STV","players":null},{"server_id":36,"name":"Uncletopia | Chicago | 5 | All Maps","name_short":"chi-5","host":"chi-2.us.uncletopia.com","port":27015,"enabled":true,"region":"us-central","cc":"us","latitude":41.881832,"longitude":-87.62318,"reserved":0,"last_update":"0001-01-01T00:00:00Z","name_a2s":"Uncletopia | Chicago | 5 | All Maps","protocol":17,"map":"koth_cascade","folder":"tf","game":"Team Fortress","app_id":440,"player_count":0,"max_players":24,"Bots":0,"server_type":"Dedicated","server_os":"Linux","password":true,"vac":true,"version":"7757534","steam_id":85568392924866362,"keywords":["cp","nocrits","nodmgspread","uncletopia"],"game_id":440,"stv_port":27016,"stv_name":"Uncletopia | Chicago | 5 | All Maps | STV","players":null},{"server_id":37,"name":"Uncletopia | Chicago | 6 | All Maps","name_short":"chi-6","host":"chi-2.us.uncletopia.com","port":27025,"enabled":true,"region":"us-central","cc":"us","latitude":41.881832,"longitude":-87.62318,"reserved":0,"last_update":"0001-01-01T00:00:00Z","name_a2s":"Uncletopia | Chicago | 6 | All Maps","protocol":17,"map":"pl_pier","folder":"tf","game":"Team Fortress","app_id":440,"player_count":19,"max_players":24,"Bots":0,"server_type":"Dedicated","server_os":"Linux","password":true,"vac":true,"version":"7757534","steam_id":85568392924866363,"keywords":["nocrits","nodmgspread","payload","uncletopia"],"game_id":440,"stv_port":27026,"stv_name":"Uncletopia | Chicago | 6 | All Maps | STV","players":[{"user_id":228,"name":"ant","steam_id":76561198133738975,"connected_time":86000000000,"state":"active","ping":74},{"user_id":222,"name":"Theodore Roosevelt","steam_id":76561197993295656,"connected_time":1069000000000,"state":"active","ping":40},{"user_id":229,"name":"Tanky","steam_id":76561199440310323,"connected_time":13000000000,"state":"spawning","ping":56},{"user_id":148,"name":"Blue-Lobster-Gaming","steam_id":76561199220578772,"connected_time":6926000000000,"state":"active","ping":83},{"user_id":230,"name":"Coughdrop Addict [F2P]","steam_id":76561199254281550,"connected_time":12000000000,"state":"spawning","ping":68},{"user_id":199,"name":"Jax","steam_id":76561198119247469,"connected_time":2392000000000,"state":"active","ping":81},{"user_id":223,"name":"Recursive Gamer","steam_id":76561198042102952,"connected_time":959000000000,"state":"active","ping":61},{"user_id":227,"name":"sylvyy","steam_id":76561198976976583,"connected_time":256000000000,"state":"active","ping":73},{"user_id":226,"name":"G00D G00GLY M00GLY!!","steam_id":76561199177310566,"connected_time":689000000000,"state":"active","ping":83},{"user_id":85,"name":"Suns","steam_id":76561198272323195,"connected_time":11609000000000,"state":"active","ping":98},{"user_id":182,"name":"crashymicsplody","steam_id":76561198213916765,"connected_time":4600000000000,"state":"active","ping":70},{"user_id":184,"name":"The Dead Weight","steam_id":76561198056694098,"connected_time":3962000000000,"state":"active","ping":61},{"user_id":170,"name":"Pussy Slambasket","steam_id":76561198093694322,"connected_time":5799000000000,"state":"active","ping":46},{"user_id":188,"name":"Hindmost","steam_id":76561199081837220,"connected_time":3744000000000,"state":"active","ping":88},{"user_id":191,"name":"James","steam_id":76561198081313916,"connected_time":3284000000000,"state":"active","ping":64},{"user_id":224,"name":"avantime","steam_id":76561199203175541,"connected_time":912000000000,"state":"active","ping":82},{"user_id":196,"name":"tablepiN","steam_id":76561198348930428,"connected_time":2693000000000,"state":"active","ping":65},{"user_id":201,"name":"Mystery","steam_id":76561199385233153,"connected_time":2351000000000,"state":"active","ping":74},{"user_id":202,"name":"WhoIsFrosty","steam_id":76561198880588117,"connected_time":2345000000000,"state":"active","ping":51}]},{"server_id":38,"name":"Uncletopia | Chicago | 7 | Stopwatch Beta","name_short":"chi-7","host":"chi-2.us.uncletopia.com","port":27035,"enabled":true,"region":"us-central","cc":"us","latitude":41.881832,"longitude":-87.62318,"reserved":0,"last_update":"0001-01-01T00:00:00Z","name_a2s":"Uncletopia | Chicago | 7 | Stopwatch Beta","protocol":17,"map":"pl_barnblitz","folder":"tf","game":"Team Fortress","app_id":440,"player_count":0,"max_players":24,"Bots":0,"server_type":"Dedicated","server_os":"Linux","password":true,"vac":true,"version":"7757534","steam_id":85568392924866364,"keywords":["nocrits","nodmgspread","payload","uncletopia"],"game_id":440,"stv_port":27036,"stv_name":"Uncletopia | Chicago | 7 | Stopwatch Beta | STV","players":null},{"server_id":39,"name":"Uncletopia | Chicago | 8 | Community","name_short":"chi-8","host":"chi-2.us.uncletopia.com","port":27045,"enabled":true,"region":"us-central","cc":"us","latitude":41.881832,"longitude":-87.62318,"reserved":0,"last_update":"0001-01-01T00:00:00Z","name_a2s":"Uncletopia | Chicago | 8 | Community","protocol":17,"map":"koth_cascade","folder":"tf","game":"Team Fortress","app_id":440,"player_count":0,"max_players":24,"Bots":0,"server_type":"Dedicated","server_os":"Linux","password":true,"vac":true,"version":"7757534","steam_id":85568392924866365,"keywords":["cp","nocrits","nodmgspread","uncletopia"],"game_id":440,"stv_port":27046,"stv_name":"Uncletopia | Chicago | 8 | Community | STV","players":null},{"server_id":8,"name":"Uncletopia | Dallas | 1 | All Maps","name_short":"dal-1","host":"dal-1.us.uncletopia.com","port":27015,"enabled":true,"region":"us-central","cc":"us","latitude":32.779167,"longitude":-96.80889,"reserved":0,"last_update":"0001-01-01T00:00:00Z","name_a2s":"Uncletopia | Dallas | 1 | All Maps","protocol":17,"map":"cp_gravelpit","folder":"tf","game":"Team Fortress","app_id":440,"player_count":24,"max_players":24,"Bots":0,"server_type":"Dedicated","server_os":"Linux","password":true,"vac":true,"version":"7757534","steam_id":85568392924469986,"keywords":["cp","nocrits","nodmgspread","uncletopia"],"game_id":440,"stv_port":27016,"stv_name":"Uncletopia | Dallas | 1 | All Maps | STV","players":[{"user_id":442,"name":"Moonflower ‚ú¶","steam_id":76561198191782483,"connected_time":110000000000,"state":"active","ping":52},{"user_id":443,"name":"EquinoxFox","steam_id":76561198011459492,"connected_time":107000000000,"state":"active","ping":71},{"user_id":342,"name":"Nightlygalad","steam_id":76561198170693990,"connected_time":8632000000000,"state":"active","ping":82},{"user_id":431,"name":"Obliterate the French","steam_id":76561198197352885,"connected_time":1359000000000,"state":"active","ping":55},{"user_id":444,"name":"cicero","steam_id":76561198174799574,"connected_time":105000000000,"state":"active","ping":72},{"user_id":440,"name":"Mint Silver","steam_id":76561198341221698,"connected_time":331000000000,"state":"active","ping":35},{"user_id":404,"name":"Falleax","steam_id":76561198021154908,"connected_time":2884000000000,"state":"active","ping":45},{"user_id":414,"name":"Sprit ‚ô•","steam_id":76561198268780781,"connected_time":2037000000000,"state":"active","ping":60},{"user_id":421,"name":"Latex Princess","steam_id":76561198158750199,"connected_time":1745000000000,"state":"active","ping":67},{"user_id":434,"name":"HALO 3","steam_id":76561198020825795,"connected_time":1255000000000,"state":"active","ping":72},{"user_id":437,"name":"JOE_SPECWARRIOR","steam_id":76561198008564250,"connected_time":810000000000,"state":"active","ping":77},{"user_id":364,"name":"üê∫-Iwky-ü¶ä","steam_id":76561198185616311,"connected_time":7534000000000,"state":"active","ping":69},{"user_id":427,"name":"Goldensliv","steam_id":76561198161673891,"connected_time":1441000000000,"state":"active","ping":60},{"user_id":375,"name":"Aurro","steam_id":76561198315692300,"connected_time":6590000000000,"state":"active","ping":73},{"user_id":423,"name":"EOAW","steam_id":76561198310451639,"connected_time":1603000000000,"state":"active","ping":78},{"user_id":399,"name":"Voodo133","steam_id":76561198042670351,"connected_time":3930000000000,"state":"active","ping":102},{"user_id":439,"name":"Brain Magic","steam_id":76561198010201477,"connected_time":449000000000,"state":"active","ping":88},{"user_id":441,"name":"A Glazed Donut","steam_id":76561198297536267,"connected_time":148000000000,"state":"active","ping":84},{"user_id":424,"name":"marpl","steam_id":76561198413295670,"connected_time":1596000000000,"state":"active","ping":95},{"user_id":425,"name":"Byrd_y","steam_id":76561198097711606,"connected_time":1577000000000,"state":"active","ping":87},{"user_id":428,"name":"Mynameisbeep","steam_id":76561198041988517,"connected_time":1432000000000,"state":"active","ping":98},{"user_id":445,"name":"Whammy","steam_id":76561197984525567,"connected_time":103000000000,"state":"active","ping":92},{"user_id":436,"name":"Achy_Blitz","steam_id":76561198090433209,"connected_time":897000000000,"state":"active","ping":88},{"user_id":446,"name":"Spoods","steam_id":76561198245568710,"connected_time":100000000000,"state":"active","ping":90}]},{"server_id":108,"name":"Uncletopia | Dallas | 2 | All Maps","name_short":"dal-2","host":"dal-1.us.uncletopia.com","port":27025,"enabled":true,"region":"us-central","cc":"us","latitude":32.779167,"longitude":-96.80889,"reserved":0,"last_update":"0001-01-01T00:00:00Z","name_a2s":"Uncletopia | Dallas | 2 | All Maps","protocol":17,"map":"pl_barnblitz","folder":"tf","game":"Team Fortress","app_id":440,"player_count":24,"max_players":24,"Bots":0,"server_type":"Dedicated","server_os":"Linux","password":true,"vac":true,"version":"7757534","steam_id":85568392924469988,"keywords":["nocrits","nodmgspread","payload","uncletopia"],"game_id":440,"stv_port":27026,"stv_name":"Uncletopia | Dallas | 2 | All Maps | STV","players":[{"user_id":357,"name":"Ugly Mick Mars (Plz Duel Me)","steam_id":76561198051504563,"connected_time":234000000000,"state":"active","ping":117},{"user_id":320,"name":"The Boy","steam_id":76561198297487180,"connected_time":2848000000000,"state":"active","ping":64},{"user_id":335,"name":"Mellou","steam_id":76561198212048740,"connected_time":1407000000000,"state":"active","ping":39},{"user_id":302,"name":"Gaiduk","steam_id":76561198112323877,"connected_time":4179000000000,"state":"active","ping":108},{"user_id":348,"name":"Aimainiac","steam_id":76561199099640358,"connected_time":580000000000,"state":"active","ping":99},{"user_id":316,"name":"‚ô• PsychicCellar ‚ô•","steam_id":76561198045923020,"connected_time":2895000000000,"state":"active","ping":59},{"user_id":350,"name":"Saikyo","steam_id":76561198212461467,"connected_time":575000000000,"state":"active","ping":45},{"user_id":337,"name":"Daehypeels","steam_id":76561198268981599,"connected_time":1348000000000,"state":"active","ping":91},{"user_id":342,"name":"Pinder","steam_id":76561198176708643,"connected_time":1073000000000,"state":"active","ping":71},{"user_id":303,"name":"carp","steam_id":76561198042865147,"connected_time":4151000000000,"state":"active","ping":75},{"user_id":351,"name":"Anomet","steam_id":76561198060246255,"connected_time":545000000000,"state":"active","ping":40},{"user_id":281,"name":"pleasehelpidonthavefingers","steam_id":76561199367935846,"connected_time":5622000000000,"state":"active","ping":69},{"user_id":352,"name":"Demoman","steam_id":76561198101850500,"connected_time":434000000000,"state":"active","ping":108},{"user_id":339,"name":"Nuclear Inquisition","steam_id":76561198093142257,"connected_time":1319000000000,"state":"active","ping":77},{"user_id":355,"name":"Daikyu","steam_id":76561199249225043,"connected_time":275000000000,"state":"active","ping":99},{"user_id":328,"name":"(1)Tcmango","steam_id":76561198057233847,"connected_time":2080000000000,"state":"active","ping":81},{"user_id":314,"name":"Tcmango","steam_id":76561198150447896,"connected_time":3076000000000,"state":"active","ping":75},{"user_id":354,"name":"CFG Ponder","steam_id":76561198127039453,"connected_time":328000000000,"state":"active","ping":80},{"user_id":298,"name":"DragonHunter994","steam_id":76561199076203907,"connected_time":4252000000000,"state":"active","ping":68},{"user_id":358,"name":"Frog","steam_id":76561199019647814,"connected_time":103000000000,"state":"active","ping":58},{"user_id":333,"name":"Mogwarrior41","steam_id":76561199388063817,"connected_time":1550000000000,"state":"active","ping":60},{"user_id":311,"name":"Temujin","steam_id":76561198030936583,"connected_time":3716000000000,"state":"active","ping":65},{"user_id":356,"name":"boosted honda","steam_id":76561198872639737,"connected_time":256000000000,"state":"active","ping":84},{"user_id":258,"name":"Dr. Mathew","steam_id":76561199015513652,"connected_time":7468000000000,"state":"active","ping":76}]},{"server_id":5,"name":"Uncletopia | Frankfurt | 1 | All Maps","name_short":"frk-1","host":"frk-1.de.uncletopia.com","port":27015,"enabled":true,"region":"eu","cc":"de","latitude":50.110924,"longitude":8.682127,"reserved":0,"last_update":"0001-01-01T00:00:00Z","name_a2s":"Uncletopia | Frankfurt | 1 | All Maps","protocol":17,"map":"cp_dustbowl","folder":"tf","game":"Team Fortress","app_id":440,"player_count":19,"max_players":24,"Bots":0,"server_type":"Dedicated","server_os":"Linux","password":true,"vac":true,"version":"7757534","steam_id":85568392924469989,"keywords":["cp","nocrits","nodmgspread","uncletopia"],"game_id":440,"stv_port":27016,"stv_name":"Uncletopia | Frankfurt | 1 | All Maps | STV","players":[{"user_id":182,"name":"It's a me Malario","steam_id":76561198176546013,"connected_time":634000000000,"state":"active","ping":63},{"user_id":125,"name":"‚òÖpoyo‚òÖ","steam_id":76561198150078959,"connected_time":4173000000000,"state":"active","ping":64},{"user_id":167,"name":"Falamp‚Ñ¢","steam_id":76561198300127856,"connected_time":1881000000000,"state":"active","ping":78},{"user_id":133,"name":"Serton‚ôù","steam_id":76561198011061126,"connected_time":3608000000000,"state":"active","ping":83},{"user_id":185,"name":"Lord","steam_id":76561198241305816,"connected_time":90000000000,"state":"active","ping":103},{"user_id":84,"name":"Mr_Pulse_","steam_id":76561198095001602,"connected_time":7790000000000,"state":"active","ping":83},{"user_id":138,"name":"‚ô• ‚ô• Sp3ll soo SeXy ÊÆ∫Êâã#1","steam_id":76561197970593737,"connected_time":3195000000000,"state":"active","ping":65},{"user_id":186,"name":"Raldow","steam_id":76561198021389301,"connected_time":9000000000,"state":"spawning","ping":174},{"user_id":155,"name":"edsuedi","steam_id":76561198074722832,"connected_time":2673000000000,"state":"active","ping":56},{"user_id":158,"name":"Ember (she/her) Nya","steam_id":76561199403820517,"connected_time":2295000000000,"state":"active","ping":82},{"user_id":184,"name":"zoinks!","steam_id":76561198068645362,"connected_time":199000000000,"state":"active","ping":55},{"user_id":180,"name":"homeinvasion$","steam_id":76561199111905021,"connected_time":786000000000,"state":"active","ping":113},{"user_id":154,"name":"LarsInABox","steam_id":76561198028329262,"connected_time":2862000000000,"state":"active","ping":72},{"user_id":159,"name":"Dewotter","steam_id":76561198007653168,"connected_time":2277000000000,"state":"active","ping":70},{"user_id":170,"name":"bunzlau","steam_id":76561198329485346,"connected_time":1384000000000,"state":"active","ping":72},{"user_id":179,"name":"john stick","steam_id":76561198165998678,"connected_time":844000000000,"state":"active","ping":65},{"user_id":171,"name":"cursedbygod‚ô°","steam_id":76561198318291047,"connected_time":1380000000000,"state":"active","ping":107},{"user_id":172,"name":"Riceman","steam_id":76561198295132727,"connected_time":1371000000000,"state":"active","ping":73},{"user_id":132,"name":"corvuscorax","steam_id":76561198017619752,"connected_time":3657000000000,"state":"active","ping":60}]},{"server_id":110,"name":"Uncletopia | Frankfurt | 2 | All Maps","name_short":"frk-2","host":"frk-1.de.uncletopia.com","port":27025,"enabled":true,"region":"eu","cc":"de","latitude":50.110924,"longitude":8.682127,"reserved":0,"last_update":"0001-01-01T00:00:00Z","name_a2s":"Uncletopia | Frankfurt | 2 | All Maps","protocol":17,"map":"pl_borneo","folder":"tf","game":"Team Fortress","app_id":440,"player_count":24,"max_players":24,"Bots":0,"server_type":"Dedicated","server_os":"Linux","password":true,"vac":true,"version":"7757534","steam_id":85568392924469990,"keywords":["nocrits","nodmgspread","payload","uncletopia"],"game_id":440,"stv_port":27026,"stv_name":"Uncletopia | Frankfurt | 2 | All Maps | STV","players":[{"user_id":235,"name":"Vezage","steam_id":76561198064916164,"connected_time":1375000000000,"state":"active","ping":67},{"user_id":227,"name":"lugi","steam_id":76561198121971994,"connected_time":2322000000000,"state":"active","ping":76},{"user_id":242,"name":"Tocco","steam_id":76561198052705844,"connected_time":802000000000,"state":"active","ping":62},{"user_id":243,"name":"Larso","steam_id":76561198996464912,"connected_time":799000000000,"state":"active","ping":75},{"user_id":244,"name":"hud_saytext_time 0","steam_id":76561198010327228,"connected_time":798000000000,"state":"active","ping":58},{"user_id":104,"name":"Ar|es","steam_id":76561198819160313,"connected_time":11841000000000,"state":"active","ping":86},{"user_id":240,"name":"Dark ^^","steam_id":76561198036241064,"connected_time":1072000000000,"state":"active","ping":60},{"user_id":207,"name":"dunduu","steam_id":76561198875240717,"connected_time":3845000000000,"state":"active","ping":63},{"user_id":245,"name":"Mean Green Peen","steam_id":76561198228455736,"connected_time":762000000000,"state":"active","ping":89},{"user_id":246,"name":"xiiski","steam_id":76561198152387747,"connected_time":747000000000,"state":"active","ping":108},{"user_id":36,"name":"Miss_Sparklezz","steam_id":76561198101745576,"connected_time":16986000000000,"state":"active","ping":70},{"user_id":212,"name":"Hasamnas","steam_id":76561199125038537,"connected_time":3726000000000,"state":"active","ping":65},{"user_id":247,"name":"piping hot","steam_id":76561198011692496,"connected_time":741000000000,"state":"active","ping":64},{"user_id":205,"name":"heyjohn14","steam_id":76561198840831773,"connected_time":4125000000000,"state":"active","ping":88},{"user_id":252,"name":"Angelatine(slut)","steam_id":76561198101624996,"connected_time":339000000000,"state":"active","ping":87},{"user_id":211,"name":"Just Navlis","steam_id":76561198090479609,"connected_time":3731000000000,"state":"active","ping":46},{"user_id":220,"name":"Zelmor","steam_id":76561197997708311,"connected_time":2586000000000,"state":"active","ping":47},{"user_id":249,"name":"ZanzibarPalm","steam_id":76561198059508828,"connected_time":728000000000,"state":"active","ping":77},{"user_id":187,"name":"Vershal Smershal","steam_id":76561198116223995,"connected_time":5797000000000,"state":"active","ping":63},{"user_id":166,"name":"ereh","steam_id":76561198061239823,"connected_time":6606000000000,"state":"active","ping":69},{"user_id":165,"name":"Wululu","steam_id":76561198180657331,"connected_time":7002000000000,"state":"active","ping":68},{"user_id":250,"name":"Old Hat","steam_id":76561197994673297,"connected_time":727000000000,"state":"active","ping":64},{"user_id":228,"name":"Lobster Overlord","steam_id":76561198144692530,"connected_time":2180000000000,"state":"active","ping":50},{"user_id":251,"name":"Tofu'","steam_id":76561197984621343,"connected_time":461000000000,"state":"active","ping":53}]},{"server_id":308,"name":"Uncletopia | Frankfurt | 3 | All Maps","name_short":"frk-3","host":"frk-1.de.uncletopia.com","port":27035,"enabled":true,"region":"eu","cc":"de","latitude":50.110924,"longitude":8.682127,"reserved":0,"last_update":"0001-01-01T00:00:00Z","name_a2s":"Uncletopia | Frankfurt | 3 | All Maps","protocol":17,"map":"koth_highpass","folder":"tf","game":"Team Fortress","app_id":440,"player_count":1,"max_players":24,"Bots":0,"server_type":"Dedicated","server_os":"Linux","password":true,"vac":true,"version":"7757534","steam_id":85568392924504274,"keywords":["cp","nocrits","nodmgspread","uncletopia"],"game_id":440,"stv_port":27036,"stv_name":"Uncletopia | Frankfurt | 3 | All Maps | STV","players":[{"user_id":26,"name":"XxGamer64xX","steam_id":76561199128761406,"connected_time":6000000000,"state":"spawning","ping":38}]},{"server_id":309,"name":"Uncletopia | Frankfurt | 4 | All Maps","name_short":"frk-4","host":"frk-1.de.uncletopia.com","port":27045,"enabled":true,"region":"eu","cc":"de","latitude":50.110924,"longitude":8.682127,"reserved":0,"last_update":"0001-01-01T00:00:00Z","name_a2s":"Uncletopia | Frankfurt | 4 | All Maps","protocol":17,"map":"koth_viaduct","folder":"tf","game":"Team Fortress","app_id":440,"player_count":0,"max_players":24,"Bots":0,"server_type":"Dedicated","server_os":"Linux","password":true,"vac":true,"version":"7757534","steam_id":85568392924504275,"keywords":["cp","nocrits","nodmgspread","uncletopia"],"game_id":440,"stv_port":27046,"stv_name":"Uncletopia | Frankfurt | 4 | All Maps | STV","players":null},{"server_id":310,"name":"Uncletopia | Frankfurt | 5 | All Maps","name_short":"frk-5","host":"frk-1.de.uncletopia.com","port":27055,"enabled":true,"region":"eu","cc":"de","latitude":50.110924,"longitude":8.682127,"reserved":0,"last_update":"0001-01-01T00:00:00Z","name_a2s":"Uncletopia | Frankfurt | 5 | All Maps","protocol":17,"map":"pl_snowycoast","folder":"tf","game":"Team Fortress","app_id":440,"player_count":24,"max_players":24,"Bots":0,"server_type":"Dedicated","server_os":"Linux","password":true,"vac":true,"version":"7757534","steam_id":85568392924504277,"keywords":["nocrits","nodmgspread","payload","uncletopia"],"game_id":440,"stv_port":27056,"stv_name":"Uncletopia | Frankfurt | 5 | All Maps | STV","players":[{"user_id":514,"name":"washed up","steam_id":76561198275742101,"connected_time":335000000000,"state":"active","ping":53},{"user_id":502,"name":".::[SerafeTTiN]::.","steam_id":76561198009471724,"connected_time":1577000000000,"state":"active","ping":83},{"user_id":512,"name":"ANKARA MESSI","steam_id":76561198083249161,"connected_time":570000000000,"state":"active","ping":58},{"user_id":493,"name":"Majima Gaming HD","steam_id":76561198365750503,"connected_time":2319000000000,"state":"active","ping":49},{"user_id":491,"name":"Bad Medic","steam_id":76561198117539276,"connected_time":2350000000000,"state":"active","ping":86},{"user_id":494,"name":"king251311","steam_id":76561199063310889,"connected_time":2308000000000,"state":"active","ping":73},{"user_id":515,"name":"Max Mustermann","steam_id":76561198167986695,"connected_time":286000000000,"state":"active","ping":47},{"user_id":504,"name":"Omni","steam_id":76561197964320557,"connected_time":1541000000000,"state":"active","ping":64},{"user_id":508,"name":"help","steam_id":76561199056338917,"connected_time":1040000000000,"state":"active","ping":184},{"user_id":516,"name":"Middleast Scarr","steam_id":76561198065069637,"connected_time":274000000000,"state":"active","ping":103},{"user_id":489,"name":"rz-/Atomic Punch","steam_id":76561199195508541,"connected_time":2369000000000,"state":"active","ping":81},{"user_id":503,"name":"Tea","steam_id":76561198799243030,"connected_time":1575000000000,"state":"active","ping":78},{"user_id":440,"name":"DjinnKinn","steam_id":76561198029913860,"connected_time":6873000000000,"state":"active","ping":76},{"user_id":517,"name":"Mr.killer","steam_id":76561198290584189,"connected_time":270000000000,"state":"active","ping":93},{"user_id":518,"name":"Repa24","steam_id":76561198033016390,"connected_time":251000000000,"state":"active","ping":72},{"user_id":527,"name":"Silverstorm","steam_id":76561198118175267,"connected_time":4000000000,"state":"spawning","ping":60},{"user_id":509,"name":"=PB=","steam_id":76561197999146612,"connected_time":1024000000000,"state":"active","ping":54},{"user_id":520,"name":"honey","steam_id":76561198345972230,"connected_time":186000000000,"state":"active","ping":75},{"user_id":523,"name":"Patch","steam_id":76561198217360709,"connected_time":53000000000,"state":"spawning","ping":225},{"user_id":522,"name":"Bernardez","steam_id":76561197998751142,"connected_time":108000000000,"state":"active","ping":56},{"user_id":524,"name":"aim","steam_id":76561198371055266,"connected_time":51000000000,"state":"active","ping":74},{"user_id":526,"name":"RIFT","steam_id":76561198991622379,"connected_time":8000000000,"state":"active","ping":54},{"user_id":511,"name":"Umbro","steam_id":76561198087930438,"connected_time":969000000000,"state":"active","ping":75},{"user_id":451,"name":"Mango-Man","steam_id":76561198840558687,"connected_time":5569000000000,"state":"active","ping":64}]},{"server_id":311,"name":"Uncletopia | Frankfurt | 6 | All Maps","name_short":"frk-6","host":"frk-1.de.uncletopia.com","port":27065,"enabled":true,"region":"eu","cc":"de","latitude":50.110924,"longitude":8.682127,"reserved":0,"last_update":"0001-01-01T00:00:00Z","name_a2s":"Uncletopia | Frankfurt | 6 | All Maps","protocol":17,"map":"pl_badwater","folder":"tf","game":"Team Fortress","app_id":440,"player_count":16,"max_players":24,"Bots":0,"server_type":"Dedicated","server_os":"Linux","password":true,"vac":true,"version":"7757534","steam_id":85568392924504278,"keywords":["nocrits","nodmgspread","payload","uncletopia"],"game_id":440,"stv_port":27066,"stv_name":"Uncletopia | Frankfurt | 6 | All Maps | STV","players":[{"user_id":674,"name":"sam-","steam_id":76561198013770973,"connected_time":1122000000000,"state":"active","ping":71},{"user_id":673,"name":"Amandus","steam_id":76561198036281079,"connected_time":1144000000000,"state":"active","ping":60},{"user_id":685,"name":"Walle","steam_id":76561197995148937,"connected_time":112000000000,"state":"active","ping":60},{"user_id":686,"name":"Quanz0r","steam_id":76561198046965117,"connected_time":96000000000,"state":"active","ping":72},{"user_id":617,"name":"Skuld","steam_id":76561198064734905,"connected_time":4341000000000,"state":"active","ping":90},{"user_id":641,"name":"Fruit","steam_id":76561198346687933,"connected_time":3356000000000,"state":"active","ping":67},{"user_id":687,"name":"Soyboy","steam_id":76561198053885716,"connected_time":4000000000,"state":"spawning","ping":75},{"user_id":670,"name":"asdqwer","steam_id":76561198058312220,"connected_time":1284000000000,"state":"active","ping":60},{"user_id":671,"name":"‚àö(-Wolf)","steam_id":76561198024769704,"connected_time":1264000000000,"state":"active","ping":85},{"user_id":683,"name":"Dragul","steam_id":76561198032885938,"connected_time":203000000000,"state":"active","ping":60},{"user_id":668,"name":"Chocofrolik","steam_id":76561198454779847,"connected_time":1639000000000,"state":"active","ping":84},{"user_id":560,"name":"finbar","steam_id":76561198056812396,"connected_time":10249000000000,"state":"active","ping":71},{"user_id":652,"name":"MaTiN","steam_id":76561198066867362,"connected_time":2772000000000,"state":"active","ping":51},{"user_id":681,"name":"BUREK od Sira","steam_id":76561198092589818,"connected_time":304000000000,"state":"active","ping":60},{"user_id":659,"name":"cult","steam_id":76561198188647690,"connected_time":2170000000000,"state":"active","ping":63},{"user_id":666,"name":"LiterallyRyanGosling","steam_id":76561199017856691,"connected_time":1736000000000,"state":"active","ping":66}]},{"server_id":23,"name":"Uncletopia | Frankfurt | 7 | Stopwatch Beta","name_short":"frk-7","host":"frk-1.de.uncletopia.com","port":27075,"enabled":true,"region":"eu","cc":"de","latitude":50.110924,"longitude":8.682127,"reserved":0,"last_update":"0001-01-01T00:00:00Z","name_a2s":"Uncletopia | Frankfurt | 7 | Stopwatch Beta","protocol":17,"map":"pl_upward","folder":"tf","game":"Team Fortress","app_id":440,"player_count":0,"max_players":24,"Bots":0,"server_type":"Dedicated","server_os":"Linux","password":true,"vac":true,"version":"7757534","steam_id":85568392924742827,"keywords":["nocrits","nodmgspread","payload","uncletopia"],"game_id":440,"stv_port":27076,"stv_name":"Uncletopia | Frankfurt | 7 | Stopwatch Beta | STV","players":null},{"server_id":24,"name":"Uncletopia | Frankfurt | 8 | Community","name_short":"frk-8","host":"frk-1.de.uncletopia.com","port":27085,"enabled":true,"region":"eu","cc":"de","latitude":50.110924,"longitude":8.682127,"reserved":0,"last_update":"0001-01-01T00:00:00Z","name_a2s":"Uncletopia | Frankfurt | 8 | Community","protocol":17,"map":"workshop/koth_synthetic_rc6a.ugc1549817316","folder":"tf","game":"Team Fortress","app_id":440,"player_count":0,"max_players":24,"Bots":0,"server_type":"Dedicated","server_os":"Linux","password":true,"vac":true,"version":"7757534","steam_id":85568392924742828,"keywords":["cp","nocrits","nodmgspread","uncletopia"],"game_id":440,"stv_port":27086,"stv_name":"Uncletopia | Frankfurt | 8 | Community | STV","players":null},{"server_id":202,"name":"Uncletopia | Hong Kong | 1 | All Maps","name_short":"hgk-1","host":"hgk-1.hk.uncletopia.com","port":27015,"enabled":true,"region":"asia","cc":"hk","latitude":22.302711,"longitude":114.177216,"reserved":0,"last_update":"0001-01-01T00:00:00Z","name_a2s":"Uncletopia | Hong Kong | 1 | All Maps","protocol":17,"map":"koth_viaduct","folder":"tf","game":"Team Fortress","app_id":440,"player_count":0,"max_players":24,"Bots":0,"server_type":"Dedicated","server_os":"Linux","password":true,"vac":true,"version":"7757534","steam_id":85568392924494504,"keywords":["cp","nocrits","nodmgspread","uncletopia"],"game_id":440,"stv_port":27016,"stv_name":"Uncletopia | Hong Kong | 1 | All Maps | STV","players":null},{"server_id":1,"name":"Uncletopia | Los Angeles | 1 | All Maps","name_short":"lax-1","host":"lax-1.us.uncletopia.com","port":27015,"enabled":true,"region":"us-west","cc":"us","latitude":33.94279,"longitude":-118.41004,"reserved":0,"last_update":"0001-01-01T00:00:00Z","name_a2s":"Uncletopia | Los Angeles | 1 | All Maps","protocol":17,"map":"koth_lakeside_final","folder":"tf","game":"Team Fortress","app_id":440,"player_count":0,"max_players":24,"Bots":0,"server_type":"Dedicated","server_os":"Linux","password":true,"vac":true,"version":"7757534","steam_id":85568392924469991,"keywords":["cp","nocrits","nodmgspread","uncletopia"],"game_id":440,"stv_port":27016,"stv_name":"Uncletopia | Los Angeles | 1 | All Maps | STV","players":null},{"server_id":112,"name":"Uncletopia | Los Angeles | 2 | All Maps","name_short":"lax-2","host":"lax-1.us.uncletopia.com","port":27025,"enabled":true,"region":"us-west","cc":"us","latitude":33.94279,"longitude":-118.41004,"reserved":0,"last_update":"0001-01-01T00:00:00Z","name_a2s":"Uncletopia | Los Angeles | 2 | All Maps","protocol":17,"map":"pl_badwater","folder":"tf","game":"Team Fortress","app_id":440,"player_count":0,"max_players":24,"Bots":0,"server_type":"Dedicated","server_os":"Linux","password":true,"vac":true,"version":"7757534","steam_id":85568392924469992,"keywords":["nocrits","nodmgspread","payload","uncletopia"],"game_id":440,"stv_port":27026,"stv_name":"Uncletopia | Los Angeles | 2 | All Maps | STV","players":null},{"server_id":324,"name":"Uncletopia | Los Angeles | 3 | All Maps","name_short":"lax-3","host":"lax-1.us.uncletopia.com","port":27035,"enabled":true,"region":"us-west","cc":"us","latitude":33.94279,"longitude":-118.41004,"reserved":0,"last_update":"0001-01-01T00:00:00Z","name_a2s":"Uncletopia | Los Angeles | 3 | All Maps","protocol":17,"map":"pl_barnblitz","folder":"tf","game":"Team Fortress","app_id":440,"player_count":0,"max_players":24,"Bots":0,"server_type":"Dedicated","server_os":"Linux","password":true,"vac":true,"version":"7757534","steam_id":85568392924510198,"keywords":["nocrits","nodmgspread","payload","uncletopia"],"game_id":440,"stv_port":27036,"stv_name":"Uncletopia | Los Angeles | 3 | All Maps | STV","players":null},{"server_id":25,"name":"Uncletopia | Los Angeles | 4 | Stopwatch Beta","name_short":"lax-4","host":"lax-1.us.uncletopia.com","port":27045,"enabled":true,"region":"us-west","cc":"us","latitude":33.94279,"longitude":-118.41004,"reserved":0,"last_update":"0001-01-01T00:00:00Z","name_a2s":"Uncletopia | Los Angeles | 4 | Stopwatch Beta","protocol":17,"map":"pl_swiftwater_final1","folder":"tf","game":"Team Fortress","app_id":440,"player_count":0,"max_players":24,"Bots":0,"server_type":"Dedicated","server_os":"Linux","password":true,"vac":true,"version":"7757534","steam_id":85568392924510199,"keywords":["nocrits","nodmgspread","payload","uncletopia"],"game_id":440,"stv_port":27046,"stv_name":"Uncletopia | Los Angeles | 4 | Stopwatch Beta | STV","players":null},{"server_id":11,"name":"Uncletopia | London | 1 | All Maps","name_short":"lon-1","host":"lon-1.uk.uncletopia.com","port":27015,"enabled":true,"region":"eu","cc":"gb","latitude":51.509865,"longitude":-0.118092,"reserved":0,"last_update":"0001-01-01T00:00:00Z","name_a2s":"Uncletopia | London | 1 | All Maps","protocol":17,"map":"cp_sunshine","folder":"tf","game":"Team Fortress","app_id":440,"player_count":23,"max_players":24,"Bots":0,"server_type":"Dedicated","server_os":"Linux","password":true,"vac":true,"version":"7757534","steam_id":85568392924367362,"keywords":["cp","nocrits","nodmgspread","uncletopia"],"game_id":440,"stv_port":27016,"stv_name":"Uncletopia | London | 1 | All Maps | STV","players":[{"user_id":593,"name":"Jofiah/TTV","steam_id":76561197977233962,"connected_time":7716000000000,"state":"active","ping":49},{"user_id":672,"name":"Petight","steam_id":76561197999438798,"connected_time":3252000000000,"state":"active","ping":31},{"user_id":703,"name":"arcSolver","steam_id":76561198212013944,"connected_time":112000000000,"state":"active","ping":54},{"user_id":704,"name":"MrXtr","steam_id":76561198966247397,"connected_time":91000000000,"state":"active","ping":63},{"user_id":667,"name":"Roachy","steam_id":76561198004508448,"connected_time":3385000000000,"state":"active","ping":42},{"user_id":698,"name":"Egtu","steam_id":76561198013757235,"connected_time":943000000000,"state":"active","ping":74},{"user_id":699,"name":"Knugen the Conqueror","steam_id":76561198127091993,"connected_time":843000000000,"state":"active","ping":66},{"user_id":648,"name":"PizzaPete123","steam_id":76561198089478290,"connected_time":4693000000000,"state":"active","ping":39},{"user_id":690,"name":"NukaColaCherry","steam_id":76561198947678014,"connected_time":1818000000000,"state":"active","ping":58},{"user_id":662,"name":"Udinese Dion","steam_id":76561198067931573,"connected_time":3721000000000,"state":"active","ping":63},{"user_id":632,"name":"www.twitch.tv/kirkan","steam_id":76561198029873185,"connected_time":5748000000000,"state":"active","ping":58},{"user_id":706,"name":"0","steam_id":76561198267909207,"connected_time":68000000000,"state":"active","ping":90},{"user_id":627,"name":"Johan","steam_id":76561199380849468,"connected_time":5991000000000,"state":"active","ping":65},{"user_id":696,"name":"BepisR47","steam_id":76561198084515716,"connected_time":1089000000000,"state":"active","ping":35},{"user_id":691,"name":"Relix18144","steam_id":76561199202454318,"connected_time":1785000000000,"state":"active","ping":92},{"user_id":701,"name":"Prome","steam_id":76561199050383942,"connected_time":208000000000,"state":"active","ping":60},{"user_id":694,"name":"SOPHIIEE","steam_id":76561198443798981,"connected_time":1158000000000,"state":"active","ping":66},{"user_id":685,"name":"EthanRek","steam_id":76561198238165572,"connected_time":1981000000000,"state":"active","ping":138},{"user_id":700,"name":"dec","steam_id":76561198009660168,"connected_time":772000000000,"state":"active","ping":56},{"user_id":660,"name":"trigger_hurt","steam_id":76561198256755222,"connected_time":3743000000000,"state":"active","ping":52},{"user_id":664,"name":"quickfast","steam_id":76561199438900919,"connected_time":3609000000000,"state":"active","ping":43},{"user_id":693,"name":"Meddler","steam_id":76561198033001402,"connected_time":1175000000000,"state":"active","ping":50},{"user_id":636,"name":"Fat Pigeon","steam_id":76561198817940142,"connected_time":5467000000000,"state":"active","ping":44}]},{"server_id":114,"name":"Uncletopia | London | 2 | All Maps","name_short":"lon-2","host":"lon-1.uk.uncletopia.com","port":27025,"enabled":true,"region":"eu","cc":"gb","latitude":51.509865,"longitude":-0.118092,"reserved":0,"last_update":"0001-01-01T00:00:00Z","name_a2s":"Uncletopia | London | 2 | All Maps","protocol":17,"map":"pl_badwater","folder":"tf","game":"Team Fortress","app_id":440,"player_count":24,"max_players":24,"Bots":0,"server_type":"Dedicated","server_os":"Linux","password":true,"vac":true,"version":"7757534","steam_id":85568392924470941,"keywords":["nocrits","nodmgspread","payload","uncletopia"],"game_id":440,"stv_port":27026,"stv_name":"Uncletopia | London | 2 | All Maps | STV","players":[{"user_id":344,"name":"texory","steam_id":76561198060339391,"connected_time":3568000000000,"state":"active","ping":40},{"user_id":369,"name":"Dispenser","steam_id":76561198130195469,"connected_time":470000000000,"state":"active","ping":84},{"user_id":366,"name":"Bebop","steam_id":76561199032279809,"connected_time":541000000000,"state":"active","ping":90},{"user_id":367,"name":"Brallerin","steam_id":76561198060026189,"connected_time":512000000000,"state":"active","ping":54},{"user_id":330,"name":"Zin","steam_id":76561199041369507,"connected_time":5248000000000,"state":"active","ping":122},{"user_id":312,"name":"‚òØ","steam_id":76561198351154533,"connected_time":6297000000000,"state":"active","ping":66},{"user_id":368,"name":"twitch.tv/morvill_","steam_id":76561198809859945,"connected_time":508000000000,"state":"active","ping":55},{"user_id":356,"name":"jerf(The jungle inferno update)","steam_id":76561199213901239,"connected_time":2413000000000,"state":"active","ping":45},{"user_id":370,"name":"engie?","steam_id":76561198331852832,"connected_time":458000000000,"state":"active","ping":47},{"user_id":364,"name":"s a i","steam_id":76561197970379754,"connected_time":553000000000,"state":"active","ping":63},{"user_id":357,"name":"Anonymous47007","steam_id":76561199005211417,"connected_time":2391000000000,"state":"active","ping":84},{"user_id":361,"name":"LucyLime","steam_id":76561198262258698,"connected_time":1243000000000,"state":"active","ping":55},{"user_id":332,"name":"Grumtsior","steam_id":76561198043563111,"connected_time":5200000000000,"state":"active","ping":75},{"user_id":333,"name":"‚ú™ m_br3","steam_id":76561198044981990,"connected_time":5181000000000,"state":"active","ping":76},{"user_id":371,"name":"ducks","steam_id":76561198166148685,"connected_time":449000000000,"state":"active","ping":31},{"user_id":169,"name":"Sn1perK1ng","steam_id":76561198128065329,"connected_time":12702000000000,"state":"active","ping":58},{"user_id":363,"name":"LemonLeCitron","steam_id":76561198215545267,"connected_time":857000000000,"state":"active","ping":70},{"user_id":247,"name":"men69","steam_id":76561198047359132,"connected_time":8578000000000,"state":"active","ping":85},{"user_id":303,"name":"Mass","steam_id":76561198432195204,"connected_time":6963000000000,"state":"active","ping":64},{"user_id":353,"name":"soup","steam_id":76561198386933065,"connected_time":2726000000000,"state":"active","ping":72},{"user_id":305,"name":"tapeworms!","steam_id":76561198069649097,"connected_time":6947000000000,"state":"active","ping":50},{"user_id":354,"name":"Balls","steam_id":76561198086400484,"connected_time":2477000000000,"state":"active","ping":71},{"user_id":372,"name":"Youssef S Ahmed","steam_id":76561199435139103,"connected_time":150000000000,"state":"active","ping":136},{"user_id":338,"name":"Ezekyhl","steam_id":76561198355964282,"connected_time":4526000000000,"state":"active","ping":56}]},{"server_id":320,"name":"Uncletopia | London | 3 | All Maps","name_short":"lon-3","host":"lon-1.uk.uncletopia.com","port":27035,"enabled":true,"region":"eu","cc":"gb","latitude":51.509865,"longitude":-0.118092,"reserved":0,"last_update":"0001-01-01T00:00:00Z","name_a2s":"Uncletopia | London | 3 | All Maps","protocol":17,"map":"pl_borneo","folder":"tf","game":"Team Fortress","app_id":440,"player_count":22,"max_players":24,"Bots":0,"server_type":"Dedicated","server_os":"Linux","password":true,"vac":true,"version":"7757534","steam_id":85568392924510192,"keywords":["nocrits","nodmgspread","payload","uncletopia"],"game_id":440,"stv_port":27036,"stv_name":"Uncletopia | London | 3 | All Maps | STV","players":[{"user_id":586,"name":"SKFBoge","steam_id":76561198269038278,"connected_time":514000000000,"state":"active","ping":82},{"user_id":577,"name":"Sus Fring","steam_id":76561198821542489,"connected_time":1087000000000,"state":"active","ping":112},{"user_id":574,"name":"Burpman","steam_id":76561198022897937,"connected_time":1158000000000,"state":"active","ping":54},{"user_id":575,"name":"Dag!","steam_id":76561198030147941,"connected_time":1112000000000,"state":"active","ping":71},{"user_id":554,"name":"Grumpuss","steam_id":76561198113570918,"connected_time":2961000000000,"state":"active","ping":64},{"user_id":526,"name":"Ninjin488","steam_id":76561199116691092,"connected_time":4416000000000,"state":"active","ping":71},{"user_id":556,"name":"Willads","steam_id":76561198059333383,"connected_time":2837000000000,"state":"active","ping":85},{"user_id":578,"name":"coffee","steam_id":76561198382387303,"connected_time":1076000000000,"state":"active","ping":112},{"user_id":593,"name":"The Fellow Feller","steam_id":76561198188864306,"connected_time":76000000000,"state":"active","ping":69},{"user_id":592,"name":"Claw","steam_id":76561198060985181,"connected_time":177000000000,"state":"active","ping":67},{"user_id":536,"name":"McHatin","steam_id":76561198057806691,"connected_time":3971000000000,"state":"active","ping":59},{"user_id":589,"name":"Dr Crow Von Corbeau","steam_id":76561198326304463,"connected_time":399000000000,"state":"active","ping":145},{"user_id":576,"name":"Setiago","steam_id":76561198060770498,"connected_time":1105000000000,"state":"active","ping":66},{"user_id":555,"name":"mangle plushie","steam_id":76561198067519686,"connected_time":2959000000000,"state":"active","ping":77},{"user_id":565,"name":"Goat","steam_id":76561198109415404,"connected_time":2036000000000,"state":"active","ping":53},{"user_id":595,"name":"discord.gg/FB6YuUvQQA","steam_id":76561199475757807,"connected_time":36000000000,"state":"active","ping":75},{"user_id":558,"name":"MARCEL","steam_id":76561198083122029,"connected_time":2648000000000,"state":"active","ping":96},{"user_id":548,"name":"kamu","steam_id":76561198068554358,"connected_time":3522000000000,"state":"active","ping":49},{"user_id":587,"name":"violent male","steam_id":76561199042470246,"connected_time":453000000000,"state":"active","ping":61},{"user_id":581,"name":"Davey","steam_id":76561198256879107,"connected_time":1058000000000,"state":"active","ping":75},{"user_id":591,"name":"spaghettisaucerer","steam_id":76561198145133200,"connected_time":240000000000,"state":"active","ping":69},{"user_id":590,"name":"RaidBoss","steam_id":76561198138777659,"connected_time":311000000000,"state":"active","ping":70}]},{"server_id":321,"name":"Uncletopia | London | 4 | All Maps","name_short":"lon-4","host":"lon-1.uk.uncletopia.com","port":27045,"enabled":true,"region":"eu","cc":"gb","latitude":51.509865,"longitude":-0.118092,"reserved":0,"last_update":"0001-01-01T00:00:00Z","name_a2s":"Uncletopia | London | 4 | All Maps","protocol":17,"map":"pl_thundermountain","folder":"tf","game":"Team Fortress","app_id":440,"player_count":24,"max_players":24,"Bots":0,"server_type":"Dedicated","server_os":"Linux","password":true,"vac":true,"version":"7757534","steam_id":85568392924510193,"keywords":["nocrits","nodmgspread","payload","uncletopia"],"game_id":440,"stv_port":27046,"stv_name":"Uncletopia | London | 4 | All Maps | STV","players":[{"user_id":204,"name":"the_Qcumber","steam_id":76561199152515819,"connected_time":2694000000000,"state":"active","ping":72},{"user_id":100,"name":"Ixsus\u003c3","steam_id":76561198094756869,"connected_time":7770000000000,"state":"active","ping":64},{"user_id":198,"name":"Bounter","steam_id":76561198072614188,"connected_time":3027000000000,"state":"active","ping":77},{"user_id":162,"name":"Luuk","steam_id":76561198088266026,"connected_time":4611000000000,"state":"active","ping":43},{"user_id":160,"name":"Cookies and Bakies","steam_id":76561198017442928,"connected_time":4674000000000,"state":"active","ping":73},{"user_id":166,"name":"Boki","steam_id":76561198044553351,"connected_time":4491000000000,"state":"active","ping":76},{"user_id":221,"name":"ghenios","steam_id":76561198030011207,"connected_time":413000000000,"state":"active","ping":89},{"user_id":224,"name":"milan","steam_id":76561198858509678,"connected_time":165000000000,"state":"active","ping":74},{"user_id":218,"name":"lvl. 50 honkler","steam_id":76561198061688660,"connected_time":600000000000,"state":"active","ping":128},{"user_id":214,"name":"Qxillum","steam_id":76561198037201297,"connected_time":1680000000000,"state":"active","ping":53},{"user_id":202,"name":"Crossy","steam_id":76561198091702315,"connected_time":2891000000000,"state":"active","ping":77},{"user_id":135,"name":"epicgamerfb42","steam_id":76561198057046524,"connected_time":5512000000000,"state":"active","ping":112},{"user_id":213,"name":"Adam","steam_id":76561198259467867,"connected_time":1714000000000,"state":"active","ping":91},{"user_id":114,"name":"Welder","steam_id":76561198355300561,"connected_time":6722000000000,"state":"active","ping":68},{"user_id":223,"name":"yush","steam_id":76561198121688934,"connected_time":185000000000,"state":"active","ping":74},{"user_id":220,"name":"Joseph Stalin","steam_id":76561198033199746,"connected_time":489000000000,"state":"active","ping":57},{"user_id":211,"name":"Pygarque00fr","steam_id":76561198048432227,"connected_time":2205000000000,"state":"active","ping":47},{"user_id":217,"name":"rx","steam_id":76561198111834139,"connected_time":907000000000,"state":"active","ping":71},{"user_id":191,"name":"Big They/Them is watching YOU","steam_id":76561198307598168,"connected_time":3173000000000,"state":"active","ping":64},{"user_id":172,"name":"Husk","steam_id":76561198271808519,"connected_time":4228000000000,"state":"active","ping":71},{"user_id":210,"name":"Dr.Cranium","steam_id":76561197992726926,"connected_time":2299000000000,"state":"active","ping":113},{"user_id":174,"name":"Mr. Luigi","steam_id":76561198167312951,"connected_time":4152000000000,"state":"active","ping":46},{"user_id":209,"name":"Kowakum","steam_id":76561197998125950,"connected_time":2332000000000,"state":"active","ping":116},{"user_id":219,"name":"Supreme Sads","steam_id":76561198061061147,"connected_time":599000000000,"state":"active","ping":80}]},{"server_id":21,"name":"Uncletopia | London | 5 | All Maps","name_short":"lon-5","host":"lon-1.uk.uncletopia.com","port":27055,"enabled":true,"region":"eu","cc":"gb","latitude":51.509865,"longitude":-0.118092,"reserved":0,"last_update":"0001-01-01T00:00:00Z","name_a2s":"Uncletopia | London | 5 | All Maps","protocol":17,"map":"pl_swiftwater_final1","folder":"tf","game":"Team Fortress","app_id":440,"player_count":21,"max_players":24,"Bots":0,"server_type":"Dedicated","server_os":"Linux","password":true,"vac":true,"version":"7757534","steam_id":85568392924742829,"keywords":["nocrits","nodmgspread","payload","uncletopia"],"game_id":440,"stv_port":27056,"stv_name":"Uncletopia | London | 5 | All Maps | STV","players":[{"user_id":484,"name":"ttv/thewerelizard","steam_id":76561198060638325,"connected_time":7975000000000,"state":"active","ping":47},{"user_id":567,"name":"UltimateSlayer","steam_id":76561198384109309,"connected_time":5183000000000,"state":"active","ping":62},{"user_id":486,"name":"Milfshake","steam_id":76561198208740557,"connected_time":7942000000000,"state":"active","ping":60},{"user_id":642,"name":"CruelGospel","steam_id":76561197990884259,"connected_time":524000000000,"state":"active","ping":98},{"user_id":632,"name":"MatesThePlayer","steam_id":76561198066156449,"connected_time":1087000000000,"state":"active","ping":62},{"user_id":647,"name":"n0moral","steam_id":76561198269094523,"connected_time":169000000000,"state":"active","ping":99},{"user_id":629,"name":"Clovis","steam_id":76561198076881381,"connected_time":1146000000000,"state":"active","ping":82},{"user_id":630,"name":"owo","steam_id":76561198158209651,"connected_time":1140000000000,"state":"active","ping":61},{"user_id":598,"name":"Yuzu","steam_id":76561198121694613,"connected_time":3836000000000,"state":"active","ping":41},{"user_id":589,"name":"Gay Cat","steam_id":76561198436817109,"connected_time":4483000000000,"state":"active","ping":45},{"user_id":623,"name":"Qwerty","steam_id":76561198023525894,"connected_time":1704000000000,"state":"active","ping":85},{"user_id":611,"name":"Comrade Sprinkles","steam_id":76561198035672576,"connected_time":2682000000000,"state":"active","ping":55},{"user_id":600,"name":"Excessive Clownery","steam_id":76561198130404188,"connected_time":3798000000000,"state":"active","ping":56},{"user_id":602,"name":"‚ô• aura ‚ô•","steam_id":76561198066258544,"connected_time":3211000000000,"state":"active","ping":67},{"user_id":580,"name":"Cyno","steam_id":76561197998481805,"connected_time":5016000000000,"state":"active","ping":58},{"user_id":612,"name":"willus212","steam_id":76561199182615246,"connected_time":2665000000000,"state":"active","ping":88},{"user_id":648,"name":"Rowan Atkinson","steam_id":76561199378865926,"connected_time":142000000000,"state":"active","ping":81},{"user_id":493,"name":"Akane","steam_id":76561197990407312,"connected_time":7729000000000,"state":"active","ping":80},{"user_id":519,"name":"Dr.Medic (Echsrick)","steam_id":76561198188410634,"connected_time":6644000000000,"state":"active","ping":65},{"user_id":619,"name":"LIGHTWEIGHT BABY","steam_id":76561198002761980,"connected_time":2107000000000,"state":"active","ping":60},{"user_id":643,"name":"Roger Slippers","steam_id":76561198188642265,"connected_time":515000000000,"state":"active","ping":55}]},{"server_id":22,"name":"Uncletopia | London | 6 | All Maps","name_short":"lon-6","host":"lon-1.uk.uncletopia.com","port":27065,"enabled":true,"region":"eu","cc":"gb","latitude":51.509865,"longitude":-0.118092,"reserved":0,"last_update":"0001-01-01T00:00:00Z","name_a2s":"Uncletopia | London | 6 | All Maps","protocol":17,"map":"koth_highpass","folder":"tf","game":"Team Fortress","app_id":440,"player_count":0,"max_players":24,"Bots":0,"server_type":"Dedicated","server_os":"Linux","password":true,"vac":true,"version":"7757534","steam_id":85568392924742830,"keywords":["cp","nocrits","nodmgspread","uncletopia"],"game_id":440,"stv_port":27066,"stv_name":"Uncletopia | London | 6 | All Maps | STV","players":null},{"server_id":40,"name":"Uncletopia | London | 7 | No Payload","name_short":"lon-7","host":"lon-1.uk.uncletopia.com","port":27075,"enabled":true,"region":"eu","cc":"gb","latitude":51.509865,"longitude":-0.118092,"reserved":0,"last_update":"0001-01-01T00:00:00Z","name_a2s":"Uncletopia | London | 7 | No Payload","protocol":17,"map":"plr_nightfall_final","folder":"tf","game":"Team Fortress","app_id":440,"player_count":0,"max_players":24,"Bots":0,"server_type":"Dedicated","server_os":"Linux","password":true,"vac":true,"version":"7757534","steam_id":85568392924964314,"keywords":["nocrits","nodmgspread","payload","uncletopia"],"game_id":440,"stv_port":27076,"stv_name":"Uncletopia | London | 7 | No Payload | STV","players":null},{"server_id":41,"name":"Uncletopia | London | 8 | Community","name_short":"lon-8","host":"lon-1.uk.uncletopia.com","port":27085,"enabled":true,"region":"eu","cc":"gb","latitude":51.509865,"longitude":-0.118092,"reserved":0,"last_update":"0001-01-01T00:00:00Z","name_a2s":"Uncletopia | London | 8 | Community","protocol":17,"map":"workshop/cp_sulfur_rc2.ugc619869471","folder":"tf","game":"Team Fortress","app_id":440,"player_count":0,"max_players":24,"Bots":0,"server_type":"Dedicated","server_os":"Linux","password":true,"vac":true,"version":"7757534","steam_id":85568392924964315,"keywords":["cp","nocrits","nodmgspread","uncletopia"],"game_id":440,"stv_port":27086,"stv_name":"Uncletopia | London | 8 | Community | STV","players":null},{"server_id":300,"name":"Uncletopia | Montr√©al | 1 | All Maps","name_short":"mtl-1","host":"mtl-1.ca.uncletopia.com","port":27015,"enabled":true,"region":"us-east","cc":"ca","latitude":45.50889,"longitude":-73.56167,"reserved":0,"last_update":"0001-01-01T00:00:00Z","name_a2s":"Uncletopia | Montr√©al | 1 | All Maps","protocol":17,"map":"koth_cascade","folder":"tf","game":"Team Fortress","app_id":440,"player_count":0,"max_players":24,"Bots":0,"server_type":"Dedicated","server_os":"Linux","password":true,"vac":true,"version":"7757534","steam_id":85568392924500087,"keywords":["cp","nocrits","nodmgspread","uncletopia"],"game_id":440,"stv_port":27016,"stv_name":"Uncletopia | Montr√©al | 1 | All Maps | STV","players":null},{"server_id":301,"name":"Uncletopia | Montr√©al | 2 | All Maps","name_short":"mtl-2","host":"mtl-1.ca.uncletopia.com","port":27025,"enabled":true,"region":"us-east","cc":"ca","latitude":45.50889,"longitude":-73.56167,"reserved":0,"last_update":"0001-01-01T00:00:00Z","name_a2s":"Uncletopia | Montr√©al | 2 | All Maps","protocol":17,"map":"plr_hightower","folder":"tf","game":"Team Fortress","app_id":440,"player_count":4,"max_players":24,"Bots":0,"server_type":"Dedicated","server_os":"Linux","password":true,"vac":true,"version":"7757534","steam_id":85568392924500088,"keywords":["nocrits","nodmgspread","payload","uncletopia"],"game_id":440,"stv_port":27026,"stv_name":"Uncletopia | Montr√©al | 2 | All Maps | STV","players":[{"user_id":6,"name":"DragonFlame2681","steam_id":76561199134670419,"connected_time":242000000000,"state":"active","ping":91},{"user_id":8,"name":"Dr.Disco","steam_id":76561199128163692,"connected_time":141000000000,"state":"active","ping":114},{"user_id":9,"name":"M16A1Sauce","steam_id":76561199058049384,"connected_time":122000000000,"state":"active","ping":76},{"user_id":10,"name":"Arboiter","steam_id":76561199134242410,"connected_time":70000000000,"state":"active","ping":104}]},{"server_id":302,"name":"Uncletopia | Montr√©al | 3 | All Maps","name_short":"mtl-3","host":"mtl-1.ca.uncletopia.com","port":27035,"enabled":true,"region":"us-east","cc":"ca","latitude":45.50889,"longitude":-73.56167,"reserved":0,"last_update":"0001-01-01T00:00:00Z","name_a2s":"Uncletopia | Montr√©al | 3 | All Maps","protocol":17,"map":"pl_swiftwater_final1","folder":"tf","game":"Team Fortress","app_id":440,"player_count":0,"max_players":24,"Bots":0,"server_type":"Dedicated","server_os":"Linux","password":true,"vac":true,"version":"7757534","steam_id":85568392924500089,"keywords":["nocrits","nodmgspread","payload","uncletopia"],"game_id":440,"stv_port":27036,"stv_name":"Uncletopia | Montr√©al | 3 | All Maps | STV","players":null},{"server_id":303,"name":"Uncletopia | Montr√©al | 4 | No Payload","name_short":"mtl-4","host":"mtl-1.ca.uncletopia.com","port":27045,"enabled":true,"region":"us-east","cc":"ca","latitude":45.50889,"longitude":-73.56167,"reserved":0,"last_update":"0001-01-01T00:00:00Z","name_a2s":"Uncletopia | Montr√©al | 4 | No Payload","protocol":17,"map":"pl_pier","folder":"tf","game":"Team Fortress","app_id":440,"player_count":0,"max_players":24,"Bots":0,"server_type":"Dedicated","server_os":"Linux","password":true,"vac":true,"version":"7757534","steam_id":85568392924500090,"keywords":["nocrits","nodmgspread","payload","uncletopia"],"game_id":440,"stv_port":27046,"stv_name":"Uncletopia | Montr√©al | 4 | No Payload | STV","players":null},{"server_id":13,"name":"Uncletopia | New York City | 1 | All Maps","name_short":"nyc-1","host":"nyc-1.us.uncletopia.com","port":27015,"enabled":true,"region":"us-east","cc":"us","latitude":40.73061,"longitude":-73.93524,"reserved":0,"last_update":"0001-01-01T00:00:00Z","name_a2s":"Uncletopia | New York City | 1 | All Maps","protocol":17,"map":"cp_steel","folder":"tf","game":"Team Fortress","app_id":440,"player_count":24,"max_players":24,"Bots":0,"server_type":"Dedicated","server_os":"Linux","password":true,"vac":true,"version":"7757534","steam_id":85568392924469993,"keywords":["cp","nocrits","nodmgspread","uncletopia"],"game_id":440,"stv_port":27016,"stv_name":"Uncletopia | New York City | 1 | All Maps | STV","players":[{"user_id":292,"name":"Slashes","steam_id":76561197968573499,"connected_time":9000000000,"state":"spawning","ping":38},{"user_id":290,"name":"the spy behind the healing (F2P","steam_id":76561198854070384,"connected_time":63000000000,"state":"spawning","ping":115},{"user_id":275,"name":"heavyschlopper7000","steam_id":76561198089452656,"connected_time":1398000000000,"state":"active","ping":69},{"user_id":269,"name":"wool","steam_id":76561198869689933,"connected_time":1775000000000,"state":"active","ping":48},{"user_id":255,"name":"ShadBad","steam_id":76561198248287390,"connected_time":2573000000000,"state":"active","ping":130},{"user_id":287,"name":"kingsmeg","steam_id":76561198116229295,"connected_time":857000000000,"state":"active","ping":76},{"user_id":282,"name":"Pig","steam_id":76561198276179693,"connected_time":1254000000000,"state":"active","ping":67},{"user_id":291,"name":"Ripley","steam_id":76561198080766916,"connected_time":16000000000,"state":"spawning","ping":88},{"user_id":199,"name":"WibbyOne","steam_id":76561198052843846,"connected_time":7348000000000,"state":"active","ping":37},{"user_id":277,"name":"Mr. House (Real)","steam_id":76561198162554213,"connected_time":1370000000000,"state":"active","ping":159},{"user_id":248,"name":"Xavi","steam_id":76561198337783795,"connected_time":3213000000000,"state":"active","ping":50},{"user_id":278,"name":"Miss Star","steam_id":76561199106587693,"connected_time":1320000000000,"state":"active","ping":88},{"user_id":251,"name":"jdt631","steam_id":76561198271999934,"connected_time":3088000000000,"state":"active","ping":88},{"user_id":279,"name":"Whys there a level 3 there?","steam_id":76561198309696109,"connected_time":1320000000000,"state":"active","ping":91},{"user_id":288,"name":"proon","steam_id":76561198155983535,"connected_time":682000000000,"state":"active","ping":46},{"user_id":281,"name":"Moxy10","steam_id":76561197983781684,"connected_time":1270000000000,"state":"active","ping":99},{"user_id":283,"name":"bendera","steam_id":76561197965486503,"connected_time":1237000000000,"state":"active","ping":73},{"user_id":263,"name":"Bread Makes you Fat","steam_id":76561198985126532,"connected_time":2290000000000,"state":"active","ping":60},{"user_id":284,"name":"CH2OYT","steam_id":76561199224120496,"connected_time":1228000000000,"state":"active","ping":69},{"user_id":285,"name":"Penny #girl","steam_id":76561198144281771,"connected_time":1217000000000,"state":"active","ping":255},{"user_id":286,"name":"GamingGod (real)","steam_id":76561199103766971,"connected_time":1199000000000,"state":"active","ping":72},{"user_id":289,"name":"Punished Kong","steam_id":76561198973620882,"connected_time":680000000000,"state":"active","ping":77},{"user_id":234,"name":"Horrizan","steam_id":76561197965028480,"connected_time":4850000000000,"state":"active","ping":75},{"user_id":268,"name":"will uber light classes","steam_id":76561198117033273,"connected_time":1919000000000,"state":"active","ping":121}]},{"server_id":14,"name":"Uncletopia | New York City | 2 | All Maps","name_short":"nyc-2","host":"nyc-1.us.uncletopia.com","port":27025,"enabled":true,"region":"us-east","cc":"us","latitude":40.73061,"longitude":-73.93524,"reserved":0,"last_update":"0001-01-01T00:00:00Z","name_a2s":"Uncletopia | New York City | 2 | All Maps","protocol":17,"map":"pl_pier","folder":"tf","game":"Team Fortress","app_id":440,"player_count":24,"max_players":24,"Bots":0,"server_type":"Dedicated","server_os":"Linux","password":true,"vac":true,"version":"7757534","steam_id":85568392924469994,"keywords":["nocrits","nodmgspread","payload","uncletopia"],"game_id":440,"stv_port":27026,"stv_name":"Uncletopia | New York City | 2 | All Maps | STV","players":[{"user_id":222,"name":"Jin","steam_id":76561198119873148,"connected_time":7270000000000,"state":"active","ping":82},{"user_id":307,"name":"Cipherlock | YT","steam_id":76561198075994493,"connected_time":2179000000000,"state":"active","ping":50},{"user_id":314,"name":"kametro4","steam_id":76561198835430429,"connected_time":1935000000000,"state":"active","ping":60},{"user_id":326,"name":"Bee","steam_id":76561198074681324,"connected_time":923000000000,"state":"active","ping":45},{"user_id":291,"name":"gghfgfgfg","steam_id":76561198064823861,"connected_time":3031000000000,"state":"active","ping":51},{"user_id":334,"name":"sand","steam_id":76561198086193212,"connected_time":313000000000,"state":"active","ping":44},{"user_id":289,"name":"Lexabyte","steam_id":76561198065032237,"connected_time":3113000000000,"state":"active","ping":89},{"user_id":335,"name":"-Wilef","steam_id":76561198066091247,"connected_time":283000000000,"state":"active","ping":61},{"user_id":318,"name":"Pickle Chips","steam_id":76561198271951504,"connected_time":1658000000000,"state":"active","ping":45},{"user_id":269,"name":"rMuralCDLX","steam_id":76561198975798517,"connected_time":3938000000000,"state":"active","ping":137},{"user_id":337,"name":"arch_knight321","steam_id":76561198436797625,"connected_time":23000000000,"state":"spawning","ping":68},{"user_id":336,"name":"pablo","steam_id":76561199475604371,"connected_time":249000000000,"state":"active","ping":74},{"user_id":332,"name":"XBOX 360","steam_id":76561198066590783,"connected_time":587000000000,"state":"active","ping":63},{"user_id":333,"name":"Hotdog Goblin","steam_id":76561198004133638,"connected_time":388000000000,"state":"active","ping":110},{"user_id":316,"name":"Sergeant Joker #savetf2","steam_id":76561198854616604,"connected_time":1825000000000,"state":"active","ping":59},{"user_id":325,"name":"Femtofarad","steam_id":76561198308583053,"connected_time":1123000000000,"state":"active","ping":68},{"user_id":305,"name":"xiPoison","steam_id":76561198064961659,"connected_time":2345000000000,"state":"active","ping":74},{"user_id":295,"name":"too many puppies","steam_id":76561198000564263,"connected_time":2771000000000,"state":"active","ping":72},{"user_id":324,"name":"Full Moon (Death Classic)","steam_id":76561198089898720,"connected_time":1278000000000,"state":"active","ping":80},{"user_id":320,"name":"Luka Tim","steam_id":76561198277163301,"connected_time":1649000000000,"state":"active","ping":76},{"user_id":296,"name":"Paul Blart","steam_id":76561198068110623,"connected_time":2762000000000,"state":"active","ping":114},{"user_id":327,"name":"maArk","steam_id":76561198200380143,"connected_time":762000000000,"state":"active","ping":143},{"user_id":322,"name":"Violet42","steam_id":76561198072927887,"connected_time":1589000000000,"state":"active","ping":45},{"user_id":330,"name":"Baron von Whoopsie","steam_id":76561197996691013,"connected_time":710000000000,"state":"active","ping":61}]},{"server_id":15,"name":"Uncletopia | New York City | 3 | Stopwatch Beta","name_short":"nyc-3","host":"nyc-1.us.uncletopia.com","port":27035,"enabled":true,"region":"us-east","cc":"us","latitude":40.73061,"longitude":-73.93524,"reserved":0,"last_update":"0001-01-01T00:00:00Z","name_a2s":"Uncletopia | New York City | 3 | Stopwatch Beta","protocol":17,"map":"workshop/koth_ashville_final.ugc2130459942","folder":"tf","game":"Team Fortress","app_id":440,"player_count":0,"max_players":24,"Bots":0,"server_type":"Dedicated","server_os":"Linux","password":true,"vac":true,"version":"7757534","steam_id":85568392924742820,"keywords":["cp","nocrits","nodmgspread","uncletopia"],"game_id":440,"stv_port":27036,"stv_name":"Uncletopia | New York City | 3 | Stopwatch Beta | STV","players":null},{"server_id":16,"name":"Uncletopia | New York City | 4 | Community","name_short":"nyc-4","host":"nyc-1.us.uncletopia.com","port":27045,"enabled":true,"region":"us-east","cc":"us","latitude":40.73061,"longitude":-73.93524,"reserved":0,"last_update":"0001-01-01T00:00:00Z","name_a2s":"Uncletopia | New York City | 4 | Community","protocol":17,"map":"workshop/pl_corrode_rc2.ugc546577989","folder":"tf","game":"Team Fortress","app_id":440,"player_count":0,"max_players":24,"Bots":0,"server_type":"Dedicated","server_os":"Linux","password":true,"vac":true,"version":"7757534","steam_id":85568392924742821,"keywords":["nocrits","nodmgspread","payload","uncletopia"],"game_id":440,"stv_port":27046,"stv_name":"Uncletopia | New York City | 4 | Community | STV","players":null},{"server_id":142,"name":"Uncletopia | S√£o Paulo | 1 | All Maps","name_short":"sao-1","host":"sao-1.br.uncletopia.com","port":27015,"enabled":true,"region":"sa","cc":"br","latitude":-23.533773,"longitude":-46.62529,"reserved":0,"last_update":"0001-01-01T00:00:00Z","name_a2s":"Uncletopia | S√£o Paulo | 1 | All Maps","protocol":17,"map":"koth_lakeside_final","folder":"tf","game":"Team Fortress","app_id":440,"player_count":5,"max_players":24,"Bots":0,"server_type":"Dedicated","server_os":"Linux","password":true,"vac":true,"version":"7757534","steam_id":85568392924469996,"keywords":["cp","nocrits","nodmgspread","uncletopia"],"game_id":440,"stv_port":27016,"stv_name":"Uncletopia | S√£o Paulo | 1 | All Maps | STV","players":[{"user_id":14,"name":"Um15","steam_id":76561199184160486,"connected_time":611000000000,"state":"active","ping":78},{"user_id":15,"name":"Pedro, o Bloopeiro","steam_id":76561199045801710,"connected_time":495000000000,"state":"active","ping":58},{"user_id":16,"name":"colvas","steam_id":76561198096847607,"connected_time":255000000000,"state":"active","ping":60},{"user_id":17,"name":"Frans„ÉÉ","steam_id":76561198207928860,"connected_time":179000000000,"state":"active","ping":32},{"user_id":18,"name":"brg","steam_id":76561198049993814,"connected_time":20000000000,"state":"active","ping":45}]},{"server_id":143,"name":"Uncletopia | S√£o Paulo | 2 | All Maps","name_short":"sao-2","host":"sao-2.br.uncletopia.com","port":27015,"enabled":true,"region":"sa","cc":"br","latitude":-23.533773,"longitude":-46.62529,"reserved":0,"last_update":"0001-01-01T00:00:00Z","name_a2s":"Uncletopia | S√£o Paulo | 2 | All Maps","protocol":17,"map":"koth_lakeside_final","folder":"tf","game":"Team Fortress","app_id":440,"player_count":0,"max_players":24,"Bots":0,"server_type":"Dedicated","server_os":"Linux","password":true,"vac":true,"version":"7757534","steam_id":85568392924485349,"keywords":["cp","nocrits","nodmgspread","uncletopia"],"game_id":440,"stv_port":27016,"stv_name":"Uncletopia | S√£o Paulo | 2 | All Maps | STV","players":null},{"server_id":7,"name":"Uncletopia | Seattle | 1 | All Maps","name_short":"sea-1","host":"sea-1.us.uncletopia.com","port":27015,"enabled":true,"region":"us-west","cc":"us","latitude":47.608013,"longitude":-122.33517,"reserved":0,"last_update":"0001-01-01T00:00:00Z","name_a2s":"Uncletopia | Seattle | 1 | All Maps","protocol":17,"map":"pl_swiftwater_final1","folder":"tf","game":"Team Fortress","app_id":440,"player_count":24,"max_players":24,"Bots":0,"server_type":"Dedicated","server_os":"Linux","password":true,"vac":true,"version":"7757534","steam_id":85568392924469997,"keywords":["nocrits","nodmgspread","payload","uncletopia"],"game_id":440,"stv_port":27016,"stv_name":"Uncletopia | Seattle | 1 | All Maps | STV","players":[{"user_id":234,"name":"brassygraph261","steam_id":76561199024736398,"connected_time":1016000000000,"state":"active","ping":87},{"user_id":239,"name":"Bigge cheese the 3rd","steam_id":76561198860975325,"connected_time":880000000000,"state":"active","ping":121},{"user_id":241,"name":"Dimple #TF2Center","steam_id":76561198980324190,"connected_time":520000000000,"state":"active","ping":47},{"user_id":205,"name":"Treekincko","steam_id":76561198047995911,"connected_time":2710000000000,"state":"active","ping":45},{"user_id":238,"name":"BarelyBearable","steam_id":76561198079627665,"connected_time":944000000000,"state":"active","ping":92},{"user_id":220,"name":"Super Mega Buster #savetf2","steam_id":76561198160316069,"connected_time":1690000000000,"state":"active","ping":48},{"user_id":209,"name":"Boyaredeen","steam_id":76561198880492636,"connected_time":2603000000000,"state":"active","ping":55},{"user_id":215,"name":"doctor sex md","steam_id":76561198150678175,"connected_time":1936000000000,"state":"active","ping":75},{"user_id":240,"name":"DiscoTraveler","steam_id":76561199240168088,"connected_time":543000000000,"state":"active","ping":127},{"user_id":236,"name":"FI LO","steam_id":76561198976530881,"connected_time":984000000000,"state":"active","ping":61},{"user_id":130,"name":"roanoke‚Ä∫","steam_id":76561198048007844,"connected_time":8990000000000,"state":"active","ping":71},{"user_id":228,"name":"oil","steam_id":76561198099980149,"connected_time":1484000000000,"state":"active","ping":78},{"user_id":222,"name":"dagoth ur","steam_id":76561199338313228,"connected_time":1655000000000,"state":"active","ping":81},{"user_id":233,"name":"Frisbee McGee","steam_id":76561198359703432,"connected_time":1057000000000,"state":"active","ping":76},{"user_id":217,"name":"Sir Galahad","steam_id":76561198195999859,"connected_time":1831000000000,"state":"active","ping":57},{"user_id":218,"name":"Wishful","steam_id":76561198880608202,"connected_time":1824000000000,"state":"active","ping":53},{"user_id":223,"name":"Auggy","steam_id":76561198041816037,"connected_time":1655000000000,"state":"active","ping":77},{"user_id":201,"name":"LeTonzy","steam_id":76561198005806699,"connected_time":2930000000000,"state":"active","ping":91},{"user_id":224,"name":"McSpazatron","steam_id":76561198955942148,"connected_time":1649000000000,"state":"active","ping":73},{"user_id":110,"name":"Little Linguine","steam_id":76561198816986370,"connected_time":10399000000000,"state":"active","ping":61},{"user_id":237,"name":"Jambi","steam_id":76561198846091685,"connected_time":981000000000,"state":"active","ping":89},{"user_id":232,"name":"RPS Mann","steam_id":76561199253511650,"connected_time":1128000000000,"state":"active","ping":149},{"user_id":135,"name":"8 raw papers","steam_id":76561198424248616,"connected_time":8784000000000,"state":"active","ping":83},{"user_id":226,"name":"Big Jon","steam_id":76561198402285099,"connected_time":1637000000000,"state":"active","ping":78}]},{"server_id":119,"name":"Uncletopia | Seattle | 2 | All Maps","name_short":"sea-2","host":"sea-1.us.uncletopia.com","port":27025,"enabled":true,"region":"us-west","cc":"us","latitude":47.608013,"longitude":-122.33517,"reserved":0,"last_update":"0001-01-01T00:00:00Z","name_a2s":"Uncletopia | Seattle | 2 | All Maps","protocol":17,"map":"koth_highpass","folder":"tf","game":"Team Fortress","app_id":440,"player_count":0,"max_players":24,"Bots":0,"server_type":"Dedicated","server_os":"Linux","password":true,"vac":true,"version":"7757534","steam_id":85568392924469998,"keywords":["cp","nocrits","nodmgspread","uncletopia"],"game_id":440,"stv_port":27026,"stv_name":"Uncletopia | Seattle | 2 | All Maps | STV","players":null},{"server_id":406,"name":"Uncletopia | Seattle | 3 | Stopwatch Beta","name_short":"sea-3","host":"sea-1.us.uncletopia.com","port":27035,"enabled":true,"region":"us-west","cc":"us","latitude":47.608013,"longitude":-122.33517,"reserved":0,"last_update":"0001-01-01T00:00:00Z","name_a2s":"Uncletopia | Seattle | 3 | Stopwatch Beta","protocol":17,"map":"koth_lakeside_final","folder":"tf","game":"Team Fortress","app_id":440,"player_count":0,"max_players":24,"Bots":0,"server_type":"Dedicated","server_os":"Linux","password":true,"vac":true,"version":"7757534","steam_id":85568392924515217,"keywords":["cp","nocrits","nodmgspread","uncletopia"],"game_id":440,"stv_port":27036,"stv_name":"Uncletopia | Seattle | 3 | Stopwatch Beta | STV","players":null},{"server_id":17,"name":"Uncletopia | San Francisco | 1 | All Maps","name_short":"sfo-1","host":"sfo-1.us.uncletopia.com","port":27015,"enabled":true,"region":"us-west","cc":"us","latitude":37.77397,"longitude":-122.4313,"reserved":0,"last_update":"0001-01-01T00:00:00Z","name_a2s":"Uncletopia | San Francisco | 1 | All Maps","protocol":17,"map":"pl_upward","folder":"tf","game":"Team Fortress","app_id":440,"player_count":23,"max_players":24,"Bots":0,"server_type":"Dedicated","server_os":"Linux","password":true,"vac":true,"version":"7757534","steam_id":85568392924469999,"keywords":["nocrits","nodmgspread","payload","uncletopia"],"game_id":440,"stv_port":27016,"stv_name":"Uncletopia | San Francisco | 1 | All Maps | STV","players":[{"user_id":33,"name":"clack","steam_id":76561198966980576,"connected_time":195000000000,"state":"active","ping":104},{"user_id":8,"name":"Klopo","steam_id":76561198871108633,"connected_time":1599000000000,"state":"active","ping":33},{"user_id":26,"name":"Sploonbabagoosecooties","steam_id":76561198139972201,"connected_time":431000000000,"state":"active","ping":74},{"user_id":10,"name":"Xx_UrineEnjoyer_xX","steam_id":76561198397991402,"connected_time":1219000000000,"state":"active","ping":136},{"user_id":13,"name":"HazeoftheFire","steam_id":76561198813476476,"connected_time":974000000000,"state":"active","ping":107},{"user_id":14,"name":"harryleo","steam_id":76561199092722844,"connected_time":960000000000,"state":"active","ping":120},{"user_id":15,"name":"nnichael","steam_id":76561198044136848,"connected_time":938000000000,"state":"active","ping":58},{"user_id":27,"name":"i push fat kids off bikes","steam_id":76561198106491249,"connected_time":395000000000,"state":"active","ping":65},{"user_id":28,"name":"catlovinggreenbean","steam_id":76561198355974740,"connected_time":389000000000,"state":"active","ping":96},{"user_id":18,"name":"D3RPYN00B101","steam_id":76561198864191308,"connected_time":802000000000,"state":"active","ping":111},{"user_id":25,"name":"KillerGod","steam_id":76561198197299850,"connected_time":481000000000,"state":"active","ping":112},{"user_id":29,"name":"Dallas","steam_id":76561198066542919,"connected_time":325000000000,"state":"active","ping":84},{"user_id":21,"name":"CeoVortex","steam_id":76561198035679805,"connected_time":655000000000,"state":"active","ping":50},{"user_id":30,"name":"land0","steam_id":76561198321264704,"connected_time":245000000000,"state":"active","ping":63},{"user_id":31,"name":"Definitely J.P. Morgan","steam_id":76561199122376235,"connected_time":216000000000,"state":"active","ping":109},{"user_id":32,"name":"Rat","steam_id":76561198187698871,"connected_time":211000000000,"state":"connecting","ping":0},{"user_id":34,"name":"Mr.Pan","steam_id":76561198069030613,"connected_time":179000000000,"state":"active","ping":74},{"user_id":35,"name":"‚ô°a femboy‚ô°","steam_id":76561199212971864,"connected_time":141000000000,"state":"active","ping":126},{"user_id":36,"name":"Cringe Guillotine User","steam_id":76561198997067030,"connected_time":122000000000,"state":"active","ping":125},{"user_id":37,"name":"‚ô•Npenplz‚ô•","steam_id":76561197999605423,"connected_time":110000000000,"state":"active","ping":58},{"user_id":38,"name":"uzr","steam_id":76561198799343084,"connected_time":95000000000,"state":"active","ping":57},{"user_id":39,"name":"Maid 'n' China","steam_id":76561198423392976,"connected_time":62000000000,"state":"active","ping":49},{"user_id":40,"name":"eggplantgirl‚ô•","steam_id":76561198811515692,"connected_time":59000000000,"state":"active","ping":43}]},{"server_id":18,"name":"Uncletopia | San Francisco | 2 | All Maps","name_short":"sfo-2","host":"sfo-1.us.uncletopia.com","port":27025,"enabled":true,"region":"us-west","cc":"us","latitude":37.77397,"longitude":-122.4313,"reserved":0,"last_update":"0001-01-01T00:00:00Z","name_a2s":"Uncletopia | San Francisco | 2 | All Maps","protocol":17,"map":"koth_highpass","folder":"tf","game":"Team Fortress","app_id":440,"player_count":0,"max_players":24,"Bots":0,"server_type":"Dedicated","server_os":"Linux","password":true,"vac":true,"version":"7757534","steam_id":85568392924470000,"keywords":["cp","nocrits","nodmgspread","uncletopia"],"game_id":440,"stv_port":27026,"stv_name":"Uncletopia | San Francisco | 2 | All Maps | STV","players":null},{"server_id":19,"name":"Uncletopia | San Francisco | 3 | Stopwatch Beta","name_short":"sfo-3","host":"sfo-1.us.uncletopia.com","port":27035,"enabled":true,"region":"us-west","cc":"us","latitude":37.77397,"longitude":-122.4313,"reserved":0,"last_update":"0001-01-01T00:00:00Z","name_a2s":"Uncletopia | San Francisco | 3 | Stopwatch Beta","protocol":17,"map":"koth_lakeside_final","folder":"tf","game":"Team Fortress","app_id":440,"player_count":0,"max_players":24,"Bots":0,"server_type":"Dedicated","server_os":"Linux","password":true,"vac":true,"version":"7757534","steam_id":85568392924742824,"keywords":["cp","nocrits","nodmgspread","uncletopia"],"game_id":440,"stv_port":27036,"stv_name":"Uncletopia | San Francisco | 3 | Stopwatch Beta | STV","players":null},{"server_id":20,"name":"Uncletopia | San Francisco | 4 | Community","name_short":"sfo-4","host":"sfo-1.us.uncletopia.com","port":27045,"enabled":true,"region":"us-west","cc":"us","latitude":37.77397,"longitude":-122.4313,"reserved":0,"last_update":"0001-01-01T00:00:00Z","name_a2s":"Uncletopia | San Francisco | 4 | Community","protocol":17,"map":"workshop/pl_cashworks_final1.ugc2904065412","folder":"tf","game":"Team Fortress","app_id":440,"player_count":0,"max_players":24,"Bots":0,"server_type":"Dedicated","server_os":"Linux","password":true,"vac":true,"version":"7757534","steam_id":85568392924742826,"keywords":["nocrits","nodmgspread","payload","uncletopia"],"game_id":440,"stv_port":27046,"stv_name":"Uncletopia | San Francisco | 4 | Community | STV","players":null},{"server_id":141,"name":"Uncletopia | Sydney | 1 | All Maps","name_short":"syd-1","host":"syd-1.au.uncletopia.com","port":27015,"enabled":true,"region":"au","cc":"au","latitude":-33.865143,"longitude":151.2099,"reserved":0,"last_update":"0001-01-01T00:00:00Z","name_a2s":"Uncletopia | Sydney | 1 | All Maps","protocol":17,"map":"koth_viaduct","folder":"tf","game":"Team Fortress","app_id":440,"player_count":0,"max_players":24,"Bots":0,"server_type":"Dedicated","server_os":"Linux","password":true,"vac":true,"version":"7757534","steam_id":85568392924470001,"keywords":["cp","nocrits","nodmgspread","uncletopia"],"game_id":440,"stv_port":27016,"stv_name":"Uncletopia | Sydney | 1 | All Maps | STV","players":null},{"server_id":123,"name":"Uncletopia | Sydney | 2 | All Maps","name_short":"syd-2","host":"syd-1.au.uncletopia.com","port":27025,"enabled":true,"region":"au","cc":"au","latitude":-33.865143,"longitude":151.2099,"reserved":0,"last_update":"0001-01-01T00:00:00Z","name_a2s":"Uncletopia | Sydney | 2 | All Maps","protocol":17,"map":"cp_process_final","folder":"tf","game":"Team Fortress","app_id":440,"player_count":0,"max_players":24,"Bots":0,"server_type":"Dedicated","server_os":"Linux","password":true,"vac":true,"version":"7757534","steam_id":85568392924470002,"keywords":["cp","nocrits","nodmgspread","uncletopia"],"game_id":440,"stv_port":27026,"stv_name":"Uncletopia | Sydney | 2 | All Maps | STV","players":null},{"server_id":395,"name":"Uncletopia | Sydney | 3 | All Maps","name_short":"syd-3","host":"syd-1.au.uncletopia.com","port":27035,"enabled":true,"region":"au","cc":"au","latitude":-33.865143,"longitude":151.2099,"reserved":0,"last_update":"0001-01-01T00:00:00Z","name_a2s":"Uncletopia | Sydney | 3 | All Maps","protocol":17,"map":"pl_swiftwater_final1","folder":"tf","game":"Team Fortress","app_id":440,"player_count":0,"max_players":24,"Bots":0,"server_type":"Dedicated","server_os":"Linux","password":true,"vac":true,"version":"7757534","steam_id":85568392925194467,"keywords":["nocrits","nodmgspread","payload","uncletopia"],"game_id":440,"stv_port":27036,"stv_name":"Uncletopia | Sydney | 3 | All Maps | STV","players":null},{"server_id":396,"name":"Uncletopia | Sydney | 4 | All Maps","name_short":"syd-4","host":"syd-1.au.uncletopia.com","port":27045,"enabled":true,"region":"au","cc":"au","latitude":-33.865143,"longitude":151.2099,"reserved":0,"last_update":"0001-01-01T00:00:00Z","name_a2s":"Uncletopia | Sydney | 4 | All Maps","protocol":17,"map":"koth_highpass","folder":"tf","game":"Team Fortress","app_id":440,"player_count":0,"max_players":24,"Bots":0,"server_type":"Dedicated","server_os":"Linux","password":true,"vac":true,"version":"7757534","steam_id":85568392925397958,"keywords":["cp","nocrits","nodmgspread","uncletopia"],"game_id":440,"stv_port":27046,"stv_name":"Uncletopia | Sydney | 4 | All Maps | STV","players":null},{"server_id":58,"name":"Uncletopia | Sydney | 5 | Stopwatch Beta","name_short":"syd-5","host":"syd-1.au.uncletopia.com","port":27055,"enabled":true,"region":"au","cc":"au","latitude":-33.865143,"longitude":151.2099,"reserved":0,"last_update":"0001-01-01T00:00:00Z","name_a2s":"Uncletopia | Sydney | 5 | Stopwatch Beta","protocol":17,"map":"koth_cascade","folder":"tf","game":"Team Fortress","app_id":440,"player_count":0,"max_players":24,"Bots":0,"server_type":"Dedicated","server_os":"Linux","password":true,"vac":true,"version":"7757534","steam_id":85568392925397959,"keywords":["cp","nocrits","nodmgspread","uncletopia"],"game_id":440,"stv_port":27056,"stv_name":"Uncletopia | Sydney | 5 | Stopwatch Beta | STV","players":null},{"server_id":59,"name":"Uncletopia | Sydney | 6 | Community","name_short":"syd-6","host":"syd-1.au.uncletopia.com","port":27065,"enabled":true,"region":"au","cc":"au","latitude":-33.865143,"longitude":151.2099,"reserved":0,"last_update":"0001-01-01T00:00:00Z","name_a2s":"Uncletopia | Sydney | 6 | Community","protocol":17,"map":"cp_snakewater_final1","folder":"tf","game":"Team Fortress","app_id":440,"player_count":0,"max_players":24,"Bots":0,"server_type":"Dedicated","server_os":"Linux","password":true,"vac":true,"version":"7757534","steam_id":85568392925397960,"keywords":["cp","nocrits","nodmgspread","uncletopia"],"game_id":440,"stv_port":27066,"stv_name":"Uncletopia | Sydney | 6 | Community | STV","players":null},{"server_id":49,"name":"Uncletopia | Warsaw | 1 | All Maps","name_short":"waw-1","host":"waw-1.pl.uncletopia.com","port":27015,"enabled":true,"region":"eu","cc":"pl","latitude":52.2297,"longitude":21.017532,"reserved":0,"last_update":"0001-01-01T00:00:00Z","name_a2s":"","protocol":0,"map":"","folder":"","game":"","app_id":0,"player_count":0,"max_players":0,"Bots":0,"server_type":"","server_os":"","password":false,"vac":false,"version":"","steam_id":0,"keywords":null,"game_id":0,"stv_port":0,"stv_name":"","players":null},{"server_id":50,"name":"Uncletopia | Warsaw | 2 | All Maps","name_short":"waw-2","host":"waw-1.pl.uncletopia.com","port":27025,"enabled":true,"region":"eu","cc":"pl","latitude":52.2297,"longitude":21.017532,"reserved":0,"last_update":"0001-01-01T00:00:00Z","name_a2s":"Uncletopia | Warsaw | 2 | All Maps","protocol":17,"map":"koth_viaduct","folder":"tf","game":"Team Fortress","app_id":440,"player_count":0,"max_players":24,"Bots":0,"server_type":"Dedicated","server_os":"Linux","password":true,"vac":true,"version":"7757534","steam_id":85568392925397851,"keywords":["cp","nocrits","nodmgspread","uncletopia"],"game_id":440,"stv_port":27026,"stv_name":"Uncletopia | Warsaw | 2 | All Maps | STV","players":null},{"server_id":51,"name":"Uncletopia | Warsaw | 3 | All Maps","name_short":"waw-3","host":"waw-1.pl.uncletopia.com","port":27035,"enabled":true,"region":"eu","cc":"pl","latitude":52.2297,"longitude":21.017532,"reserved":0,"last_update":"0001-01-01T00:00:00Z","name_a2s":"Uncletopia | Warsaw | 3 | All Maps","protocol":17,"map":"pl_barnblitz","folder":"tf","game":"Team Fortress","app_id":440,"player_count":3,"max_players":24,"Bots":0,"server_type":"Dedicated","server_os":"Linux","password":true,"vac":true,"version":"7757534","steam_id":85568392925397852,"keywords":["nocrits","nodmgspread","payload","uncletopia"],"game_id":440,"stv_port":27036,"stv_name":"Uncletopia | Warsaw | 3 | All Maps | STV","players":[{"user_id":49,"name":"Peter Pammpim","steam_id":76561199103785290,"connected_time":1291000000000,"state":"active","ping":110},{"user_id":54,"name":"mesoni","steam_id":76561199141290973,"connected_time":162000000000,"state":"active","ping":104},{"user_id":34,"name":"spy in the base","steam_id":76561198284570752,"connected_time":4595000000000,"state":"active","ping":33}]},{"server_id":52,"name":"Uncletopia | Warsaw | 4 | All Maps","name_short":"waw-4","host":"waw-1.pl.uncletopia.com","port":27045,"enabled":true,"region":"eu","cc":"pl","latitude":52.2297,"longitude":21.017532,"reserved":0,"last_update":"0001-01-01T00:00:00Z","name_a2s":"Uncletopia | Warsaw | 4 | All Maps","protocol":17,"map":"koth_lakeside_final","folder":"tf","game":"Team Fortress","app_id":440,"player_count":0,"max_players":24,"Bots":0,"server_type":"Dedicated","server_os":"Linux","password":true,"vac":true,"version":"7757534","steam_id":85568392925397853,"keywords":["cp","nocrits","nodmgspread","uncletopia"],"game_id":440,"stv_port":27046,"stv_name":"Uncletopia | Warsaw | 4 | All Maps | STV","players":null},{"server_id":53,"name":"Uncletopia | Warsaw | 5 | Stopwatch Beta","name_short":"waw-5","host":"waw-1.pl.uncletopia.com","port":27055,"enabled":true,"region":"eu","cc":"pl","latitude":52.2297,"longitude":21.017532,"reserved":0,"last_update":"0001-01-01T00:00:00Z","name_a2s":"Uncletopia | Warsaw | 5 | Stopwatch Beta","protocol":17,"map":"pl_borneo","folder":"tf","game":"Team Fortress","app_id":440,"player_count":0,"max_players":24,"Bots":0,"server_type":"Dedicated","server_os":"Linux","password":true,"vac":true,"version":"7757534","steam_id":85568392925397854,"keywords":["nocrits","nodmgspread","payload","uncletopia"],"game_id":440,"stv_port":27056,"stv_name":"Uncletopia | Warsaw | 5 | Stopwatch Beta | STV","players":null},{"server_id":54,"name":"Uncletopia | Warsaw | 6 | Community","name_short":"waw-6","host":"waw-1.pl.uncletopia.com","port":27065,"enabled":true,"region":"eu","cc":"pl","latitude":52.2297,"longitude":21.017532,"reserved":0,"last_update":"0001-01-01T00:00:00Z","name_a2s":"Uncletopia | Warsaw | 6 | Community","protocol":17,"map":"workshop/pl_emerge_rc2.ugc888027758","folder":"tf","game":"Team Fortress","app_id":440,"player_count":19,"max_players":24,"Bots":0,"server_type":"Dedicated","server_os":"Linux","password":true,"vac":true,"version":"7757534","steam_id":85568392925397856,"keywords":["nocrits","nodmgspread","payload","uncletopia"],"game_id":440,"stv_port":27066,"stv_name":"Uncletopia | Warsaw | 6 | Community | STV","players":[{"user_id":87,"name":"Arti","steam_id":76561197983352845,"connected_time":1736000000000,"state":"active","ping":66},{"user_id":70,"name":"Ray Lilith","steam_id":76561198133946866,"connected_time":3066000000000,"state":"active","ping":63},{"user_id":5,"name":"TSx* Naxer","steam_id":76561198011986779,"connected_time":9474000000000,"state":"active","ping":47},{"user_id":6,"name":"TSx* Osa__PL","steam_id":76561198027016799,"connected_time":9294000000000,"state":"active","ping":47},{"user_id":7,"name":"TSx* Bargal","steam_id":76561198040266872,"connected_time":9217000000000,"state":"active","ping":56},{"user_id":106,"name":"Mane","steam_id":76561198351821610,"connected_time":1035000000000,"state":"active","ping":79},{"user_id":109,"name":"Rolloden","steam_id":76561198069414404,"connected_time":659000000000,"state":"active","ping":81},{"user_id":100,"name":"Lukas","steam_id":76561198009118452,"connected_time":1314000000000,"state":"active","ping":75},{"user_id":111,"name":"Leah","steam_id":76561198064681443,"connected_time":653000000000,"state":"active","ping":83},{"user_id":91,"name":"pukwiz","steam_id":76561198170085597,"connected_time":1568000000000,"state":"active","ping":72},{"user_id":112,"name":"khan bram","steam_id":76561198034596820,"connected_time":612000000000,"state":"active","ping":58},{"user_id":64,"name":"Twisted Logic ‚àû","steam_id":76561198002245428,"connected_time":4085000000000,"state":"active","ping":70},{"user_id":113,"name":"ASAP","steam_id":76561198322078500,"connected_time":576000000000,"state":"active","ping":125},{"user_id":114,"name":"Tiimo","steam_id":76561198037973825,"connected_time":568000000000,"state":"active","ping":72},{"user_id":115,"name":"Matael","steam_id":76561198452200894,"connected_time":526000000000,"state":"active","ping":42},{"user_id":65,"name":"TylowStar","steam_id":76561198357107806,"connected_time":4083000000000,"state":"active","ping":79},{"user_id":104,"name":"Mr.Ronald","steam_id":76561198290434908,"connected_time":1145000000000,"state":"active","ping":86},{"user_id":96,"name":"AnEliteSandwich","steam_id":76561198070890640,"connected_time":1504000000000,"state":"active","ping":89},{"user_id":105,"name":"Toast","steam_id":76561198123766602,"connected_time":1121000000000,"state":"active","ping":72}]}]}