{"status":true,"message":"","result":[{"server_id":9,"name":"Uncletopia | Atlanta | 1 | All Maps","name_short":"atl-1","host":"atl-1.us.uncletopia.com","port":27015,"enabled":true,"region":"us-east","cc":"us","latitude":33.753746,"longitude":-84.38633,"reserved":0,"last_update":"0001-01-01T00:00:00Z","name_a2s":"Uncletopia | Atlanta | 1 | All Maps","protocol":17,"map":"pl_pier","folder":"tf","game":"Team Fortress","app_id":440,"player_count":23,"max_players":24,"Bots":0,"server_type":"Dedicated","server_os":"Linux","password":true,"vac":true,"version":"7757534","steam_id":85568392924469982,"keywords":["nocrits","nodmgspread","payload","uncletopia"],"game_id":440,"stv_port":27016,"stv_name":"Uncletopia | Atlanta | 1 | All Maps | STV","players":[{"user_id":526,"name":"kohlhagen","steam_id":76561198120440587,"connected_time":3355000000000,"state":"connecting","ping":57},{"user_id":554,"name":"lil hog","steam_id":76561199230929836,"connected_time":260000000000,"state":"connecting","ping":104},{"user_id":529,"name":"mayhem","steam_id":76561199246637881,"connected_time":3177000000000,"state":"connecting","ping":66},{"user_id":546,"name":"ATL 1 | Save your wifi","steam_id":76561198286147372,"connected_time":1251000000000,"state":"connecting","ping":100},{"user_id":535,"name":"fried eggs","steam_id":76561198319442494,"connected_time":2000000000000,"state":"connecting","ping":129},{"user_id":549,"name":"WoshTheTriangle","steam_id":76561198120928409,"connected_time":466000000000,"state":"connecting","ping":79},{"user_id":346,"name":"DFR Le4n!!!","steam_id":76561198045522596,"connected_time":19143000000000,"state":"connecting","ping":79},{"user_id":539,"name":"+","steam_id":76561198262422184,"connected_time":1664000000000,"state":"connecting","ping":86},{"user_id":552,"name":"BackThrowTheBaguetteBrawler","steam_id":76561198118340623,"connected_time":454000000000,"state":"connecting","ping":79},{"user_id":548,"name":"BackAxeTheCharacter","steam_id":76561198025042484,"connected_time":1064000000000,"state":"connecting","ping":69},{"user_id":557,"name":"Johaun","steam_id":76561198296328253,"connected_time":17000000000,"state":"connecting","ping":88},{"user_id":517,"name":"ATL1 | Vee (very cool)","steam_id":76561198330432889,"connected_time":4287000000000,"state":"connecting","ping":78},{"user_id":545,"name":"Onyx","steam_id":76561198275349640,"connected_time":1359000000000,"state":"connecting","ping":99},{"user_id":558,"name":"heimdall","steam_id":76561198069380992,"connected_time":7000000000,"state":"connecting","ping":70},{"user_id":556,"name":"Lilith","steam_id":76561198125102885,"connected_time":137000000000,"state":"connecting","ping":104},{"user_id":527,"name":"Ghetto Smosh Fan","steam_id":76561198097272509,"connected_time":3355000000000,"state":"connecting","ping":44},{"user_id":530,"name":"xX_HimboSwallower_Xx","steam_id":76561198016029965,"connected_time":3174000000000,"state":"connecting","ping":90},{"user_id":544,"name":"Applesauce","steam_id":76561198049642811,"connected_time":1383000000000,"state":"connecting","ping":65},{"user_id":519,"name":"Mage","steam_id":76561198285026879,"connected_time":3888000000000,"state":"connecting","ping":84}]},{"server_id":104,"name":"Uncletopia | Atlanta | 2 | All Maps","name_short":"atl-2","host":"atl-1.us.uncletopia.com","port":27025,"enabled":true,"region":"us-east","cc":"us","latitude":33.753746,"longitude":-84.38633,"reserved":0,"last_update":"0001-01-01T00:00:00Z","name_a2s":"Uncletopia | Atlanta | 2 | All Maps","protocol":17,"map":"pl_upward","folder":"tf","game":"Team Fortress","app_id":440,"player_count":24,"max_players":24,"Bots":0,"server_type":"Dedicated","server_os":"Linux","password":true,"vac":true,"version":"7757534","steam_id":85568392924469983,"keywords":["nocrits","nodmgspread","payload","uncletopia"],"game_id":440,"stv_port":27026,"stv_name":"Uncletopia | Atlanta | 2 | All Maps | STV","players":[{"user_id":594,"name":"Jake The Snake","steam_id":76561198047722285,"connected_time":1628000000000,"state":"active","ping":71},{"user_id":586,"name":"Sabakaii","steam_id":76561198149191879,"connected_time":1787000000000,"state":"active","ping":76},{"user_id":593,"name":"Faraday","steam_id":76561198089928357,"connected_time":1637000000000,"state":"active","ping":82},{"user_id":608,"name":"DJ Spit","steam_id":76561198186637025,"connected_time":410000000000,"state":"active","ping":89},{"user_id":601,"name":"Temm32","steam_id":76561198440657154,"connected_time":1472000000000,"state":"active","ping":85},{"user_id":595,"name":"Pokon","steam_id":76561198053113088,"connected_time":1624000000000,"state":"active","ping":46},{"user_id":587,"name":"Wife Enjoyer","steam_id":76561198044109761,"connected_time":1783000000000,"state":"active","ping":62},{"user_id":615,"name":"Krome","steam_id":76561198087317232,"connected_time":193000000000,"state":"active","ping":122},{"user_id":606,"name":"Arcadletus","steam_id":76561198976009938,"connected_time":683000000000,"state":"active","ping":77},{"user_id":605,"name":"Unchained Zeity","steam_id":76561198414129606,"connected_time":833000000000,"state":"active","ping":157},{"user_id":555,"name":"Vaccine Denier","steam_id":76561198273411260,"connected_time":3538000000000,"state":"active","ping":60},{"user_id":575,"name":"Havok","steam_id":76561198063455003,"connected_time":2353000000000,"state":"active","ping":77},{"user_id":588,"name":"DiscoTraveler","steam_id":76561199240168088,"connected_time":1780000000000,"state":"active","ping":62},{"user_id":610,"name":"FREDO420","steam_id":76561198335632551,"connected_time":367000000000,"state":"active","ping":75},{"user_id":572,"name":"creeeeeee","steam_id":76561198392539722,"connected_time":2735000000000,"state":"active","ping":77},{"user_id":611,"name":"Glar","steam_id":76561198341907150,"connected_time":355000000000,"state":"active","ping":112},{"user_id":589,"name":"m4l","steam_id":76561198360123001,"connected_time":1762000000000,"state":"active","ping":85},{"user_id":603,"name":"Saikyo","steam_id":76561198212461467,"connected_time":979000000000,"state":"active","ping":75},{"user_id":612,"name":"schizophrenic Stack stan","steam_id":76561198214370515,"connected_time":328000000000,"state":"active","ping":72},{"user_id":607,"name":"Red","steam_id":76561198031865869,"connected_time":464000000000,"state":"active","ping":74},{"user_id":437,"name":"the mother in question","steam_id":76561198103496593,"connected_time":7442000000000,"state":"active","ping":45},{"user_id":600,"name":"@_@","steam_id":76561197960304720,"connected_time":1508000000000,"state":"active","ping":75},{"user_id":614,"name":"THE MONARCH","steam_id":76561198144158938,"connected_time":240000000000,"state":"active","ping":67},{"user_id":541,"name":"‚úøÁãêÂ¶ªakemi","steam_id":76561198406252824,"connected_time":4500000000000,"state":"active","ping":120}]},{"server_id":400,"name":"Uncletopia | Atlanta | 3 | Community","name_short":"atl-3","host":"atl-1.us.uncletopia.com","port":27035,"enabled":true,"region":"us-east","cc":"us","latitude":33.753746,"longitude":-84.38633,"reserved":0,"last_update":"0001-01-01T00:00:00Z","name_a2s":"Uncletopia | Atlanta | 3 | Community","protocol":17,"map":"workshop/cp_bruhstbowl_b5.ugc2878604990","folder":"tf","game":"Team Fortress","app_id":440,"player_count":13,"max_players":24,"Bots":0,"server_type":"Dedicated","server_os":"Linux","password":true,"vac":true,"version":"7757534","steam_id":85568392924515187,"keywords":["cp","nocrits","nodmgspread","uncletopia"],"game_id":440,"stv_port":27036,"stv_name":"Uncletopia | Atlanta | 3 | Community | STV","players":[{"user_id":567,"name":"RagingHammer","steam_id":76561198228755224,"connected_time":514000000000,"state":"active","ping":98},{"user_id":565,"name":"spiderslash","steam_id":76561198043787070,"connected_time":836000000000,"state":"active","ping":77},{"user_id":546,"name":"ATA3","steam_id":76561198099640423,"connected_time":2052000000000,"state":"active","ping":90},{"user_id":568,"name":"GiraffeMan","steam_id":76561198042104084,"connected_time":158000000000,"state":"active","ping":65},{"user_id":513,"name":"Elongated Muskrat","steam_id":76561198314501346,"connected_time":4122000000000,"state":"active","ping":103},{"user_id":569,"name":"Hard Soap","steam_id":76561198267905614,"connected_time":144000000000,"state":"active","ping":71},{"user_id":564,"name":"Delightful MadCat","steam_id":76561198086178426,"connected_time":1191000000000,"state":"active","ping":97},{"user_id":566,"name":"Camohno","steam_id":76561198283519918,"connected_time":667000000000,"state":"active","ping":116},{"user_id":528,"name":"breadroll","steam_id":76561198039506482,"connected_time":3074000000000,"state":"active","ping":48},{"user_id":557,"name":"Shy","steam_id":76561198394890836,"connected_time":1702000000000,"state":"active","ping":46},{"user_id":560,"name":"Zero","steam_id":76561198142112204,"connected_time":1666000000000,"state":"active","ping":86},{"user_id":529,"name":"Rari","steam_id":76561198128537564,"connected_time":2873000000000,"state":"active","ping":62},{"user_id":562,"name":"J√§ger2316","steam_id":76561197974928362,"connected_time":1469000000000,"state":"active","ping":78}]},{"server_id":401,"name":"Uncletopia | Atlanta | 4 | No Payload","name_short":"atl-4","host":"atl-1.us.uncletopia.com","port":27045,"enabled":true,"region":"us-east","cc":"us","latitude":33.753746,"longitude":-84.38633,"reserved":0,"last_update":"0001-01-01T00:00:00Z","name_a2s":"","protocol":0,"map":"","folder":"","game":"","app_id":0,"player_count":0,"max_players":0,"Bots":0,"server_type":"","server_os":"","password":false,"vac":false,"version":"","steam_id":0,"keywords":null,"game_id":0,"stv_port":0,"stv_name":"","players":null},{"server_id":2,"name":"Uncletopia | Chicago | 1 | All Maps","name_short":"chi-1","host":"chi-1.us.uncletopia.com","port":27015,"enabled":true,"region":"us-central","cc":"us","latitude":41.881832,"longitude":-87.62318,"reserved":0,"last_update":"0001-01-01T00:00:00Z","name_a2s":"Uncletopia | Chicago | 1 | All Maps","protocol":17,"map":"pl_badwater","folder":"tf","game":"Team Fortress","app_id":440,"player_count":24,"max_players":24,"Bots":0,"server_type":"Dedicated","server_os":"Linux","password":true,"vac":true,"version":"7757534","steam_id":85568392924469984,"keywords":["nocrits","nodmgspread","payload","uncletopia"],"game_id":440,"stv_port":27016,"stv_name":"Uncletopia | Chicago | 1 | All Maps | STV","players":[{"user_id":861,"name":"Yummy Kabobz","steam_id":76561198067661705,"connected_time":5706000000000,"state":"active","ping":72},{"user_id":926,"name":"crack crisis","steam_id":76561198332519926,"connected_time":756000000000,"state":"active","ping":82},{"user_id":927,"name":"Papa Meme a la Cream","steam_id":76561198067810973,"connected_time":739000000000,"state":"active","ping":61},{"user_id":920,"name":"Doublebagel47","steam_id":76561198832021744,"connected_time":1483000000000,"state":"active","ping":72},{"user_id":865,"name":"Santicules","steam_id":76561198209373536,"connected_time":5618000000000,"state":"active","ping":57},{"user_id":898,"name":"Horrizan","steam_id":76561197965028480,"connected_time":3187000000000,"state":"active","ping":100},{"user_id":929,"name":"INoob5430","steam_id":76561198251896612,"connected_time":652000000000,"state":"active","ping":41},{"user_id":906,"name":"BurnN8or101","steam_id":76561198132668224,"connected_time":2412000000000,"state":"active","ping":66},{"user_id":928,"name":"Pan-Demonica","steam_id":76561198294350105,"connected_time":699000000000,"state":"active","ping":89},{"user_id":919,"name":"jayhong","steam_id":76561198046772832,"connected_time":1539000000000,"state":"active","ping":30},{"user_id":930,"name":"The Juice","steam_id":76561198065307144,"connected_time":637000000000,"state":"active","ping":72},{"user_id":921,"name":"ntjohn","steam_id":76561198043367011,"connected_time":1479000000000,"state":"active","ping":59},{"user_id":923,"name":"ultralisk52","steam_id":76561198051666604,"connected_time":1431000000000,"state":"active","ping":67},{"user_id":938,"name":"Nolan","steam_id":76561198169648081,"connected_time":159000000000,"state":"active","ping":85},{"user_id":910,"name":"Dragonofponies","steam_id":76561199016800803,"connected_time":2318000000000,"state":"active","ping":83},{"user_id":931,"name":"fumbduck","steam_id":76561198104525243,"connected_time":633000000000,"state":"active","ping":97},{"user_id":932,"name":"honk","steam_id":76561198050398028,"connected_time":622000000000,"state":"active","ping":60},{"user_id":884,"name":"everyrockstar!","steam_id":76561198272094975,"connected_time":4520000000000,"state":"active","ping":129},{"user_id":881,"name":"Menacing Pile of Frogs","steam_id":76561198360134800,"connected_time":4973000000000,"state":"active","ping":72},{"user_id":925,"name":"Thatoneguybunchanumbers","steam_id":76561198028039160,"connected_time":912000000000,"state":"active","ping":78},{"user_id":933,"name":"Poggares","steam_id":76561198113064908,"connected_time":613000000000,"state":"active","ping":58},{"user_id":913,"name":"blakejack226","steam_id":76561199128917566,"connected_time":2265000000000,"state":"active","ping":82},{"user_id":924,"name":"collacot","steam_id":76561198243248798,"connected_time":1426000000000,"state":"active","ping":89},{"user_id":934,"name":"WAKEUP!","steam_id":76561198254479725,"connected_time":600000000000,"state":"active","ping":46}]},{"server_id":106,"name":"Uncletopia | Chicago | 2 | All Maps","name_short":"chi-2","host":"chi-1.us.uncletopia.com","port":27025,"enabled":true,"region":"us-central","cc":"us","latitude":41.881832,"longitude":-87.62318,"reserved":0,"last_update":"0001-01-01T00:00:00Z","name_a2s":"Uncletopia | Chicago | 2 | All Maps","protocol":17,"map":"pl_upward","folder":"tf","game":"Team Fortress","app_id":440,"player_count":24,"max_players":24,"Bots":0,"server_type":"Dedicated","server_os":"Linux","password":true,"vac":true,"version":"7757534","steam_id":85568392924469985,"keywords":["nocrits","nodmgspread","payload","uncletopia"],"game_id":440,"stv_port":27026,"stv_name":"Uncletopia | Chicago | 2 | All Maps | STV","players":[{"user_id":676,"name":"Reaching4Stars","steam_id":76561198834662436,"connected_time":3226000000000,"state":"active","ping":75},{"user_id":713,"name":"SunBro","steam_id":76561198178030045,"connected_time":590000000000,"state":"active","ping":78},{"user_id":697,"name":"El Gato Paranoico","steam_id":76561198116567116,"connected_time":2303000000000,"state":"active","ping":93},{"user_id":658,"name":"Semper Ber","steam_id":76561198274021990,"connected_time":3837000000000,"state":"active","ping":93},{"user_id":680,"name":"Kelkith","steam_id":76561197985450422,"connected_time":2826000000000,"state":"active","ping":153},{"user_id":704,"name":"Satan-2","steam_id":76561199231742764,"connected_time":695000000000,"state":"active","ping":69},{"user_id":705,"name":"Chillin Turt","steam_id":76561198025796849,"connected_time":678000000000,"state":"active","ping":65},{"user_id":708,"name":"One Shot and A Miss","steam_id":76561198124269698,"connected_time":658000000000,"state":"active","ping":61},{"user_id":698,"name":"Boznyan","steam_id":76561198129164016,"connected_time":1796000000000,"state":"active","ping":58},{"user_id":707,"name":"Toaster Time","steam_id":76561198158794507,"connected_time":666000000000,"state":"active","ping":87},{"user_id":699,"name":"chug jug","steam_id":76561198155631250,"connected_time":1734000000000,"state":"active","ping":68},{"user_id":615,"name":"petrichor","steam_id":76561198104655642,"connected_time":6777000000000,"state":"active","ping":63},{"user_id":709,"name":"Windows","steam_id":76561198252516664,"connected_time":653000000000,"state":"active","ping":81},{"user_id":710,"name":"rudy","steam_id":76561198088712799,"connected_time":648000000000,"state":"active","ping":82},{"user_id":703,"name":"Kiwiboy31","steam_id":76561198302758473,"connected_time":833000000000,"state":"active","ping":59},{"user_id":689,"name":"Seighart","steam_id":76561198180734606,"connected_time":2520000000000,"state":"active","ping":54},{"user_id":718,"name":"Full Throttle Axolotl","steam_id":76561198041836477,"connected_time":113000000000,"state":"active","ping":84},{"user_id":711,"name":"ff","steam_id":76561198017539604,"connected_time":632000000000,"state":"active","ping":72},{"user_id":714,"name":"Big Boss","steam_id":76561198090271815,"connected_time":585000000000,"state":"active","ping":121},{"user_id":678,"name":"StonedGiant","steam_id":76561197984386932,"connected_time":3111000000000,"state":"active","ping":59},{"user_id":701,"name":"Sibas","steam_id":76561198079770573,"connected_time":1324000000000,"state":"active","ping":154},{"user_id":685,"name":"023e20902o0239ee02390o239e","steam_id":76561198175741741,"connected_time":2610000000000,"state":"active","ping":76},{"user_id":715,"name":"Kyzer","steam_id":76561198048034600,"connected_time":569000000000,"state":"active","ping":67},{"user_id":717,"name":"The Angel of Death","steam_id":76561198026079349,"connected_time":500000000000,"state":"active","ping":121}]},{"server_id":402,"name":"Uncletopia | Chicago | 3 | All Maps","name_short":"chi-3","host":"chi-1.us.uncletopia.com","port":27035,"enabled":true,"region":"us-central","cc":"us","latitude":41.881832,"longitude":-87.62318,"reserved":0,"last_update":"0001-01-01T00:00:00Z","name_a2s":"Uncletopia | Chicago | 3 | All Maps","protocol":17,"map":"pl_upward","folder":"tf","game":"Team Fortress","app_id":440,"player_count":24,"max_players":24,"Bots":0,"server_type":"Dedicated","server_os":"Linux","password":true,"vac":true,"version":"7757534","steam_id":85568392924515191,"keywords":["nocrits","nodmgspread","payload","uncletopia"],"game_id":440,"stv_port":27036,"stv_name":"Uncletopia | Chicago | 3 | All Maps | STV","players":[{"user_id":618,"name":"Zippy","steam_id":76561198279229422,"connected_time":70000000000,"state":"active","ping":52},{"user_id":568,"name":"sammy #freecream","steam_id":76561199001307670,"connected_time":3729000000000,"state":"active","ping":105},{"user_id":605,"name":"mountain*‚ú©‚Äß‚ÇäÀö","steam_id":76561198078395002,"connected_time":1055000000000,"state":"active","ping":59},{"user_id":542,"name":":bocchigrin:","steam_id":76561198453203619,"connected_time":5906000000000,"state":"active","ping":99},{"user_id":594,"name":"dameJuno","steam_id":76561198070799623,"connected_time":2104000000000,"state":"active","ping":83},{"user_id":593,"name":"Subterranean Dweller","steam_id":76561198025279327,"connected_time":2239000000000,"state":"active","ping":64},{"user_id":616,"name":"Orangecrust26","steam_id":76561199232443221,"connected_time":242000000000,"state":"active","ping":85},{"user_id":608,"name":"Sarbanes-Oxley","steam_id":76561197975898479,"connected_time":716000000000,"state":"active","ping":74},{"user_id":601,"name":"e","steam_id":76561198131245396,"connected_time":1563000000000,"state":"active","ping":75},{"user_id":615,"name":"Esmo","steam_id":76561198014928825,"connected_time":365000000000,"state":"active","ping":78},{"user_id":538,"name":"Argo","steam_id":76561198353725622,"connected_time":6550000000000,"state":"active","ping":83},{"user_id":553,"name":"WatchWill","steam_id":76561198157237945,"connected_time":4996000000000,"state":"active","ping":84},{"user_id":597,"name":"Shystie","steam_id":76561198025371440,"connected_time":2005000000000,"state":"active","ping":85},{"user_id":598,"name":"=^Samie^=","steam_id":76561198043785957,"connected_time":1727000000000,"state":"active","ping":115},{"user_id":554,"name":"bauxoffdagloop","steam_id":76561199196442823,"connected_time":4994000000000,"state":"active","ping":133},{"user_id":566,"name":"jdt631","steam_id":76561198271999934,"connected_time":4168000000000,"state":"active","ping":87},{"user_id":549,"name":"Non","steam_id":76561198196524528,"connected_time":5060000000000,"state":"active","ping":51},{"user_id":604,"name":"Whorse","steam_id":76561198114141445,"connected_time":1086000000000,"state":"active","ping":72},{"user_id":612,"name":"PageBoiSkull","steam_id":76561198237353578,"connected_time":491000000000,"state":"active","ping":107},{"user_id":582,"name":"Skab","steam_id":76561199126112357,"connected_time":2599000000000,"state":"active","ping":76},{"user_id":614,"name":"Doubie","steam_id":76561198104492019,"connected_time":386000000000,"state":"active","ping":69},{"user_id":619,"name":"cow","steam_id":76561198117331762,"connected_time":32000000000,"state":"active","ping":46},{"user_id":609,"name":"Chicken Soup","steam_id":76561197989268948,"connected_time":578000000000,"state":"active","ping":69},{"user_id":613,"name":"tanavast","steam_id":76561198152297274,"connected_time":462000000000,"state":"active","ping":45}]},{"server_id":403,"name":"Uncletopia | Chicago | 4 | All Maps","name_short":"chi-4","host":"chi-1.us.uncletopia.com","port":27045,"enabled":true,"region":"us-central","cc":"us","latitude":41.881832,"longitude":-87.62318,"reserved":0,"last_update":"0001-01-01T00:00:00Z","name_a2s":"Uncletopia | Chicago | 4 | All Maps","protocol":17,"map":"pl_hoodoo_final","folder":"tf","game":"Team Fortress","app_id":440,"player_count":24,"max_players":24,"Bots":0,"server_type":"Dedicated","server_os":"Linux","password":true,"vac":true,"version":"7757534","steam_id":85568392924515193,"keywords":["nocrits","nodmgspread","payload","uncletopia"],"game_id":440,"stv_port":27046,"stv_name":"Uncletopia | Chicago | 4 | All Maps | STV","players":[{"user_id":980,"name":"Lane","steam_id":76561197965828506,"connected_time":4105000000000,"state":"active","ping":44},{"user_id":1022,"name":"Intro","steam_id":76561198028471074,"connected_time":1690000000000,"state":"active","ping":82},{"user_id":1039,"name":"somewhat silly","steam_id":76561198010269150,"connected_time":980000000000,"state":"active","ping":102},{"user_id":1023,"name":"prestige worldwide (wide)","steam_id":76561198045655893,"connected_time":1678000000000,"state":"active","ping":58},{"user_id":997,"name":"Tenori","steam_id":76561198046773795,"connected_time":3495000000000,"state":"active","ping":71},{"user_id":1047,"name":"I deepfried my penis","steam_id":76561198848858223,"connected_time":216000000000,"state":"active","ping":91},{"user_id":1024,"name":"JelloMotion","steam_id":76561198045892038,"connected_time":1628000000000,"state":"active","ping":61},{"user_id":964,"name":"the real babytron","steam_id":76561197989627918,"connected_time":5551000000000,"state":"active","ping":86},{"user_id":1034,"name":"wulri","steam_id":76561198042957779,"connected_time":1351000000000,"state":"active","ping":60},{"user_id":1038,"name":"Rukks","steam_id":76561197993918954,"connected_time":992000000000,"state":"active","ping":89},{"user_id":1040,"name":"WarMace","steam_id":76561198395937853,"connected_time":927000000000,"state":"active","ping":71},{"user_id":1048,"name":"Whapper","steam_id":76561198044029606,"connected_time":213000000000,"state":"active","ping":105},{"user_id":1027,"name":"Siless","steam_id":76561198040803878,"connected_time":1491000000000,"state":"active","ping":49},{"user_id":1044,"name":"iceman","steam_id":76561198135397441,"connected_time":403000000000,"state":"active","ping":83},{"user_id":1007,"name":"Poyo Boyo","steam_id":76561198010201227,"connected_time":3093000000000,"state":"active","ping":78},{"user_id":944,"name":"Kickbakk","steam_id":76561198042335947,"connected_time":6892000000000,"state":"active","ping":72},{"user_id":1030,"name":"Dozo","steam_id":76561198011546437,"connected_time":1456000000000,"state":"active","ping":46},{"user_id":1031,"name":"M@verick","steam_id":76561198006363519,"connected_time":1420000000000,"state":"active","ping":76},{"user_id":1036,"name":"illious","steam_id":76561198169925494,"connected_time":1276000000000,"state":"active","ping":69},{"user_id":1033,"name":"WalrusNyetheBonkGuy","steam_id":76561197995626774,"connected_time":1364000000000,"state":"active","ping":114},{"user_id":1046,"name":"Fargo","steam_id":76561198044703931,"connected_time":310000000000,"state":"active","ping":74},{"user_id":1042,"name":"a crystal lizard","steam_id":76561197997661928,"connected_time":780000000000,"state":"active","ping":71},{"user_id":1041,"name":"deskmedic","steam_id":76561198295640486,"connected_time":911000000000,"state":"active","ping":101},{"user_id":1043,"name":"KoolBucky","steam_id":76561198147927648,"connected_time":440000000000,"state":"active","ping":101}]},{"server_id":36,"name":"Uncletopia | Chicago | 5 | All Maps","name_short":"chi-5","host":"chi-2.us.uncletopia.com","port":27015,"enabled":true,"region":"us-central","cc":"us","latitude":41.881832,"longitude":-87.62318,"reserved":0,"last_update":"0001-01-01T00:00:00Z","name_a2s":"Uncletopia | Chicago | 5 | All Maps","protocol":17,"map":"cp_sunshine","folder":"tf","game":"Team Fortress","app_id":440,"player_count":24,"max_players":24,"Bots":0,"server_type":"Dedicated","server_os":"Linux","password":true,"vac":true,"version":"7757534","steam_id":85568392924866362,"keywords":["cp","nocrits","nodmgspread","uncletopia"],"game_id":440,"stv_port":27016,"stv_name":"Uncletopia | Chicago | 5 | All Maps | STV","players":[{"user_id":540,"name":"shibaba bababool","steam_id":76561197972601902,"connected_time":58000000000,"state":"active","ping":84},{"user_id":453,"name":"Dr Oshawott","steam_id":76561198042021629,"connected_time":5740000000000,"state":"active","ping":66},{"user_id":526,"name":"motherfucker 2.0","steam_id":76561198141189209,"connected_time":993000000000,"state":"active","ping":60},{"user_id":521,"name":"Queen Frau the Round","steam_id":76561197999942134,"connected_time":1111000000000,"state":"active","ping":46},{"user_id":522,"name":"pathways","steam_id":76561198054832333,"connected_time":1106000000000,"state":"active","ping":54},{"user_id":523,"name":"Huey","steam_id":76561198972816386,"connected_time":1102000000000,"state":"active","ping":80},{"user_id":539,"name":"jalapeno handjob","steam_id":76561198123298824,"connected_time":298000000000,"state":"active","ping":74},{"user_id":525,"name":"boy from the rafters","steam_id":76561198042926224,"connected_time":1039000000000,"state":"active","ping":85},{"user_id":508,"name":"Tetra","steam_id":76561198012329955,"connected_time":2051000000000,"state":"active","ping":105},{"user_id":504,"name":"Mayonnaise","steam_id":76561198062419832,"connected_time":2396000000000,"state":"active","ping":156},{"user_id":534,"name":"Actually a Shoggoth","steam_id":76561198065857964,"connected_time":716000000000,"state":"active","ping":80},{"user_id":507,"name":"Goblin Mode","steam_id":76561198064870076,"connected_time":2087000000000,"state":"active","ping":86},{"user_id":509,"name":"n8thegr83008","steam_id":76561198214814260,"connected_time":2048000000000,"state":"active","ping":77},{"user_id":536,"name":"Fluff Butt","steam_id":76561199008334604,"connected_time":700000000000,"state":"active","ping":85},{"user_id":469,"name":"Cats","steam_id":76561197965022076,"connected_time":5367000000000,"state":"active","ping":59},{"user_id":529,"name":"dan from hr","steam_id":76561198053164901,"connected_time":956000000000,"state":"active","ping":60},{"user_id":537,"name":"Illuminor MC","steam_id":76561199042568830,"connected_time":512000000000,"state":"active","ping":49},{"user_id":531,"name":"Bocchi the Cock","steam_id":76561198152455316,"connected_time":925000000000,"state":"active","ping":134},{"user_id":535,"name":"aqua","steam_id":76561199407709552,"connected_time":713000000000,"state":"active","ping":54},{"user_id":538,"name":"Kappy","steam_id":76561198125564074,"connected_time":499000000000,"state":"active","ping":87},{"user_id":384,"name":"Spinch","steam_id":76561198296224166,"connected_time":11702000000000,"state":"active","ping":91},{"user_id":514,"name":"Asura","steam_id":76561199026590878,"connected_time":1973000000000,"state":"active","ping":55},{"user_id":386,"name":"Publo","steam_id":76561198161777140,"connected_time":11694000000000,"state":"active","ping":86},{"user_id":533,"name":"watchfull","steam_id":76561198433266742,"connected_time":882000000000,"state":"active","ping":105}]},{"server_id":37,"name":"Uncletopia | Chicago | 6 | All Maps","name_short":"chi-6","host":"chi-2.us.uncletopia.com","port":27025,"enabled":true,"region":"us-central","cc":"us","latitude":41.881832,"longitude":-87.62318,"reserved":0,"last_update":"0001-01-01T00:00:00Z","name_a2s":"Uncletopia | Chicago | 6 | All Maps","protocol":17,"map":"cp_dustbowl","folder":"tf","game":"Team Fortress","app_id":440,"player_count":24,"max_players":24,"Bots":0,"server_type":"Dedicated","server_os":"Linux","password":true,"vac":true,"version":"7757534","steam_id":85568392924866363,"keywords":["cp","nocrits","nodmgspread","uncletopia"],"game_id":440,"stv_port":27026,"stv_name":"Uncletopia | Chicago | 6 | All Maps | STV","players":[{"user_id":590,"name":"hashmap","steam_id":76561198043794014,"connected_time":4139000000000,"state":"active","ping":52},{"user_id":630,"name":"mashallah","steam_id":76561198075111427,"connected_time":183000000000,"state":"active","ping":70},{"user_id":629,"name":"Sudiak","steam_id":76561198119246214,"connected_time":252000000000,"state":"active","ping":63},{"user_id":591,"name":"Xtar","steam_id":76561198301774048,"connected_time":4082000000000,"state":"active","ping":115},{"user_id":631,"name":"The Janitor","steam_id":76561198370152780,"connected_time":149000000000,"state":"active","ping":71},{"user_id":632,"name":"dahperson","steam_id":76561198067207467,"connected_time":121000000000,"state":"active","ping":56},{"user_id":639,"name":"u","steam_id":76561197994492154,"connected_time":62000000000,"state":"active","ping":167},{"user_id":592,"name":"cbagels","steam_id":76561198453866972,"connected_time":4076000000000,"state":"active","ping":118},{"user_id":610,"name":"I Eat Trains","steam_id":76561198054791624,"connected_time":2217000000000,"state":"active","ping":58},{"user_id":611,"name":"Gorgon Freeman","steam_id":76561198000367036,"connected_time":2196000000000,"state":"active","ping":60},{"user_id":468,"name":"Bearegard","steam_id":76561198061926542,"connected_time":12013000000000,"state":"active","ping":57},{"user_id":634,"name":"kivee","steam_id":76561198838223023,"connected_time":101000000000,"state":"active","ping":47},{"user_id":622,"name":"glog","steam_id":76561198174346247,"connected_time":1474000000000,"state":"active","ping":76},{"user_id":594,"name":"Hot Chip/Lie Enjoyer","steam_id":76561198860607530,"connected_time":4066000000000,"state":"active","ping":112},{"user_id":635,"name":"‡ºò ‚ãÜÀöüéßCaffeine‚òï*Àñ¬∞","steam_id":76561199259309294,"connected_time":97000000000,"state":"spawning","ping":68},{"user_id":613,"name":"Rick Beato","steam_id":76561199080451611,"connected_time":2152000000000,"state":"active","ping":79},{"user_id":640,"name":"Hot Pink Millie","steam_id":76561198006259725,"connected_time":59000000000,"state":"active","ping":79},{"user_id":614,"name":"sqwyrm","steam_id":76561198171032997,"connected_time":2143000000000,"state":"active","ping":132},{"user_id":636,"name":"opal","steam_id":76561198070050042,"connected_time":97000000000,"state":"active","ping":90},{"user_id":616,"name":"Just a little bit blu?","steam_id":76561199113013688,"connected_time":2136000000000,"state":"active","ping":89},{"user_id":637,"name":"Girox","steam_id":76561198009921751,"connected_time":79000000000,"state":"active","ping":67},{"user_id":617,"name":"MrFrost","steam_id":76561198800061541,"connected_time":2135000000000,"state":"active","ping":120},{"user_id":618,"name":"Saul Catman","steam_id":76561199228539914,"connected_time":2122000000000,"state":"active","ping":116},{"user_id":638,"name":"Whoops!","steam_id":76561198151315898,"connected_time":76000000000,"state":"spawning","ping":67}]},{"server_id":38,"name":"Uncletopia | Chicago | 7 | Stopwatch Beta","name_short":"chi-7","host":"chi-2.us.uncletopia.com","port":27035,"enabled":true,"region":"us-central","cc":"us","latitude":41.881832,"longitude":-87.62318,"reserved":0,"last_update":"0001-01-01T00:00:00Z","name_a2s":"Uncletopia | Chicago | 7 | Stopwatch Beta","protocol":17,"map":"workshop/pl_barnblitz_pro7.ugc582280235","folder":"tf","game":"Team Fortress","app_id":440,"player_count":0,"max_players":24,"Bots":0,"server_type":"Dedicated","server_os":"Linux","password":true,"vac":true,"version":"7757534","steam_id":85568392924866364,"keywords":["nocrits","nodmgspread","payload","uncletopia"],"game_id":440,"stv_port":27036,"stv_name":"Uncletopia | Chicago | 7 | Stopwatch Beta | STV","players":null},{"server_id":39,"name":"Uncletopia | Chicago | 8 | Community","name_short":"chi-8","host":"chi-2.us.uncletopia.com","port":27045,"enabled":true,"region":"us-central","cc":"us","latitude":41.881832,"longitude":-87.62318,"reserved":0,"last_update":"0001-01-01T00:00:00Z","name_a2s":"Uncletopia | Chicago | 8 | Community","protocol":17,"map":"workshop/cp_kalinka_rc6a.ugc1272700588","folder":"tf","game":"Team Fortress","app_id":440,"player_count":15,"max_players":24,"Bots":0,"server_type":"Dedicated","server_os":"Linux","password":true,"vac":true,"version":"7757534","steam_id":85568392924866365,"keywords":["cp","nocrits","nodmgspread","uncletopia"],"game_id":440,"stv_port":27046,"stv_name":"Uncletopia | Chicago | 8 | Community | STV","players":[{"user_id":162,"name":"ZaChelbom","steam_id":76561198089343809,"connected_time":6553000000000,"state":"active","ping":46},{"user_id":230,"name":"goonmonster","steam_id":76561198040741271,"connected_time":1863000000000,"state":"active","ping":45},{"user_id":253,"name":"pikakirby11","steam_id":76561199229909131,"connected_time":17000000000,"state":"spawning","ping":231},{"user_id":242,"name":"skele10","steam_id":76561198198460711,"connected_time":818000000000,"state":"active","ping":47},{"user_id":235,"name":"SomeRandomCat","steam_id":76561199107044061,"connected_time":1778000000000,"state":"active","ping":63},{"user_id":249,"name":"[DEEP] Danmar33","steam_id":76561198056453091,"connected_time":397000000000,"state":"active","ping":49},{"user_id":247,"name":"Tom Cr√∫aich","steam_id":76561197999439911,"connected_time":536000000000,"state":"active","ping":67},{"user_id":161,"name":"===","steam_id":76561198232617936,"connected_time":6578000000000,"state":"active","ping":53},{"user_id":246,"name":"xXThegamer88Xx","steam_id":76561199161362967,"connected_time":570000000000,"state":"spawning","ping":443},{"user_id":200,"name":"Kaluka","steam_id":76561198036861445,"connected_time":4150000000000,"state":"active","ping":70},{"user_id":252,"name":"‚Ä∫ snow","steam_id":76561198109783729,"connected_time":198000000000,"state":"active","ping":45},{"user_id":220,"name":"Joe Grumbo","steam_id":76561198048485190,"connected_time":2373000000000,"state":"active","ping":72},{"user_id":250,"name":"Emangamez","steam_id":76561198143997970,"connected_time":387000000000,"state":"active","ping":80},{"user_id":145,"name":"54","steam_id":76561198099591549,"connected_time":7313000000000,"state":"active","ping":66},{"user_id":251,"name":"monke","steam_id":76561198308289194,"connected_time":334000000000,"state":"spawning","ping":253}]},{"server_id":8,"name":"Uncletopia | Dallas | 1 | All Maps","name_short":"dal-1","host":"dal-1.us.uncletopia.com","port":27015,"enabled":true,"region":"us-central","cc":"us","latitude":32.779167,"longitude":-96.80889,"reserved":0,"last_update":"0001-01-01T00:00:00Z","name_a2s":"Uncletopia | Dallas | 1 | All Maps","protocol":17,"map":"pl_upward","folder":"tf","game":"Team Fortress","app_id":440,"player_count":24,"max_players":24,"Bots":0,"server_type":"Dedicated","server_os":"Linux","password":true,"vac":true,"version":"7757534","steam_id":85568392924469986,"keywords":["nocrits","nodmgspread","payload","uncletopia"],"game_id":440,"stv_port":27016,"stv_name":"Uncletopia | Dallas | 1 | All Maps | STV","players":[{"user_id":751,"name":"CaptainK","steam_id":76561198018979695,"connected_time":1068000000000,"state":"active","ping":74},{"user_id":749,"name":"bird doctor","steam_id":76561199144340440,"connected_time":1219000000000,"state":"active","ping":59},{"user_id":753,"name":"trapaholic","steam_id":76561198145784505,"connected_time":752000000000,"state":"active","ping":76},{"user_id":744,"name":"owen","steam_id":76561198121517871,"connected_time":1488000000000,"state":"active","ping":58},{"user_id":755,"name":"Shamrock Shake Oct.10.2020 @8pm","steam_id":76561198833313201,"connected_time":228000000000,"state":"active","ping":85},{"user_id":685,"name":"Kirbothebrony","steam_id":76561198971911330,"connected_time":5584000000000,"state":"active","ping":69},{"user_id":754,"name":"Yongle","steam_id":76561198068591156,"connected_time":730000000000,"state":"active","ping":75},{"user_id":746,"name":"Project_Counter","steam_id":76561198152786076,"connected_time":1410000000000,"state":"active","ping":54},{"user_id":686,"name":"LordZahe","steam_id":76561198241749034,"connected_time":5576000000000,"state":"active","ping":88},{"user_id":733,"name":"aidan long","steam_id":76561198073022833,"connected_time":2628000000000,"state":"active","ping":48},{"user_id":738,"name":"HeisenBurger","steam_id":76561198040632080,"connected_time":1833000000000,"state":"active","ping":74},{"user_id":730,"name":"fish lover woman fearer","steam_id":76561198241061928,"connected_time":2804000000000,"state":"active","ping":65},{"user_id":757,"name":"bRAX","steam_id":76561198123030809,"connected_time":132000000000,"state":"active","ping":75},{"user_id":735,"name":"roleycoley","steam_id":76561198069574107,"connected_time":2033000000000,"state":"active","ping":48},{"user_id":688,"name":"Awesome incarnate","steam_id":76561198049804640,"connected_time":5548000000000,"state":"active","ping":81},{"user_id":750,"name":"Nepithenarwhal","steam_id":76561198306408674,"connected_time":1181000000000,"state":"active","ping":89},{"user_id":714,"name":"Not A Rapper","steam_id":76561198077523537,"connected_time":3491000000000,"state":"active","ping":96},{"user_id":657,"name":"Danger McHazard","steam_id":76561198059451274,"connected_time":8126000000000,"state":"active","ping":86},{"user_id":747,"name":"Punished Shitster","steam_id":76561198150452857,"connected_time":1406000000000,"state":"active","ping":50},{"user_id":654,"name":"Jack Celliers","steam_id":76561198060983357,"connected_time":8491000000000,"state":"active","ping":59},{"user_id":756,"name":"iluvtoust","steam_id":76561198869269207,"connected_time":174000000000,"state":"active","ping":50},{"user_id":697,"name":"CommanderXeno","steam_id":76561198259326276,"connected_time":5215000000000,"state":"active","ping":65},{"user_id":704,"name":"Anor","steam_id":76561198356139775,"connected_time":4561000000000,"state":"active","ping":83},{"user_id":563,"name":"Mr. Metro","steam_id":76561198351521199,"connected_time":17263000000000,"state":"active","ping":106}]},{"server_id":108,"name":"Uncletopia | Dallas | 2 | All Maps","name_short":"dal-2","host":"dal-1.us.uncletopia.com","port":27025,"enabled":true,"region":"us-central","cc":"us","latitude":32.779167,"longitude":-96.80889,"reserved":0,"last_update":"0001-01-01T00:00:00Z","name_a2s":"Uncletopia | Dallas | 2 | All Maps","protocol":17,"map":"pl_borneo","folder":"tf","game":"Team Fortress","app_id":440,"player_count":20,"max_players":24,"Bots":0,"server_type":"Dedicated","server_os":"Linux","password":true,"vac":true,"version":"7757534","steam_id":85568392924469988,"keywords":["nocrits","nodmgspread","payload","uncletopia"],"game_id":440,"stv_port":27026,"stv_name":"Uncletopia | Dallas | 2 | All Maps | STV","players":[{"user_id":610,"name":"Rusted Cake","steam_id":76561198209755931,"connected_time":27000000000,"state":"connecting","ping":65},{"user_id":585,"name":"noellehound","steam_id":76561198108844158,"connected_time":2570000000000,"state":"active","ping":105},{"user_id":595,"name":"Voltaire!","steam_id":76561198047528141,"connected_time":1443000000000,"state":"active","ping":85},{"user_id":596,"name":"Beefmaster","steam_id":76561198036510331,"connected_time":1425000000000,"state":"active","ping":178},{"user_id":590,"name":"pepsibobby","steam_id":76561198853864511,"connected_time":1642000000000,"state":"active","ping":89},{"user_id":611,"name":"TallBoy","steam_id":76561198149549808,"connected_time":27000000000,"state":"active","ping":130},{"user_id":612,"name":"Hidden Phantom","steam_id":76561198115531799,"connected_time":24000000000,"state":"spawning","ping":69},{"user_id":562,"name":"Hamster Flusher","steam_id":76561198072396659,"connected_time":4604000000000,"state":"active","ping":84},{"user_id":572,"name":"Yune","steam_id":76561198039324447,"connected_time":3488000000000,"state":"spawning","ping":80},{"user_id":608,"name":"Soozy420","steam_id":76561198809074422,"connected_time":581000000000,"state":"spawning","ping":193},{"user_id":548,"name":"(¬¥-Œπ_-ÔΩÄ)","steam_id":76561198007464245,"connected_time":6341000000000,"state":"active","ping":73},{"user_id":598,"name":"Skyrim killable children mod","steam_id":76561198862836173,"connected_time":1381000000000,"state":"spawning","ping":119},{"user_id":587,"name":"Chubby Monarch","steam_id":76561198027487285,"connected_time":2523000000000,"state":"spawning","ping":83},{"user_id":533,"name":"Niykin","steam_id":76561198044779043,"connected_time":7787000000000,"state":"active","ping":81},{"user_id":599,"name":"pony girl swag","steam_id":76561198299290069,"connected_time":1380000000000,"state":"active","ping":118},{"user_id":564,"name":"Wetwork","steam_id":76561198142023828,"connected_time":4498000000000,"state":"active","ping":83},{"user_id":566,"name":"Squirtinq","steam_id":76561198171139050,"connected_time":4066000000000,"state":"active","ping":42},{"user_id":604,"name":"Aeris","steam_id":76561198287271028,"connected_time":974000000000,"state":"active","ping":65},{"user_id":607,"name":"MidGear","steam_id":76561198174167161,"connected_time":735000000000,"state":"active","ping":79},{"user_id":609,"name":"MK","steam_id":76561198044764469,"connected_time":53000000000,"state":"active","ping":67}]},{"server_id":5,"name":"Uncletopia | Frankfurt | 1 | All Maps","name_short":"frk-1","host":"frk-1.de.uncletopia.com","port":27015,"enabled":true,"region":"eu","cc":"de","latitude":50.110924,"longitude":8.682127,"reserved":0,"last_update":"0001-01-01T00:00:00Z","name_a2s":"Uncletopia | Frankfurt | 1 | All Maps","protocol":17,"map":"pl_snowycoast","folder":"tf","game":"Team Fortress","app_id":440,"player_count":0,"max_players":24,"Bots":0,"server_type":"Dedicated","server_os":"Linux","password":true,"vac":true,"version":"7757534","steam_id":85568392924469989,"keywords":["nocrits","nodmgspread","payload","uncletopia"],"game_id":440,"stv_port":27016,"stv_name":"Uncletopia | Frankfurt | 1 | All Maps | STV","players":null},{"server_id":110,"name":"Uncletopia | Frankfurt | 2 | All Maps","name_short":"frk-2","host":"frk-1.de.uncletopia.com","port":27025,"enabled":true,"region":"eu","cc":"de","latitude":50.110924,"longitude":8.682127,"reserved":0,"last_update":"0001-01-01T00:00:00Z","name_a2s":"Uncletopia | Frankfurt | 2 | All Maps","protocol":17,"map":"cp_snakewater_final1","folder":"tf","game":"Team Fortress","app_id":440,"player_count":0,"max_players":24,"Bots":0,"server_type":"Dedicated","server_os":"Linux","password":true,"vac":true,"version":"7757534","steam_id":85568392924469990,"keywords":["cp","nocrits","nodmgspread","uncletopia"],"game_id":440,"stv_port":27026,"stv_name":"Uncletopia | Frankfurt | 2 | All Maps | STV","players":null},{"server_id":308,"name":"Uncletopia | Frankfurt | 3 | All Maps","name_short":"frk-3","host":"frk-1.de.uncletopia.com","port":27035,"enabled":true,"region":"eu","cc":"de","latitude":50.110924,"longitude":8.682127,"reserved":0,"last_update":"0001-01-01T00:00:00Z","name_a2s":"Uncletopia | Frankfurt | 3 | All Maps","protocol":17,"map":"pl_swiftwater_final1","folder":"tf","game":"Team Fortress","app_id":440,"player_count":0,"max_players":24,"Bots":0,"server_type":"Dedicated","server_os":"Linux","password":true,"vac":true,"version":"7757534","steam_id":85568392924504274,"keywords":["nocrits","nodmgspread","payload","uncletopia"],"game_id":440,"stv_port":27036,"stv_name":"Uncletopia | Frankfurt | 3 | All Maps | STV","players":null},{"server_id":309,"name":"Uncletopia | Frankfurt | 4 | All Maps","name_short":"frk-4","host":"frk-1.de.uncletopia.com","port":27045,"enabled":true,"region":"eu","cc":"de","latitude":50.110924,"longitude":8.682127,"reserved":0,"last_update":"0001-01-01T00:00:00Z","name_a2s":"Uncletopia | Frankfurt | 4 | All Maps","protocol":17,"map":"koth_viaduct","folder":"tf","game":"Team Fortress","app_id":440,"player_count":0,"max_players":24,"Bots":0,"server_type":"Dedicated","server_os":"Linux","password":true,"vac":true,"version":"7757534","steam_id":85568392924504275,"keywords":["cp","nocrits","nodmgspread","uncletopia"],"game_id":440,"stv_port":27046,"stv_name":"Uncletopia | Frankfurt | 4 | All Maps | STV","players":null},{"server_id":310,"name":"Uncletopia | Frankfurt | 5 | All Maps","name_short":"frk-5","host":"frk-1.de.uncletopia.com","port":27055,"enabled":true,"region":"eu","cc":"de","latitude":50.110924,"longitude":8.682127,"reserved":0,"last_update":"0001-01-01T00:00:00Z","name_a2s":"Uncletopia | Frankfurt | 5 | All Maps","protocol":17,"map":"koth_lakeside_final","folder":"tf","game":"Team Fortress","app_id":440,"player_count":0,"max_players":24,"Bots":0,"server_type":"Dedicated","server_os":"Linux","password":true,"vac":true,"version":"7757534","steam_id":85568392924504277,"keywords":["cp","nocrits","nodmgspread","uncletopia"],"game_id":440,"stv_port":27056,"stv_name":"Uncletopia | Frankfurt | 5 | All Maps | STV","players":null},{"server_id":311,"name":"Uncletopia | Frankfurt | 6 | All Maps","name_short":"frk-6","host":"frk-1.de.uncletopia.com","port":27065,"enabled":true,"region":"eu","cc":"de","latitude":50.110924,"longitude":8.682127,"reserved":0,"last_update":"0001-01-01T00:00:00Z","name_a2s":"Uncletopia | Frankfurt | 6 | All Maps","protocol":17,"map":"pl_frontier_final","folder":"tf","game":"Team Fortress","app_id":440,"player_count":0,"max_players":24,"Bots":0,"server_type":"Dedicated","server_os":"Linux","password":true,"vac":true,"version":"7757534","steam_id":85568392924504278,"keywords":["nocrits","nodmgspread","payload","uncletopia"],"game_id":440,"stv_port":27066,"stv_name":"Uncletopia | Frankfurt | 6 | All Maps | STV","players":null},{"server_id":23,"name":"Uncletopia | Frankfurt | 7 | Stopwatch Beta","name_short":"frk-7","host":"frk-1.de.uncletopia.com","port":27075,"enabled":true,"region":"eu","cc":"de","latitude":50.110924,"longitude":8.682127,"reserved":0,"last_update":"0001-01-01T00:00:00Z","name_a2s":"Uncletopia | Frankfurt | 7 | Stopwatch Beta","protocol":17,"map":"cp_sunshine","folder":"tf","game":"Team Fortress","app_id":440,"player_count":0,"max_players":24,"Bots":0,"server_type":"Dedicated","server_os":"Linux","password":true,"vac":true,"version":"7757534","steam_id":85568392924742827,"keywords":["cp","nocrits","nodmgspread","uncletopia"],"game_id":440,"stv_port":27076,"stv_name":"Uncletopia | Frankfurt | 7 | Stopwatch Beta | STV","players":null},{"server_id":24,"name":"Uncletopia | Frankfurt | 8 | Community","name_short":"frk-8","host":"frk-1.de.uncletopia.com","port":27085,"enabled":true,"region":"eu","cc":"de","latitude":50.110924,"longitude":8.682127,"reserved":0,"last_update":"0001-01-01T00:00:00Z","name_a2s":"Uncletopia | Frankfurt | 8 | Community","protocol":17,"map":"koth_lakeside_final","folder":"tf","game":"Team Fortress","app_id":440,"player_count":0,"max_players":24,"Bots":0,"server_type":"Dedicated","server_os":"Linux","password":true,"vac":true,"version":"7757534","steam_id":85568392924742828,"keywords":["cp","nocrits","nodmgspread","uncletopia"],"game_id":440,"stv_port":27086,"stv_name":"Uncletopia | Frankfurt | 8 | Community | STV","players":null},{"server_id":202,"name":"Uncletopia | Hong Kong | 1 | All Maps","name_short":"hgk-1","host":"hgk-1.hk.uncletopia.com","port":27015,"enabled":true,"region":"asia","cc":"hk","latitude":22.302711,"longitude":114.177216,"reserved":0,"last_update":"0001-01-01T00:00:00Z","name_a2s":"Uncletopia | Hong Kong | 1 | All Maps","protocol":17,"map":"cp_process_final","folder":"tf","game":"Team Fortress","app_id":440,"player_count":14,"max_players":24,"Bots":0,"server_type":"Dedicated","server_os":"Linux","password":true,"vac":true,"version":"7757534","steam_id":85568392924494504,"keywords":["cp","nocrits","nodmgspread","uncletopia"],"game_id":440,"stv_port":27016,"stv_name":"Uncletopia | Hong Kong | 1 | All Maps | STV","players":[{"user_id":5,"name":"Newbie.(cant chat)","steam_id":76561199131526926,"connected_time":5771000000000,"state":"active","ping":78},{"user_id":37,"name":"qb","steam_id":76561198412329672,"connected_time":1661000000000,"state":"active","ping":82},{"user_id":52,"name":"be polite and be efficient","steam_id":76561199188903812,"connected_time":116000000000,"state":"active","ping":78},{"user_id":36,"name":"subasuba","steam_id":76561199474092971,"connected_time":1774000000000,"state":"active","ping":98},{"user_id":49,"name":"e","steam_id":76561199120787394,"connected_time":303000000000,"state":"active","ping":109},{"user_id":31,"name":"westover.","steam_id":76561198451007900,"connected_time":2307000000000,"state":"active","ping":99},{"user_id":51,"name":"protoguy(ÌïúÍµ≠Ïù∏ÏûÑ Ï†úÎ∞ú)","steam_id":76561199249312448,"connected_time":202000000000,"state":"active","ping":94},{"user_id":24,"name":"Is that a Subaru?","steam_id":76561198420018387,"connected_time":3326000000000,"state":"active","ping":41},{"user_id":45,"name":"LORD KIMCHI","steam_id":76561198024666371,"connected_time":798000000000,"state":"active","ping":89},{"user_id":48,"name":"ÁÖôÊµ∑ | Enkai","steam_id":76561198050460825,"connected_time":472000000000,"state":"active","ping":74},{"user_id":22,"name":"Steve","steam_id":76561198429235506,"connected_time":3479000000000,"state":"active","ping":74},{"user_id":39,"name":"Telekhine","steam_id":76561198387120618,"connected_time":1211000000000,"state":"active","ping":58},{"user_id":42,"name":"iamthenoname","steam_id":76561198982785447,"connected_time":1104000000000,"state":"active","ping":69},{"user_id":44,"name":"she's in school but it's cool","steam_id":76561199406575369,"connected_time":925000000000,"state":"active","ping":77}]},{"server_id":1,"name":"Uncletopia | Los Angeles | 1 | All Maps","name_short":"lax-1","host":"lax-1.us.uncletopia.com","port":27015,"enabled":true,"region":"us-west","cc":"us","latitude":33.94279,"longitude":-118.41004,"reserved":0,"last_update":"0001-01-01T00:00:00Z","name_a2s":"Uncletopia | Los Angeles | 1 | All Maps","protocol":17,"map":"pl_upward","folder":"tf","game":"Team Fortress","app_id":440,"player_count":24,"max_players":24,"Bots":0,"server_type":"Dedicated","server_os":"Linux","password":true,"vac":true,"version":"7757534","steam_id":85568392924469991,"keywords":["nocrits","nodmgspread","payload","uncletopia"],"game_id":440,"stv_port":27016,"stv_name":"Uncletopia | Los Angeles | 1 | All Maps | STV","players":[{"user_id":229,"name":"Mute.03","steam_id":76561199229281804,"connected_time":1847000000000,"state":"active","ping":91},{"user_id":247,"name":"Numberforty1","steam_id":76561198103653795,"connected_time":786000000000,"state":"active","ping":60},{"user_id":222,"name":"Dr. B Busta","steam_id":76561198206387303,"connected_time":2855000000000,"state":"active","ping":34},{"user_id":248,"name":"Glorious Leader Kim Jim the III","steam_id":76561198149714906,"connected_time":767000000000,"state":"active","ping":86},{"user_id":258,"name":"Bagaboned","steam_id":76561198043761335,"connected_time":361000000000,"state":"active","ping":72},{"user_id":252,"name":"Pompadour Champ","steam_id":76561198038105738,"connected_time":620000000000,"state":"active","ping":113},{"user_id":237,"name":"Nez","steam_id":76561197963109059,"connected_time":1481000000000,"state":"active","ping":64},{"user_id":253,"name":"RippedBag","steam_id":76561198345627811,"connected_time":586000000000,"state":"active","ping":61},{"user_id":254,"name":"Halfgrain","steam_id":76561199382565628,"connected_time":581000000000,"state":"active","ping":65},{"user_id":238,"name":"SOLDIER TF2","steam_id":76561198203170652,"connected_time":1373000000000,"state":"active","ping":92},{"user_id":246,"name":"Rose","steam_id":76561198955581861,"connected_time":827000000000,"state":"active","ping":60},{"user_id":216,"name":"Thomas","steam_id":76561198015386957,"connected_time":3920000000000,"state":"active","ping":92},{"user_id":249,"name":"dr_capp3r","steam_id":76561199376097329,"connected_time":758000000000,"state":"active","ping":64},{"user_id":218,"name":"Balengu Deez","steam_id":76561198217680027,"connected_time":3788000000000,"state":"active","ping":86},{"user_id":256,"name":"Bomb Squirtle‚Ñ¢","steam_id":76561197998931145,"connected_time":505000000000,"state":"active","ping":128},{"user_id":217,"name":"YoungKnight","steam_id":76561198958772904,"connected_time":3907000000000,"state":"active","ping":80},{"user_id":257,"name":"neonblack","steam_id":76561198060316801,"connected_time":374000000000,"state":"active","ping":83},{"user_id":259,"name":"the gamer","steam_id":76561198334059206,"connected_time":357000000000,"state":"active","ping":57},{"user_id":251,"name":"LesserAce","steam_id":76561198153258132,"connected_time":636000000000,"state":"active","ping":94},{"user_id":214,"name":"WeedleDeedle","steam_id":76561198197088079,"connected_time":3947000000000,"state":"active","ping":76},{"user_id":197,"name":"HeroOfTime","steam_id":76561199096218001,"connected_time":4810000000000,"state":"active","ping":54},{"user_id":235,"name":"taishang","steam_id":76561198065328284,"connected_time":1692000000000,"state":"active","ping":45},{"user_id":236,"name":"Kasm","steam_id":76561198151165548,"connected_time":1669000000000,"state":"active","ping":30},{"user_id":241,"name":"kab789","steam_id":76561198069842202,"connected_time":1170000000000,"state":"active","ping":108}]},{"server_id":112,"name":"Uncletopia | Los Angeles | 2 | All Maps","name_short":"lax-2","host":"lax-1.us.uncletopia.com","port":27025,"enabled":true,"region":"us-west","cc":"us","latitude":33.94279,"longitude":-118.41004,"reserved":0,"last_update":"0001-01-01T00:00:00Z","name_a2s":"Uncletopia | Los Angeles | 2 | All Maps","protocol":17,"map":"pl_badwater","folder":"tf","game":"Team Fortress","app_id":440,"player_count":24,"max_players":24,"Bots":0,"server_type":"Dedicated","server_os":"Linux","password":true,"vac":true,"version":"7757534","steam_id":85568392924469992,"keywords":["nocrits","nodmgspread","payload","uncletopia"],"game_id":440,"stv_port":27026,"stv_name":"Uncletopia | Los Angeles | 2 | All Maps | STV","players":[{"user_id":574,"name":"xXx420YoloSwaggins69xXx","steam_id":76561198054889312,"connected_time":437000000000,"state":"active","ping":98},{"user_id":575,"name":"Scoliosis King","steam_id":76561199143329892,"connected_time":401000000000,"state":"active","ping":79},{"user_id":557,"name":"Batso","steam_id":76561198106589452,"connected_time":2281000000000,"state":"active","ping":48},{"user_id":537,"name":"markie","steam_id":76561198170206590,"connected_time":2946000000000,"state":"active","ping":153},{"user_id":417,"name":"wrist game dumbin","steam_id":76561198247984828,"connected_time":4921000000000,"state":"active","ping":49},{"user_id":418,"name":"goon refinery","steam_id":76561198166781089,"connected_time":4918000000000,"state":"active","ping":86},{"user_id":576,"name":"cs_assault fan","steam_id":76561198013595716,"connected_time":395000000000,"state":"active","ping":71},{"user_id":565,"name":"Cetus","steam_id":76561198070315471,"connected_time":1423000000000,"state":"active","ping":129},{"user_id":558,"name":"666420666","steam_id":76561197977974644,"connected_time":2255000000000,"state":"active","ping":85},{"user_id":572,"name":"avesarchive","steam_id":76561199476779708,"connected_time":928000000000,"state":"active","ping":48},{"user_id":463,"name":"Good 'ol Eggs Benedict","steam_id":76561198981570921,"connected_time":4142000000000,"state":"active","ping":85},{"user_id":560,"name":"mentos14","steam_id":76561198097993629,"connected_time":2247000000000,"state":"active","ping":54},{"user_id":573,"name":"LogicalFurret","steam_id":76561198350604657,"connected_time":516000000000,"state":"active","ping":45},{"user_id":533,"name":"Sus Face","steam_id":76561198303160527,"connected_time":3038000000000,"state":"active","ping":71},{"user_id":564,"name":"Pasta Enjoyer","steam_id":76561198189910235,"connected_time":1927000000000,"state":"active","ping":57},{"user_id":577,"name":"ed","steam_id":76561198080475712,"connected_time":379000000000,"state":"active","ping":55},{"user_id":543,"name":"PunishedCrab","steam_id":76561198079650017,"connected_time":2794000000000,"state":"active","ping":57},{"user_id":570,"name":"O_x","steam_id":76561198289696924,"connected_time":1175000000000,"state":"active","ping":51},{"user_id":562,"name":"Burton","steam_id":76561198120798402,"connected_time":2238000000000,"state":"active","ping":45},{"user_id":517,"name":"Just a Tree","steam_id":76561198231561020,"connected_time":3253000000000,"state":"active","ping":59},{"user_id":496,"name":"Moonshine Man","steam_id":76561198088010073,"connected_time":3797000000000,"state":"active","ping":128},{"user_id":568,"name":"Big G","steam_id":76561198067496197,"connected_time":1352000000000,"state":"active","ping":105},{"user_id":578,"name":"[_Dr.Scythe_]","steam_id":76561198845245858,"connected_time":369000000000,"state":"active","ping":95},{"user_id":563,"name":"will","steam_id":76561198134923092,"connected_time":2233000000000,"state":"active","ping":46}]},{"server_id":324,"name":"Uncletopia | Los Angeles | 3 | All Maps","name_short":"lax-3","host":"lax-1.us.uncletopia.com","port":27035,"enabled":true,"region":"us-west","cc":"us","latitude":33.94279,"longitude":-118.41004,"reserved":0,"last_update":"0001-01-01T00:00:00Z","name_a2s":"Uncletopia | Los Angeles | 3 | All Maps","protocol":17,"map":"cp_dustbowl","folder":"tf","game":"Team Fortress","app_id":440,"player_count":20,"max_players":24,"Bots":0,"server_type":"Dedicated","server_os":"Linux","password":true,"vac":true,"version":"7757534","steam_id":85568392924510198,"keywords":["cp","nocrits","nodmgspread","uncletopia"],"game_id":440,"stv_port":27036,"stv_name":"Uncletopia | Los Angeles | 3 | All Maps | STV","players":[{"user_id":169,"name":"momus","steam_id":76561198966979196,"connected_time":2795000000000,"state":"active","ping":58},{"user_id":160,"name":"bigman1","steam_id":76561198050225055,"connected_time":3225000000000,"state":"active","ping":47},{"user_id":196,"name":"Ghwhaine","steam_id":76561199045414702,"connected_time":74000000000,"state":"active","ping":88},{"user_id":195,"name":"Johno","steam_id":76561199231993886,"connected_time":79000000000,"state":"active","ping":52},{"user_id":176,"name":"Toasty","steam_id":76561198019270104,"connected_time":1932000000000,"state":"active","ping":75},{"user_id":157,"name":"Andreshatesmondays","steam_id":76561198889349797,"connected_time":3793000000000,"state":"active","ping":53},{"user_id":143,"name":"Rodentmancer","steam_id":76561198011675372,"connected_time":4558000000000,"state":"active","ping":83},{"user_id":171,"name":"HideOnTate","steam_id":76561198209880837,"connected_time":2786000000000,"state":"active","ping":78},{"user_id":187,"name":"JamesSetRadio","steam_id":76561198444320809,"connected_time":150000000000,"state":"active","ping":178},{"user_id":197,"name":"YASAI JUICE","steam_id":76561198131971992,"connected_time":57000000000,"state":"active","ping":90},{"user_id":175,"name":"kevin shields #1 fan","steam_id":76561197995200743,"connected_time":1946000000000,"state":"active","ping":39},{"user_id":183,"name":"ronald","steam_id":76561197960691622,"connected_time":942000000000,"state":"active","ping":61},{"user_id":159,"name":"MinusSoup918","steam_id":76561198060902773,"connected_time":3264000000000,"state":"active","ping":67},{"user_id":198,"name":"Nobody","steam_id":76561199352089107,"connected_time":13000000000,"state":"spawning","ping":82},{"user_id":188,"name":"‡∂û","steam_id":76561197973805634,"connected_time":150000000000,"state":"active","ping":64},{"user_id":164,"name":"nothowon","steam_id":76561198937601452,"connected_time":3130000000000,"state":"active","ping":106},{"user_id":177,"name":"Interrobang","steam_id":76561198385044529,"connected_time":1639000000000,"state":"active","ping":96},{"user_id":186,"name":"Natalie","steam_id":76561198048848289,"connected_time":163000000000,"state":"active","ping":59},{"user_id":180,"name":"Npenplz","steam_id":76561197999605423,"connected_time":1537000000000,"state":"active","ping":55},{"user_id":100,"name":"ohton","steam_id":76561199033233448,"connected_time":9077000000000,"state":"active","ping":47}]},{"server_id":25,"name":"Uncletopia | Los Angeles | 4 | Stopwatch Beta","name_short":"lax-4","host":"lax-1.us.uncletopia.com","port":27045,"enabled":true,"region":"us-west","cc":"us","latitude":33.94279,"longitude":-118.41004,"reserved":0,"last_update":"0001-01-01T00:00:00Z","name_a2s":"Uncletopia | Los Angeles | 4 | Stopwatch Beta","protocol":17,"map":"pl_swiftwater_final1","folder":"tf","game":"Team Fortress","app_id":440,"player_count":0,"max_players":24,"Bots":0,"server_type":"Dedicated","server_os":"Linux","password":true,"vac":true,"version":"7757534","steam_id":85568392924510199,"keywords":["nocrits","nodmgspread","payload","uncletopia"],"game_id":440,"stv_port":27046,"stv_name":"Uncletopia | Los Angeles | 4 | Stopwatch Beta | STV","players":null},{"server_id":11,"name":"Uncletopia | London | 1 | All Maps","name_short":"lon-1","host":"lon-1.uk.uncletopia.com","port":27015,"enabled":true,"region":"eu","cc":"gb","latitude":51.509865,"longitude":-0.118092,"reserved":0,"last_update":"0001-01-01T00:00:00Z","name_a2s":"Uncletopia | London | 1 | All Maps","protocol":17,"map":"pl_swiftwater_final1","folder":"tf","game":"Team Fortress","app_id":440,"player_count":0,"max_players":24,"Bots":0,"server_type":"Dedicated","server_os":"Linux","password":true,"vac":true,"version":"7757534","steam_id":85568392924367362,"keywords":["nocrits","nodmgspread","payload","uncletopia"],"game_id":440,"stv_port":27016,"stv_name":"Uncletopia | London | 1 | All Maps | STV","players":null},{"server_id":114,"name":"Uncletopia | London | 2 | All Maps","name_short":"lon-2","host":"lon-1.uk.uncletopia.com","port":27025,"enabled":true,"region":"eu","cc":"gb","latitude":51.509865,"longitude":-0.118092,"reserved":0,"last_update":"0001-01-01T00:00:00Z","name_a2s":"Uncletopia | London | 2 | All Maps","protocol":17,"map":"koth_highpass","folder":"tf","game":"Team Fortress","app_id":440,"player_count":0,"max_players":24,"Bots":0,"server_type":"Dedicated","server_os":"Linux","password":true,"vac":true,"version":"7757534","steam_id":85568392924470941,"keywords":["cp","nocrits","nodmgspread","uncletopia"],"game_id":440,"stv_port":27026,"stv_name":"Uncletopia | London | 2 | All Maps | STV","players":null},{"server_id":320,"name":"Uncletopia | London | 3 | All Maps","name_short":"lon-3","host":"lon-1.uk.uncletopia.com","port":27035,"enabled":true,"region":"eu","cc":"gb","latitude":51.509865,"longitude":-0.118092,"reserved":0,"last_update":"0001-01-01T00:00:00Z","name_a2s":"Uncletopia | London | 3 | All Maps","protocol":17,"map":"cp_dustbowl","folder":"tf","game":"Team Fortress","app_id":440,"player_count":0,"max_players":24,"Bots":0,"server_type":"Dedicated","server_os":"Linux","password":true,"vac":true,"version":"7757534","steam_id":85568392924510192,"keywords":["cp","nocrits","nodmgspread","uncletopia"],"game_id":440,"stv_port":27036,"stv_name":"Uncletopia | London | 3 | All Maps | STV","players":null},{"server_id":321,"name":"Uncletopia | London | 4 | All Maps","name_short":"lon-4","host":"lon-1.uk.uncletopia.com","port":27045,"enabled":true,"region":"eu","cc":"gb","latitude":51.509865,"longitude":-0.118092,"reserved":0,"last_update":"0001-01-01T00:00:00Z","name_a2s":"Uncletopia | London | 4 | All Maps","protocol":17,"map":"koth_lakeside_final","folder":"tf","game":"Team Fortress","app_id":440,"player_count":0,"max_players":24,"Bots":0,"server_type":"Dedicated","server_os":"Linux","password":true,"vac":true,"version":"7757534","steam_id":85568392924510193,"keywords":["cp","nocrits","nodmgspread","uncletopia"],"game_id":440,"stv_port":27046,"stv_name":"Uncletopia | London | 4 | All Maps | STV","players":null},{"server_id":21,"name":"Uncletopia | London | 5 | All Maps","name_short":"lon-5","host":"lon-1.uk.uncletopia.com","port":27055,"enabled":true,"region":"eu","cc":"gb","latitude":51.509865,"longitude":-0.118092,"reserved":0,"last_update":"0001-01-01T00:00:00Z","name_a2s":"Uncletopia | London | 5 | All Maps","protocol":17,"map":"koth_viaduct","folder":"tf","game":"Team Fortress","app_id":440,"player_count":0,"max_players":24,"Bots":0,"server_type":"Dedicated","server_os":"Linux","password":true,"vac":true,"version":"7757534","steam_id":85568392924742829,"keywords":["cp","nocrits","nodmgspread","uncletopia"],"game_id":440,"stv_port":27056,"stv_name":"Uncletopia | London | 5 | All Maps | STV","players":null},{"server_id":22,"name":"Uncletopia | London | 6 | All Maps","name_short":"lon-6","host":"lon-1.uk.uncletopia.com","port":27065,"enabled":true,"region":"eu","cc":"gb","latitude":51.509865,"longitude":-0.118092,"reserved":0,"last_update":"0001-01-01T00:00:00Z","name_a2s":"Uncletopia | London | 6 | All Maps","protocol":17,"map":"koth_highpass","folder":"tf","game":"Team Fortress","app_id":440,"player_count":0,"max_players":24,"Bots":0,"server_type":"Dedicated","server_os":"Linux","password":true,"vac":true,"version":"7757534","steam_id":85568392924742830,"keywords":["cp","nocrits","nodmgspread","uncletopia"],"game_id":440,"stv_port":27066,"stv_name":"Uncletopia | London | 6 | All Maps | STV","players":null},{"server_id":40,"name":"Uncletopia | London | 7 | No Payload","name_short":"lon-7","host":"lon-1.uk.uncletopia.com","port":27075,"enabled":true,"region":"eu","cc":"gb","latitude":51.509865,"longitude":-0.118092,"reserved":0,"last_update":"0001-01-01T00:00:00Z","name_a2s":"Uncletopia | London | 7 | No Payload","protocol":17,"map":"plr_nightfall_final","folder":"tf","game":"Team Fortress","app_id":440,"player_count":0,"max_players":24,"Bots":0,"server_type":"Dedicated","server_os":"Linux","password":true,"vac":true,"version":"7757534","steam_id":85568392924964314,"keywords":["nocrits","nodmgspread","payload","uncletopia"],"game_id":440,"stv_port":27076,"stv_name":"Uncletopia | London | 7 | No Payload | STV","players":null},{"server_id":41,"name":"Uncletopia | London | 8 | Community","name_short":"lon-8","host":"lon-1.uk.uncletopia.com","port":27085,"enabled":true,"region":"eu","cc":"gb","latitude":51.509865,"longitude":-0.118092,"reserved":0,"last_update":"0001-01-01T00:00:00Z","name_a2s":"Uncletopia | London | 8 | Community","protocol":17,"map":"workshop/koth_ramjam_rc1.ugc459778887","folder":"tf","game":"Team Fortress","app_id":440,"player_count":0,"max_players":24,"Bots":0,"server_type":"Dedicated","server_os":"Linux","password":true,"vac":true,"version":"7757534","steam_id":85568392924964315,"keywords":["cp","nocrits","nodmgspread","uncletopia"],"game_id":440,"stv_port":27086,"stv_name":"Uncletopia | London | 8 | Community | STV","players":null},{"server_id":300,"name":"Uncletopia | Montr√©al | 1 | All Maps","name_short":"mtl-1","host":"mtl-1.ca.uncletopia.com","port":27015,"enabled":true,"region":"us-east","cc":"ca","latitude":45.50889,"longitude":-73.56167,"reserved":0,"last_update":"0001-01-01T00:00:00Z","name_a2s":"Uncletopia | Montr√©al | 1 | All Maps","protocol":17,"map":"koth_cascade","folder":"tf","game":"Team Fortress","app_id":440,"player_count":0,"max_players":24,"Bots":0,"server_type":"Dedicated","server_os":"Linux","password":true,"vac":true,"version":"7757534","steam_id":85568392924500087,"keywords":["cp","nocrits","nodmgspread","uncletopia"],"game_id":440,"stv_port":27016,"stv_name":"Uncletopia | Montr√©al | 1 | All Maps | STV","players":null},{"server_id":301,"name":"Uncletopia | Montr√©al | 2 | All Maps","name_short":"mtl-2","host":"mtl-1.ca.uncletopia.com","port":27025,"enabled":true,"region":"us-east","cc":"ca","latitude":45.50889,"longitude":-73.56167,"reserved":0,"last_update":"0001-01-01T00:00:00Z","name_a2s":"Uncletopia | Montr√©al | 2 | All Maps","protocol":17,"map":"pl_snowycoast","folder":"tf","game":"Team Fortress","app_id":440,"player_count":0,"max_players":24,"Bots":0,"server_type":"Dedicated","server_os":"Linux","password":true,"vac":true,"version":"7757534","steam_id":85568392924500088,"keywords":["nocrits","nodmgspread","payload","uncletopia"],"game_id":440,"stv_port":27026,"stv_name":"Uncletopia | Montr√©al | 2 | All Maps | STV","players":null},{"server_id":302,"name":"Uncletopia | Montr√©al | 3 | All Maps","name_short":"mtl-3","host":"mtl-1.ca.uncletopia.com","port":27035,"enabled":true,"region":"us-east","cc":"ca","latitude":45.50889,"longitude":-73.56167,"reserved":0,"last_update":"0001-01-01T00:00:00Z","name_a2s":"Uncletopia | Montr√©al | 3 | All Maps","protocol":17,"map":"pl_swiftwater_final1","folder":"tf","game":"Team Fortress","app_id":440,"player_count":0,"max_players":24,"Bots":0,"server_type":"Dedicated","server_os":"Linux","password":true,"vac":true,"version":"7757534","steam_id":85568392924500089,"keywords":["nocrits","nodmgspread","payload","uncletopia"],"game_id":440,"stv_port":27036,"stv_name":"Uncletopia | Montr√©al | 3 | All Maps | STV","players":null},{"server_id":303,"name":"Uncletopia | Montr√©al | 4 | No Payload","name_short":"mtl-4","host":"mtl-1.ca.uncletopia.com","port":27045,"enabled":true,"region":"us-east","cc":"ca","latitude":45.50889,"longitude":-73.56167,"reserved":0,"last_update":"0001-01-01T00:00:00Z","name_a2s":"Uncletopia | Montr√©al | 4 | No Payload","protocol":17,"map":"plr_hightower","folder":"tf","game":"Team Fortress","app_id":440,"player_count":0,"max_players":24,"Bots":0,"server_type":"Dedicated","server_os":"Linux","password":true,"vac":true,"version":"7757534","steam_id":85568392924500090,"keywords":["nocrits","nodmgspread","payload","uncletopia"],"game_id":440,"stv_port":27046,"stv_name":"Uncletopia | Montr√©al | 4 | No Payload | STV","players":null},{"server_id":13,"name":"Uncletopia | New York City | 1 | All Maps","name_short":"nyc-1","host":"nyc-1.us.uncletopia.com","port":27015,"enabled":true,"region":"us-east","cc":"us","latitude":40.73061,"longitude":-73.93524,"reserved":0,"last_update":"0001-01-01T00:00:00Z","name_a2s":"Uncletopia | New York City | 1 | All Maps","protocol":17,"map":"pl_pier","folder":"tf","game":"Team Fortress","app_id":440,"player_count":24,"max_players":24,"Bots":0,"server_type":"Dedicated","server_os":"Linux","password":true,"vac":true,"version":"7757534","steam_id":85568392924469993,"keywords":["nocrits","nodmgspread","payload","uncletopia"],"game_id":440,"stv_port":27016,"stv_name":"Uncletopia | New York City | 1 | All Maps | STV","players":[{"user_id":730,"name":"DerrickHenryFan2012","steam_id":76561198254452687,"connected_time":310000000000,"state":"active","ping":76},{"user_id":731,"name":"god's drunkest driver","steam_id":76561198212115640,"connected_time":275000000000,"state":"active","ping":114},{"user_id":705,"name":"Pouya","steam_id":76561198060287489,"connected_time":2135000000000,"state":"active","ping":82},{"user_id":732,"name":"Volkan","steam_id":76561198401314312,"connected_time":270000000000,"state":"active","ping":127},{"user_id":736,"name":"just jazz","steam_id":76561198010637797,"connected_time":214000000000,"state":"active","ping":89},{"user_id":734,"name":"Jam Jams","steam_id":76561198128811267,"connected_time":232000000000,"state":"active","ping":100},{"user_id":693,"name":"Mogori","steam_id":76561198074060650,"connected_time":2971000000000,"state":"active","ping":63},{"user_id":725,"name":"M.L.JEW","steam_id":76561198997375055,"connected_time":1178000000000,"state":"active","ping":75},{"user_id":694,"name":"Elegant Metal","steam_id":76561198047118561,"connected_time":2963000000000,"state":"active","ping":116},{"user_id":687,"name":"Ivy","steam_id":76561198047758442,"connected_time":3450000000000,"state":"active","ping":116},{"user_id":685,"name":"great1photo","steam_id":76561198085481933,"connected_time":3526000000000,"state":"active","ping":76},{"user_id":715,"name":"Aesthetic Shrine","steam_id":76561198116072862,"connected_time":1508000000000,"state":"active","ping":146},{"user_id":717,"name":"test","steam_id":76561198197388678,"connected_time":1431000000000,"state":"active","ping":75},{"user_id":656,"name":"Goldensliv","steam_id":76561198161673891,"connected_time":5513000000000,"state":"active","ping":119},{"user_id":695,"name":"jinjo2200","steam_id":76561198097989147,"connected_time":2960000000000,"state":"active","ping":62},{"user_id":737,"name":"O Dog","steam_id":76561198133498912,"connected_time":206000000000,"state":"active","ping":116},{"user_id":735,"name":"Aequalis747","steam_id":76561199456589841,"connected_time":228000000000,"state":"active","ping":134},{"user_id":719,"name":"snoogy woogy buggy","steam_id":76561198894676484,"connected_time":1419000000000,"state":"active","ping":105},{"user_id":740,"name":"Vimh","steam_id":76561198384938589,"connected_time":154000000000,"state":"active","ping":105},{"user_id":738,"name":"ùìπùìØùìØ hops_a_pops","steam_id":76561198210902109,"connected_time":199000000000,"state":"active","ping":60},{"user_id":739,"name":"IRON_LIZARD","steam_id":76561198015960205,"connected_time":164000000000,"state":"active","ping":60},{"user_id":655,"name":"Sprit ‚ô•","steam_id":76561198268780781,"connected_time":5555000000000,"state":"active","ping":59},{"user_id":724,"name":"GHOST RIDER/HEAT PUSHER","steam_id":76561198049405872,"connected_time":1210000000000,"state":"active","ping":120},{"user_id":615,"name":"bash -lc ./asshat.sh","steam_id":76561198004584315,"connected_time":8030000000000,"state":"active","ping":93}]},{"server_id":14,"name":"Uncletopia | New York City | 2 | All Maps","name_short":"nyc-2","host":"nyc-1.us.uncletopia.com","port":27025,"enabled":true,"region":"us-east","cc":"us","latitude":40.73061,"longitude":-73.93524,"reserved":0,"last_update":"0001-01-01T00:00:00Z","name_a2s":"Uncletopia | New York City | 2 | All Maps","protocol":17,"map":"pl_frontier_final","folder":"tf","game":"Team Fortress","app_id":440,"player_count":24,"max_players":24,"Bots":0,"server_type":"Dedicated","server_os":"Linux","password":true,"vac":true,"version":"7757534","steam_id":85568392924469994,"keywords":["nocrits","nodmgspread","payload","uncletopia"],"game_id":440,"stv_port":27026,"stv_name":"Uncletopia | New York City | 2 | All Maps | STV","players":[{"user_id":765,"name":"--_Cook_--","steam_id":76561198080855748,"connected_time":1999000000000,"state":"active","ping":55},{"user_id":789,"name":"Warg","steam_id":76561198040868420,"connected_time":490000000000,"state":"active","ping":83},{"user_id":779,"name":"Cletus_Gaming88","steam_id":76561198297791570,"connected_time":1684000000000,"state":"active","ping":78},{"user_id":766,"name":"trappy (soggy)","steam_id":76561198402801140,"connected_time":1984000000000,"state":"active","ping":89},{"user_id":752,"name":"daemon","steam_id":76561198001541433,"connected_time":3214000000000,"state":"active","ping":65},{"user_id":744,"name":"SIGMA [BS]","steam_id":76561197962604879,"connected_time":3859000000000,"state":"active","ping":49},{"user_id":767,"name":"Vladikr1","steam_id":76561198401495362,"connected_time":1964000000000,"state":"active","ping":82},{"user_id":784,"name":"Lore","steam_id":76561198098407538,"connected_time":1139000000000,"state":"active","ping":73},{"user_id":762,"name":"apathy","steam_id":76561198277163301,"connected_time":2580000000000,"state":"active","ping":78},{"user_id":770,"name":"Shadow master michael","steam_id":76561198070770369,"connected_time":1742000000000,"state":"active","ping":59},{"user_id":771,"name":"4evr","steam_id":76561198064565304,"connected_time":1733000000000,"state":"active","ping":73},{"user_id":772,"name":"bauhaus blast","steam_id":76561198057561955,"connected_time":1718000000000,"state":"active","ping":54},{"user_id":760,"name":"Mr. Sauce","steam_id":76561198055512324,"connected_time":2929000000000,"state":"active","ping":58},{"user_id":791,"name":"Rami #SaveTF2","steam_id":76561198371359190,"connected_time":286000000000,"state":"active","ping":107},{"user_id":755,"name":"Gustavo Fring","steam_id":76561198132807405,"connected_time":3153000000000,"state":"active","ping":81},{"user_id":782,"name":"NoShen","steam_id":76561198147434663,"connected_time":1157000000000,"state":"active","ping":74},{"user_id":774,"name":"shawty say i smell","steam_id":76561198059560324,"connected_time":1710000000000,"state":"active","ping":68},{"user_id":780,"name":"Etna","steam_id":76561198055810858,"connected_time":1407000000000,"state":"active","ping":112},{"user_id":795,"name":"-Wilef","steam_id":76561198066091247,"connected_time":67000000000,"state":"active","ping":60},{"user_id":776,"name":"Cat doin laundry","steam_id":76561198063895852,"connected_time":1706000000000,"state":"active","ping":75},{"user_id":777,"name":"UBCS Recruit Muffin","steam_id":76561198021051925,"connected_time":1696000000000,"state":"active","ping":60},{"user_id":788,"name":"Xx-CostcoShopper-xX","steam_id":76561198066429444,"connected_time":616000000000,"state":"active","ping":56},{"user_id":794,"name":"craxyt","steam_id":76561198050192689,"connected_time":95000000000,"state":"active","ping":119},{"user_id":786,"name":"Bread Makes you Fat","steam_id":76561198985126532,"connected_time":1063000000000,"state":"active","ping":74}]},{"server_id":15,"name":"Uncletopia | New York City | 3 | Stopwatch Beta","name_short":"nyc-3","host":"nyc-1.us.uncletopia.com","port":27035,"enabled":true,"region":"us-east","cc":"us","latitude":40.73061,"longitude":-73.93524,"reserved":0,"last_update":"0001-01-01T00:00:00Z","name_a2s":"Uncletopia | New York City | 3 | Stopwatch Beta","protocol":17,"map":"workshop/pl_summercoast_rc8e.ugc1761528829","folder":"tf","game":"Team Fortress","app_id":440,"player_count":0,"max_players":24,"Bots":0,"server_type":"Dedicated","server_os":"Linux","password":true,"vac":true,"version":"7757534","steam_id":85568392924742820,"keywords":["nocrits","nodmgspread","payload","uncletopia"],"game_id":440,"stv_port":27036,"stv_name":"Uncletopia | New York City | 3 | Stopwatch Beta | STV","players":null},{"server_id":16,"name":"Uncletopia | New York City | 4 | Community","name_short":"nyc-4","host":"nyc-1.us.uncletopia.com","port":27045,"enabled":true,"region":"us-east","cc":"us","latitude":40.73061,"longitude":-73.93524,"reserved":0,"last_update":"0001-01-01T00:00:00Z","name_a2s":"Uncletopia | New York City | 4 | Community","protocol":17,"map":"workshop/pl_barnblitz_pro7.ugc582280235","folder":"tf","game":"Team Fortress","app_id":440,"player_count":0,"max_players":24,"Bots":0,"server_type":"Dedicated","server_os":"Linux","password":true,"vac":true,"version":"7757534","steam_id":85568392924742821,"keywords":["nocrits","nodmgspread","payload","uncletopia"],"game_id":440,"stv_port":27046,"stv_name":"Uncletopia | New York City | 4 | Community | STV","players":null},{"server_id":142,"name":"Uncletopia | S√£o Paulo | 1 | All Maps","name_short":"sao-1","host":"sao-1.br.uncletopia.com","port":27015,"enabled":true,"region":"sa","cc":"br","latitude":-23.533773,"longitude":-46.62529,"reserved":0,"last_update":"0001-01-01T00:00:00Z","name_a2s":"Uncletopia | S√£o Paulo | 1 | All Maps","protocol":17,"map":"koth_viaduct","folder":"tf","game":"Team Fortress","app_id":440,"player_count":0,"max_players":24,"Bots":0,"server_type":"Dedicated","server_os":"Linux","password":true,"vac":true,"version":"7757534","steam_id":85568392924469996,"keywords":["cp","nocrits","nodmgspread","uncletopia"],"game_id":440,"stv_port":27016,"stv_name":"Uncletopia | S√£o Paulo | 1 | All Maps | STV","players":null},{"server_id":143,"name":"Uncletopia | S√£o Paulo | 2 | All Maps","name_short":"sao-2","host":"sao-2.br.uncletopia.com","port":27015,"enabled":true,"region":"sa","cc":"br","latitude":-23.533773,"longitude":-46.62529,"reserved":0,"last_update":"0001-01-01T00:00:00Z","name_a2s":"Uncletopia | S√£o Paulo | 2 | All Maps","protocol":17,"map":"pl_swiftwater_final1","folder":"tf","game":"Team Fortress","app_id":440,"player_count":0,"max_players":24,"Bots":0,"server_type":"Dedicated","server_os":"Linux","password":true,"vac":true,"version":"7757534","steam_id":85568392924485349,"keywords":["nocrits","nodmgspread","payload","uncletopia"],"game_id":440,"stv_port":27016,"stv_name":"Uncletopia | S√£o Paulo | 2 | All Maps | STV","players":null},{"server_id":7,"name":"Uncletopia | Seattle | 1 | All Maps","name_short":"sea-1","host":"sea-1.us.uncletopia.com","port":27015,"enabled":true,"region":"us-west","cc":"us","latitude":47.608013,"longitude":-122.33517,"reserved":0,"last_update":"0001-01-01T00:00:00Z","name_a2s":"Uncletopia | Seattle | 1 | All Maps","protocol":17,"map":"pl_upward","folder":"tf","game":"Team Fortress","app_id":440,"player_count":24,"max_players":24,"Bots":0,"server_type":"Dedicated","server_os":"Linux","password":true,"vac":true,"version":"7757534","steam_id":85568392924469997,"keywords":["nocrits","nodmgspread","payload","uncletopia"],"game_id":440,"stv_port":27016,"stv_name":"Uncletopia | Seattle | 1 | All Maps | STV","players":[{"user_id":747,"name":"jole","steam_id":76561198037292232,"connected_time":1177000000000,"state":"active","ping":125},{"user_id":752,"name":"Dirt Mammal","steam_id":76561198040781653,"connected_time":714000000000,"state":"active","ping":57},{"user_id":703,"name":"dust | she/it","steam_id":76561198045218909,"connected_time":4380000000000,"state":"active","ping":41},{"user_id":767,"name":"Boxxy","steam_id":76561198137230635,"connected_time":57000000000,"state":"active","ping":63},{"user_id":710,"name":"=Silver=","steam_id":76561198292307127,"connected_time":3822000000000,"state":"active","ping":64},{"user_id":768,"name":"Clump","steam_id":76561198049690860,"connected_time":27000000000,"state":"active","ping":106},{"user_id":731,"name":"amby","steam_id":76561198143569935,"connected_time":2151000000000,"state":"active","ping":76},{"user_id":728,"name":"Hassium","steam_id":76561198162541373,"connected_time":2504000000000,"state":"active","ping":56},{"user_id":735,"name":"Mengle","steam_id":76561198001953684,"connected_time":2040000000000,"state":"active","ping":110},{"user_id":762,"name":"Username","steam_id":76561198855586261,"connected_time":283000000000,"state":"active","ping":64},{"user_id":755,"name":"big booty birtha","steam_id":76561198996674933,"connected_time":579000000000,"state":"active","ping":58},{"user_id":749,"name":"soup","steam_id":76561198043209046,"connected_time":989000000000,"state":"active","ping":78},{"user_id":708,"name":"EzPzJapanezy","steam_id":76561198014194723,"connected_time":4200000000000,"state":"active","ping":58},{"user_id":737,"name":"General Fisticuffs","steam_id":76561198255721392,"connected_time":2022000000000,"state":"active","ping":108},{"user_id":745,"name":"tender mike","steam_id":76561198058821622,"connected_time":1415000000000,"state":"active","ping":90},{"user_id":739,"name":"Jovo","steam_id":76561197993265970,"connected_time":2005000000000,"state":"active","ping":37},{"user_id":763,"name":"der","steam_id":76561198060762287,"connected_time":283000000000,"state":"active","ping":54},{"user_id":741,"name":"digitigrade legs son.","steam_id":76561199173064830,"connected_time":1983000000000,"state":"active","ping":77},{"user_id":764,"name":"Luca","steam_id":76561198125087140,"connected_time":281000000000,"state":"active","ping":50},{"user_id":751,"name":"kindred enjoyer","steam_id":76561198256732090,"connected_time":787000000000,"state":"active","ping":41},{"user_id":760,"name":"TheBudderMan","steam_id":76561198282348324,"connected_time":300000000000,"state":"active","ping":35},{"user_id":766,"name":"Cha' Brah","steam_id":76561197980385816,"connected_time":75000000000,"state":"active","ping":54},{"user_id":743,"name":"fridge","steam_id":76561199328301077,"connected_time":1957000000000,"state":"active","ping":106},{"user_id":754,"name":"joe rippa","steam_id":76561198170402666,"connected_time":713000000000,"state":"active","ping":70}]},{"server_id":119,"name":"Uncletopia | Seattle | 2 | All Maps","name_short":"sea-2","host":"sea-1.us.uncletopia.com","port":27025,"enabled":true,"region":"us-west","cc":"us","latitude":47.608013,"longitude":-122.33517,"reserved":0,"last_update":"0001-01-01T00:00:00Z","name_a2s":"Uncletopia | Seattle | 2 | All Maps","protocol":17,"map":"pl_barnblitz","folder":"tf","game":"Team Fortress","app_id":440,"player_count":24,"max_players":24,"Bots":0,"server_type":"Dedicated","server_os":"Linux","password":true,"vac":true,"version":"7757534","steam_id":85568392924469998,"keywords":["nocrits","nodmgspread","payload","uncletopia"],"game_id":440,"stv_port":27026,"stv_name":"Uncletopia | Seattle | 2 | All Maps | STV","players":[{"user_id":462,"name":"DoctorHa","steam_id":76561198044026008,"connected_time":11825000000000,"state":"active","ping":97},{"user_id":303,"name":"liftin'","steam_id":76561199089515791,"connected_time":25116000000000,"state":"active","ping":77},{"user_id":710,"name":"mudunit","steam_id":76561198811544015,"connected_time":803000000000,"state":"active","ping":72},{"user_id":678,"name":"darktheif54","steam_id":76561198043650119,"connected_time":3444000000000,"state":"active","ping":92},{"user_id":644,"name":"Agent86","steam_id":76561198046794593,"connected_time":5622000000000,"state":"active","ping":143},{"user_id":702,"name":"chrome 2008 (she/they)","steam_id":76561198321277216,"connected_time":1819000000000,"state":"active","ping":72},{"user_id":691,"name":"Fernhat","steam_id":76561198025369016,"connected_time":2943000000000,"state":"active","ping":106},{"user_id":693,"name":"green cupcake","steam_id":76561198114030795,"connected_time":2898000000000,"state":"active","ping":54},{"user_id":716,"name":"The Super Mario Bros. Movie","steam_id":76561198871692156,"connected_time":722000000000,"state":"active","ping":56},{"user_id":708,"name":"R5-D4","steam_id":76561198025196439,"connected_time":1512000000000,"state":"active","ping":52},{"user_id":718,"name":"Scut","steam_id":76561198973734291,"connected_time":468000000000,"state":"active","ping":64},{"user_id":714,"name":"Boyaredeen","steam_id":76561198880492636,"connected_time":775000000000,"state":"active","ping":62},{"user_id":683,"name":"Rafl","steam_id":76561198055222756,"connected_time":3348000000000,"state":"active","ping":100},{"user_id":684,"name":"Korbi.","steam_id":76561198355711373,"connected_time":3303000000000,"state":"active","ping":70},{"user_id":709,"name":"Idontknow","steam_id":76561199207044048,"connected_time":1382000000000,"state":"active","ping":44},{"user_id":686,"name":"Please_insert_id","steam_id":76561198058140301,"connected_time":3286000000000,"state":"active","ping":135},{"user_id":705,"name":"mega","steam_id":76561198089520959,"connected_time":1568000000000,"state":"active","ping":100},{"user_id":675,"name":"Trogdor","steam_id":76561198121353181,"connected_time":3631000000000,"state":"active","ping":72},{"user_id":665,"name":"[GUT] RiDiK¬Æ","steam_id":76561197969756446,"connected_time":4543000000000,"state":"active","ping":86},{"user_id":703,"name":"oToqd","steam_id":76561198389063713,"connected_time":1616000000000,"state":"active","ping":71},{"user_id":692,"name":"Tibetan Pop Star","steam_id":76561198844903984,"connected_time":2942000000000,"state":"active","ping":90},{"user_id":719,"name":"rxqueen","steam_id":76561198049258493,"connected_time":312000000000,"state":"active","ping":74},{"user_id":695,"name":"Cob","steam_id":76561198042518365,"connected_time":2367000000000,"state":"active","ping":74},{"user_id":701,"name":"Joshzu","steam_id":76561198200521137,"connected_time":2070000000000,"state":"active","ping":51}]},{"server_id":406,"name":"Uncletopia | Seattle | 3 | Stopwatch Beta","name_short":"sea-3","host":"sea-1.us.uncletopia.com","port":27035,"enabled":true,"region":"us-west","cc":"us","latitude":47.608013,"longitude":-122.33517,"reserved":0,"last_update":"0001-01-01T00:00:00Z","name_a2s":"Uncletopia | Seattle | 3 | Stopwatch Beta","protocol":17,"map":"workshop/pl_vigil_rc9.ugc1266210012","folder":"tf","game":"Team Fortress","app_id":440,"player_count":0,"max_players":24,"Bots":0,"server_type":"Dedicated","server_os":"Linux","password":true,"vac":true,"version":"7757534","steam_id":85568392924515217,"keywords":["nocrits","nodmgspread","payload","uncletopia"],"game_id":440,"stv_port":27036,"stv_name":"Uncletopia | Seattle | 3 | Stopwatch Beta | STV","players":null},{"server_id":17,"name":"Uncletopia | San Francisco | 1 | All Maps","name_short":"sfo-1","host":"sfo-1.us.uncletopia.com","port":27015,"enabled":true,"region":"us-west","cc":"us","latitude":37.77397,"longitude":-122.4313,"reserved":0,"last_update":"0001-01-01T00:00:00Z","name_a2s":"Uncletopia | San Francisco | 1 | All Maps","protocol":17,"map":"pl_borneo","folder":"tf","game":"Team Fortress","app_id":440,"player_count":24,"max_players":24,"Bots":0,"server_type":"Dedicated","server_os":"Linux","password":true,"vac":true,"version":"7757534","steam_id":85568392924469999,"keywords":["nocrits","nodmgspread","payload","uncletopia"],"game_id":440,"stv_port":27016,"stv_name":"Uncletopia | San Francisco | 1 | All Maps | STV","players":[{"user_id":687,"name":"Chongo","steam_id":76561198017604393,"connected_time":5069000000000,"state":"active","ping":56},{"user_id":722,"name":"Krazy","steam_id":76561198835502709,"connected_time":1881000000000,"state":"active","ping":50},{"user_id":737,"name":"poetryhole","steam_id":76561198896916997,"connected_time":1106000000000,"state":"active","ping":76},{"user_id":746,"name":"squashbone","steam_id":76561197999466442,"connected_time":369000000000,"state":"active","ping":62},{"user_id":749,"name":"Hakn","steam_id":76561198051068084,"connected_time":180000000000,"state":"active","ping":106},{"user_id":724,"name":"Sorrelyn","steam_id":76561198040851062,"connected_time":1840000000000,"state":"active","ping":94},{"user_id":730,"name":"HE‚ÄôS IN THE GODDAMN WALLS","steam_id":76561198363267009,"connected_time":1778000000000,"state":"active","ping":83},{"user_id":719,"name":"[VP]PurplePaladin","steam_id":76561198017011129,"connected_time":2374000000000,"state":"active","ping":110},{"user_id":745,"name":"Hector Salamanca","steam_id":76561199103213955,"connected_time":536000000000,"state":"active","ping":302},{"user_id":741,"name":"A 7/10","steam_id":76561198075814864,"connected_time":712000000000,"state":"active","ping":117},{"user_id":721,"name":"Thunder","steam_id":76561198097721532,"connected_time":1936000000000,"state":"active","ping":56},{"user_id":748,"name":"Jack from Jack in The Box","steam_id":76561199083594971,"connected_time":271000000000,"state":"active","ping":62},{"user_id":739,"name":"Ryshy02","steam_id":76561198055425447,"connected_time":728000000000,"state":"active","ping":75},{"user_id":666,"name":"Gocel","steam_id":76561198071467515,"connected_time":7285000000000,"state":"active","ping":116},{"user_id":736,"name":"Sweattadpole","steam_id":76561199456100100,"connected_time":1263000000000,"state":"active","ping":107},{"user_id":728,"name":"[Bandit]","steam_id":76561197986919852,"connected_time":1795000000000,"state":"active","ping":63},{"user_id":742,"name":"Calypso","steam_id":76561198082939544,"connected_time":696000000000,"state":"active","ping":98},{"user_id":729,"name":"kiemoXD","steam_id":76561199054147571,"connected_time":1788000000000,"state":"active","ping":94},{"user_id":731,"name":"RileyBlack2344","steam_id":76561199120958526,"connected_time":1735000000000,"state":"active","ping":86},{"user_id":750,"name":"bog","steam_id":76561198086008437,"connected_time":178000000000,"state":"active","ping":90},{"user_id":675,"name":"peee pee man","steam_id":76561198044979205,"connected_time":6271000000000,"state":"active","ping":125},{"user_id":732,"name":"ecumber","steam_id":76561198169958831,"connected_time":1664000000000,"state":"active","ping":52},{"user_id":733,"name":"Eremital","steam_id":76561198069557669,"connected_time":1659000000000,"state":"active","ping":68},{"user_id":744,"name":"SetAnExample","steam_id":76561198881077447,"connected_time":627000000000,"state":"active","ping":56}]},{"server_id":18,"name":"Uncletopia | San Francisco | 2 | All Maps","name_short":"sfo-2","host":"sfo-1.us.uncletopia.com","port":27025,"enabled":true,"region":"us-west","cc":"us","latitude":37.77397,"longitude":-122.4313,"reserved":0,"last_update":"0001-01-01T00:00:00Z","name_a2s":"Uncletopia | San Francisco | 2 | All Maps","protocol":17,"map":"pl_barnblitz","folder":"tf","game":"Team Fortress","app_id":440,"player_count":24,"max_players":24,"Bots":0,"server_type":"Dedicated","server_os":"Linux","password":true,"vac":true,"version":"7757534","steam_id":85568392924470000,"keywords":["nocrits","nodmgspread","payload","uncletopia"],"game_id":440,"stv_port":27026,"stv_name":"Uncletopia | San Francisco | 2 | All Maps | STV","players":[{"user_id":448,"name":"Rusty","steam_id":76561198055585129,"connected_time":1035000000000,"state":"active","ping":71},{"user_id":418,"name":"Homete Homete","steam_id":76561198005615283,"connected_time":3405000000000,"state":"active","ping":39},{"user_id":459,"name":"Dongus","steam_id":76561197979056451,"connected_time":445000000000,"state":"active","ping":65},{"user_id":410,"name":"memes.us.memes","steam_id":76561198194728506,"connected_time":4038000000000,"state":"active","ping":107},{"user_id":443,"name":"Miles77","steam_id":76561198310300322,"connected_time":1646000000000,"state":"active","ping":64},{"user_id":441,"name":"Ellen Baker","steam_id":76561198065712435,"connected_time":2012000000000,"state":"active","ping":66},{"user_id":446,"name":"GKEmperor","steam_id":76561197995187011,"connected_time":1353000000000,"state":"active","ping":61},{"user_id":445,"name":"JZ","steam_id":76561198377029198,"connected_time":1521000000000,"state":"active","ping":120},{"user_id":431,"name":"Purple","steam_id":76561198412639010,"connected_time":2441000000000,"state":"active","ping":60},{"user_id":450,"name":"xal","steam_id":76561198045628824,"connected_time":912000000000,"state":"active","ping":83},{"user_id":389,"name":"The Moon","steam_id":76561198082926682,"connected_time":5156000000000,"state":"active","ping":45},{"user_id":451,"name":"omgitisme321","steam_id":76561198437173029,"connected_time":879000000000,"state":"active","ping":70},{"user_id":452,"name":"self sufficient kitten","steam_id":76561197960592612,"connected_time":876000000000,"state":"active","ping":71},{"user_id":434,"name":"ChipE","steam_id":76561198137146627,"connected_time":2390000000000,"state":"active","ping":58},{"user_id":461,"name":"superwarm07","steam_id":76561199196313157,"connected_time":27000000000,"state":"spawning","ping":111},{"user_id":456,"name":"Walmus","steam_id":76561198111416393,"connected_time":779000000000,"state":"active","ping":68},{"user_id":381,"name":"Agent Q","steam_id":76561198830829003,"connected_time":5918000000000,"state":"active","ping":81},{"user_id":457,"name":"Maid 'n' China","steam_id":76561198423392976,"connected_time":495000000000,"state":"active","ping":51},{"user_id":458,"name":"DEMOPAN","steam_id":76561198438252921,"connected_time":471000000000,"state":"active","ping":104},{"user_id":460,"name":"Seanvich","steam_id":76561198065805500,"connected_time":121000000000,"state":"active","ping":105},{"user_id":437,"name":"HOG RIDER","steam_id":76561198298589502,"connected_time":2371000000000,"state":"active","ping":59},{"user_id":438,"name":"DAS SCHNITZELSTIEN","steam_id":76561198051137159,"connected_time":2359000000000,"state":"active","ping":73},{"user_id":454,"name":"LO","steam_id":76561198068672882,"connected_time":870000000000,"state":"active","ping":47},{"user_id":413,"name":"Happy","steam_id":76561198141742299,"connected_time":4019000000000,"state":"active","ping":99}]},{"server_id":19,"name":"Uncletopia | San Francisco | 3 | Stopwatch Beta","name_short":"sfo-3","host":"sfo-1.us.uncletopia.com","port":27035,"enabled":true,"region":"us-west","cc":"us","latitude":37.77397,"longitude":-122.4313,"reserved":0,"last_update":"0001-01-01T00:00:00Z","name_a2s":"Uncletopia | San Francisco | 3 | Stopwatch Beta","protocol":17,"map":"workshop/pl_summercoast_rc8e.ugc1761528829","folder":"tf","game":"Team Fortress","app_id":440,"player_count":0,"max_players":24,"Bots":0,"server_type":"Dedicated","server_os":"Linux","password":true,"vac":true,"version":"7757534","steam_id":85568392924742824,"keywords":["nocrits","nodmgspread","payload","uncletopia"],"game_id":440,"stv_port":27036,"stv_name":"Uncletopia | San Francisco | 3 | Stopwatch Beta | STV","players":null},{"server_id":20,"name":"Uncletopia | San Francisco | 4 | Community","name_short":"sfo-4","host":"sfo-1.us.uncletopia.com","port":27045,"enabled":true,"region":"us-west","cc":"us","latitude":37.77397,"longitude":-122.4313,"reserved":0,"last_update":"0001-01-01T00:00:00Z","name_a2s":"Uncletopia | San Francisco | 4 | Community","protocol":17,"map":"workshop/koth_slaughter_rc1.ugc1712845210","folder":"tf","game":"Team Fortress","app_id":440,"player_count":0,"max_players":24,"Bots":0,"server_type":"Dedicated","server_os":"Linux","password":true,"vac":true,"version":"7757534","steam_id":85568392924742826,"keywords":["cp","nocrits","nodmgspread","uncletopia"],"game_id":440,"stv_port":27046,"stv_name":"Uncletopia | San Francisco | 4 | Community | STV","players":null},{"server_id":141,"name":"Uncletopia | Sydney | 1 | All Maps","name_short":"syd-1","host":"syd-1.au.uncletopia.com","port":27015,"enabled":true,"region":"au","cc":"au","latitude":-33.865143,"longitude":151.2099,"reserved":0,"last_update":"0001-01-01T00:00:00Z","name_a2s":"Uncletopia | Sydney | 1 | All Maps","protocol":17,"map":"pl_frontier_final","folder":"tf","game":"Team Fortress","app_id":440,"player_count":24,"max_players":24,"Bots":0,"server_type":"Dedicated","server_os":"Linux","password":true,"vac":true,"version":"7757534","steam_id":85568392924470001,"keywords":["nocrits","nodmgspread","payload","uncletopia"],"game_id":440,"stv_port":27016,"stv_name":"Uncletopia | Sydney | 1 | All Maps | STV","players":[{"user_id":279,"name":"Warren","steam_id":76561198120350917,"connected_time":3711000000000,"state":"active","ping":39},{"user_id":331,"name":"whiteshaq","steam_id":76561198131988811,"connected_time":377000000000,"state":"active","ping":80},{"user_id":281,"name":"Mr Mahal","steam_id":76561198123234137,"connected_time":3598000000000,"state":"active","ping":70},{"user_id":316,"name":"Fresh Produce Gaming","steam_id":76561198358483352,"connected_time":915000000000,"state":"active","ping":60},{"user_id":330,"name":"Cup","steam_id":76561198038485845,"connected_time":493000000000,"state":"active","ping":31},{"user_id":307,"name":"DeathEagle „Ç∑","steam_id":76561197997644542,"connected_time":1742000000000,"state":"active","ping":45},{"user_id":292,"name":"EpicGuy4227","steam_id":76561198094132328,"connected_time":2929000000000,"state":"active","ping":51},{"user_id":232,"name":"alqwnq","steam_id":76561198133867907,"connected_time":5213000000000,"state":"active","ping":68},{"user_id":240,"name":"Flak","steam_id":76561198205833232,"connected_time":4662000000000,"state":"active","ping":50},{"user_id":244,"name":"echidna","steam_id":76561198044514230,"connected_time":4420000000000,"state":"active","ping":60},{"user_id":327,"name":"calculusfish","steam_id":76561198067205959,"connected_time":576000000000,"state":"active","ping":63},{"user_id":229,"name":"modus","steam_id":76561198025099660,"connected_time":5325000000000,"state":"active","ping":42},{"user_id":332,"name":"Turbo_dip","steam_id":76561198446508846,"connected_time":367000000000,"state":"active","ping":64},{"user_id":275,"name":"Tees","steam_id":76561199174602317,"connected_time":3798000000000,"state":"active","ping":47},{"user_id":333,"name":"Tantei Rotana","steam_id":76561198041204323,"connected_time":361000000000,"state":"active","ping":68},{"user_id":304,"name":"xander","steam_id":76561198063481761,"connected_time":1855000000000,"state":"active","ping":40},{"user_id":334,"name":"Sinister80s","steam_id":76561198343540472,"connected_time":144000000000,"state":"active","ping":74},{"user_id":312,"name":"SubHam","steam_id":76561198071578622,"connected_time":1461000000000,"state":"active","ping":76},{"user_id":335,"name":"[GG] Cryo","steam_id":76561198062014383,"connected_time":3000000000,"state":"spawning","ping":62},{"user_id":283,"name":"AzureFox","steam_id":76561198108179408,"connected_time":3555000000000,"state":"active","ping":84},{"user_id":266,"name":"Invidia","steam_id":76561198096251579,"connected_time":4042000000000,"state":"active","ping":51},{"user_id":302,"name":"i Ken smell u","steam_id":76561198301282416,"connected_time":1879000000000,"state":"active","ping":56},{"user_id":278,"name":"Marzell","steam_id":76561198151276153,"connected_time":3759000000000,"state":"active","ping":88},{"user_id":319,"name":"thrax","steam_id":76561197992385270,"connected_time":865000000000,"state":"active","ping":49}]},{"server_id":123,"name":"Uncletopia | Sydney | 2 | All Maps","name_short":"syd-2","host":"syd-1.au.uncletopia.com","port":27025,"enabled":true,"region":"au","cc":"au","latitude":-33.865143,"longitude":151.2099,"reserved":0,"last_update":"0001-01-01T00:00:00Z","name_a2s":"Uncletopia | Sydney | 2 | All Maps","protocol":17,"map":"koth_lakeside_final","folder":"tf","game":"Team Fortress","app_id":440,"player_count":6,"max_players":24,"Bots":0,"server_type":"Dedicated","server_os":"Linux","password":true,"vac":true,"version":"7757534","steam_id":85568392924470002,"keywords":["cp","nocrits","nodmgspread","uncletopia"],"game_id":440,"stv_port":27026,"stv_name":"Uncletopia | Sydney | 2 | All Maps | STV","players":[{"user_id":8,"name":"Chett Ryan","steam_id":76561198071870475,"connected_time":817000000000,"state":"active","ping":44},{"user_id":9,"name":"Áå´","steam_id":76561198077371097,"connected_time":778000000000,"state":"active","ping":49},{"user_id":10,"name":"Silver","steam_id":76561198104237083,"connected_time":671000000000,"state":"active","ping":254},{"user_id":11,"name":"NeonOn","steam_id":76561198321595238,"connected_time":376000000000,"state":"active","ping":60},{"user_id":15,"name":"Pokelock","steam_id":76561198160389063,"connected_time":83000000000,"state":"active","ping":100},{"user_id":16,"name":"0-2-5 dart monkey","steam_id":76561199141109305,"connected_time":72000000000,"state":"active","ping":45}]},{"server_id":395,"name":"Uncletopia | Sydney | 3 | All Maps","name_short":"syd-3","host":"syd-1.au.uncletopia.com","port":27035,"enabled":true,"region":"au","cc":"au","latitude":-33.865143,"longitude":151.2099,"reserved":0,"last_update":"0001-01-01T00:00:00Z","name_a2s":"Uncletopia | Sydney | 3 | All Maps","protocol":17,"map":"cp_mountainlab","folder":"tf","game":"Team Fortress","app_id":440,"player_count":0,"max_players":24,"Bots":0,"server_type":"Dedicated","server_os":"Linux","password":true,"vac":true,"version":"7757534","steam_id":85568392925194467,"keywords":["cp","nocrits","nodmgspread","uncletopia"],"game_id":440,"stv_port":27036,"stv_name":"Uncletopia | Sydney | 3 | All Maps | STV","players":null},{"server_id":396,"name":"Uncletopia | Sydney | 4 | All Maps","name_short":"syd-4","host":"syd-1.au.uncletopia.com","port":27045,"enabled":true,"region":"au","cc":"au","latitude":-33.865143,"longitude":151.2099,"reserved":0,"last_update":"0001-01-01T00:00:00Z","name_a2s":"Uncletopia | Sydney | 4 | All Maps","protocol":17,"map":"koth_highpass","folder":"tf","game":"Team Fortress","app_id":440,"player_count":1,"max_players":24,"Bots":0,"server_type":"Dedicated","server_os":"Linux","password":true,"vac":true,"version":"7757534","steam_id":85568392925397958,"keywords":["cp","nocrits","nodmgspread","uncletopia"],"game_id":440,"stv_port":27046,"stv_name":"Uncletopia | Sydney | 4 | All Maps | STV","players":[{"user_id":14,"name":"Zzep_","steam_id":76561198059402662,"connected_time":598000000000,"state":"active","ping":45}]},{"server_id":58,"name":"Uncletopia | Sydney | 5 | Stopwatch Beta","name_short":"syd-5","host":"syd-1.au.uncletopia.com","port":27055,"enabled":true,"region":"au","cc":"au","latitude":-33.865143,"longitude":151.2099,"reserved":0,"last_update":"0001-01-01T00:00:00Z","name_a2s":"Uncletopia | Sydney | 5 | Stopwatch Beta","protocol":17,"map":"workshop/pl_summercoast_rc8e.ugc1761528829","folder":"tf","game":"Team Fortress","app_id":440,"player_count":0,"max_players":24,"Bots":0,"server_type":"Dedicated","server_os":"Linux","password":true,"vac":true,"version":"7757534","steam_id":85568392925397959,"keywords":["nocrits","nodmgspread","payload","uncletopia"],"game_id":440,"stv_port":27056,"stv_name":"Uncletopia | Sydney | 5 | Stopwatch Beta | STV","players":null},{"server_id":59,"name":"Uncletopia | Sydney | 6 | Community","name_short":"syd-6","host":"syd-1.au.uncletopia.com","port":27065,"enabled":true,"region":"au","cc":"au","latitude":-33.865143,"longitude":151.2099,"reserved":0,"last_update":"0001-01-01T00:00:00Z","name_a2s":"Uncletopia | Sydney | 6 | Community","protocol":17,"map":"workshop/cp_overgrown_rc7b.ugc503939302","folder":"tf","game":"Team Fortress","app_id":440,"player_count":0,"max_players":24,"Bots":0,"server_type":"Dedicated","server_os":"Linux","password":true,"vac":true,"version":"7757534","steam_id":85568392925397960,"keywords":["cp","nocrits","nodmgspread","uncletopia"],"game_id":440,"stv_port":27066,"stv_name":"Uncletopia | Sydney | 6 | Community | STV","players":null},{"server_id":49,"name":"Uncletopia | Warsaw | 1 | All Maps","name_short":"waw-1","host":"waw-1.pl.uncletopia.com","port":27015,"enabled":true,"region":"eu","cc":"pl","latitude":52.2297,"longitude":21.017532,"reserved":0,"last_update":"0001-01-01T00:00:00Z","name_a2s":"","protocol":0,"map":"","folder":"","game":"","app_id":0,"player_count":0,"max_players":0,"Bots":0,"server_type":"","server_os":"","password":false,"vac":false,"version":"","steam_id":0,"keywords":null,"game_id":0,"stv_port":0,"stv_name":"","players":null},{"server_id":50,"name":"Uncletopia | Warsaw | 2 | All Maps","name_short":"waw-2","host":"waw-1.pl.uncletopia.com","port":27025,"enabled":true,"region":"eu","cc":"pl","latitude":52.2297,"longitude":21.017532,"reserved":0,"last_update":"0001-01-01T00:00:00Z","name_a2s":"Uncletopia | Warsaw | 2 | All Maps","protocol":17,"map":"koth_viaduct","folder":"tf","game":"Team Fortress","app_id":440,"player_count":0,"max_players":24,"Bots":0,"server_type":"Dedicated","server_os":"Linux","password":true,"vac":true,"version":"7757534","steam_id":85568392925397851,"keywords":["cp","nocrits","nodmgspread","uncletopia"],"game_id":440,"stv_port":27026,"stv_name":"Uncletopia | Warsaw | 2 | All Maps | STV","players":null},{"server_id":51,"name":"Uncletopia | Warsaw | 3 | All Maps","name_short":"waw-3","host":"waw-1.pl.uncletopia.com","port":27035,"enabled":true,"region":"eu","cc":"pl","latitude":52.2297,"longitude":21.017532,"reserved":0,"last_update":"0001-01-01T00:00:00Z","name_a2s":"Uncletopia | Warsaw | 3 | All Maps","protocol":17,"map":"pl_badwater","folder":"tf","game":"Team Fortress","app_id":440,"player_count":0,"max_players":24,"Bots":0,"server_type":"Dedicated","server_os":"Linux","password":true,"vac":true,"version":"7757534","steam_id":85568392925397852,"keywords":["nocrits","nodmgspread","payload","uncletopia"],"game_id":440,"stv_port":27036,"stv_name":"Uncletopia | Warsaw | 3 | All Maps | STV","players":null},{"server_id":52,"name":"Uncletopia | Warsaw | 4 | All Maps","name_short":"waw-4","host":"waw-1.pl.uncletopia.com","port":27045,"enabled":true,"region":"eu","cc":"pl","latitude":52.2297,"longitude":21.017532,"reserved":0,"last_update":"0001-01-01T00:00:00Z","name_a2s":"Uncletopia | Warsaw | 4 | All Maps","protocol":17,"map":"koth_lakeside_final","folder":"tf","game":"Team Fortress","app_id":440,"player_count":0,"max_players":24,"Bots":0,"server_type":"Dedicated","server_os":"Linux","password":true,"vac":true,"version":"7757534","steam_id":85568392925397853,"keywords":["cp","nocrits","nodmgspread","uncletopia"],"game_id":440,"stv_port":27046,"stv_name":"Uncletopia | Warsaw | 4 | All Maps | STV","players":null},{"server_id":53,"name":"Uncletopia | Warsaw | 5 | Stopwatch Beta","name_short":"waw-5","host":"waw-1.pl.uncletopia.com","port":27055,"enabled":true,"region":"eu","cc":"pl","latitude":52.2297,"longitude":21.017532,"reserved":0,"last_update":"0001-01-01T00:00:00Z","name_a2s":"Uncletopia | Warsaw | 5 | Stopwatch Beta","protocol":17,"map":"pl_borneo","folder":"tf","game":"Team Fortress","app_id":440,"player_count":0,"max_players":24,"Bots":0,"server_type":"Dedicated","server_os":"Linux","password":true,"vac":true,"version":"7757534","steam_id":85568392925397854,"keywords":["nocrits","nodmgspread","payload","uncletopia"],"game_id":440,"stv_port":27056,"stv_name":"Uncletopia | Warsaw | 5 | Stopwatch Beta | STV","players":null},{"server_id":54,"name":"Uncletopia | Warsaw | 6 | Community","name_short":"waw-6","host":"waw-1.pl.uncletopia.com","port":27065,"enabled":true,"region":"eu","cc":"pl","latitude":52.2297,"longitude":21.017532,"reserved":0,"last_update":"0001-01-01T00:00:00Z","name_a2s":"Uncletopia | Warsaw | 6 | Community","protocol":17,"map":"koth_lakeside_final","folder":"tf","game":"Team Fortress","app_id":440,"player_count":0,"max_players":24,"Bots":0,"server_type":"Dedicated","server_os":"Linux","password":true,"vac":true,"version":"7757534","steam_id":85568392925397856,"keywords":["cp","nocrits","nodmgspread","uncletopia"],"game_id":440,"stv_port":27066,"stv_name":"Uncletopia | Warsaw | 6 | Community | STV","players":null}]}