{"status":true,"message":"","result":[{"server_id":9,"name":"Uncletopia | Atlanta | 1 | All Maps","name_short":"atl-1","host":"atl-1.us.uncletopia.com","port":27015,"enabled":true,"region":"us-east","cc":"us","latitude":33.753746,"longitude":-84.38633,"reserved":0,"last_update":"0001-01-01T00:00:00Z","name_a2s":"Uncletopia | Atlanta | 1 | All Maps","protocol":17,"map":"pl_barnblitz","folder":"tf","game":"Team Fortress","app_id":440,"player_count":0,"max_players":24,"Bots":0,"server_type":"Dedicated","server_os":"Linux","password":true,"vac":true,"version":"7932396","steam_id":85568392924469982,"keywords":["nocrits","nodmgspread","payload","uncletopia"],"game_id":440,"stv_port":27016,"stv_name":"Uncletopia | Atlanta | 1 | All Maps | STV","players":null},{"server_id":104,"name":"Uncletopia | Atlanta | 2 | All Maps","name_short":"atl-2","host":"atl-1.us.uncletopia.com","port":27025,"enabled":true,"region":"us-east","cc":"us","latitude":33.753746,"longitude":-84.38633,"reserved":0,"last_update":"0001-01-01T00:00:00Z","name_a2s":"Uncletopia | Atlanta | 2 | All Maps","protocol":17,"map":"cp_process_final","folder":"tf","game":"Team Fortress","app_id":440,"player_count":0,"max_players":24,"Bots":0,"server_type":"Dedicated","server_os":"Linux","password":true,"vac":true,"version":"7932396","steam_id":85568392924469983,"keywords":["cp","nocrits","nodmgspread","uncletopia"],"game_id":440,"stv_port":27026,"stv_name":"Uncletopia | Atlanta | 2 | All Maps | STV","players":null},{"server_id":400,"name":"Uncletopia | Atlanta | 3 | Community","name_short":"atl-3","host":"atl-1.us.uncletopia.com","port":27035,"enabled":true,"region":"us-east","cc":"us","latitude":33.753746,"longitude":-84.38633,"reserved":0,"last_update":"0001-01-01T00:00:00Z","name_a2s":"Uncletopia | Atlanta | 3 | Community","protocol":17,"map":"pl_borneo","folder":"tf","game":"Team Fortress","app_id":440,"player_count":0,"max_players":24,"Bots":0,"server_type":"Dedicated","server_os":"Linux","password":true,"vac":true,"version":"7932396","steam_id":85568392924515187,"keywords":["nocrits","nodmgspread","payload","uncletopia"],"game_id":440,"stv_port":27036,"stv_name":"Uncletopia | Atlanta | 3 | Community | STV","players":null},{"server_id":401,"name":"Uncletopia | Atlanta | 4 | No Payload","name_short":"atl-4","host":"atl-1.us.uncletopia.com","port":27045,"enabled":true,"region":"us-east","cc":"us","latitude":33.753746,"longitude":-84.38633,"reserved":0,"last_update":"0001-01-01T00:00:00Z","name_a2s":"","protocol":0,"map":"","folder":"","game":"","app_id":0,"player_count":0,"max_players":0,"Bots":0,"server_type":"","server_os":"","password":false,"vac":false,"version":"","steam_id":0,"keywords":null,"game_id":0,"stv_port":0,"stv_name":"","players":null},{"server_id":2,"name":"Uncletopia | Chicago | 1 | All Maps","name_short":"chi-1","host":"chi-1.us.uncletopia.com","port":27015,"enabled":true,"region":"us-central","cc":"us","latitude":41.881832,"longitude":-87.62318,"reserved":0,"last_update":"0001-01-01T00:00:00Z","name_a2s":"Uncletopia | Chicago | 1 | All Maps","protocol":17,"map":"cp_dustbowl","folder":"tf","game":"Team Fortress","app_id":440,"player_count":24,"max_players":24,"Bots":0,"server_type":"Dedicated","server_os":"Linux","password":true,"vac":true,"version":"7932396","steam_id":85568392924469984,"keywords":["cp","nocrits","nodmgspread","uncletopia"],"game_id":440,"stv_port":27016,"stv_name":"Uncletopia | Chicago | 1 | All Maps | STV","players":[{"user_id":3,"name":"Meh","steam_id":76561198078187920,"connected_time":3526000000000,"state":"active","ping":84},{"user_id":49,"name":"social distance warrior","steam_id":76561198128992994,"connected_time":1872000000000,"state":"active","ping":91},{"user_id":59,"name":"Sophie","steam_id":76561198170408057,"connected_time":1280000000000,"state":"active","ping":60},{"user_id":6,"name":"DragonFalcon™","steam_id":76561198044559930,"connected_time":3521000000000,"state":"active","ping":86},{"user_id":36,"name":"cotton candy tyrant","steam_id":76561198058998371,"connected_time":2661000000000,"state":"active","ping":60},{"user_id":9,"name":"Wizard Raccoon","steam_id":76561198072562591,"connected_time":3516000000000,"state":"active","ping":82},{"user_id":11,"name":"Wolf Hat","steam_id":76561198099996051,"connected_time":3509000000000,"state":"active","ping":65},{"user_id":12,"name":"Ridna","steam_id":76561198131627599,"connected_time":3509000000000,"state":"active","ping":85},{"user_id":61,"name":"ShadyPun","steam_id":76561198044125968,"connected_time":871000000000,"state":"active","ping":46},{"user_id":51,"name":"Bird of Paradise","steam_id":76561198891152046,"connected_time":1737000000000,"state":"active","ping":102},{"user_id":42,"name":"Spy Gaming","steam_id":76561198453295613,"connected_time":2148000000000,"state":"active","ping":107},{"user_id":16,"name":"Luh Gëeky","steam_id":76561198053621664,"connected_time":3498000000000,"state":"active","ping":47},{"user_id":17,"name":"nomad","steam_id":76561197998740399,"connected_time":3491000000000,"state":"active","ping":62},{"user_id":55,"name":"gerg","steam_id":76561197997127387,"connected_time":1715000000000,"state":"active","ping":104},{"user_id":56,"name":"Swiggs","steam_id":76561198135015291,"connected_time":1712000000000,"state":"active","ping":75},{"user_id":20,"name":"Mastermind","steam_id":76561198127783432,"connected_time":3487000000000,"state":"active","ping":74},{"user_id":21,"name":"moneymoneyganggang464","steam_id":76561199228490429,"connected_time":3484000000000,"state":"active","ping":74},{"user_id":22,"name":"UneditedAndy","steam_id":76561198982544947,"connected_time":3480000000000,"state":"active","ping":110},{"user_id":23,"name":"D4NMAR","steam_id":76561198056453091,"connected_time":3479000000000,"state":"active","ping":46},{"user_id":31,"name":"Walrusto","steam_id":76561198829644616,"connected_time":3412000000000,"state":"active","ping":82},{"user_id":47,"name":"how to fly?","steam_id":76561198064255155,"connected_time":2104000000000,"state":"active","ping":62},{"user_id":53,"name":"Uncle Dad","steam_id":76561198058073652,"connected_time":1723000000000,"state":"active","ping":75},{"user_id":30,"name":"TheRealMud","steam_id":76561198138312993,"connected_time":3467000000000,"state":"active","ping":70},{"user_id":39,"name":"Castroy","steam_id":76561198108160099,"connected_time":2364000000000,"state":"active","ping":67}]},{"server_id":106,"name":"Uncletopia | Chicago | 2 | All Maps","name_short":"chi-2","host":"chi-1.us.uncletopia.com","port":27025,"enabled":true,"region":"us-central","cc":"us","latitude":41.881832,"longitude":-87.62318,"reserved":0,"last_update":"0001-01-01T00:00:00Z","name_a2s":"Uncletopia | Chicago | 2 | All Maps","protocol":17,"map":"pl_snowycoast","folder":"tf","game":"Team Fortress","app_id":440,"player_count":0,"max_players":24,"Bots":0,"server_type":"Dedicated","server_os":"Linux","password":true,"vac":true,"version":"7932396","steam_id":85568392924469985,"keywords":["nocrits","nodmgspread","payload","uncletopia"],"game_id":440,"stv_port":27026,"stv_name":"Uncletopia | Chicago | 2 | All Maps | STV","players":null},{"server_id":402,"name":"Uncletopia | Chicago | 3 | All Maps","name_short":"chi-3","host":"chi-1.us.uncletopia.com","port":27035,"enabled":true,"region":"us-central","cc":"us","latitude":41.881832,"longitude":-87.62318,"reserved":0,"last_update":"0001-01-01T00:00:00Z","name_a2s":"Uncletopia | Chicago | 3 | All Maps","protocol":17,"map":"pl_swiftwater_final1","folder":"tf","game":"Team Fortress","app_id":440,"player_count":0,"max_players":24,"Bots":0,"server_type":"Dedicated","server_os":"Linux","password":true,"vac":true,"version":"7932396","steam_id":85568392924515191,"keywords":["nocrits","nodmgspread","payload","uncletopia"],"game_id":440,"stv_port":27036,"stv_name":"Uncletopia | Chicago | 3 | All Maps | STV","players":null},{"server_id":403,"name":"Uncletopia | Chicago | 4 | All Maps","name_short":"chi-4","host":"chi-1.us.uncletopia.com","port":27045,"enabled":true,"region":"us-central","cc":"us","latitude":41.881832,"longitude":-87.62318,"reserved":0,"last_update":"0001-01-01T00:00:00Z","name_a2s":"Uncletopia | Chicago | 4 | All Maps","protocol":17,"map":"cp_gorge","folder":"tf","game":"Team Fortress","app_id":440,"player_count":24,"max_players":24,"Bots":0,"server_type":"Dedicated","server_os":"Linux","password":true,"vac":true,"version":"7932396","steam_id":85568392924515193,"keywords":["cp","nocrits","nodmgspread","uncletopia"],"game_id":440,"stv_port":27046,"stv_name":"Uncletopia | Chicago | 4 | All Maps | STV","players":[{"user_id":3,"name":"Grassman (Cc)","steam_id":76561198026488532,"connected_time":3497000000000,"state":"active","ping":93},{"user_id":38,"name":"Lucide","steam_id":76561197998530400,"connected_time":2075000000000,"state":"active","ping":102},{"user_id":34,"name":"Veruamis","steam_id":76561199122148288,"connected_time":2685000000000,"state":"active","ping":82},{"user_id":45,"name":"daemon","steam_id":76561198001541433,"connected_time":1599000000000,"state":"active","ping":49},{"user_id":7,"name":"postgres","steam_id":76561198011204750,"connected_time":3486000000000,"state":"active","ping":79},{"user_id":8,"name":"for the king","steam_id":76561197973488858,"connected_time":3479000000000,"state":"active","ping":60},{"user_id":9,"name":"IMM0RTAL","steam_id":76561198013747901,"connected_time":3479000000000,"state":"active","ping":72},{"user_id":50,"name":"Season Veteran","steam_id":76561198088619665,"connected_time":663000000000,"state":"active","ping":84},{"user_id":46,"name":"Doctor Bad Dragon","steam_id":76561198058773212,"connected_time":1464000000000,"state":"active","ping":102},{"user_id":12,"name":"who ate the cheese","steam_id":76561198275408467,"connected_time":3411000000000,"state":"active","ping":47},{"user_id":51,"name":"Sacred","steam_id":76561199195970456,"connected_time":160000000000,"state":"active","ping":55},{"user_id":39,"name":"lost in spaaaaace","steam_id":76561199085974120,"connected_time":1827000000000,"state":"active","ping":73},{"user_id":40,"name":"LtK","steam_id":76561197993180943,"connected_time":1725000000000,"state":"active","ping":60},{"user_id":18,"name":"Professionally Braindead ツ","steam_id":76561198276714220,"connected_time":3300000000000,"state":"active","ping":56},{"user_id":19,"name":"E P H E M E R A L","steam_id":76561198128614882,"connected_time":3298000000000,"state":"active","ping":84},{"user_id":47,"name":"⚣ Horny(er) Femboy ⚣","steam_id":76561197998789730,"connected_time":1200000000000,"state":"active","ping":100},{"user_id":21,"name":"t","steam_id":76561198175988929,"connected_time":3265000000000,"state":"active","ping":63},{"user_id":41,"name":"Big Oil","steam_id":76561199238964574,"connected_time":1633000000000,"state":"active","ping":72},{"user_id":49,"name":"sonic1394","steam_id":76561198054636788,"connected_time":919000000000,"state":"active","ping":67},{"user_id":54,"name":"Burt Macklin","steam_id":76561198038080028,"connected_time":39000000000,"state":"active","ping":90},{"user_id":35,"name":"Tattletails","steam_id":76561198055690341,"connected_time":2550000000000,"state":"active","ping":161},{"user_id":43,"name":"⚣ Horny Femboy ⚣","steam_id":76561199043463646,"connected_time":1610000000000,"state":"active","ping":119},{"user_id":44,"name":"motherfucker 2.0","steam_id":76561198141189209,"connected_time":1604000000000,"state":"active","ping":61},{"user_id":53,"name":"crexorz","steam_id":76561198890949432,"connected_time":70000000000,"state":"active","ping":61}]},{"server_id":36,"name":"Uncletopia | Chicago | 5 | All Maps","name_short":"chi-5","host":"chi-2.us.uncletopia.com","port":27015,"enabled":true,"region":"us-central","cc":"us","latitude":41.881832,"longitude":-87.62318,"reserved":0,"last_update":"0001-01-01T00:00:00Z","name_a2s":"Uncletopia | Chicago | 5 | All Maps","protocol":17,"map":"koth_lakeside_final","folder":"tf","game":"Team Fortress","app_id":440,"player_count":21,"max_players":24,"Bots":0,"server_type":"Dedicated","server_os":"Linux","password":true,"vac":true,"version":"7932396","steam_id":85568392924866362,"keywords":["cp","nocrits","nodmgspread","uncletopia"],"game_id":440,"stv_port":27016,"stv_name":"Uncletopia | Chicago | 5 | All Maps | STV","players":[{"user_id":6,"name":"Zollap","steam_id":76561198056269568,"connected_time":3466000000000,"state":"active","ping":98},{"user_id":4,"name":"tf2pyro","steam_id":76561198388184353,"connected_time":3496000000000,"state":"active","ping":85},{"user_id":5,"name":"Periculosum PhD in Funny","steam_id":76561198123370914,"connected_time":3494000000000,"state":"active","ping":69},{"user_id":46,"name":"BigBubble42","steam_id":76561198136286123,"connected_time":101000000000,"state":"active","ping":51},{"user_id":45,"name":"Tanuki with a gun.","steam_id":76561198027487285,"connected_time":158000000000,"state":"active","ping":104},{"user_id":47,"name":"Hedge Knight","steam_id":76561198989449047,"connected_time":95000000000,"state":"active","ping":229},{"user_id":13,"name":"Fantastic","steam_id":76561198079088978,"connected_time":2607000000000,"state":"active","ping":43},{"user_id":49,"name":"Yato","steam_id":76561198084100335,"connected_time":88000000000,"state":"active","ping":80},{"user_id":52,"name":"TristanVSEarth","steam_id":76561198244858060,"connected_time":19000000000,"state":"active","ping":84},{"user_id":15,"name":"YeshieSirYesSir","steam_id":76561198080214214,"connected_time":2588000000000,"state":"active","ping":40},{"user_id":50,"name":"Mush","steam_id":76561198393461065,"connected_time":86000000000,"state":"active","ping":78},{"user_id":37,"name":"ben","steam_id":76561198355118155,"connected_time":1710000000000,"state":"active","ping":115},{"user_id":53,"name":"a 1930","steam_id":76561198320639814,"connected_time":17000000000,"state":"active","ping":111},{"user_id":32,"name":"Frog","steam_id":76561198170199881,"connected_time":2096000000000,"state":"active","ping":60},{"user_id":41,"name":"dryjack","steam_id":76561198102314418,"connected_time":636000000000,"state":"active","ping":58},{"user_id":54,"name":"George R. R. Martin","steam_id":76561198799221864,"connected_time":17000000000,"state":"active","ping":99},{"user_id":22,"name":"I AM Malik","steam_id":76561198322021485,"connected_time":2395000000000,"state":"active","ping":63},{"user_id":55,"name":"Silver Spoon's Canon Husband","steam_id":76561198101505695,"connected_time":15000000000,"state":"spawning","ping":91},{"user_id":31,"name":"nori_420","steam_id":76561199117134203,"connected_time":2214000000000,"state":"active","ping":108},{"user_id":35,"name":"D0VE","steam_id":76561198151618566,"connected_time":1725000000000,"state":"active","ping":98},{"user_id":29,"name":"Camohno","steam_id":76561198283519918,"connected_time":2312000000000,"state":"active","ping":102}]},{"server_id":37,"name":"Uncletopia | Chicago | 6 | All Maps","name_short":"chi-6","host":"chi-2.us.uncletopia.com","port":27025,"enabled":true,"region":"us-central","cc":"us","latitude":41.881832,"longitude":-87.62318,"reserved":0,"last_update":"0001-01-01T00:00:00Z","name_a2s":"Uncletopia | Chicago | 6 | All Maps","protocol":17,"map":"koth_viaduct","folder":"tf","game":"Team Fortress","app_id":440,"player_count":0,"max_players":24,"Bots":0,"server_type":"Dedicated","server_os":"Linux","password":true,"vac":true,"version":"7932396","steam_id":85568392924866363,"keywords":["cp","nocrits","nodmgspread","uncletopia"],"game_id":440,"stv_port":27026,"stv_name":"Uncletopia | Chicago | 6 | All Maps | STV","players":null},{"server_id":38,"name":"Uncletopia | Chicago | 7 | Stopwatch Beta","name_short":"chi-7","host":"chi-2.us.uncletopia.com","port":27035,"enabled":true,"region":"us-central","cc":"us","latitude":41.881832,"longitude":-87.62318,"reserved":0,"last_update":"0001-01-01T00:00:00Z","name_a2s":"Uncletopia | Chicago | 7 | Stopwatch Beta","protocol":17,"map":"pl_borneo","folder":"tf","game":"Team Fortress","app_id":440,"player_count":0,"max_players":24,"Bots":0,"server_type":"Dedicated","server_os":"Linux","password":true,"vac":true,"version":"7932396","steam_id":85568392924866364,"keywords":["nocrits","nodmgspread","payload","uncletopia"],"game_id":440,"stv_port":27036,"stv_name":"Uncletopia | Chicago | 7 | Stopwatch Beta | STV","players":null},{"server_id":39,"name":"Uncletopia | Chicago | 8 | Community","name_short":"chi-8","host":"chi-2.us.uncletopia.com","port":27045,"enabled":true,"region":"us-central","cc":"us","latitude":41.881832,"longitude":-87.62318,"reserved":0,"last_update":"0001-01-01T00:00:00Z","name_a2s":"Uncletopia | Chicago | 8 | Community","protocol":17,"map":"koth_viaduct","folder":"tf","game":"Team Fortress","app_id":440,"player_count":0,"max_players":24,"Bots":0,"server_type":"Dedicated","server_os":"Linux","password":true,"vac":true,"version":"7932396","steam_id":85568392924866365,"keywords":["cp","nocrits","nodmgspread","uncletopia"],"game_id":440,"stv_port":27046,"stv_name":"Uncletopia | Chicago | 8 | Community | STV","players":null},{"server_id":8,"name":"Uncletopia | Dallas | 1 | All Maps","name_short":"dal-1","host":"dal-1.us.uncletopia.com","port":27015,"enabled":true,"region":"us-central","cc":"us","latitude":32.779167,"longitude":-96.80889,"reserved":0,"last_update":"0001-01-01T00:00:00Z","name_a2s":"Uncletopia | Dallas | 1 | All Maps","protocol":17,"map":"pl_upward","folder":"tf","game":"Team Fortress","app_id":440,"player_count":24,"max_players":24,"Bots":0,"server_type":"Dedicated","server_os":"Linux","password":true,"vac":true,"version":"7932396","steam_id":85568392924469986,"keywords":["nocrits","nodmgspread","payload","uncletopia"],"game_id":440,"stv_port":27016,"stv_name":"Uncletopia | Dallas | 1 | All Maps | STV","players":[{"user_id":3,"name":"Ruby Gillman","steam_id":76561198366299848,"connected_time":3512000000000,"state":"active","ping":63},{"user_id":47,"name":"8th Ward","steam_id":76561198405839882,"connected_time":1824000000000,"state":"active","ping":60},{"user_id":5,"name":"CFGU || RAWRWAFL","steam_id":76561198032118386,"connected_time":3507000000000,"state":"active","ping":73},{"user_id":42,"name":"cypherzero","steam_id":76561199182960322,"connected_time":1917000000000,"state":"active","ping":50},{"user_id":45,"name":"0x01FE","steam_id":76561198838881917,"connected_time":1882000000000,"state":"active","ping":61},{"user_id":51,"name":"lightning","steam_id":76561199214359565,"connected_time":1107000000000,"state":"active","ping":121},{"user_id":63,"name":"controller spy","steam_id":76561198327083342,"connected_time":389000000000,"state":"active","ping":45},{"user_id":10,"name":"happy man!!! :D!!!!","steam_id":76561198128468316,"connected_time":3470000000000,"state":"active","ping":64},{"user_id":65,"name":"Nero25","steam_id":76561198027720631,"connected_time":368000000000,"state":"active","ping":103},{"user_id":12,"name":"SleeplessCollin","steam_id":76561198968140914,"connected_time":3438000000000,"state":"active","ping":71},{"user_id":53,"name":"C Sharp Minor","steam_id":76561199185191710,"connected_time":983000000000,"state":"active","ping":141},{"user_id":32,"name":"R.Y.","steam_id":76561199384459715,"connected_time":3066000000000,"state":"active","ping":121},{"user_id":54,"name":"pyonpyon","steam_id":76561198402500100,"connected_time":904000000000,"state":"active","ping":66},{"user_id":60,"name":"Exio","steam_id":76561198218639325,"connected_time":774000000000,"state":"active","ping":110},{"user_id":56,"name":"Lilac Kitsune","steam_id":76561198236980648,"connected_time":865000000000,"state":"active","ping":89},{"user_id":66,"name":"ShapedSilver","steam_id":76561199073305310,"connected_time":83000000000,"state":"active","ping":46},{"user_id":36,"name":"Pancakes","steam_id":76561198097983190,"connected_time":2367000000000,"state":"active","ping":58},{"user_id":59,"name":"harlowng","steam_id":76561198060542928,"connected_time":806000000000,"state":"active","ping":97},{"user_id":62,"name":"Fake21","steam_id":76561198282065071,"connected_time":471000000000,"state":"active","ping":51},{"user_id":49,"name":"skegeton","steam_id":76561198095581099,"connected_time":1252000000000,"state":"active","ping":63},{"user_id":24,"name":"line","steam_id":76561198086222096,"connected_time":3305000000000,"state":"active","ping":54},{"user_id":25,"name":"ash","steam_id":76561198127890645,"connected_time":3298000000000,"state":"active","ping":82},{"user_id":64,"name":"raya","steam_id":76561198051504581,"connected_time":384000000000,"state":"active","ping":45},{"user_id":28,"name":"「Slime」","steam_id":76561198062019138,"connected_time":3286000000000,"state":"active","ping":105}]},{"server_id":108,"name":"Uncletopia | Dallas | 2 | All Maps","name_short":"dal-2","host":"dal-1.us.uncletopia.com","port":27025,"enabled":true,"region":"us-central","cc":"us","latitude":32.779167,"longitude":-96.80889,"reserved":0,"last_update":"0001-01-01T00:00:00Z","name_a2s":"Uncletopia | Dallas | 2 | All Maps","protocol":17,"map":"pl_swiftwater_final1","folder":"tf","game":"Team Fortress","app_id":440,"player_count":1,"max_players":24,"Bots":0,"server_type":"Dedicated","server_os":"Linux","password":true,"vac":true,"version":"7932396","steam_id":85568392924469988,"keywords":["nocrits","nodmgspread","payload","uncletopia"],"game_id":440,"stv_port":27026,"stv_name":"Uncletopia | Dallas | 2 | All Maps | STV","players":[{"user_id":17,"name":"Icarus the legend","steam_id":76561199013250091,"connected_time":270000000000,"state":"active","ping":46}]},{"server_id":5,"name":"Uncletopia | Frankfurt | 1 | All Maps","name_short":"frk-1","host":"frk-1.de.uncletopia.com","port":27015,"enabled":true,"region":"eu","cc":"de","latitude":50.110924,"longitude":8.682127,"reserved":0,"last_update":"0001-01-01T00:00:00Z","name_a2s":"Uncletopia | Frankfurt | 1 | All Maps","protocol":17,"map":"pl_badwater","folder":"tf","game":"Team Fortress","app_id":440,"player_count":0,"max_players":24,"Bots":0,"server_type":"Dedicated","server_os":"Linux","password":true,"vac":true,"version":"7932396","steam_id":85568392924469989,"keywords":["nocrits","nodmgspread","payload","uncletopia"],"game_id":440,"stv_port":27016,"stv_name":"Uncletopia | Frankfurt | 1 | All Maps | STV","players":null},{"server_id":110,"name":"Uncletopia | Frankfurt | 2 | All Maps","name_short":"frk-2","host":"frk-1.de.uncletopia.com","port":27025,"enabled":true,"region":"eu","cc":"de","latitude":50.110924,"longitude":8.682127,"reserved":0,"last_update":"0001-01-01T00:00:00Z","name_a2s":"Uncletopia | Frankfurt | 2 | All Maps","protocol":17,"map":"pl_borneo","folder":"tf","game":"Team Fortress","app_id":440,"player_count":0,"max_players":24,"Bots":0,"server_type":"Dedicated","server_os":"Linux","password":true,"vac":true,"version":"7932396","steam_id":85568392924469990,"keywords":["nocrits","nodmgspread","payload","uncletopia"],"game_id":440,"stv_port":27026,"stv_name":"Uncletopia | Frankfurt | 2 | All Maps | STV","players":null},{"server_id":308,"name":"Uncletopia | Frankfurt | 3 | All Maps","name_short":"frk-3","host":"frk-1.de.uncletopia.com","port":27035,"enabled":true,"region":"eu","cc":"de","latitude":50.110924,"longitude":8.682127,"reserved":0,"last_update":"0001-01-01T00:00:00Z","name_a2s":"Uncletopia | Frankfurt | 3 | All Maps","protocol":17,"map":"pl_badwater","folder":"tf","game":"Team Fortress","app_id":440,"player_count":0,"max_players":24,"Bots":0,"server_type":"Dedicated","server_os":"Linux","password":true,"vac":true,"version":"7932396","steam_id":85568392924504274,"keywords":["nocrits","nodmgspread","payload","uncletopia"],"game_id":440,"stv_port":27036,"stv_name":"Uncletopia | Frankfurt | 3 | All Maps | STV","players":null},{"server_id":309,"name":"Uncletopia | Frankfurt | 4 | All Maps","name_short":"frk-4","host":"frk-1.de.uncletopia.com","port":27045,"enabled":true,"region":"eu","cc":"de","latitude":50.110924,"longitude":8.682127,"reserved":0,"last_update":"0001-01-01T00:00:00Z","name_a2s":"Uncletopia | Frankfurt | 4 | All Maps","protocol":17,"map":"pl_upward","folder":"tf","game":"Team Fortress","app_id":440,"player_count":0,"max_players":24,"Bots":0,"server_type":"Dedicated","server_os":"Linux","password":true,"vac":true,"version":"7932396","steam_id":85568392924504275,"keywords":["nocrits","nodmgspread","payload","uncletopia"],"game_id":440,"stv_port":27046,"stv_name":"Uncletopia | Frankfurt | 4 | All Maps | STV","players":null},{"server_id":310,"name":"Uncletopia | Frankfurt | 5 | All Maps","name_short":"frk-5","host":"frk-1.de.uncletopia.com","port":27055,"enabled":true,"region":"eu","cc":"de","latitude":50.110924,"longitude":8.682127,"reserved":0,"last_update":"0001-01-01T00:00:00Z","name_a2s":"Uncletopia | Frankfurt | 5 | All Maps","protocol":17,"map":"pl_borneo","folder":"tf","game":"Team Fortress","app_id":440,"player_count":0,"max_players":24,"Bots":0,"server_type":"Dedicated","server_os":"Linux","password":true,"vac":true,"version":"7932396","steam_id":85568392924504277,"keywords":["nocrits","nodmgspread","payload","uncletopia"],"game_id":440,"stv_port":27056,"stv_name":"Uncletopia | Frankfurt | 5 | All Maps | STV","players":null},{"server_id":311,"name":"Uncletopia | Frankfurt | 6 | All Maps","name_short":"frk-6","host":"frk-1.de.uncletopia.com","port":27065,"enabled":true,"region":"eu","cc":"de","latitude":50.110924,"longitude":8.682127,"reserved":0,"last_update":"0001-01-01T00:00:00Z","name_a2s":"Uncletopia | Frankfurt | 6 | All Maps","protocol":17,"map":"koth_viaduct","folder":"tf","game":"Team Fortress","app_id":440,"player_count":0,"max_players":24,"Bots":0,"server_type":"Dedicated","server_os":"Linux","password":true,"vac":true,"version":"7932396","steam_id":85568392924504278,"keywords":["cp","nocrits","nodmgspread","uncletopia"],"game_id":440,"stv_port":27066,"stv_name":"Uncletopia | Frankfurt | 6 | All Maps | STV","players":null},{"server_id":23,"name":"Uncletopia | Frankfurt | 7 | Stopwatch Beta","name_short":"frk-7","host":"frk-1.de.uncletopia.com","port":27075,"enabled":true,"region":"eu","cc":"de","latitude":50.110924,"longitude":8.682127,"reserved":0,"last_update":"0001-01-01T00:00:00Z","name_a2s":"Uncletopia | Frankfurt | 7 | Stopwatch Beta","protocol":17,"map":"pl_snowycoast","folder":"tf","game":"Team Fortress","app_id":440,"player_count":0,"max_players":24,"Bots":0,"server_type":"Dedicated","server_os":"Linux","password":true,"vac":true,"version":"7932396","steam_id":85568392924742827,"keywords":["nocrits","nodmgspread","payload","uncletopia"],"game_id":440,"stv_port":27076,"stv_name":"Uncletopia | Frankfurt | 7 | Stopwatch Beta | STV","players":null},{"server_id":24,"name":"Uncletopia | Frankfurt | 8 | Community","name_short":"frk-8","host":"frk-1.de.uncletopia.com","port":27085,"enabled":true,"region":"eu","cc":"de","latitude":50.110924,"longitude":8.682127,"reserved":0,"last_update":"0001-01-01T00:00:00Z","name_a2s":"Uncletopia | Frankfurt | 8 | Community","protocol":17,"map":"pl_barnblitz","folder":"tf","game":"Team Fortress","app_id":440,"player_count":0,"max_players":24,"Bots":0,"server_type":"Dedicated","server_os":"Linux","password":true,"vac":true,"version":"7932396","steam_id":85568392924742828,"keywords":["nocrits","nodmgspread","payload","uncletopia"],"game_id":440,"stv_port":27086,"stv_name":"Uncletopia | Frankfurt | 8 | Community | STV","players":null},{"server_id":202,"name":"Uncletopia | Hong Kong | 1 | All Maps","name_short":"hgk-1","host":"hgk-1.hk.uncletopia.com","port":27015,"enabled":true,"region":"asia","cc":"hk","latitude":22.302711,"longitude":114.177216,"reserved":0,"last_update":"0001-01-01T00:00:00Z","name_a2s":"Uncletopia | Hong Kong | 1 | All Maps","protocol":17,"map":"cp_dustbowl","folder":"tf","game":"Team Fortress","app_id":440,"player_count":1,"max_players":24,"Bots":0,"server_type":"Dedicated","server_os":"Linux","password":true,"vac":true,"version":"7932396","steam_id":85568392924494504,"keywords":["cp","nocrits","nodmgspread","uncletopia"],"game_id":440,"stv_port":27016,"stv_name":"Uncletopia | Hong Kong | 1 | All Maps | STV","players":[{"user_id":5,"name":"DeesDeeds","steam_id":76561199244400513,"connected_time":702000000000,"state":"active","ping":52}]},{"server_id":1,"name":"Uncletopia | Los Angeles | 1 | All Maps","name_short":"lax-1","host":"lax-1.us.uncletopia.com","port":27015,"enabled":true,"region":"us-west","cc":"us","latitude":33.94279,"longitude":-118.41004,"reserved":0,"last_update":"0001-01-01T00:00:00Z","name_a2s":"Uncletopia | Los Angeles | 1 | All Maps","protocol":17,"map":"cp_process_final","folder":"tf","game":"Team Fortress","app_id":440,"player_count":0,"max_players":24,"Bots":0,"server_type":"Dedicated","server_os":"Linux","password":true,"vac":true,"version":"7932396","steam_id":85568392924469991,"keywords":["cp","nocrits","nodmgspread","uncletopia"],"game_id":440,"stv_port":27016,"stv_name":"Uncletopia | Los Angeles | 1 | All Maps | STV","players":null},{"server_id":112,"name":"Uncletopia | Los Angeles | 2 | All Maps","name_short":"lax-2","host":"lax-1.us.uncletopia.com","port":27025,"enabled":true,"region":"us-west","cc":"us","latitude":33.94279,"longitude":-118.41004,"reserved":0,"last_update":"0001-01-01T00:00:00Z","name_a2s":"Uncletopia | Los Angeles | 2 | All Maps","protocol":17,"map":"cp_mountainlab","folder":"tf","game":"Team Fortress","app_id":440,"player_count":0,"max_players":24,"Bots":0,"server_type":"Dedicated","server_os":"Linux","password":true,"vac":true,"version":"7932396","steam_id":85568392924469992,"keywords":["cp","nocrits","nodmgspread","uncletopia"],"game_id":440,"stv_port":27026,"stv_name":"Uncletopia | Los Angeles | 2 | All Maps | STV","players":null},{"server_id":324,"name":"Uncletopia | Los Angeles | 3 | All Maps","name_short":"lax-3","host":"lax-1.us.uncletopia.com","port":27035,"enabled":true,"region":"us-west","cc":"us","latitude":33.94279,"longitude":-118.41004,"reserved":0,"last_update":"0001-01-01T00:00:00Z","name_a2s":"Uncletopia | Los Angeles | 3 | All Maps","protocol":17,"map":"pl_upward","folder":"tf","game":"Team Fortress","app_id":440,"player_count":24,"max_players":24,"Bots":0,"server_type":"Dedicated","server_os":"Linux","password":true,"vac":true,"version":"7932396","steam_id":85568392924510198,"keywords":["nocrits","nodmgspread","payload","uncletopia"],"game_id":440,"stv_port":27036,"stv_name":"Uncletopia | Los Angeles | 3 | All Maps | STV","players":[{"user_id":47,"name":"cringeass nae-nae girl","steam_id":76561198108753857,"connected_time":1144000000000,"state":"active","ping":79},{"user_id":10,"name":"Baggage","steam_id":76561198215128080,"connected_time":3455000000000,"state":"active","ping":67},{"user_id":68,"name":"NaxRat","steam_id":76561198992710128,"connected_time":158000000000,"state":"active","ping":66},{"user_id":6,"name":"Painkiller","steam_id":76561198049787400,"connected_time":3466000000000,"state":"active","ping":59},{"user_id":70,"name":"Jib","steam_id":76561198328210524,"connected_time":111000000000,"state":"active","ping":59},{"user_id":41,"name":"Plain Toast","steam_id":76561198451580251,"connected_time":1682000000000,"state":"active","ping":130},{"user_id":45,"name":"BurdBrain","steam_id":76561197962097737,"connected_time":1211000000000,"state":"active","ping":60},{"user_id":32,"name":"Poop Train Conductor","steam_id":76561198073677619,"connected_time":2232000000000,"state":"active","ping":75},{"user_id":12,"name":"incredirocks","steam_id":76561198061079993,"connected_time":3451000000000,"state":"active","ping":104},{"user_id":13,"name":"Maid 'n' China","steam_id":76561198423392976,"connected_time":3449000000000,"state":"active","ping":55},{"user_id":51,"name":"himbomccree","steam_id":76561198373330850,"connected_time":724000000000,"state":"active","ping":44},{"user_id":15,"name":"Tegrius","steam_id":76561199059733640,"connected_time":3434000000000,"state":"active","ping":60},{"user_id":54,"name":"FortniteLover2009","steam_id":76561198161229261,"connected_time":703000000000,"state":"active","ping":98},{"user_id":50,"name":"usedhalfcart","steam_id":76561198072621852,"connected_time":1019000000000,"state":"active","ping":77},{"user_id":18,"name":"El Gato Paranoico","steam_id":76561198116567116,"connected_time":3428000000000,"state":"active","ping":95},{"user_id":19,"name":"Buckethead","steam_id":76561198210181296,"connected_time":3426000000000,"state":"active","ping":64},{"user_id":40,"name":"Dcoyotzi","steam_id":76561199124707627,"connected_time":1702000000000,"state":"active","ping":77},{"user_id":55,"name":"OfficerI","steam_id":76561199117757361,"connected_time":659000000000,"state":"active","ping":64},{"user_id":48,"name":"Thomas","steam_id":76561198048091513,"connected_time":1121000000000,"state":"active","ping":71},{"user_id":62,"name":"Rays","steam_id":76561198072462009,"connected_time":351000000000,"state":"active","ping":90},{"user_id":75,"name":"OddSlaush","steam_id":76561198043898488,"connected_time":0,"state":"spawning","ping":26},{"user_id":26,"name":"california jew","steam_id":76561198914032112,"connected_time":3413000000000,"state":"active","ping":42},{"user_id":33,"name":"steve","steam_id":76561198207881077,"connected_time":2053000000000,"state":"active","ping":115},{"user_id":58,"name":"barry from jetpack joyride","steam_id":76561198881575174,"connected_time":543000000000,"state":"active","ping":215}]},{"server_id":25,"name":"Uncletopia | Los Angeles | 4 | Stopwatch Beta","name_short":"lax-4","host":"lax-1.us.uncletopia.com","port":27045,"enabled":true,"region":"us-west","cc":"us","latitude":33.94279,"longitude":-118.41004,"reserved":0,"last_update":"0001-01-01T00:00:00Z","name_a2s":"Uncletopia | Los Angeles | 4 | Stopwatch Beta","protocol":17,"map":"koth_highpass","folder":"tf","game":"Team Fortress","app_id":440,"player_count":0,"max_players":24,"Bots":0,"server_type":"Dedicated","server_os":"Linux","password":true,"vac":true,"version":"7932396","steam_id":85568392924510199,"keywords":["cp","nocrits","nodmgspread","uncletopia"],"game_id":440,"stv_port":27046,"stv_name":"Uncletopia | Los Angeles | 4 | Stopwatch Beta | STV","players":null},{"server_id":11,"name":"Uncletopia | London | 1 | All Maps","name_short":"lon-1","host":"lon-1.uk.uncletopia.com","port":27015,"enabled":true,"region":"eu","cc":"gb","latitude":51.509865,"longitude":-0.118092,"reserved":0,"last_update":"0001-01-01T00:00:00Z","name_a2s":"Uncletopia | London | 1 | All Maps","protocol":17,"map":"ctf_2fort","folder":"tf","game":"Team Fortress","app_id":440,"player_count":24,"max_players":24,"Bots":0,"server_type":"Dedicated","server_os":"Linux","password":true,"vac":true,"version":"7932396","steam_id":85568392924367362,"keywords":["ctf","nocrits","nodmgspread","uncletopia"],"game_id":440,"stv_port":27016,"stv_name":"Uncletopia | London | 1 | All Maps | STV","players":[{"user_id":41,"name":"Mega Saturn","steam_id":76561198024750500,"connected_time":520000000000,"state":"active","ping":74},{"user_id":46,"name":"Xeno","steam_id":76561198975556646,"connected_time":268000000000,"state":"active","ping":47},{"user_id":5,"name":"Worm","steam_id":76561198296497176,"connected_time":2494000000000,"state":"active","ping":48},{"user_id":6,"name":"S_ApplePie","steam_id":76561198106947669,"connected_time":2492000000000,"state":"active","ping":83},{"user_id":47,"name":"akmate","steam_id":76561198277858041,"connected_time":150000000000,"state":"active","ping":98},{"user_id":22,"name":"Eidolon","steam_id":76561198043919565,"connected_time":2369000000000,"state":"active","ping":72},{"user_id":26,"name":"Neimon","steam_id":76561198343485710,"connected_time":2318000000000,"state":"active","ping":126},{"user_id":10,"name":"noided","steam_id":76561199480942903,"connected_time":2489000000000,"state":"active","ping":128},{"user_id":38,"name":"Porridge Moisturizer","steam_id":76561198336523288,"connected_time":1082000000000,"state":"active","ping":128},{"user_id":13,"name":"superpx1","steam_id":76561198112530280,"connected_time":2470000000000,"state":"active","ping":70},{"user_id":48,"name":"Small Mouse","steam_id":76561198286085100,"connected_time":104000000000,"state":"active","ping":92},{"user_id":49,"name":"Mr. Meow II","steam_id":76561199476440897,"connected_time":99000000000,"state":"active","ping":132},{"user_id":44,"name":"assistance bitte","steam_id":76561198180361759,"connected_time":330000000000,"state":"active","ping":31},{"user_id":45,"name":"Qdarks","steam_id":76561198013391340,"connected_time":309000000000,"state":"active","ping":133},{"user_id":43,"name":"Borat","steam_id":76561198122226417,"connected_time":376000000000,"state":"active","ping":43},{"user_id":19,"name":"Xx_EpicGaymer_xX","steam_id":76561198846784757,"connected_time":2460000000000,"state":"active","ping":57},{"user_id":20,"name":"*pascal*","steam_id":76561198046549898,"connected_time":2425000000000,"state":"active","ping":52},{"user_id":50,"name":"Nilran","steam_id":76561197995956402,"connected_time":4000000000,"state":"spawning","ping":102},{"user_id":37,"name":"dohikie dingus","steam_id":76561199062061306,"connected_time":1282000000000,"state":"active","ping":174},{"user_id":24,"name":"Mr. Cobbweb","steam_id":76561198215079953,"connected_time":2341000000000,"state":"active","ping":60},{"user_id":27,"name":"Lorelei","steam_id":76561198056341754,"connected_time":2243000000000,"state":"active","ping":44},{"user_id":32,"name":"KiT","steam_id":76561198043770371,"connected_time":2089000000000,"state":"active","ping":75},{"user_id":29,"name":"Dr. Lambda","steam_id":76561198952939545,"connected_time":2159000000000,"state":"active","ping":124},{"user_id":31,"name":"Goodman","steam_id":76561199028512477,"connected_time":2117000000000,"state":"active","ping":89}]},{"server_id":114,"name":"Uncletopia | London | 2 | All Maps","name_short":"lon-2","host":"lon-1.uk.uncletopia.com","port":27025,"enabled":true,"region":"eu","cc":"gb","latitude":51.509865,"longitude":-0.118092,"reserved":0,"last_update":"0001-01-01T00:00:00Z","name_a2s":"Uncletopia | London | 2 | All Maps","protocol":17,"map":"koth_highpass","folder":"tf","game":"Team Fortress","app_id":440,"player_count":0,"max_players":24,"Bots":0,"server_type":"Dedicated","server_os":"Linux","password":true,"vac":true,"version":"7932396","steam_id":85568392924470941,"keywords":["cp","nocrits","nodmgspread","uncletopia"],"game_id":440,"stv_port":27026,"stv_name":"Uncletopia | London | 2 | All Maps | STV","players":null},{"server_id":320,"name":"Uncletopia | London | 3 | All Maps","name_short":"lon-3","host":"lon-1.uk.uncletopia.com","port":27035,"enabled":true,"region":"eu","cc":"gb","latitude":51.509865,"longitude":-0.118092,"reserved":0,"last_update":"0001-01-01T00:00:00Z","name_a2s":"Uncletopia | London | 3 | All Maps","protocol":17,"map":"cp_altitude","folder":"tf","game":"Team Fortress","app_id":440,"player_count":0,"max_players":24,"Bots":0,"server_type":"Dedicated","server_os":"Linux","password":true,"vac":true,"version":"7932396","steam_id":85568392924510192,"keywords":["cp","nocrits","nodmgspread","uncletopia"],"game_id":440,"stv_port":27036,"stv_name":"Uncletopia | London | 3 | All Maps | STV","players":null},{"server_id":321,"name":"Uncletopia | London | 4 | All Maps","name_short":"lon-4","host":"lon-1.uk.uncletopia.com","port":27045,"enabled":true,"region":"eu","cc":"gb","latitude":51.509865,"longitude":-0.118092,"reserved":0,"last_update":"0001-01-01T00:00:00Z","name_a2s":"Uncletopia | London | 4 | All Maps","protocol":17,"map":"cp_snakewater_final1","folder":"tf","game":"Team Fortress","app_id":440,"player_count":0,"max_players":24,"Bots":0,"server_type":"Dedicated","server_os":"Linux","password":true,"vac":true,"version":"7932396","steam_id":85568392924510193,"keywords":["cp","nocrits","nodmgspread","uncletopia"],"game_id":440,"stv_port":27046,"stv_name":"Uncletopia | London | 4 | All Maps | STV","players":null},{"server_id":21,"name":"Uncletopia | London | 5 | All Maps","name_short":"lon-5","host":"lon-1.uk.uncletopia.com","port":27055,"enabled":true,"region":"eu","cc":"gb","latitude":51.509865,"longitude":-0.118092,"reserved":0,"last_update":"0001-01-01T00:00:00Z","name_a2s":"Uncletopia | London | 5 | All Maps","protocol":17,"map":"pl_borneo","folder":"tf","game":"Team Fortress","app_id":440,"player_count":0,"max_players":24,"Bots":0,"server_type":"Dedicated","server_os":"Linux","password":true,"vac":true,"version":"7932396","steam_id":85568392924742829,"keywords":["nocrits","nodmgspread","payload","uncletopia"],"game_id":440,"stv_port":27056,"stv_name":"Uncletopia | London | 5 | All Maps | STV","players":null},{"server_id":22,"name":"Uncletopia | London | 6 | All Maps","name_short":"lon-6","host":"lon-1.uk.uncletopia.com","port":27065,"enabled":true,"region":"eu","cc":"gb","latitude":51.509865,"longitude":-0.118092,"reserved":0,"last_update":"0001-01-01T00:00:00Z","name_a2s":"Uncletopia | London | 6 | All Maps","protocol":17,"map":"cp_mountainlab","folder":"tf","game":"Team Fortress","app_id":440,"player_count":0,"max_players":24,"Bots":0,"server_type":"Dedicated","server_os":"Linux","password":true,"vac":true,"version":"7932396","steam_id":85568392924742830,"keywords":["cp","nocrits","nodmgspread","uncletopia"],"game_id":440,"stv_port":27066,"stv_name":"Uncletopia | London | 6 | All Maps | STV","players":null},{"server_id":40,"name":"Uncletopia | London | 7 | No Payload","name_short":"lon-7","host":"lon-1.uk.uncletopia.com","port":27075,"enabled":true,"region":"eu","cc":"gb","latitude":51.509865,"longitude":-0.118092,"reserved":0,"last_update":"0001-01-01T00:00:00Z","name_a2s":"Uncletopia | London | 7 | No Payload","protocol":17,"map":"pl_snowycoast","folder":"tf","game":"Team Fortress","app_id":440,"player_count":0,"max_players":24,"Bots":0,"server_type":"Dedicated","server_os":"Linux","password":true,"vac":true,"version":"7932396","steam_id":85568392924964314,"keywords":["nocrits","nodmgspread","payload","uncletopia"],"game_id":440,"stv_port":27076,"stv_name":"Uncletopia | London | 7 | No Payload | STV","players":null},{"server_id":41,"name":"Uncletopia | London | 8 | Community","name_short":"lon-8","host":"lon-1.uk.uncletopia.com","port":27085,"enabled":true,"region":"eu","cc":"gb","latitude":51.509865,"longitude":-0.118092,"reserved":0,"last_update":"0001-01-01T00:00:00Z","name_a2s":"Uncletopia | London | 8 | Community","protocol":17,"map":"pl_barnblitz","folder":"tf","game":"Team Fortress","app_id":440,"player_count":0,"max_players":24,"Bots":0,"server_type":"Dedicated","server_os":"Linux","password":true,"vac":true,"version":"7932396","steam_id":85568392924964315,"keywords":["nocrits","nodmgspread","payload","uncletopia"],"game_id":440,"stv_port":27086,"stv_name":"Uncletopia | London | 8 | Community | STV","players":null},{"server_id":300,"name":"Uncletopia | Montréal | 1 | All Maps","name_short":"mtl-1","host":"mtl-1.ca.uncletopia.com","port":27015,"enabled":true,"region":"us-east","cc":"ca","latitude":45.50889,"longitude":-73.56167,"reserved":0,"last_update":"0001-01-01T00:00:00Z","name_a2s":"Uncletopia | Montréal | 1 | All Maps","protocol":17,"map":"cp_altitude","folder":"tf","game":"Team Fortress","app_id":440,"player_count":0,"max_players":24,"Bots":0,"server_type":"Dedicated","server_os":"Linux","password":true,"vac":true,"version":"7932396","steam_id":85568392924500087,"keywords":["cp","nocrits","nodmgspread","uncletopia"],"game_id":440,"stv_port":27016,"stv_name":"Uncletopia | Montréal | 1 | All Maps | STV","players":null},{"server_id":301,"name":"Uncletopia | Montréal | 2 | All Maps","name_short":"mtl-2","host":"mtl-1.ca.uncletopia.com","port":27025,"enabled":true,"region":"us-east","cc":"ca","latitude":45.50889,"longitude":-73.56167,"reserved":0,"last_update":"0001-01-01T00:00:00Z","name_a2s":"Uncletopia | Montréal | 2 | All Maps","protocol":17,"map":"koth_lakeside_final","folder":"tf","game":"Team Fortress","app_id":440,"player_count":0,"max_players":24,"Bots":0,"server_type":"Dedicated","server_os":"Linux","password":true,"vac":true,"version":"7932396","steam_id":85568392924500088,"keywords":["cp","nocrits","nodmgspread","uncletopia"],"game_id":440,"stv_port":27026,"stv_name":"Uncletopia | Montréal | 2 | All Maps | STV","players":null},{"server_id":302,"name":"Uncletopia | Montréal | 3 | All Maps","name_short":"mtl-3","host":"mtl-1.ca.uncletopia.com","port":27035,"enabled":true,"region":"us-east","cc":"ca","latitude":45.50889,"longitude":-73.56167,"reserved":0,"last_update":"0001-01-01T00:00:00Z","name_a2s":"Uncletopia | Montréal | 3 | All Maps","protocol":17,"map":"cp_process_final","folder":"tf","game":"Team Fortress","app_id":440,"player_count":0,"max_players":24,"Bots":0,"server_type":"Dedicated","server_os":"Linux","password":true,"vac":true,"version":"7932396","steam_id":85568392924500089,"keywords":["cp","nocrits","nodmgspread","uncletopia"],"game_id":440,"stv_port":27036,"stv_name":"Uncletopia | Montréal | 3 | All Maps | STV","players":null},{"server_id":303,"name":"Uncletopia | Montréal | 4 | No Payload","name_short":"mtl-4","host":"mtl-1.ca.uncletopia.com","port":27045,"enabled":true,"region":"us-east","cc":"ca","latitude":45.50889,"longitude":-73.56167,"reserved":0,"last_update":"0001-01-01T00:00:00Z","name_a2s":"Uncletopia | Montréal | 4 | No Payload","protocol":17,"map":"cp_snakewater_final1","folder":"tf","game":"Team Fortress","app_id":440,"player_count":0,"max_players":24,"Bots":0,"server_type":"Dedicated","server_os":"Linux","password":true,"vac":true,"version":"7932396","steam_id":85568392924500090,"keywords":["cp","nocrits","nodmgspread","uncletopia"],"game_id":440,"stv_port":27046,"stv_name":"Uncletopia | Montréal | 4 | No Payload | STV","players":null},{"server_id":13,"name":"Uncletopia | New York City | 1 | All Maps","name_short":"nyc-1","host":"nyc-1.us.uncletopia.com","port":27015,"enabled":true,"region":"us-east","cc":"us","latitude":40.73061,"longitude":-73.93524,"reserved":0,"last_update":"0001-01-01T00:00:00Z","name_a2s":"Uncletopia | New York City | 1 | All Maps","protocol":17,"map":"cp_dustbowl","folder":"tf","game":"Team Fortress","app_id":440,"player_count":0,"max_players":24,"Bots":0,"server_type":"Dedicated","server_os":"Linux","password":true,"vac":true,"version":"7932396","steam_id":85568392924469993,"keywords":["cp","nocrits","nodmgspread","uncletopia"],"game_id":440,"stv_port":27016,"stv_name":"Uncletopia | New York City | 1 | All Maps | STV","players":null},{"server_id":14,"name":"Uncletopia | New York City | 2 | All Maps","name_short":"nyc-2","host":"nyc-1.us.uncletopia.com","port":27025,"enabled":true,"region":"us-east","cc":"us","latitude":40.73061,"longitude":-73.93524,"reserved":0,"last_update":"0001-01-01T00:00:00Z","name_a2s":"Uncletopia | New York City | 2 | All Maps","protocol":17,"map":"pl_badwater","folder":"tf","game":"Team Fortress","app_id":440,"player_count":24,"max_players":24,"Bots":0,"server_type":"Dedicated","server_os":"Linux","password":true,"vac":true,"version":"7932396","steam_id":85568392924469994,"keywords":["nocrits","nodmgspread","payload","uncletopia"],"game_id":440,"stv_port":27026,"stv_name":"Uncletopia | New York City | 2 | All Maps | STV","players":[{"user_id":47,"name":"The Burglar","steam_id":76561198325685937,"connected_time":1659000000000,"state":"active","ping":74},{"user_id":51,"name":"WoodsRunner","steam_id":76561198121812870,"connected_time":1566000000000,"state":"active","ping":44},{"user_id":54,"name":"ᗜˬᗜ","steam_id":76561198049076233,"connected_time":1436000000000,"state":"active","ping":56},{"user_id":6,"name":"just call me joe","steam_id":76561198043911582,"connected_time":3500000000000,"state":"active","ping":45},{"user_id":75,"name":"Twitch.tv/markblood2023tm","steam_id":76561198171746702,"connected_time":30000000000,"state":"active","ping":48},{"user_id":65,"name":"Tidwell","steam_id":76561198037414410,"connected_time":529000000000,"state":"active","ping":57},{"user_id":76,"name":"Kuchio","steam_id":76561198161218914,"connected_time":18000000000,"state":"active","ping":123},{"user_id":28,"name":"chainsaw chains for teeth.","steam_id":76561198294013916,"connected_time":3295000000000,"state":"active","ping":46},{"user_id":58,"name":"RaixaR","steam_id":76561198025289430,"connected_time":1179000000000,"state":"active","ping":94},{"user_id":12,"name":"Maxxycat","steam_id":76561198194062681,"connected_time":3459000000000,"state":"active","ping":65},{"user_id":45,"name":"warrior","steam_id":76561198074500319,"connected_time":1692000000000,"state":"active","ping":128},{"user_id":63,"name":"Double Tapp","steam_id":76561197993847700,"connected_time":547000000000,"state":"active","ping":138},{"user_id":15,"name":"xFactr","steam_id":76561198129007422,"connected_time":3431000000000,"state":"active","ping":39},{"user_id":69,"name":"TAG_U_IT","steam_id":76561198171340066,"connected_time":498000000000,"state":"active","ping":41},{"user_id":49,"name":"A Fool","steam_id":76561198029853893,"connected_time":1636000000000,"state":"active","ping":74},{"user_id":61,"name":"A Cranky Cassowary","steam_id":76561198037372342,"connected_time":702000000000,"state":"active","ping":77},{"user_id":62,"name":"Mathatguy","steam_id":76561198225432188,"connected_time":660000000000,"state":"active","ping":103},{"user_id":20,"name":"sad boi","steam_id":76561198395577807,"connected_time":3410000000000,"state":"active","ping":49},{"user_id":71,"name":"just a small town smish","steam_id":76561199046490785,"connected_time":417000000000,"state":"active","ping":71},{"user_id":33,"name":"sussycheese","steam_id":76561198384139570,"connected_time":3041000000000,"state":"active","ping":131},{"user_id":64,"name":"SkyFlyWhite","steam_id":76561198241383126,"connected_time":542000000000,"state":"active","ping":95},{"user_id":59,"name":"Evillou","steam_id":76561198010395648,"connected_time":1177000000000,"state":"active","ping":66},{"user_id":26,"name":"BigDeac","steam_id":76561198091237274,"connected_time":3374000000000,"state":"active","ping":71},{"user_id":73,"name":"Nobmike","steam_id":76561198046096279,"connected_time":199000000000,"state":"active","ping":79}]},{"server_id":15,"name":"Uncletopia | New York City | 3 | Stopwatch Beta","name_short":"nyc-3","host":"nyc-1.us.uncletopia.com","port":27035,"enabled":true,"region":"us-east","cc":"us","latitude":40.73061,"longitude":-73.93524,"reserved":0,"last_update":"0001-01-01T00:00:00Z","name_a2s":"Uncletopia | New York City | 3 | Stopwatch Beta","protocol":17,"map":"cp_sunshine","folder":"tf","game":"Team Fortress","app_id":440,"player_count":0,"max_players":24,"Bots":0,"server_type":"Dedicated","server_os":"Linux","password":true,"vac":true,"version":"7932396","steam_id":85568392924742820,"keywords":["cp","nocrits","nodmgspread","uncletopia"],"game_id":440,"stv_port":27036,"stv_name":"Uncletopia | New York City | 3 | Stopwatch Beta | STV","players":null},{"server_id":16,"name":"Uncletopia | New York City | 4 | Community","name_short":"nyc-4","host":"nyc-1.us.uncletopia.com","port":27045,"enabled":true,"region":"us-east","cc":"us","latitude":40.73061,"longitude":-73.93524,"reserved":0,"last_update":"0001-01-01T00:00:00Z","name_a2s":"Uncletopia | New York City | 4 | Community","protocol":17,"map":"workshop/cp_snowbase_b18.ugc2081770490","folder":"tf","game":"Team Fortress","app_id":440,"player_count":0,"max_players":24,"Bots":0,"server_type":"Dedicated","server_os":"Linux","password":true,"vac":true,"version":"7932396","steam_id":85568392924742821,"keywords":["cp","nocrits","nodmgspread","uncletopia"],"game_id":440,"stv_port":27046,"stv_name":"Uncletopia | New York City | 4 | Community | STV","players":null},{"server_id":142,"name":"Uncletopia | São Paulo | 1 | All Maps","name_short":"sao-1","host":"sao-1.br.uncletopia.com","port":27015,"enabled":true,"region":"sa","cc":"br","latitude":-23.533773,"longitude":-46.62529,"reserved":0,"last_update":"0001-01-01T00:00:00Z","name_a2s":"Uncletopia | São Paulo | 1 | All Maps","protocol":17,"map":"cp_mountainlab","folder":"tf","game":"Team Fortress","app_id":440,"player_count":0,"max_players":24,"Bots":0,"server_type":"Dedicated","server_os":"Linux","password":true,"vac":true,"version":"7932396","steam_id":85568392924469996,"keywords":["cp","nocrits","nodmgspread","uncletopia"],"game_id":440,"stv_port":27016,"stv_name":"Uncletopia | São Paulo | 1 | All Maps | STV","players":null},{"server_id":143,"name":"Uncletopia | São Paulo | 2 | All Maps","name_short":"sao-2","host":"sao-2.br.uncletopia.com","port":27015,"enabled":true,"region":"sa","cc":"br","latitude":-23.533773,"longitude":-46.62529,"reserved":0,"last_update":"0001-01-01T00:00:00Z","name_a2s":"Uncletopia | São Paulo | 2 | All Maps","protocol":17,"map":"pl_swiftwater_final1","folder":"tf","game":"Team Fortress","app_id":440,"player_count":0,"max_players":24,"Bots":0,"server_type":"Dedicated","server_os":"Linux","password":true,"vac":true,"version":"7932396","steam_id":85568392924485349,"keywords":["nocrits","nodmgspread","payload","uncletopia"],"game_id":440,"stv_port":27016,"stv_name":"Uncletopia | São Paulo | 2 | All Maps | STV","players":null},{"server_id":7,"name":"Uncletopia | Seattle | 1 | All Maps","name_short":"sea-1","host":"sea-1.us.uncletopia.com","port":27015,"enabled":true,"region":"us-west","cc":"us","latitude":47.608013,"longitude":-122.33517,"reserved":0,"last_update":"0001-01-01T00:00:00Z","name_a2s":"Uncletopia | Seattle | 1 | All Maps","protocol":17,"map":"koth_highpass","folder":"tf","game":"Team Fortress","app_id":440,"player_count":24,"max_players":24,"Bots":0,"server_type":"Dedicated","server_os":"Linux","password":true,"vac":true,"version":"7932396","steam_id":85568392924469997,"keywords":["cp","nocrits","nodmgspread","uncletopia"],"game_id":440,"stv_port":27016,"stv_name":"Uncletopia | Seattle | 1 | All Maps | STV","players":[{"user_id":3,"name":"rat gets the cheese","steam_id":76561198031234032,"connected_time":3488000000000,"state":"active","ping":96},{"user_id":4,"name":"goldhed","steam_id":76561198051751133,"connected_time":3488000000000,"state":"active","ping":50},{"user_id":5,"name":"quaq","steam_id":76561198059604047,"connected_time":3485000000000,"state":"active","ping":34},{"user_id":42,"name":"Ducks","steam_id":76561198130038345,"connected_time":2470000000000,"state":"active","ping":65},{"user_id":48,"name":"mike, has 3 baby mamas","steam_id":76561198225411004,"connected_time":1736000000000,"state":"active","ping":61},{"user_id":8,"name":"lasky","steam_id":76561198017030029,"connected_time":3484000000000,"state":"active","ping":73},{"user_id":41,"name":"dougrocks421","steam_id":76561198165063918,"connected_time":2932000000000,"state":"active","ping":39},{"user_id":10,"name":"NEBULA","steam_id":76561198086878595,"connected_time":3484000000000,"state":"active","ping":72},{"user_id":60,"name":"VerminKing","steam_id":76561198060887391,"connected_time":1474000000000,"state":"active","ping":60},{"user_id":12,"name":"louie, anti-circ","steam_id":76561198168084763,"connected_time":3482000000000,"state":"active","ping":44},{"user_id":71,"name":"fwoov","steam_id":76561198129166260,"connected_time":740000000000,"state":"active","ping":85},{"user_id":51,"name":"Doctor™","steam_id":76561198134309750,"connected_time":1728000000000,"state":"active","ping":106},{"user_id":67,"name":"Arsonist Goose","steam_id":76561198147441830,"connected_time":1135000000000,"state":"active","ping":66},{"user_id":16,"name":"delight","steam_id":76561197980280272,"connected_time":3477000000000,"state":"active","ping":49},{"user_id":45,"name":"Disc0","steam_id":76561198067337267,"connected_time":2224000000000,"state":"active","ping":47},{"user_id":75,"name":"sissy fuckdoll $","steam_id":76561199064932372,"connected_time":251000000000,"state":"active","ping":75},{"user_id":19,"name":"oil","steam_id":76561198099980149,"connected_time":3474000000000,"state":"active","ping":76},{"user_id":21,"name":"lusty","steam_id":76561198138478947,"connected_time":3470000000000,"state":"active","ping":39},{"user_id":76,"name":"gorlab","steam_id":76561198025089694,"connected_time":159000000000,"state":"active","ping":52},{"user_id":54,"name":"samantha","steam_id":76561198049258493,"connected_time":1719000000000,"state":"active","ping":54},{"user_id":65,"name":"roryisn'tfullyhere","steam_id":76561198065825165,"connected_time":1323000000000,"state":"active","ping":110},{"user_id":53,"name":"chocky","steam_id":76561198057491296,"connected_time":1727000000000,"state":"active","ping":48},{"user_id":28,"name":"Raian","steam_id":76561199138048671,"connected_time":3464000000000,"state":"active","ping":72},{"user_id":57,"name":"camp3r","steam_id":76561197992870439,"connected_time":1695000000000,"state":"active","ping":35}]},{"server_id":119,"name":"Uncletopia | Seattle | 2 | All Maps","name_short":"sea-2","host":"sea-1.us.uncletopia.com","port":27025,"enabled":true,"region":"us-west","cc":"us","latitude":47.608013,"longitude":-122.33517,"reserved":0,"last_update":"0001-01-01T00:00:00Z","name_a2s":"Uncletopia | Seattle | 2 | All Maps","protocol":17,"map":"pl_badwater","folder":"tf","game":"Team Fortress","app_id":440,"player_count":24,"max_players":24,"Bots":0,"server_type":"Dedicated","server_os":"Linux","password":true,"vac":true,"version":"7932396","steam_id":85568392924469998,"keywords":["nocrits","nodmgspread","payload","uncletopia"],"game_id":440,"stv_port":27026,"stv_name":"Uncletopia | Seattle | 2 | All Maps | STV","players":[{"user_id":81,"name":"如願","steam_id":76561198038486613,"connected_time":196000000000,"state":"active","ping":105},{"user_id":5,"name":"SvicidalBug","steam_id":76561198221390504,"connected_time":3457000000000,"state":"active","ping":65},{"user_id":71,"name":"Arima","steam_id":76561198093711854,"connected_time":510000000000,"state":"active","ping":125},{"user_id":27,"name":"Dr. Inkulus | snlnʞuI ˙ɹᗡ","steam_id":76561198212231033,"connected_time":2983000000000,"state":"active","ping":38},{"user_id":80,"name":"MagicMinecraft","steam_id":76561199230154152,"connected_time":209000000000,"state":"active","ping":98},{"user_id":64,"name":"Villchip","steam_id":76561198198599982,"connected_time":905000000000,"state":"active","ping":51},{"user_id":65,"name":"EPicat","steam_id":76561198107166028,"connected_time":902000000000,"state":"active","ping":74},{"user_id":66,"name":"Based Dysphoria","steam_id":76561198034111862,"connected_time":901000000000,"state":"active","ping":70},{"user_id":70,"name":"Marc G","steam_id":76561198062650363,"connected_time":561000000000,"state":"active","ping":111},{"user_id":75,"name":"Scorpianswag","steam_id":76561198260651036,"connected_time":313000000000,"state":"active","ping":60},{"user_id":17,"name":"wmjledger","steam_id":76561198443046861,"connected_time":3252000000000,"state":"active","ping":59},{"user_id":48,"name":"Cheesed Burger","steam_id":76561198066425198,"connected_time":2093000000000,"state":"active","ping":85},{"user_id":74,"name":"The King of Piss World","steam_id":76561198082806956,"connected_time":321000000000,"state":"active","ping":159},{"user_id":58,"name":"fatty ginormus extra large","steam_id":76561198070136627,"connected_time":1349000000000,"state":"active","ping":75},{"user_id":73,"name":"Mikidy","steam_id":76561197972958970,"connected_time":336000000000,"state":"active","ping":74},{"user_id":76,"name":"jubb","steam_id":76561198186865526,"connected_time":307000000000,"state":"active","ping":67},{"user_id":77,"name":"totally not a pile of beans","steam_id":76561198119851931,"connected_time":300000000000,"state":"active","ping":133},{"user_id":26,"name":"Ginger powder","steam_id":76561198057868006,"connected_time":3002000000000,"state":"active","ping":98},{"user_id":72,"name":"Limonene","steam_id":76561198042795502,"connected_time":503000000000,"state":"active","ping":96},{"user_id":54,"name":"Nolan","steam_id":76561198169648081,"connected_time":1592000000000,"state":"active","ping":67},{"user_id":60,"name":"acid piledriver","steam_id":76561198036753164,"connected_time":1159000000000,"state":"active","ping":119},{"user_id":69,"name":"soupy","steam_id":76561197974283797,"connected_time":590000000000,"state":"active","ping":89},{"user_id":78,"name":"sunny","steam_id":76561198069380992,"connected_time":248000000000,"state":"active","ping":104},{"user_id":79,"name":"Allotrope","steam_id":76561197998450103,"connected_time":243000000000,"state":"active","ping":77}]},{"server_id":406,"name":"Uncletopia | Seattle | 3 | Stopwatch Beta","name_short":"sea-3","host":"sea-1.us.uncletopia.com","port":27035,"enabled":true,"region":"us-west","cc":"us","latitude":47.608013,"longitude":-122.33517,"reserved":0,"last_update":"0001-01-01T00:00:00Z","name_a2s":"Uncletopia | Seattle | 3 | Stopwatch Beta","protocol":17,"map":"cp_mountainlab","folder":"tf","game":"Team Fortress","app_id":440,"player_count":0,"max_players":24,"Bots":0,"server_type":"Dedicated","server_os":"Linux","password":true,"vac":true,"version":"7932396","steam_id":85568392924515217,"keywords":["cp","nocrits","nodmgspread","uncletopia"],"game_id":440,"stv_port":27036,"stv_name":"Uncletopia | Seattle | 3 | Stopwatch Beta | STV","players":null},{"server_id":17,"name":"Uncletopia | San Francisco | 1 | All Maps","name_short":"sfo-1","host":"sfo-1.us.uncletopia.com","port":27015,"enabled":true,"region":"us-west","cc":"us","latitude":37.77397,"longitude":-122.4313,"reserved":0,"last_update":"0001-01-01T00:00:00Z","name_a2s":"Uncletopia | San Francisco | 1 | All Maps","protocol":17,"map":"pl_borneo","folder":"tf","game":"Team Fortress","app_id":440,"player_count":24,"max_players":24,"Bots":0,"server_type":"Dedicated","server_os":"Linux","password":true,"vac":true,"version":"7932396","steam_id":85568392924469999,"keywords":["nocrits","nodmgspread","payload","uncletopia"],"game_id":440,"stv_port":27016,"stv_name":"Uncletopia | San Francisco | 1 | All Maps | STV","players":[{"user_id":15,"name":"Big Oz","steam_id":76561198970897660,"connected_time":2575000000000,"state":"active","ping":105},{"user_id":43,"name":"human trafficking","steam_id":76561198309823950,"connected_time":678000000000,"state":"active","ping":59},{"user_id":18,"name":"Youralmightydino","steam_id":76561198052379730,"connected_time":1817000000000,"state":"active","ping":99},{"user_id":21,"name":"Coyote Bongwater","steam_id":76561198022905122,"connected_time":1575000000000,"state":"active","ping":47},{"user_id":26,"name":"Jade Furry","steam_id":76561198037376688,"connected_time":1358000000000,"state":"active","ping":111},{"user_id":44,"name":"GIRTHQUAKE, MAGNITUDE 11","steam_id":76561198023975674,"connected_time":663000000000,"state":"active","ping":89},{"user_id":35,"name":"xplodingminion","steam_id":76561199112173549,"connected_time":1219000000000,"state":"active","ping":67},{"user_id":22,"name":"O D J","steam_id":76561198071254599,"connected_time":1575000000000,"state":"active","ping":45},{"user_id":48,"name":"Medic Boyfriend","steam_id":76561198104086771,"connected_time":341000000000,"state":"active","ping":64},{"user_id":47,"name":"halo","steam_id":76561198144909435,"connected_time":447000000000,"state":"active","ping":63},{"user_id":25,"name":"JuliaDragon","steam_id":76561198175727790,"connected_time":1444000000000,"state":"active","ping":51},{"user_id":40,"name":"Techne","steam_id":76561198090486583,"connected_time":1003000000000,"state":"active","ping":117},{"user_id":45,"name":"jim awesome","steam_id":76561198337486020,"connected_time":608000000000,"state":"active","ping":51},{"user_id":29,"name":"mattt","steam_id":76561199053624086,"connected_time":1294000000000,"state":"active","ping":82},{"user_id":30,"name":"Etzan","steam_id":76561198026897084,"connected_time":1292000000000,"state":"active","ping":61},{"user_id":46,"name":"Just Dez","steam_id":76561199327664719,"connected_time":598000000000,"state":"active","ping":130},{"user_id":32,"name":"Taco","steam_id":76561198158621392,"connected_time":1268000000000,"state":"active","ping":110},{"user_id":34,"name":"Shibuya 808","steam_id":76561198040462757,"connected_time":1251000000000,"state":"active","ping":113},{"user_id":36,"name":"MonkE","steam_id":76561198044883120,"connected_time":1200000000000,"state":"active","ping":57},{"user_id":37,"name":"BackToSchoolAds","steam_id":76561198870281128,"connected_time":1151000000000,"state":"active","ping":76},{"user_id":38,"name":"PrinceGamerYT1","steam_id":76561199041908380,"connected_time":1104000000000,"state":"active","ping":55},{"user_id":39,"name":"primordial","steam_id":76561198058836750,"connected_time":1080000000000,"state":"active","ping":81},{"user_id":41,"name":"JTCR","steam_id":76561198128156322,"connected_time":992000000000,"state":"active","ping":110},{"user_id":42,"name":"Awful Player","steam_id":76561198046366964,"connected_time":991000000000,"state":"active","ping":97}]},{"server_id":18,"name":"Uncletopia | San Francisco | 2 | All Maps","name_short":"sfo-2","host":"sfo-1.us.uncletopia.com","port":27025,"enabled":true,"region":"us-west","cc":"us","latitude":37.77397,"longitude":-122.4313,"reserved":0,"last_update":"0001-01-01T00:00:00Z","name_a2s":"Uncletopia | San Francisco | 2 | All Maps","protocol":17,"map":"koth_cascade","folder":"tf","game":"Team Fortress","app_id":440,"player_count":24,"max_players":24,"Bots":0,"server_type":"Dedicated","server_os":"Linux","password":true,"vac":true,"version":"7932396","steam_id":85568392924470000,"keywords":["cp","nocrits","nodmgspread","uncletopia"],"game_id":440,"stv_port":27026,"stv_name":"Uncletopia | San Francisco | 2 | All Maps | STV","players":[{"user_id":54,"name":"blobmasterer","steam_id":76561198001131403,"connected_time":375000000000,"state":"active","ping":55},{"user_id":10,"name":"Mapachito Lindo","steam_id":76561198031359995,"connected_time":3338000000000,"state":"active","ping":60},{"user_id":7,"name":"SolarusD","steam_id":76561198029279861,"connected_time":3383000000000,"state":"active","ping":46},{"user_id":56,"name":"S O U N D W A V E","steam_id":76561198093417449,"connected_time":296000000000,"state":"active","ping":52},{"user_id":8,"name":"Lambchop","steam_id":76561198043900363,"connected_time":3357000000000,"state":"active","ping":60},{"user_id":55,"name":"earth-chan-fan","steam_id":76561198110046630,"connected_time":352000000000,"state":"active","ping":104},{"user_id":12,"name":"Western_dragon","steam_id":76561198130456105,"connected_time":3324000000000,"state":"active","ping":61},{"user_id":53,"name":"Farseer Ulwithy","steam_id":76561197965179245,"connected_time":571000000000,"state":"active","ping":101},{"user_id":57,"name":"Lerny_Bander69","steam_id":76561199467619936,"connected_time":162000000000,"state":"active","ping":73},{"user_id":50,"name":"1stLemonAid","steam_id":76561198281567539,"connected_time":953000000000,"state":"active","ping":128},{"user_id":16,"name":"NotAWeeb","steam_id":76561198165530739,"connected_time":3141000000000,"state":"active","ping":59},{"user_id":34,"name":"Huh?","steam_id":76561198054866271,"connected_time":2580000000000,"state":"active","ping":61},{"user_id":52,"name":"MerkyWaters","steam_id":76561197998853063,"connected_time":728000000000,"state":"active","ping":73},{"user_id":58,"name":"steelzepplin","steam_id":76561197993182335,"connected_time":131000000000,"state":"active","ping":108},{"user_id":20,"name":"goob","steam_id":76561198057017027,"connected_time":3043000000000,"state":"active","ping":74},{"user_id":59,"name":"viedoamges","steam_id":76561198025295263,"connected_time":128000000000,"state":"active","ping":90},{"user_id":22,"name":"Chewychew","steam_id":76561198046562804,"connected_time":3037000000000,"state":"active","ping":87},{"user_id":60,"name":"Mikeonut","steam_id":76561198305752102,"connected_time":127000000000,"state":"active","ping":57},{"user_id":24,"name":"meme","steam_id":76561199170771700,"connected_time":2998000000000,"state":"active","ping":72},{"user_id":61,"name":"Sir Nope (TSS)","steam_id":76561198035935649,"connected_time":56000000000,"state":"active","ping":72},{"user_id":46,"name":"TheDogeIsReal","steam_id":76561199331300024,"connected_time":1534000000000,"state":"active","ping":80},{"user_id":29,"name":"A Can of AriZona Green Tea","steam_id":76561198062481133,"connected_time":2952000000000,"state":"active","ping":82},{"user_id":31,"name":"Saucy Boy","steam_id":76561198178332031,"connected_time":2852000000000,"state":"active","ping":112},{"user_id":62,"name":"Tech Deck","steam_id":76561199070437675,"connected_time":40000000000,"state":"active","ping":154}]},{"server_id":19,"name":"Uncletopia | San Francisco | 3 | Stopwatch Beta","name_short":"sfo-3","host":"sfo-1.us.uncletopia.com","port":27035,"enabled":true,"region":"us-west","cc":"us","latitude":37.77397,"longitude":-122.4313,"reserved":0,"last_update":"0001-01-01T00:00:00Z","name_a2s":"Uncletopia | San Francisco | 3 | Stopwatch Beta","protocol":17,"map":"koth_lakeside_final","folder":"tf","game":"Team Fortress","app_id":440,"player_count":0,"max_players":24,"Bots":0,"server_type":"Dedicated","server_os":"Linux","password":true,"vac":true,"version":"7932396","steam_id":85568392924742824,"keywords":["cp","nocrits","nodmgspread","uncletopia"],"game_id":440,"stv_port":27036,"stv_name":"Uncletopia | San Francisco | 3 | Stopwatch Beta | STV","players":null},{"server_id":20,"name":"Uncletopia | San Francisco | 4 | Community","name_short":"sfo-4","host":"sfo-1.us.uncletopia.com","port":27045,"enabled":true,"region":"us-west","cc":"us","latitude":37.77397,"longitude":-122.4313,"reserved":0,"last_update":"0001-01-01T00:00:00Z","name_a2s":"Uncletopia | San Francisco | 4 | Community","protocol":17,"map":"pl_borneo","folder":"tf","game":"Team Fortress","app_id":440,"player_count":0,"max_players":24,"Bots":0,"server_type":"Dedicated","server_os":"Linux","password":true,"vac":true,"version":"7932396","steam_id":85568392924742826,"keywords":["nocrits","nodmgspread","payload","uncletopia"],"game_id":440,"stv_port":27046,"stv_name":"Uncletopia | San Francisco | 4 | Community | STV","players":null},{"server_id":141,"name":"Uncletopia | Sydney | 1 | All Maps","name_short":"syd-1","host":"syd-1.au.uncletopia.com","port":27015,"enabled":true,"region":"au","cc":"au","latitude":-33.865143,"longitude":151.2099,"reserved":0,"last_update":"0001-01-01T00:00:00Z","name_a2s":"Uncletopia | Sydney | 1 | All Maps","protocol":17,"map":"koth_viaduct","folder":"tf","game":"Team Fortress","app_id":440,"player_count":25,"max_players":24,"Bots":0,"server_type":"Dedicated","server_os":"Linux","password":true,"vac":true,"version":"7932396","steam_id":85568392924470001,"keywords":["cp","nocrits","nodmgspread","uncletopia"],"game_id":440,"stv_port":27016,"stv_name":"Uncletopia | Sydney | 1 | All Maps | STV","players":[{"user_id":3,"name":"whatsapp","steam_id":76561199099744527,"connected_time":3546000000000,"state":"active","ping":47},{"user_id":42,"name":"horrid webbon ᘛ⁐̤ᕐᐷ","steam_id":76561198061998379,"connected_time":2293000000000,"state":"active","ping":42},{"user_id":5,"name":"Gnat","steam_id":76561198109747863,"connected_time":3536000000000,"state":"active","ping":100},{"user_id":6,"name":"Jodelkönig Franzl Lang","steam_id":76561198007667830,"connected_time":3535000000000,"state":"active","ping":59},{"user_id":7,"name":"Aquila","steam_id":76561198042520637,"connected_time":3533000000000,"state":"active","ping":41},{"user_id":13,"name":"uven","steam_id":76561198080981482,"connected_time":3504000000000,"state":"active","ping":36},{"user_id":63,"name":"Wampy","steam_id":76561199211235248,"connected_time":1304000000000,"state":"active","ping":40},{"user_id":10,"name":"Float","steam_id":76561198021812511,"connected_time":3529000000000,"state":"active","ping":58},{"user_id":60,"name":"Zebadar","steam_id":76561198121318474,"connected_time":1335000000000,"state":"active","ping":54},{"user_id":36,"name":"Lumalee ❤","steam_id":76561198157613299,"connected_time":2554000000000,"state":"active","ping":64},{"user_id":15,"name":"Pompadouraus","steam_id":76561198327530525,"connected_time":3493000000000,"state":"active","ping":74},{"user_id":16,"name":"sav","steam_id":76561198058760041,"connected_time":3487000000000,"state":"active","ping":71},{"user_id":65,"name":"Cup","steam_id":76561198038485845,"connected_time":815000000000,"state":"active","ping":39},{"user_id":57,"name":"you've left me be Wilbur'd","steam_id":76561198301282416,"connected_time":1694000000000,"state":"active","ping":51},{"user_id":32,"name":"Snowy","steam_id":76561198255720598,"connected_time":2808000000000,"state":"active","ping":169},{"user_id":71,"name":"Mac","steam_id":76561198063407128,"connected_time":631000000000,"state":"active","ping":55},{"user_id":61,"name":"juusha","steam_id":76561198911542330,"connected_time":1333000000000,"state":"active","ping":78},{"user_id":27,"name":"yilli_","steam_id":76561198210960700,"connected_time":2981000000000,"state":"active","ping":58},{"user_id":37,"name":"jim :)","steam_id":76561198127508905,"connected_time":2503000000000,"state":"active","ping":33},{"user_id":28,"name":"miyamoto is daddy","steam_id":76561199483818230,"connected_time":2969000000000,"state":"active","ping":65},{"user_id":55,"name":"Connor","steam_id":76561198088318589,"connected_time":1777000000000,"state":"active","ping":49},{"user_id":56,"name":"Fyre Rose","steam_id":76561198000527551,"connected_time":1773000000000,"state":"active","ping":76},{"user_id":33,"name":"perturb (feed/seed)","steam_id":76561198085124297,"connected_time":2791000000000,"state":"active","ping":59},{"user_id":35,"name":"DARLING","steam_id":76561198057146794,"connected_time":2578000000000,"state":"active","ping":61},{"user_id":62,"name":"barbecue bacon burger","steam_id":76561198271462646,"connected_time":1333000000000,"state":"active","ping":44}]},{"server_id":123,"name":"Uncletopia | Sydney | 2 | All Maps","name_short":"syd-2","host":"syd-1.au.uncletopia.com","port":27025,"enabled":true,"region":"au","cc":"au","latitude":-33.865143,"longitude":151.2099,"reserved":0,"last_update":"0001-01-01T00:00:00Z","name_a2s":"Uncletopia | Sydney | 2 | All Maps","protocol":17,"map":"koth_lakeside_final","folder":"tf","game":"Team Fortress","app_id":440,"player_count":0,"max_players":24,"Bots":0,"server_type":"Dedicated","server_os":"Linux","password":true,"vac":true,"version":"7932396","steam_id":85568392924470002,"keywords":["cp","nocrits","nodmgspread","uncletopia"],"game_id":440,"stv_port":27026,"stv_name":"Uncletopia | Sydney | 2 | All Maps | STV","players":null},{"server_id":395,"name":"Uncletopia | Sydney | 3 | All Maps","name_short":"syd-3","host":"syd-1.au.uncletopia.com","port":27035,"enabled":true,"region":"au","cc":"au","latitude":-33.865143,"longitude":151.2099,"reserved":0,"last_update":"0001-01-01T00:00:00Z","name_a2s":"Uncletopia | Sydney | 3 | All Maps","protocol":17,"map":"pl_barnblitz","folder":"tf","game":"Team Fortress","app_id":440,"player_count":9,"max_players":24,"Bots":0,"server_type":"Dedicated","server_os":"Linux","password":true,"vac":true,"version":"7932396","steam_id":85568392925194467,"keywords":["nocrits","nodmgspread","payload","uncletopia"],"game_id":440,"stv_port":27036,"stv_name":"Uncletopia | Sydney | 3 | All Maps | STV","players":[{"user_id":5,"name":"Babady","steam_id":76561198203093221,"connected_time":1187000000000,"state":"active","ping":77},{"user_id":6,"name":"Empolé","steam_id":76561198363939040,"connected_time":715000000000,"state":"active","ping":74},{"user_id":7,"name":"potmonger377","steam_id":76561199217407346,"connected_time":620000000000,"state":"active","ping":66},{"user_id":9,"name":"Ace of Space","steam_id":76561198379554422,"connected_time":553000000000,"state":"active","ping":55},{"user_id":10,"name":"Denszeal","steam_id":76561198313718095,"connected_time":326000000000,"state":"active","ping":72},{"user_id":11,"name":"Archer's Heatmaker","steam_id":76561198928406571,"connected_time":290000000000,"state":"active","ping":429},{"user_id":12,"name":"dreamydoggy","steam_id":76561198448243169,"connected_time":159000000000,"state":"active","ping":55},{"user_id":13,"name":"lavanderpumpernickle","steam_id":76561199093611800,"connected_time":84000000000,"state":"active","ping":57},{"user_id":14,"name":"Phibs","steam_id":76561199323730865,"connected_time":51000000000,"state":"active","ping":37}]},{"server_id":396,"name":"Uncletopia | Sydney | 4 | All Maps","name_short":"syd-4","host":"syd-1.au.uncletopia.com","port":27045,"enabled":true,"region":"au","cc":"au","latitude":-33.865143,"longitude":151.2099,"reserved":0,"last_update":"0001-01-01T00:00:00Z","name_a2s":"Uncletopia | Sydney | 4 | All Maps","protocol":17,"map":"pl_pier","folder":"tf","game":"Team Fortress","app_id":440,"player_count":0,"max_players":24,"Bots":0,"server_type":"Dedicated","server_os":"Linux","password":true,"vac":true,"version":"7932396","steam_id":85568392925397958,"keywords":["nocrits","nodmgspread","payload","uncletopia"],"game_id":440,"stv_port":27046,"stv_name":"Uncletopia | Sydney | 4 | All Maps | STV","players":null},{"server_id":58,"name":"Uncletopia | Sydney | 5 | Stopwatch Beta","name_short":"syd-5","host":"syd-1.au.uncletopia.com","port":27055,"enabled":true,"region":"au","cc":"au","latitude":-33.865143,"longitude":151.2099,"reserved":0,"last_update":"0001-01-01T00:00:00Z","name_a2s":"Uncletopia | Sydney | 5 | Stopwatch Beta","protocol":17,"map":"pl_borneo","folder":"tf","game":"Team Fortress","app_id":440,"player_count":0,"max_players":24,"Bots":0,"server_type":"Dedicated","server_os":"Linux","password":true,"vac":true,"version":"7932396","steam_id":85568392925397959,"keywords":["nocrits","nodmgspread","payload","uncletopia"],"game_id":440,"stv_port":27056,"stv_name":"Uncletopia | Sydney | 5 | Stopwatch Beta | STV","players":null},{"server_id":59,"name":"Uncletopia | Sydney | 6 | Community","name_short":"syd-6","host":"syd-1.au.uncletopia.com","port":27065,"enabled":true,"region":"au","cc":"au","latitude":-33.865143,"longitude":151.2099,"reserved":0,"last_update":"0001-01-01T00:00:00Z","name_a2s":"Uncletopia | Sydney | 6 | Community","protocol":17,"map":"pl_badwater","folder":"tf","game":"Team Fortress","app_id":440,"player_count":0,"max_players":24,"Bots":0,"server_type":"Dedicated","server_os":"Linux","password":true,"vac":true,"version":"7932396","steam_id":85568392925397960,"keywords":["nocrits","nodmgspread","payload","uncletopia"],"game_id":440,"stv_port":27066,"stv_name":"Uncletopia | Sydney | 6 | Community | STV","players":null},{"server_id":49,"name":"Uncletopia | Warsaw | 1 | All Maps","name_short":"waw-1","host":"waw-1.pl.uncletopia.com","port":27015,"enabled":true,"region":"eu","cc":"pl","latitude":52.2297,"longitude":21.017532,"reserved":0,"last_update":"0001-01-01T00:00:00Z","name_a2s":"","protocol":0,"map":"","folder":"","game":"","app_id":0,"player_count":0,"max_players":0,"Bots":0,"server_type":"","server_os":"","password":false,"vac":false,"version":"","steam_id":0,"keywords":null,"game_id":0,"stv_port":0,"stv_name":"","players":null},{"server_id":50,"name":"Uncletopia | Warsaw | 2 | All Maps","name_short":"waw-2","host":"waw-1.pl.uncletopia.com","port":27025,"enabled":true,"region":"eu","cc":"pl","latitude":52.2297,"longitude":21.017532,"reserved":0,"last_update":"0001-01-01T00:00:00Z","name_a2s":"Uncletopia | Warsaw | 2 | All Maps","protocol":17,"map":"cp_sunshine","folder":"tf","game":"Team Fortress","app_id":440,"player_count":0,"max_players":24,"Bots":0,"server_type":"Dedicated","server_os":"Linux","password":true,"vac":true,"version":"7932396","steam_id":85568392925397851,"keywords":["cp","nocrits","nodmgspread","uncletopia"],"game_id":440,"stv_port":27026,"stv_name":"Uncletopia | Warsaw | 2 | All Maps | STV","players":null},{"server_id":51,"name":"Uncletopia | Warsaw | 3 | All Maps","name_short":"waw-3","host":"waw-1.pl.uncletopia.com","port":27035,"enabled":true,"region":"eu","cc":"pl","latitude":52.2297,"longitude":21.017532,"reserved":0,"last_update":"0001-01-01T00:00:00Z","name_a2s":"Uncletopia | Warsaw | 3 | All Maps","protocol":17,"map":"koth_lakeside_final","folder":"tf","game":"Team Fortress","app_id":440,"player_count":0,"max_players":24,"Bots":0,"server_type":"Dedicated","server_os":"Linux","password":true,"vac":true,"version":"7932396","steam_id":85568392925397852,"keywords":["cp","nocrits","nodmgspread","uncletopia"],"game_id":440,"stv_port":27036,"stv_name":"Uncletopia | Warsaw | 3 | All Maps | STV","players":null},{"server_id":52,"name":"Uncletopia | Warsaw | 4 | All Maps","name_short":"waw-4","host":"waw-1.pl.uncletopia.com","port":27045,"enabled":true,"region":"eu","cc":"pl","latitude":52.2297,"longitude":21.017532,"reserved":0,"last_update":"0001-01-01T00:00:00Z","name_a2s":"Uncletopia | Warsaw | 4 | All Maps","protocol":17,"map":"pl_swiftwater_final1","folder":"tf","game":"Team Fortress","app_id":440,"player_count":0,"max_players":24,"Bots":0,"server_type":"Dedicated","server_os":"Linux","password":true,"vac":true,"version":"7932396","steam_id":85568392925397853,"keywords":["nocrits","nodmgspread","payload","uncletopia"],"game_id":440,"stv_port":27046,"stv_name":"Uncletopia | Warsaw | 4 | All Maps | STV","players":null},{"server_id":53,"name":"Uncletopia | Warsaw | 5 | Stopwatch Beta","name_short":"waw-5","host":"waw-1.pl.uncletopia.com","port":27055,"enabled":true,"region":"eu","cc":"pl","latitude":52.2297,"longitude":21.017532,"reserved":0,"last_update":"0001-01-01T00:00:00Z","name_a2s":"Uncletopia | Warsaw | 5 | Stopwatch Beta","protocol":17,"map":"koth_highpass","folder":"tf","game":"Team Fortress","app_id":440,"player_count":0,"max_players":24,"Bots":0,"server_type":"Dedicated","server_os":"Linux","password":true,"vac":true,"version":"7932396","steam_id":85568392925397854,"keywords":["cp","nocrits","nodmgspread","uncletopia"],"game_id":440,"stv_port":27056,"stv_name":"Uncletopia | Warsaw | 5 | Stopwatch Beta | STV","players":null},{"server_id":54,"name":"Uncletopia | Warsaw | 6 | Community","name_short":"waw-6","host":"waw-1.pl.uncletopia.com","port":27065,"enabled":true,"region":"eu","cc":"pl","latitude":52.2297,"longitude":21.017532,"reserved":0,"last_update":"0001-01-01T00:00:00Z","name_a2s":"Uncletopia | Warsaw | 6 | Community","protocol":17,"map":"pl_upward","folder":"tf","game":"Team Fortress","app_id":440,"player_count":0,"max_players":24,"Bots":0,"server_type":"Dedicated","server_os":"Linux","password":true,"vac":true,"version":"7932396","steam_id":85568392925397856,"keywords":["nocrits","nodmgspread","payload","uncletopia"],"game_id":440,"stv_port":27066,"stv_name":"Uncletopia | Warsaw | 6 | Community | STV","players":null}]}