{"status":true,"message":"","result":[{"server_id":9,"name":"Uncletopia | Atlanta | 1 | All Maps","name_short":"atl-1","host":"atl-1.us.uncletopia.com","port":27015,"enabled":true,"region":"us-east","cc":"us","latitude":33.753746,"longitude":-84.38633,"reserved":0,"last_update":"0001-01-01T00:00:00Z","name_a2s":"Uncletopia | Atlanta | 1 | All Maps","protocol":17,"map":"cp_dustbowl","folder":"tf","game":"Team Fortress","app_id":440,"player_count":4,"max_players":24,"Bots":0,"server_type":"Dedicated","server_os":"Linux","password":true,"vac":true,"version":"7757534","steam_id":85568392924469982,"keywords":["cp","nocrits","nodmgspread","uncletopia"],"game_id":440,"stv_port":27016,"stv_name":"Uncletopia | Atlanta | 1 | All Maps | STV","players":[{"user_id":759,"name":"Glitched_Player","steam_id":76561199204171582,"connected_time":640000000000,"state":"spawning","ping":51},{"user_id":763,"name":"are jay","steam_id":76561199160007012,"connected_time":340000000000,"state":"spawning","ping":219},{"user_id":764,"name":"BambuBabyPackRunner","steam_id":76561198320866421,"connected_time":190000000000,"state":"spawning","ping":51},{"user_id":741,"name":"MaurbaaTTV","steam_id":76561198396244334,"connected_time":2829000000000,"state":"spawning","ping":38}]},{"server_id":104,"name":"Uncletopia | Atlanta | 2 | All Maps","name_short":"atl-2","host":"atl-1.us.uncletopia.com","port":27025,"enabled":true,"region":"us-east","cc":"us","latitude":33.753746,"longitude":-84.38633,"reserved":0,"last_update":"0001-01-01T00:00:00Z","name_a2s":"Uncletopia | Atlanta | 2 | All Maps","protocol":17,"map":"cp_process_final","folder":"tf","game":"Team Fortress","app_id":440,"player_count":24,"max_players":24,"Bots":0,"server_type":"Dedicated","server_os":"Linux","password":true,"vac":true,"version":"7757534","steam_id":85568392924469983,"keywords":["cp","nocrits","nodmgspread","uncletopia"],"game_id":440,"stv_port":27026,"stv_name":"Uncletopia | Atlanta | 2 | All Maps | STV","players":[{"user_id":423,"name":"DottierGalaxy50","steam_id":76561198070062572,"connected_time":3674000000000,"state":"active","ping":88},{"user_id":427,"name":"habib_g6ix_God","steam_id":76561198053621664,"connected_time":3364000000000,"state":"active","ping":61},{"user_id":432,"name":"Stardust Breeze","steam_id":76561198093172960,"connected_time":2405000000000,"state":"active","ping":114},{"user_id":433,"name":"aero","steam_id":76561198297202459,"connected_time":2386000000000,"state":"active","ping":81},{"user_id":409,"name":"‚ô° U.B. ‚ô°","steam_id":76561198046245729,"connected_time":4010000000000,"state":"active","ping":113},{"user_id":410,"name":"Faiz","steam_id":76561198140183365,"connected_time":4006000000000,"state":"active","ping":46},{"user_id":428,"name":"Spiker!","steam_id":76561198344491858,"connected_time":3102000000000,"state":"active","ping":106},{"user_id":447,"name":"exer","steam_id":76561197973093864,"connected_time":1929000000000,"state":"active","ping":76},{"user_id":440,"name":"MichealVA","steam_id":76561198111883143,"connected_time":2212000000000,"state":"active","ping":108},{"user_id":431,"name":"DFR DeezNoodlez","steam_id":76561198246700372,"connected_time":2475000000000,"state":"active","ping":59},{"user_id":407,"name":"perkaperkins","steam_id":76561198870734551,"connected_time":4040000000000,"state":"active","ping":118},{"user_id":443,"name":"I ate those food","steam_id":76561198084614149,"connected_time":2042000000000,"state":"active","ping":60},{"user_id":453,"name":"Papa Milk","steam_id":76561198128428832,"connected_time":1408000000000,"state":"active","ping":84},{"user_id":452,"name":"Peter McKay","steam_id":76561198842221188,"connected_time":1501000000000,"state":"active","ping":75},{"user_id":441,"name":"Skarp129","steam_id":76561198108679057,"connected_time":2084000000000,"state":"active","ping":91},{"user_id":454,"name":"jordan (the country btw)","steam_id":76561198118212742,"connected_time":1267000000000,"state":"active","ping":70},{"user_id":359,"name":"BurnN8or101","steam_id":76561198132668224,"connected_time":7604000000000,"state":"active","ping":57},{"user_id":439,"name":"Benshiro","steam_id":76561198151776951,"connected_time":2252000000000,"state":"active","ping":114},{"user_id":442,"name":"Nopendium","steam_id":76561198087712908,"connected_time":2052000000000,"state":"active","ping":97},{"user_id":455,"name":"Â¶ÇÈ°ò","steam_id":76561198038486613,"connected_time":1202000000000,"state":"active","ping":61},{"user_id":456,"name":"Demonica","steam_id":76561198841858340,"connected_time":1127000000000,"state":"active","ping":105},{"user_id":457,"name":"noddlethenoodle","steam_id":76561198303850923,"connected_time":1104000000000,"state":"active","ping":86},{"user_id":459,"name":"herb","steam_id":76561198185980055,"connected_time":533000000000,"state":"active","ping":84},{"user_id":462,"name":"Broken Cereal‚àö","steam_id":76561198087489795,"connected_time":292000000000,"state":"active","ping":62}]},{"server_id":400,"name":"Uncletopia | Atlanta | 3 | Community","name_short":"atl-3","host":"atl-1.us.uncletopia.com","port":27035,"enabled":true,"region":"us-east","cc":"us","latitude":33.753746,"longitude":-84.38633,"reserved":0,"last_update":"0001-01-01T00:00:00Z","name_a2s":"Uncletopia | Atlanta | 3 | Community","protocol":17,"map":"workshop/cp_croissant_final.ugc458840209","folder":"tf","game":"Team Fortress","app_id":440,"player_count":19,"max_players":24,"Bots":0,"server_type":"Dedicated","server_os":"Linux","password":true,"vac":true,"version":"7757534","steam_id":85568392924515187,"keywords":["cp","nocrits","nodmgspread","uncletopia"],"game_id":440,"stv_port":27036,"stv_name":"Uncletopia | Atlanta | 3 | Community | STV","players":[{"user_id":393,"name":"TheTruthOfTheCessationOfDukkha","steam_id":76561198214370515,"connected_time":1219000000000,"state":"active","ping":68},{"user_id":360,"name":"RoVro","steam_id":76561198092212554,"connected_time":3376000000000,"state":"active","ping":57},{"user_id":382,"name":"Karma's Camera","steam_id":76561198059385185,"connected_time":1662000000000,"state":"active","ping":60},{"user_id":354,"name":"Sabaman55","steam_id":76561198212267979,"connected_time":3656000000000,"state":"active","ping":68},{"user_id":379,"name":"Lofi_Hill","steam_id":76561198061352627,"connected_time":1725000000000,"state":"active","ping":89},{"user_id":375,"name":"Misty Blu ‚ô• #TransFortress","steam_id":76561198011442255,"connected_time":1804000000000,"state":"active","ping":105},{"user_id":348,"name":"Crack Wizard","steam_id":76561198055463619,"connected_time":4031000000000,"state":"active","ping":89},{"user_id":400,"name":"j4miecl4rk","steam_id":76561198404312721,"connected_time":240000000000,"state":"active","ping":73},{"user_id":378,"name":"kittyboinks","steam_id":76561198133137208,"connected_time":1766000000000,"state":"active","ping":112},{"user_id":386,"name":"Raptor2","steam_id":76561198200290547,"connected_time":1602000000000,"state":"active","ping":134},{"user_id":396,"name":"John Coltrane","steam_id":76561198037789297,"connected_time":757000000000,"state":"active","ping":100},{"user_id":381,"name":"Asriel Dreemurr","steam_id":76561198325633982,"connected_time":1685000000000,"state":"active","ping":53},{"user_id":363,"name":"tonyforshyr","steam_id":76561198846474978,"connected_time":3289000000000,"state":"active","ping":78},{"user_id":383,"name":"MetalTao","steam_id":76561198189408110,"connected_time":1656000000000,"state":"active","ping":93},{"user_id":365,"name":"Irate Gamer Official","steam_id":76561198162688146,"connected_time":3215000000000,"state":"active","ping":102},{"user_id":401,"name":"Local Babyfur Unicorn","steam_id":76561198155526516,"connected_time":227000000000,"state":"active","ping":75},{"user_id":398,"name":"fifty six","steam_id":76561198057124367,"connected_time":518000000000,"state":"active","ping":80},{"user_id":394,"name":"pika","steam_id":76561198159415794,"connected_time":1118000000000,"state":"active","ping":45},{"user_id":368,"name":"The Depressed Engineer","steam_id":76561198837570484,"connected_time":3068000000000,"state":"active","ping":116}]},{"server_id":401,"name":"Uncletopia | Atlanta | 4 | No Payload","name_short":"atl-4","host":"atl-1.us.uncletopia.com","port":27045,"enabled":true,"region":"us-east","cc":"us","latitude":33.753746,"longitude":-84.38633,"reserved":0,"last_update":"0001-01-01T00:00:00Z","name_a2s":"","protocol":0,"map":"","folder":"","game":"","app_id":0,"player_count":0,"max_players":0,"Bots":0,"server_type":"","server_os":"","password":false,"vac":false,"version":"","steam_id":0,"keywords":null,"game_id":0,"stv_port":0,"stv_name":"","players":null},{"server_id":2,"name":"Uncletopia | Chicago | 1 | All Maps","name_short":"chi-1","host":"chi-1.us.uncletopia.com","port":27015,"enabled":true,"region":"us-central","cc":"us","latitude":41.881832,"longitude":-87.62318,"reserved":0,"last_update":"0001-01-01T00:00:00Z","name_a2s":"Uncletopia | Chicago | 1 | All Maps","protocol":17,"map":"pl_upward","folder":"tf","game":"Team Fortress","app_id":440,"player_count":24,"max_players":24,"Bots":0,"server_type":"Dedicated","server_os":"Linux","password":true,"vac":true,"version":"7757534","steam_id":85568392924469984,"keywords":["nocrits","nodmgspread","payload","uncletopia"],"game_id":440,"stv_port":27016,"stv_name":"Uncletopia | Chicago | 1 | All Maps | STV","players":[{"user_id":639,"name":"Leapinglionz11","steam_id":76561199216740065,"connected_time":1592000000000,"state":"active","ping":96},{"user_id":656,"name":"brainfart","steam_id":76561198013873134,"connected_time":69000000000,"state":"active","ping":77},{"user_id":641,"name":"LunarMallow","steam_id":76561198211930151,"connected_time":1567000000000,"state":"active","ping":85},{"user_id":636,"name":"hamletespacial","steam_id":76561199084414649,"connected_time":2293000000000,"state":"active","ping":55},{"user_id":654,"name":"Vacc Onetrick","steam_id":76561198207987376,"connected_time":131000000000,"state":"active","ping":61},{"user_id":645,"name":"ellby","steam_id":76561198304585963,"connected_time":757000000000,"state":"active","ping":46},{"user_id":637,"name":"horse","steam_id":76561197974493959,"connected_time":2206000000000,"state":"active","ping":64},{"user_id":616,"name":"Kilian","steam_id":76561197964374101,"connected_time":3527000000000,"state":"active","ping":102},{"user_id":595,"name":"Fresh","steam_id":76561199006338675,"connected_time":4175000000000,"state":"active","ping":61},{"user_id":610,"name":"üêâÔº¶ÔΩÅÔΩçÔΩâÔΩåÔΩô Ôº≠ÔΩÅ\ufffd\ufffd","steam_id":76561198080895233,"connected_time":3638000000000,"state":"active","ping":64},{"user_id":648,"name":"CreativeUsername","steam_id":76561198186045503,"connected_time":719000000000,"state":"active","ping":48},{"user_id":640,"name":"MosBlunted","steam_id":76561198259380127,"connected_time":1578000000000,"state":"active","ping":65},{"user_id":649,"name":"TimTam Tom","steam_id":76561198045988062,"connected_time":669000000000,"state":"active","ping":72},{"user_id":599,"name":"DeckofDragons","steam_id":76561198057398213,"connected_time":3938000000000,"state":"active","ping":73},{"user_id":655,"name":"Dingus McBeef","steam_id":76561198942841134,"connected_time":122000000000,"state":"active","ping":110},{"user_id":653,"name":"lil hog","steam_id":76561199230929836,"connected_time":280000000000,"state":"active","ping":86},{"user_id":631,"name":"twin","steam_id":76561198055626638,"connected_time":2423000000000,"state":"active","ping":89},{"user_id":586,"name":"‰ªôÂ•≥Â§¥Â≠ê‰∫éË∞¶","steam_id":76561199031075505,"connected_time":4847000000000,"state":"active","ping":172},{"user_id":613,"name":"F_L #1 Leader","steam_id":76561198095923905,"connected_time":3623000000000,"state":"active","ping":51},{"user_id":632,"name":"vista","steam_id":76561198107784011,"connected_time":2422000000000,"state":"active","ping":30},{"user_id":646,"name":"BIG HOG","steam_id":76561198079923652,"connected_time":750000000000,"state":"active","ping":87},{"user_id":652,"name":"Dr.BendyBones","steam_id":76561198048846641,"connected_time":502000000000,"state":"active","ping":67},{"user_id":643,"name":"Zetta","steam_id":76561198045710113,"connected_time":1399000000000,"state":"active","ping":104},{"user_id":633,"name":"eek","steam_id":76561198332896682,"connected_time":2412000000000,"state":"active","ping":100}]},{"server_id":106,"name":"Uncletopia | Chicago | 2 | All Maps","name_short":"chi-2","host":"chi-1.us.uncletopia.com","port":27025,"enabled":true,"region":"us-central","cc":"us","latitude":41.881832,"longitude":-87.62318,"reserved":0,"last_update":"0001-01-01T00:00:00Z","name_a2s":"Uncletopia | Chicago | 2 | All Maps","protocol":17,"map":"pl_upward","folder":"tf","game":"Team Fortress","app_id":440,"player_count":1,"max_players":24,"Bots":0,"server_type":"Dedicated","server_os":"Linux","password":true,"vac":true,"version":"7757534","steam_id":85568392924469985,"keywords":["nocrits","nodmgspread","payload","uncletopia"],"game_id":440,"stv_port":27026,"stv_name":"Uncletopia | Chicago | 2 | All Maps | STV","players":[{"user_id":917,"name":"Burny Sanders","steam_id":76561197961879048,"connected_time":1206000000000,"state":"active","ping":121}]},{"server_id":402,"name":"Uncletopia | Chicago | 3 | All Maps","name_short":"chi-3","host":"chi-1.us.uncletopia.com","port":27035,"enabled":true,"region":"us-central","cc":"us","latitude":41.881832,"longitude":-87.62318,"reserved":0,"last_update":"0001-01-01T00:00:00Z","name_a2s":"Uncletopia | Chicago | 3 | All Maps","protocol":17,"map":"koth_viaduct","folder":"tf","game":"Team Fortress","app_id":440,"player_count":5,"max_players":24,"Bots":0,"server_type":"Dedicated","server_os":"Linux","password":true,"vac":true,"version":"7757534","steam_id":85568392924515191,"keywords":["cp","nocrits","nodmgspread","uncletopia"],"game_id":440,"stv_port":27036,"stv_name":"Uncletopia | Chicago | 3 | All Maps | STV","players":[{"user_id":458,"name":"namnepic","steam_id":76561198254905383,"connected_time":424000000000,"state":"active","ping":74},{"user_id":453,"name":"Go-Go-Rilla","steam_id":76561198143066254,"connected_time":2478000000000,"state":"active","ping":62},{"user_id":456,"name":"carbonatedgamer5671","steam_id":76561199228939460,"connected_time":1999000000000,"state":"active","ping":72},{"user_id":454,"name":"PissCake","steam_id":76561199085472936,"connected_time":2436000000000,"state":"active","ping":70},{"user_id":460,"name":"Temm32","steam_id":76561198440657154,"connected_time":304000000000,"state":"active","ping":71}]},{"server_id":403,"name":"Uncletopia | Chicago | 4 | All Maps","name_short":"chi-4","host":"chi-1.us.uncletopia.com","port":27045,"enabled":true,"region":"us-central","cc":"us","latitude":41.881832,"longitude":-87.62318,"reserved":0,"last_update":"0001-01-01T00:00:00Z","name_a2s":"Uncletopia | Chicago | 4 | All Maps","protocol":17,"map":"pl_pier","folder":"tf","game":"Team Fortress","app_id":440,"player_count":22,"max_players":24,"Bots":0,"server_type":"Dedicated","server_os":"Linux","password":true,"vac":true,"version":"7757534","steam_id":85568392924515193,"keywords":["nocrits","nodmgspread","payload","uncletopia"],"game_id":440,"stv_port":27046,"stv_name":"Uncletopia | Chicago | 4 | All Maps | STV","players":[{"user_id":586,"name":"Xii","steam_id":76561198860209947,"connected_time":2107000000000,"state":"active","ping":57},{"user_id":545,"name":"MetaYoshi","steam_id":76561198051634181,"connected_time":6038000000000,"state":"active","ping":69},{"user_id":589,"name":"Hey! I'm Walkin 'ere!","steam_id":76561198882785912,"connected_time":1640000000000,"state":"active","ping":77},{"user_id":605,"name":"skaj","steam_id":76561198082278586,"connected_time":360000000000,"state":"active","ping":85},{"user_id":590,"name":"Wormy","steam_id":76561198045221301,"connected_time":1639000000000,"state":"active","ping":60},{"user_id":598,"name":"nap","steam_id":76561198162714624,"connected_time":1220000000000,"state":"active","ping":69},{"user_id":603,"name":"‚ô¶‚ô£Quadric‚ô•‚ô†","steam_id":76561198061003853,"connected_time":937000000000,"state":"active","ping":74},{"user_id":594,"name":"Claw Finger","steam_id":76561198116408865,"connected_time":1532000000000,"state":"active","ping":77},{"user_id":528,"name":"Dylanardo","steam_id":76561198294726950,"connected_time":7376000000000,"state":"active","ping":79},{"user_id":601,"name":"ShadBad","steam_id":76561198248287390,"connected_time":1031000000000,"state":"active","ping":116},{"user_id":543,"name":"TheRussianSpy","steam_id":76561198325389865,"connected_time":6117000000000,"state":"active","ping":59},{"user_id":547,"name":"Yadoking","steam_id":76561198057156436,"connected_time":6015000000000,"state":"active","ping":105},{"user_id":574,"name":"HTA","steam_id":76561198043879140,"connected_time":4072000000000,"state":"active","ping":46},{"user_id":599,"name":"banned from uncletopia","steam_id":76561199102185708,"connected_time":1198000000000,"state":"active","ping":48},{"user_id":575,"name":"Sirius","steam_id":76561198031295225,"connected_time":4065000000000,"state":"active","ping":45},{"user_id":587,"name":"Goro Majima","steam_id":76561198156041222,"connected_time":1989000000000,"state":"active","ping":106},{"user_id":602,"name":"pelt","steam_id":76561197993593754,"connected_time":996000000000,"state":"active","ping":49},{"user_id":585,"name":"Imagina","steam_id":76561198044300818,"connected_time":2592000000000,"state":"active","ping":88},{"user_id":604,"name":"jake1west","steam_id":76561199468452444,"connected_time":374000000000,"state":"active","ping":130},{"user_id":509,"name":"Trox","steam_id":76561198263581464,"connected_time":9355000000000,"state":"active","ping":89},{"user_id":571,"name":"Helios79","steam_id":76561198198358469,"connected_time":4519000000000,"state":"active","ping":69}]},{"server_id":36,"name":"Uncletopia | Chicago | 5 | All Maps","name_short":"chi-5","host":"chi-2.us.uncletopia.com","port":27015,"enabled":true,"region":"us-central","cc":"us","latitude":41.881832,"longitude":-87.62318,"reserved":0,"last_update":"0001-01-01T00:00:00Z","name_a2s":"Uncletopia | Chicago | 5 | All Maps","protocol":17,"map":"pl_swiftwater_final1","folder":"tf","game":"Team Fortress","app_id":440,"player_count":24,"max_players":24,"Bots":0,"server_type":"Dedicated","server_os":"Linux","password":true,"vac":true,"version":"7757534","steam_id":85568392924866362,"keywords":["nocrits","nodmgspread","payload","uncletopia"],"game_id":440,"stv_port":27016,"stv_name":"Uncletopia | Chicago | 5 | All Maps | STV","players":[{"user_id":620,"name":"Luca!","steam_id":76561198137880777,"connected_time":1547000000000,"state":"active","ping":70},{"user_id":630,"name":"Razz","steam_id":76561198158027533,"connected_time":552000000000,"state":"active","ping":40},{"user_id":587,"name":"aaron","steam_id":76561198308883028,"connected_time":3342000000000,"state":"active","ping":107},{"user_id":585,"name":"scooterre","steam_id":76561198055068182,"connected_time":3373000000000,"state":"active","ping":58},{"user_id":628,"name":"Madrox Who?","steam_id":76561197988859134,"connected_time":586000000000,"state":"active","ping":70},{"user_id":623,"name":"SneakyRocks","steam_id":76561198201694213,"connected_time":1217000000000,"state":"active","ping":114},{"user_id":629,"name":"[chef] iron","steam_id":76561197970888616,"connected_time":567000000000,"state":"active","ping":43},{"user_id":642,"name":"Slashes","steam_id":76561197968573499,"connected_time":80000000000,"state":"active","ping":55},{"user_id":633,"name":"Anderred","steam_id":76561198149983847,"connected_time":495000000000,"state":"active","ping":81},{"user_id":586,"name":"cx","steam_id":76561198132364510,"connected_time":3346000000000,"state":"active","ping":104},{"user_id":590,"name":"Derp Sr.","steam_id":76561198050231461,"connected_time":3301000000000,"state":"active","ping":50},{"user_id":599,"name":"MagicKing27ttv","steam_id":76561198276953046,"connected_time":3080000000000,"state":"active","ping":68},{"user_id":634,"name":"JerlBays","steam_id":76561198096773292,"connected_time":493000000000,"state":"active","ping":60},{"user_id":635,"name":"Superplay64","steam_id":76561198172471162,"connected_time":488000000000,"state":"active","ping":84},{"user_id":636,"name":"Mush","steam_id":76561198393461065,"connected_time":487000000000,"state":"active","ping":79},{"user_id":546,"name":"ÁôΩÁå´","steam_id":76561199018278507,"connected_time":6861000000000,"state":"active","ping":90},{"user_id":612,"name":"cass","steam_id":76561198074502046,"connected_time":2400000000000,"state":"active","ping":72},{"user_id":637,"name":"pathways","steam_id":76561198054832333,"connected_time":480000000000,"state":"active","ping":57},{"user_id":641,"name":"Ex-Phlogger","steam_id":76561198400058665,"connected_time":319000000000,"state":"active","ping":70},{"user_id":613,"name":"Psychosis","steam_id":76561198078659070,"connected_time":2397000000000,"state":"active","ping":70},{"user_id":638,"name":"xbox turn off","steam_id":76561198040912048,"connected_time":445000000000,"state":"active","ping":47},{"user_id":639,"name":"petah","steam_id":76561199350870177,"connected_time":440000000000,"state":"active","ping":62},{"user_id":643,"name":"gromit","steam_id":76561198037746805,"connected_time":19000000000,"state":"active","ping":70},{"user_id":640,"name":"Lore","steam_id":76561198098407538,"connected_time":355000000000,"state":"active","ping":57}]},{"server_id":37,"name":"Uncletopia | Chicago | 6 | All Maps","name_short":"chi-6","host":"chi-2.us.uncletopia.com","port":27025,"enabled":true,"region":"us-central","cc":"us","latitude":41.881832,"longitude":-87.62318,"reserved":0,"last_update":"0001-01-01T00:00:00Z","name_a2s":"Uncletopia | Chicago | 6 | All Maps","protocol":17,"map":"koth_highpass","folder":"tf","game":"Team Fortress","app_id":440,"player_count":23,"max_players":24,"Bots":0,"server_type":"Dedicated","server_os":"Linux","password":true,"vac":true,"version":"7757534","steam_id":85568392924866363,"keywords":["cp","nocrits","nodmgspread","uncletopia"],"game_id":440,"stv_port":27026,"stv_name":"Uncletopia | Chicago | 6 | All Maps | STV","players":[{"user_id":411,"name":"Walka","steam_id":76561198074325951,"connected_time":1853000000000,"state":"active","ping":81},{"user_id":398,"name":"MEATSHOTBOYZ","steam_id":76561198112297509,"connected_time":3280000000000,"state":"active","ping":61},{"user_id":418,"name":"meth monkey","steam_id":76561198924502457,"connected_time":1079000000000,"state":"active","ping":85},{"user_id":431,"name":"IDontExist","steam_id":76561198411870808,"connected_time":369000000000,"state":"active","ping":44},{"user_id":400,"name":"Ziath","steam_id":76561198094009164,"connected_time":3129000000000,"state":"active","ping":61},{"user_id":424,"name":"tradertomy","steam_id":76561198113454939,"connected_time":860000000000,"state":"active","ping":91},{"user_id":388,"name":"MuffinConsumer","steam_id":76561199472498725,"connected_time":5017000000000,"state":"active","ping":83},{"user_id":402,"name":"I did it!","steam_id":76561198167031395,"connected_time":3098000000000,"state":"active","ping":89},{"user_id":433,"name":"tr3@d0f4","steam_id":76561198000757362,"connected_time":73000000000,"state":"active","ping":63},{"user_id":403,"name":"Spike Bones","steam_id":76561198234926120,"connected_time":3072000000000,"state":"active","ping":85},{"user_id":434,"name":"aidan","steam_id":76561198339019147,"connected_time":67000000000,"state":"active","ping":76},{"user_id":435,"name":"roadrunner","steam_id":76561198237140468,"connected_time":34000000000,"state":"active","ping":92},{"user_id":427,"name":"IEatCatsWithRice","steam_id":76561199117553869,"connected_time":776000000000,"state":"active","ping":112},{"user_id":436,"name":"khomauquatim","steam_id":76561198976865983,"connected_time":7000000000,"state":"spawning","ping":101},{"user_id":369,"name":"illious","steam_id":76561198169925494,"connected_time":6684000000000,"state":"active","ping":75},{"user_id":417,"name":"living in mushroom park","steam_id":76561198097588802,"connected_time":1457000000000,"state":"active","ping":47},{"user_id":430,"name":"twitch.tv/Yoshi21 | TF2Pugs.com","steam_id":76561198002516729,"connected_time":658000000000,"state":"active","ping":66},{"user_id":422,"name":"Longan.wav","steam_id":76561198340387384,"connected_time":893000000000,"state":"active","ping":84},{"user_id":423,"name":"saald","steam_id":76561198119022385,"connected_time":875000000000,"state":"active","ping":69},{"user_id":425,"name":"WoozyBear","steam_id":76561198170689070,"connected_time":858000000000,"state":"active","ping":78},{"user_id":426,"name":"Kite","steam_id":76561198409635955,"connected_time":820000000000,"state":"active","ping":101},{"user_id":428,"name":"The Super Mario Bros. Movie","steam_id":76561198871692156,"connected_time":756000000000,"state":"active","ping":93},{"user_id":350,"name":"Calypso","steam_id":76561198082939544,"connected_time":8724000000000,"state":"active","ping":94}]},{"server_id":38,"name":"Uncletopia | Chicago | 7 | Stopwatch Beta","name_short":"chi-7","host":"chi-2.us.uncletopia.com","port":27035,"enabled":true,"region":"us-central","cc":"us","latitude":41.881832,"longitude":-87.62318,"reserved":0,"last_update":"0001-01-01T00:00:00Z","name_a2s":"Uncletopia | Chicago | 7 | Stopwatch Beta","protocol":17,"map":"cp_metalworks","folder":"tf","game":"Team Fortress","app_id":440,"player_count":0,"max_players":24,"Bots":0,"server_type":"Dedicated","server_os":"Linux","password":true,"vac":true,"version":"7757534","steam_id":85568392924866364,"keywords":["cp","nocrits","nodmgspread","uncletopia"],"game_id":440,"stv_port":27036,"stv_name":"Uncletopia | Chicago | 7 | Stopwatch Beta | STV","players":null},{"server_id":39,"name":"Uncletopia | Chicago | 8 | Community","name_short":"chi-8","host":"chi-2.us.uncletopia.com","port":27045,"enabled":true,"region":"us-central","cc":"us","latitude":41.881832,"longitude":-87.62318,"reserved":0,"last_update":"0001-01-01T00:00:00Z","name_a2s":"Uncletopia | Chicago | 8 | Community","protocol":17,"map":"workshop/cp_croissant_final.ugc458840209","folder":"tf","game":"Team Fortress","app_id":440,"player_count":0,"max_players":24,"Bots":0,"server_type":"Dedicated","server_os":"Linux","password":true,"vac":true,"version":"7757534","steam_id":85568392924866365,"keywords":["cp","nocrits","nodmgspread","uncletopia"],"game_id":440,"stv_port":27046,"stv_name":"Uncletopia | Chicago | 8 | Community | STV","players":null},{"server_id":8,"name":"Uncletopia | Dallas | 1 | All Maps","name_short":"dal-1","host":"dal-1.us.uncletopia.com","port":27015,"enabled":true,"region":"us-central","cc":"us","latitude":32.779167,"longitude":-96.80889,"reserved":0,"last_update":"0001-01-01T00:00:00Z","name_a2s":"Uncletopia | Dallas | 1 | All Maps","protocol":17,"map":"koth_lakeside_final","folder":"tf","game":"Team Fortress","app_id":440,"player_count":24,"max_players":24,"Bots":0,"server_type":"Dedicated","server_os":"Linux","password":true,"vac":true,"version":"7757534","steam_id":85568392924469986,"keywords":["cp","nocrits","nodmgspread","uncletopia"],"game_id":440,"stv_port":27016,"stv_name":"Uncletopia | Dallas | 1 | All Maps | STV","players":[{"user_id":816,"name":"Dylan","steam_id":76561198265522923,"connected_time":4430000000000,"state":"active","ping":43},{"user_id":863,"name":"Fargo","steam_id":76561198044703931,"connected_time":693000000000,"state":"active","ping":60},{"user_id":824,"name":"spy","steam_id":76561198937717599,"connected_time":4071000000000,"state":"active","ping":40},{"user_id":865,"name":"Zabud'","steam_id":76561198192804709,"connected_time":440000000000,"state":"active","ping":91},{"user_id":798,"name":"Mr. Metro","steam_id":76561198351521199,"connected_time":5585000000000,"state":"active","ping":77},{"user_id":866,"name":"sappho","steam_id":76561198032623725,"connected_time":437000000000,"state":"active","ping":76},{"user_id":828,"name":"han","steam_id":76561198373651397,"connected_time":3362000000000,"state":"active","ping":66},{"user_id":818,"name":"ChottoAMinute","steam_id":76561198873157775,"connected_time":4420000000000,"state":"active","ping":41},{"user_id":873,"name":"shotgunshane","steam_id":76561198150291417,"connected_time":300000000000,"state":"active","ping":98},{"user_id":872,"name":"Eden Hazard","steam_id":76561198089241053,"connected_time":335000000000,"state":"active","ping":88},{"user_id":853,"name":"hi :)","steam_id":76561198317217328,"connected_time":1692000000000,"state":"active","ping":68},{"user_id":868,"name":"mboobooboo","steam_id":76561199476108958,"connected_time":423000000000,"state":"active","ping":115},{"user_id":841,"name":"Darth Phrogg","steam_id":76561198150844229,"connected_time":2846000000000,"state":"active","ping":45},{"user_id":874,"name":"Jerkin' Jimmy","steam_id":76561198024091233,"connected_time":299000000000,"state":"active","ping":59},{"user_id":869,"name":"Bzamo","steam_id":76561198039883392,"connected_time":414000000000,"state":"active","ping":75},{"user_id":875,"name":"GutzyEyebrows","steam_id":76561199101600403,"connected_time":260000000000,"state":"active","ping":100},{"user_id":844,"name":"urban legend","steam_id":76561198069188276,"connected_time":2788000000000,"state":"active","ping":80},{"user_id":876,"name":"gremlin","steam_id":76561198796215113,"connected_time":227000000000,"state":"active","ping":73},{"user_id":877,"name":"Tako","steam_id":76561199264073138,"connected_time":159000000000,"state":"active","ping":64},{"user_id":754,"name":"SIGMA [BS]","steam_id":76561197962604879,"connected_time":10152000000000,"state":"active","ping":81},{"user_id":796,"name":"avant","steam_id":76561198104921055,"connected_time":5654000000000,"state":"active","ping":86},{"user_id":805,"name":"LordZahe","steam_id":76561198241749034,"connected_time":5362000000000,"state":"active","ping":90},{"user_id":862,"name":"Stan","steam_id":76561199057962816,"connected_time":823000000000,"state":"active","ping":75},{"user_id":878,"name":"SpyderMonkee777","steam_id":76561198170859026,"connected_time":144000000000,"state":"active","ping":59}]},{"server_id":108,"name":"Uncletopia | Dallas | 2 | All Maps","name_short":"dal-2","host":"dal-1.us.uncletopia.com","port":27025,"enabled":true,"region":"us-central","cc":"us","latitude":32.779167,"longitude":-96.80889,"reserved":0,"last_update":"0001-01-01T00:00:00Z","name_a2s":"Uncletopia | Dallas | 2 | All Maps","protocol":17,"map":"cp_dustbowl","folder":"tf","game":"Team Fortress","app_id":440,"player_count":24,"max_players":24,"Bots":0,"server_type":"Dedicated","server_os":"Linux","password":true,"vac":true,"version":"7757534","steam_id":85568392924469988,"keywords":["cp","nocrits","nodmgspread","uncletopia"],"game_id":440,"stv_port":27026,"stv_name":"Uncletopia | Dallas | 2 | All Maps | STV","players":[{"user_id":745,"name":"bolainassr0","steam_id":76561199079078845,"connected_time":979000000000,"state":"active","ping":102},{"user_id":743,"name":"Walter and the Band of the Hawk","steam_id":76561198028431416,"connected_time":1218000000000,"state":"active","ping":105},{"user_id":754,"name":"metal pipe 219x6","steam_id":76561199204276856,"connected_time":506000000000,"state":"active","ping":80},{"user_id":746,"name":"Starkiller","steam_id":76561198101643120,"connected_time":938000000000,"state":"active","ping":120},{"user_id":759,"name":"Elephant Seal","steam_id":76561198065364829,"connected_time":2000000000,"state":"spawning","ping":126},{"user_id":736,"name":"jubjub","steam_id":76561197996052825,"connected_time":2299000000000,"state":"active","ping":89},{"user_id":748,"name":"Masked","steam_id":76561198093697845,"connected_time":890000000000,"state":"active","ping":56},{"user_id":729,"name":"PsyLucky","steam_id":76561198170458501,"connected_time":2652000000000,"state":"active","ping":80},{"user_id":757,"name":"Crown Colony Cha-Cha Champion","steam_id":76561198010708247,"connected_time":95000000000,"state":"active","ping":84},{"user_id":728,"name":"Fire-Gem","steam_id":76561198074387645,"connected_time":2675000000000,"state":"active","ping":98},{"user_id":730,"name":"Mimic","steam_id":76561198267452386,"connected_time":2637000000000,"state":"active","ping":53},{"user_id":731,"name":"Slauvy","steam_id":76561198001479663,"connected_time":2631000000000,"state":"active","ping":87},{"user_id":703,"name":"oz","steam_id":76561198994752511,"connected_time":4394000000000,"state":"active","ping":90},{"user_id":734,"name":"CFGU || RAWRWAFL","steam_id":76561198032118386,"connected_time":2607000000000,"state":"active","ping":67},{"user_id":708,"name":"DargaribdusPersonOfLordlyCalibe","steam_id":76561198020876416,"connected_time":4056000000000,"state":"active","ping":59},{"user_id":758,"name":"rorymancersuperfan1999","steam_id":76561198073475689,"connected_time":44000000000,"state":"spawning","ping":49},{"user_id":739,"name":"Astra","steam_id":76561198432269330,"connected_time":1914000000000,"state":"active","ping":56},{"user_id":733,"name":"Frontier Psychiatrist","steam_id":76561198038689088,"connected_time":2616000000000,"state":"active","ping":87},{"user_id":753,"name":"Panckakebro","steam_id":76561198106419992,"connected_time":580000000000,"state":"active","ping":62},{"user_id":704,"name":"Squiliam","steam_id":76561198025278006,"connected_time":4391000000000,"state":"active","ping":51},{"user_id":752,"name":"Pot Head Pixie","steam_id":76561198083024504,"connected_time":647000000000,"state":"active","ping":50},{"user_id":741,"name":"zomg","steam_id":76561198077958209,"connected_time":1881000000000,"state":"active","ping":82},{"user_id":760,"name":"The Angry Lemon","steam_id":76561198084792231,"connected_time":1000000000,"state":"spawning","ping":53},{"user_id":740,"name":"Dell Conagher (real)","steam_id":76561198220120368,"connected_time":1896000000000,"state":"active","ping":45}]},{"server_id":5,"name":"Uncletopia | Frankfurt | 1 | All Maps","name_short":"frk-1","host":"frk-1.de.uncletopia.com","port":27015,"enabled":true,"region":"eu","cc":"de","latitude":50.110924,"longitude":8.682127,"reserved":0,"last_update":"0001-01-01T00:00:00Z","name_a2s":"Uncletopia | Frankfurt | 1 | All Maps","protocol":17,"map":"pl_snowycoast","folder":"tf","game":"Team Fortress","app_id":440,"player_count":0,"max_players":24,"Bots":0,"server_type":"Dedicated","server_os":"Linux","password":true,"vac":true,"version":"7757534","steam_id":85568392924469989,"keywords":["nocrits","nodmgspread","payload","uncletopia"],"game_id":440,"stv_port":27016,"stv_name":"Uncletopia | Frankfurt | 1 | All Maps | STV","players":null},{"server_id":110,"name":"Uncletopia | Frankfurt | 2 | All Maps","name_short":"frk-2","host":"frk-1.de.uncletopia.com","port":27025,"enabled":true,"region":"eu","cc":"de","latitude":50.110924,"longitude":8.682127,"reserved":0,"last_update":"0001-01-01T00:00:00Z","name_a2s":"Uncletopia | Frankfurt | 2 | All Maps","protocol":17,"map":"cp_snakewater_final1","folder":"tf","game":"Team Fortress","app_id":440,"player_count":0,"max_players":24,"Bots":0,"server_type":"Dedicated","server_os":"Linux","password":true,"vac":true,"version":"7757534","steam_id":85568392924469990,"keywords":["cp","nocrits","nodmgspread","uncletopia"],"game_id":440,"stv_port":27026,"stv_name":"Uncletopia | Frankfurt | 2 | All Maps | STV","players":null},{"server_id":308,"name":"Uncletopia | Frankfurt | 3 | All Maps","name_short":"frk-3","host":"frk-1.de.uncletopia.com","port":27035,"enabled":true,"region":"eu","cc":"de","latitude":50.110924,"longitude":8.682127,"reserved":0,"last_update":"0001-01-01T00:00:00Z","name_a2s":"Uncletopia | Frankfurt | 3 | All Maps","protocol":17,"map":"pl_swiftwater_final1","folder":"tf","game":"Team Fortress","app_id":440,"player_count":0,"max_players":24,"Bots":0,"server_type":"Dedicated","server_os":"Linux","password":true,"vac":true,"version":"7757534","steam_id":85568392924504274,"keywords":["nocrits","nodmgspread","payload","uncletopia"],"game_id":440,"stv_port":27036,"stv_name":"Uncletopia | Frankfurt | 3 | All Maps | STV","players":null},{"server_id":309,"name":"Uncletopia | Frankfurt | 4 | All Maps","name_short":"frk-4","host":"frk-1.de.uncletopia.com","port":27045,"enabled":true,"region":"eu","cc":"de","latitude":50.110924,"longitude":8.682127,"reserved":0,"last_update":"0001-01-01T00:00:00Z","name_a2s":"Uncletopia | Frankfurt | 4 | All Maps","protocol":17,"map":"koth_viaduct","folder":"tf","game":"Team Fortress","app_id":440,"player_count":0,"max_players":24,"Bots":0,"server_type":"Dedicated","server_os":"Linux","password":true,"vac":true,"version":"7757534","steam_id":85568392924504275,"keywords":["cp","nocrits","nodmgspread","uncletopia"],"game_id":440,"stv_port":27046,"stv_name":"Uncletopia | Frankfurt | 4 | All Maps | STV","players":null},{"server_id":310,"name":"Uncletopia | Frankfurt | 5 | All Maps","name_short":"frk-5","host":"frk-1.de.uncletopia.com","port":27055,"enabled":true,"region":"eu","cc":"de","latitude":50.110924,"longitude":8.682127,"reserved":0,"last_update":"0001-01-01T00:00:00Z","name_a2s":"Uncletopia | Frankfurt | 5 | All Maps","protocol":17,"map":"koth_lakeside_final","folder":"tf","game":"Team Fortress","app_id":440,"player_count":0,"max_players":24,"Bots":0,"server_type":"Dedicated","server_os":"Linux","password":true,"vac":true,"version":"7757534","steam_id":85568392924504277,"keywords":["cp","nocrits","nodmgspread","uncletopia"],"game_id":440,"stv_port":27056,"stv_name":"Uncletopia | Frankfurt | 5 | All Maps | STV","players":null},{"server_id":311,"name":"Uncletopia | Frankfurt | 6 | All Maps","name_short":"frk-6","host":"frk-1.de.uncletopia.com","port":27065,"enabled":true,"region":"eu","cc":"de","latitude":50.110924,"longitude":8.682127,"reserved":0,"last_update":"0001-01-01T00:00:00Z","name_a2s":"Uncletopia | Frankfurt | 6 | All Maps","protocol":17,"map":"pl_frontier_final","folder":"tf","game":"Team Fortress","app_id":440,"player_count":0,"max_players":24,"Bots":0,"server_type":"Dedicated","server_os":"Linux","password":true,"vac":true,"version":"7757534","steam_id":85568392924504278,"keywords":["nocrits","nodmgspread","payload","uncletopia"],"game_id":440,"stv_port":27066,"stv_name":"Uncletopia | Frankfurt | 6 | All Maps | STV","players":null},{"server_id":23,"name":"Uncletopia | Frankfurt | 7 | Stopwatch Beta","name_short":"frk-7","host":"frk-1.de.uncletopia.com","port":27075,"enabled":true,"region":"eu","cc":"de","latitude":50.110924,"longitude":8.682127,"reserved":0,"last_update":"0001-01-01T00:00:00Z","name_a2s":"Uncletopia | Frankfurt | 7 | Stopwatch Beta","protocol":17,"map":"cp_sunshine","folder":"tf","game":"Team Fortress","app_id":440,"player_count":0,"max_players":24,"Bots":0,"server_type":"Dedicated","server_os":"Linux","password":true,"vac":true,"version":"7757534","steam_id":85568392924742827,"keywords":["cp","nocrits","nodmgspread","uncletopia"],"game_id":440,"stv_port":27076,"stv_name":"Uncletopia | Frankfurt | 7 | Stopwatch Beta | STV","players":null},{"server_id":24,"name":"Uncletopia | Frankfurt | 8 | Community","name_short":"frk-8","host":"frk-1.de.uncletopia.com","port":27085,"enabled":true,"region":"eu","cc":"de","latitude":50.110924,"longitude":8.682127,"reserved":0,"last_update":"0001-01-01T00:00:00Z","name_a2s":"Uncletopia | Frankfurt | 8 | Community","protocol":17,"map":"koth_lakeside_final","folder":"tf","game":"Team Fortress","app_id":440,"player_count":0,"max_players":24,"Bots":0,"server_type":"Dedicated","server_os":"Linux","password":true,"vac":true,"version":"7757534","steam_id":85568392924742828,"keywords":["cp","nocrits","nodmgspread","uncletopia"],"game_id":440,"stv_port":27086,"stv_name":"Uncletopia | Frankfurt | 8 | Community | STV","players":null},{"server_id":202,"name":"Uncletopia | Hong Kong | 1 | All Maps","name_short":"hgk-1","host":"hgk-1.hk.uncletopia.com","port":27015,"enabled":true,"region":"asia","cc":"hk","latitude":22.302711,"longitude":114.177216,"reserved":0,"last_update":"0001-01-01T00:00:00Z","name_a2s":"Uncletopia | Hong Kong | 1 | All Maps","protocol":17,"map":"pl_upward","folder":"tf","game":"Team Fortress","app_id":440,"player_count":18,"max_players":24,"Bots":0,"server_type":"Dedicated","server_os":"Linux","password":true,"vac":true,"version":"7757534","steam_id":85568392924494504,"keywords":["nocrits","nodmgspread","payload","uncletopia"],"game_id":440,"stv_port":27016,"stv_name":"Uncletopia | Hong Kong | 1 | All Maps | STV","players":[{"user_id":46,"name":"+","steam_id":76561198121311286,"connected_time":3898000000000,"state":"active","ping":123},{"user_id":58,"name":"3wfFbdrjEze5d2G","steam_id":76561198435900451,"connected_time":2355000000000,"state":"active","ping":118},{"user_id":62,"name":"sloth of the fragment clan","steam_id":76561198214192048,"connected_time":2066000000000,"state":"active","ping":91},{"user_id":91,"name":"tf2 gaymer","steam_id":76561198080108480,"connected_time":424000000000,"state":"active","ping":54},{"user_id":81,"name":"talkoo","steam_id":76561198160004007,"connected_time":1067000000000,"state":"active","ping":114},{"user_id":70,"name":"Compressed","steam_id":76561199230196794,"connected_time":1572000000000,"state":"active","ping":120},{"user_id":41,"name":"Yuudachi0228","steam_id":76561199059472783,"connected_time":4779000000000,"state":"active","ping":66},{"user_id":72,"name":"im_0ff","steam_id":76561198339346695,"connected_time":1420000000000,"state":"active","ping":126},{"user_id":95,"name":"sauceyert","steam_id":76561199085409122,"connected_time":92000000000,"state":"active","ping":56},{"user_id":93,"name":"Arpazha","steam_id":76561199072257230,"connected_time":277000000000,"state":"active","ping":119},{"user_id":83,"name":"jole","steam_id":76561198037292232,"connected_time":947000000000,"state":"active","ping":102},{"user_id":86,"name":"Dits","steam_id":76561198283833960,"connected_time":768000000000,"state":"active","ping":36},{"user_id":79,"name":"LEGS","steam_id":76561199111623890,"connected_time":1119000000000,"state":"active","ping":91},{"user_id":76,"name":"ScoutGaming3.5","steam_id":76561199385457264,"connected_time":1334000000000,"state":"active","ping":171},{"user_id":88,"name":"Â∏ï","steam_id":76561198439343999,"connected_time":632000000000,"state":"active","ping":80},{"user_id":96,"name":"derek.patriarca30","steam_id":76561199427230206,"connected_time":77000000000,"state":"active","ping":67},{"user_id":97,"name":"Ivy","steam_id":76561198400698408,"connected_time":77000000000,"state":"spawning","ping":98},{"user_id":98,"name":"Big Bird | F2P","steam_id":76561199206075827,"connected_time":58000000000,"state":"active","ping":80}]},{"server_id":1,"name":"Uncletopia | Los Angeles | 1 | All Maps","name_short":"lax-1","host":"lax-1.us.uncletopia.com","port":27015,"enabled":true,"region":"us-west","cc":"us","latitude":33.94279,"longitude":-118.41004,"reserved":0,"last_update":"0001-01-01T00:00:00Z","name_a2s":"Uncletopia | Los Angeles | 1 | All Maps","protocol":17,"map":"plr_pipeline","folder":"tf","game":"Team Fortress","app_id":440,"player_count":21,"max_players":24,"Bots":0,"server_type":"Dedicated","server_os":"Linux","password":true,"vac":true,"version":"7757534","steam_id":85568392924469991,"keywords":["nocrits","nodmgspread","payload","uncletopia"],"game_id":440,"stv_port":27016,"stv_name":"Uncletopia | Los Angeles | 1 | All Maps | STV","players":[{"user_id":487,"name":"Phishie","steam_id":76561198051778851,"connected_time":3231000000000,"state":"active","ping":60},{"user_id":477,"name":"MERCHANT","steam_id":76561198210010549,"connected_time":3685000000000,"state":"active","ping":69},{"user_id":478,"name":"Schnitz","steam_id":76561198265484253,"connected_time":3658000000000,"state":"active","ping":49},{"user_id":479,"name":"Snooter","steam_id":76561198042435225,"connected_time":3650000000000,"state":"active","ping":70},{"user_id":480,"name":"john, evader of taxes","steam_id":76561198858328080,"connected_time":3612000000000,"state":"active","ping":42},{"user_id":481,"name":"Bonkers","steam_id":76561198161835788,"connected_time":3606000000000,"state":"active","ping":75},{"user_id":536,"name":"Jolly","steam_id":76561198116357972,"connected_time":719000000000,"state":"active","ping":45},{"user_id":483,"name":"Yoozer","steam_id":76561198420257694,"connected_time":3538000000000,"state":"active","ping":46},{"user_id":526,"name":"Scoober","steam_id":76561199157558586,"connected_time":1024000000000,"state":"active","ping":109},{"user_id":519,"name":"Fluid.Pilot","steam_id":76561199013673082,"connected_time":1762000000000,"state":"active","ping":99},{"user_id":535,"name":"bigman1","steam_id":76561198050225055,"connected_time":736000000000,"state":"active","ping":42},{"user_id":538,"name":"Duck","steam_id":76561198129983430,"connected_time":444000000000,"state":"active","ping":83},{"user_id":539,"name":"DevilPcats","steam_id":76561198200572765,"connected_time":432000000000,"state":"active","ping":98},{"user_id":543,"name":"Maid 'n' China","steam_id":76561198423392976,"connected_time":12000000000,"state":"spawning","ping":32},{"user_id":529,"name":"Uluyo","steam_id":76561198065857148,"connected_time":999000000000,"state":"active","ping":69},{"user_id":500,"name":"Unknown2Me","steam_id":76561199049192464,"connected_time":2496000000000,"state":"active","ping":58},{"user_id":533,"name":"Pickle","steam_id":76561199238364591,"connected_time":856000000000,"state":"active","ping":111},{"user_id":540,"name":"{·¥õ Ä_·¥Ñ·¥á Ä·¥ò} shullers","steam_id":76561198889997809,"connected_time":405000000000,"state":"active","ping":45},{"user_id":521,"name":"Eremital","steam_id":76561198069557669,"connected_time":1661000000000,"state":"active","ping":61},{"user_id":532,"name":"GooseSounds","steam_id":76561198307387310,"connected_time":899000000000,"state":"active","ping":90},{"user_id":518,"name":"p0rps","steam_id":76561198000014631,"connected_time":1890000000000,"state":"active","ping":112}]},{"server_id":112,"name":"Uncletopia | Los Angeles | 2 | All Maps","name_short":"lax-2","host":"lax-1.us.uncletopia.com","port":27025,"enabled":true,"region":"us-west","cc":"us","latitude":33.94279,"longitude":-118.41004,"reserved":0,"last_update":"0001-01-01T00:00:00Z","name_a2s":"Uncletopia | Los Angeles | 2 | All Maps","protocol":17,"map":"cp_altitude","folder":"tf","game":"Team Fortress","app_id":440,"player_count":24,"max_players":24,"Bots":0,"server_type":"Dedicated","server_os":"Linux","password":true,"vac":true,"version":"7757534","steam_id":85568392924469992,"keywords":["cp","nocrits","nodmgspread","uncletopia"],"game_id":440,"stv_port":27026,"stv_name":"Uncletopia | Los Angeles | 2 | All Maps | STV","players":[{"user_id":311,"name":"snowshoe","steam_id":76561199476816590,"connected_time":2364000000000,"state":"active","ping":131},{"user_id":315,"name":"TastesLikeTriangle","steam_id":76561198109705599,"connected_time":2265000000000,"state":"active","ping":128},{"user_id":345,"name":"Lambchop","steam_id":76561198043900363,"connected_time":163000000000,"state":"active","ping":73},{"user_id":343,"name":"A Little Guy","steam_id":76561198142464684,"connected_time":355000000000,"state":"active","ping":76},{"user_id":339,"name":"fonz!E","steam_id":76561197987165510,"connected_time":617000000000,"state":"active","ping":51},{"user_id":305,"name":"massive dumbass","steam_id":76561199447881058,"connected_time":2729000000000,"state":"active","ping":95},{"user_id":346,"name":"diddy boppin","steam_id":76561198327633561,"connected_time":44000000000,"state":"active","ping":260},{"user_id":316,"name":"GoldtoothFour","steam_id":76561198055529332,"connected_time":2243000000000,"state":"active","ping":111},{"user_id":294,"name":"shin„ÉÑ","steam_id":76561198359809337,"connected_time":3494000000000,"state":"active","ping":77},{"user_id":326,"name":"TheOptimisticEmo","steam_id":76561198207772359,"connected_time":1829000000000,"state":"active","ping":68},{"user_id":337,"name":"Team Fartpiss Poo","steam_id":76561199163591880,"connected_time":749000000000,"state":"active","ping":118},{"user_id":317,"name":"Sp00k","steam_id":76561198074694496,"connected_time":2229000000000,"state":"active","ping":74},{"user_id":224,"name":"nori_420","steam_id":76561199117134203,"connected_time":9606000000000,"state":"active","ping":56},{"user_id":332,"name":"Poop Train Conductor","steam_id":76561198073677619,"connected_time":1068000000000,"state":"active","ping":73},{"user_id":318,"name":"Dopamiin","steam_id":76561198081272470,"connected_time":2213000000000,"state":"active","ping":111},{"user_id":319,"name":"Wizowd","steam_id":76561198167702261,"connected_time":2209000000000,"state":"active","ping":62},{"user_id":320,"name":"Sma5hP1ant-3","steam_id":76561198055502768,"connected_time":2185000000000,"state":"active","ping":79},{"user_id":321,"name":"SadVeggie","steam_id":76561198163430099,"connected_time":2159000000000,"state":"active","ping":128},{"user_id":327,"name":"SDL","steam_id":76561198859719985,"connected_time":1826000000000,"state":"active","ping":100},{"user_id":344,"name":"Uncle‚Åß‚Åß Sam","steam_id":76561198044777500,"connected_time":332000000000,"state":"active","ping":106},{"user_id":336,"name":"Magical.Puffin","steam_id":76561198129039275,"connected_time":781000000000,"state":"active","ping":67},{"user_id":322,"name":"......","steam_id":76561198067612741,"connected_time":2153000000000,"state":"active","ping":74},{"user_id":323,"name":"Vaun Leon","steam_id":76561199223266577,"connected_time":2136000000000,"state":"active","ping":74},{"user_id":324,"name":"Mugen","steam_id":76561198411174773,"connected_time":2115000000000,"state":"active","ping":46}]},{"server_id":324,"name":"Uncletopia | Los Angeles | 3 | All Maps","name_short":"lax-3","host":"lax-1.us.uncletopia.com","port":27035,"enabled":true,"region":"us-west","cc":"us","latitude":33.94279,"longitude":-118.41004,"reserved":0,"last_update":"0001-01-01T00:00:00Z","name_a2s":"Uncletopia | Los Angeles | 3 | All Maps","protocol":17,"map":"koth_highpass","folder":"tf","game":"Team Fortress","app_id":440,"player_count":2,"max_players":24,"Bots":0,"server_type":"Dedicated","server_os":"Linux","password":true,"vac":true,"version":"7757534","steam_id":85568392924510198,"keywords":["cp","nocrits","nodmgspread","uncletopia"],"game_id":440,"stv_port":27036,"stv_name":"Uncletopia | Los Angeles | 3 | All Maps | STV","players":[{"user_id":349,"name":"johnman gooberguy","steam_id":76561199014859764,"connected_time":1731000000000,"state":"active","ping":65},{"user_id":188,"name":"Altruisticailuridae","steam_id":76561198335295596,"connected_time":13831000000000,"state":"active","ping":51}]},{"server_id":25,"name":"Uncletopia | Los Angeles | 4 | Stopwatch Beta","name_short":"lax-4","host":"lax-1.us.uncletopia.com","port":27045,"enabled":true,"region":"us-west","cc":"us","latitude":33.94279,"longitude":-118.41004,"reserved":0,"last_update":"0001-01-01T00:00:00Z","name_a2s":"Uncletopia | Los Angeles | 4 | Stopwatch Beta","protocol":17,"map":"pl_swiftwater_final1","folder":"tf","game":"Team Fortress","app_id":440,"player_count":0,"max_players":24,"Bots":0,"server_type":"Dedicated","server_os":"Linux","password":true,"vac":true,"version":"7757534","steam_id":85568392924510199,"keywords":["nocrits","nodmgspread","payload","uncletopia"],"game_id":440,"stv_port":27046,"stv_name":"Uncletopia | Los Angeles | 4 | Stopwatch Beta | STV","players":null},{"server_id":11,"name":"Uncletopia | London | 1 | All Maps","name_short":"lon-1","host":"lon-1.uk.uncletopia.com","port":27015,"enabled":true,"region":"eu","cc":"gb","latitude":51.509865,"longitude":-0.118092,"reserved":0,"last_update":"0001-01-01T00:00:00Z","name_a2s":"Uncletopia | London | 1 | All Maps","protocol":17,"map":"koth_highpass","folder":"tf","game":"Team Fortress","app_id":440,"player_count":0,"max_players":24,"Bots":0,"server_type":"Dedicated","server_os":"Linux","password":true,"vac":true,"version":"7757534","steam_id":85568392924367362,"keywords":["cp","nocrits","nodmgspread","uncletopia"],"game_id":440,"stv_port":27016,"stv_name":"Uncletopia | London | 1 | All Maps | STV","players":null},{"server_id":114,"name":"Uncletopia | London | 2 | All Maps","name_short":"lon-2","host":"lon-1.uk.uncletopia.com","port":27025,"enabled":true,"region":"eu","cc":"gb","latitude":51.509865,"longitude":-0.118092,"reserved":0,"last_update":"0001-01-01T00:00:00Z","name_a2s":"Uncletopia | London | 2 | All Maps","protocol":17,"map":"pl_swiftwater_final1","folder":"tf","game":"Team Fortress","app_id":440,"player_count":12,"max_players":24,"Bots":0,"server_type":"Dedicated","server_os":"Linux","password":true,"vac":true,"version":"7757534","steam_id":85568392924470941,"keywords":["nocrits","nodmgspread","payload","uncletopia"],"game_id":440,"stv_port":27026,"stv_name":"Uncletopia | London | 2 | All Maps | STV","players":[{"user_id":3,"name":"Topme","steam_id":76561198091734693,"connected_time":2712000000000,"state":"active","ping":62},{"user_id":17,"name":"Child corn","steam_id":76561198133782205,"connected_time":1390000000000,"state":"active","ping":121},{"user_id":27,"name":"Batman DNR","steam_id":76561199004923871,"connected_time":32000000000,"state":"spawning","ping":83},{"user_id":6,"name":"Cofe time for in talk english","steam_id":76561198061197114,"connected_time":2656000000000,"state":"active","ping":76},{"user_id":7,"name":"DAN","steam_id":76561198904348492,"connected_time":2643000000000,"state":"active","ping":169},{"user_id":24,"name":"SPOTIFY PREMIUMMMMM!!!¬µ","steam_id":76561199472682385,"connected_time":397000000000,"state":"active","ping":92},{"user_id":22,"name":"Der Geist des Hans Rosling","steam_id":76561198049231109,"connected_time":507000000000,"state":"active","ping":65},{"user_id":19,"name":"f(u)*ck","steam_id":76561198007575097,"connected_time":1094000000000,"state":"active","ping":74},{"user_id":21,"name":"poshtoo @_@","steam_id":76561198106182078,"connected_time":835000000000,"state":"active","ping":105},{"user_id":23,"name":"–£—Ç–∏–ª–∏–∑–∞—Ç–æ—Ä","steam_id":76561198001490104,"connected_time":469000000000,"state":"active","ping":79},{"user_id":25,"name":"Montrose","steam_id":76561198338911736,"connected_time":180000000000,"state":"active","ping":187},{"user_id":26,"name":"Sakari","steam_id":76561197997811299,"connected_time":137000000000,"state":"active","ping":60}]},{"server_id":320,"name":"Uncletopia | London | 3 | All Maps","name_short":"lon-3","host":"lon-1.uk.uncletopia.com","port":27035,"enabled":true,"region":"eu","cc":"gb","latitude":51.509865,"longitude":-0.118092,"reserved":0,"last_update":"0001-01-01T00:00:00Z","name_a2s":"Uncletopia | London | 3 | All Maps","protocol":17,"map":"cp_dustbowl","folder":"tf","game":"Team Fortress","app_id":440,"player_count":0,"max_players":24,"Bots":0,"server_type":"Dedicated","server_os":"Linux","password":true,"vac":true,"version":"7757534","steam_id":85568392924510192,"keywords":["cp","nocrits","nodmgspread","uncletopia"],"game_id":440,"stv_port":27036,"stv_name":"Uncletopia | London | 3 | All Maps | STV","players":null},{"server_id":321,"name":"Uncletopia | London | 4 | All Maps","name_short":"lon-4","host":"lon-1.uk.uncletopia.com","port":27045,"enabled":true,"region":"eu","cc":"gb","latitude":51.509865,"longitude":-0.118092,"reserved":0,"last_update":"0001-01-01T00:00:00Z","name_a2s":"Uncletopia | London | 4 | All Maps","protocol":17,"map":"cp_dustbowl","folder":"tf","game":"Team Fortress","app_id":440,"player_count":0,"max_players":24,"Bots":0,"server_type":"Dedicated","server_os":"Linux","password":true,"vac":true,"version":"7757534","steam_id":85568392924510193,"keywords":["cp","nocrits","nodmgspread","uncletopia"],"game_id":440,"stv_port":27046,"stv_name":"Uncletopia | London | 4 | All Maps | STV","players":null},{"server_id":21,"name":"Uncletopia | London | 5 | All Maps","name_short":"lon-5","host":"lon-1.uk.uncletopia.com","port":27055,"enabled":true,"region":"eu","cc":"gb","latitude":51.509865,"longitude":-0.118092,"reserved":0,"last_update":"0001-01-01T00:00:00Z","name_a2s":"Uncletopia | London | 5 | All Maps","protocol":17,"map":"cp_altitude","folder":"tf","game":"Team Fortress","app_id":440,"player_count":0,"max_players":24,"Bots":0,"server_type":"Dedicated","server_os":"Linux","password":true,"vac":true,"version":"7757534","steam_id":85568392924742829,"keywords":["cp","nocrits","nodmgspread","uncletopia"],"game_id":440,"stv_port":27056,"stv_name":"Uncletopia | London | 5 | All Maps | STV","players":null},{"server_id":22,"name":"Uncletopia | London | 6 | All Maps","name_short":"lon-6","host":"lon-1.uk.uncletopia.com","port":27065,"enabled":true,"region":"eu","cc":"gb","latitude":51.509865,"longitude":-0.118092,"reserved":0,"last_update":"0001-01-01T00:00:00Z","name_a2s":"Uncletopia | London | 6 | All Maps","protocol":17,"map":"cp_mountainlab","folder":"tf","game":"Team Fortress","app_id":440,"player_count":0,"max_players":24,"Bots":0,"server_type":"Dedicated","server_os":"Linux","password":true,"vac":true,"version":"7757534","steam_id":85568392924742830,"keywords":["cp","nocrits","nodmgspread","uncletopia"],"game_id":440,"stv_port":27066,"stv_name":"Uncletopia | London | 6 | All Maps | STV","players":null},{"server_id":40,"name":"Uncletopia | London | 7 | No Payload","name_short":"lon-7","host":"lon-1.uk.uncletopia.com","port":27075,"enabled":true,"region":"eu","cc":"gb","latitude":51.509865,"longitude":-0.118092,"reserved":0,"last_update":"0001-01-01T00:00:00Z","name_a2s":"Uncletopia | London | 7 | No Payload","protocol":17,"map":"pl_badwater","folder":"tf","game":"Team Fortress","app_id":440,"player_count":0,"max_players":24,"Bots":0,"server_type":"Dedicated","server_os":"Linux","password":true,"vac":true,"version":"7757534","steam_id":85568392924964314,"keywords":["nocrits","nodmgspread","payload","uncletopia"],"game_id":440,"stv_port":27076,"stv_name":"Uncletopia | London | 7 | No Payload | STV","players":null},{"server_id":41,"name":"Uncletopia | London | 8 | Community","name_short":"lon-8","host":"lon-1.uk.uncletopia.com","port":27085,"enabled":true,"region":"eu","cc":"gb","latitude":51.509865,"longitude":-0.118092,"reserved":0,"last_update":"0001-01-01T00:00:00Z","name_a2s":"Uncletopia | London | 8 | Community","protocol":17,"map":"pl_barnblitz","folder":"tf","game":"Team Fortress","app_id":440,"player_count":0,"max_players":24,"Bots":0,"server_type":"Dedicated","server_os":"Linux","password":true,"vac":true,"version":"7757534","steam_id":85568392924964315,"keywords":["nocrits","nodmgspread","payload","uncletopia"],"game_id":440,"stv_port":27086,"stv_name":"Uncletopia | London | 8 | Community | STV","players":null},{"server_id":300,"name":"Uncletopia | Montr√©al | 1 | All Maps","name_short":"mtl-1","host":"mtl-1.ca.uncletopia.com","port":27015,"enabled":true,"region":"us-east","cc":"ca","latitude":45.50889,"longitude":-73.56167,"reserved":0,"last_update":"0001-01-01T00:00:00Z","name_a2s":"Uncletopia | Montr√©al | 1 | All Maps","protocol":17,"map":"koth_lakeside_final","folder":"tf","game":"Team Fortress","app_id":440,"player_count":1,"max_players":24,"Bots":0,"server_type":"Dedicated","server_os":"Linux","password":true,"vac":true,"version":"7757534","steam_id":85568392924500087,"keywords":["cp","nocrits","nodmgspread","uncletopia"],"game_id":440,"stv_port":27016,"stv_name":"Uncletopia | Montr√©al | 1 | All Maps | STV","players":[{"user_id":24,"name":"The Mannyac","steam_id":76561198164733265,"connected_time":10150000000000,"state":"active","ping":62}]},{"server_id":301,"name":"Uncletopia | Montr√©al | 2 | All Maps","name_short":"mtl-2","host":"mtl-1.ca.uncletopia.com","port":27025,"enabled":true,"region":"us-east","cc":"ca","latitude":45.50889,"longitude":-73.56167,"reserved":0,"last_update":"0001-01-01T00:00:00Z","name_a2s":"Uncletopia | Montr√©al | 2 | All Maps","protocol":17,"map":"cp_altitude","folder":"tf","game":"Team Fortress","app_id":440,"player_count":0,"max_players":24,"Bots":0,"server_type":"Dedicated","server_os":"Linux","password":true,"vac":true,"version":"7757534","steam_id":85568392924500088,"keywords":["cp","nocrits","nodmgspread","uncletopia"],"game_id":440,"stv_port":27026,"stv_name":"Uncletopia | Montr√©al | 2 | All Maps | STV","players":null},{"server_id":302,"name":"Uncletopia | Montr√©al | 3 | All Maps","name_short":"mtl-3","host":"mtl-1.ca.uncletopia.com","port":27035,"enabled":true,"region":"us-east","cc":"ca","latitude":45.50889,"longitude":-73.56167,"reserved":0,"last_update":"0001-01-01T00:00:00Z","name_a2s":"Uncletopia | Montr√©al | 3 | All Maps","protocol":17,"map":"pl_upward","folder":"tf","game":"Team Fortress","app_id":440,"player_count":0,"max_players":24,"Bots":0,"server_type":"Dedicated","server_os":"Linux","password":true,"vac":true,"version":"7757534","steam_id":85568392924500089,"keywords":["nocrits","nodmgspread","payload","uncletopia"],"game_id":440,"stv_port":27036,"stv_name":"Uncletopia | Montr√©al | 3 | All Maps | STV","players":null},{"server_id":303,"name":"Uncletopia | Montr√©al | 4 | No Payload","name_short":"mtl-4","host":"mtl-1.ca.uncletopia.com","port":27045,"enabled":true,"region":"us-east","cc":"ca","latitude":45.50889,"longitude":-73.56167,"reserved":0,"last_update":"0001-01-01T00:00:00Z","name_a2s":"Uncletopia | Montr√©al | 4 | No Payload","protocol":17,"map":"plr_bananabay","folder":"tf","game":"Team Fortress","app_id":440,"player_count":0,"max_players":24,"Bots":0,"server_type":"Dedicated","server_os":"Linux","password":true,"vac":true,"version":"7757534","steam_id":85568392924500090,"keywords":["nocrits","nodmgspread","payload","uncletopia"],"game_id":440,"stv_port":27046,"stv_name":"Uncletopia | Montr√©al | 4 | No Payload | STV","players":null},{"server_id":13,"name":"Uncletopia | New York City | 1 | All Maps","name_short":"nyc-1","host":"nyc-1.us.uncletopia.com","port":27015,"enabled":true,"region":"us-east","cc":"us","latitude":40.73061,"longitude":-73.93524,"reserved":0,"last_update":"0001-01-01T00:00:00Z","name_a2s":"Uncletopia | New York City | 1 | All Maps","protocol":17,"map":"pl_swiftwater_final1","folder":"tf","game":"Team Fortress","app_id":440,"player_count":0,"max_players":24,"Bots":0,"server_type":"Dedicated","server_os":"Linux","password":true,"vac":true,"version":"7757534","steam_id":85568392924469993,"keywords":["nocrits","nodmgspread","payload","uncletopia"],"game_id":440,"stv_port":27016,"stv_name":"Uncletopia | New York City | 1 | All Maps | STV","players":null},{"server_id":14,"name":"Uncletopia | New York City | 2 | All Maps","name_short":"nyc-2","host":"nyc-1.us.uncletopia.com","port":27025,"enabled":true,"region":"us-east","cc":"us","latitude":40.73061,"longitude":-73.93524,"reserved":0,"last_update":"0001-01-01T00:00:00Z","name_a2s":"Uncletopia | New York City | 2 | All Maps","protocol":17,"map":"koth_viaduct","folder":"tf","game":"Team Fortress","app_id":440,"player_count":0,"max_players":24,"Bots":0,"server_type":"Dedicated","server_os":"Linux","password":true,"vac":true,"version":"7757534","steam_id":85568392924469994,"keywords":["cp","nocrits","nodmgspread","uncletopia"],"game_id":440,"stv_port":27026,"stv_name":"Uncletopia | New York City | 2 | All Maps | STV","players":null},{"server_id":15,"name":"Uncletopia | New York City | 3 | Stopwatch Beta","name_short":"nyc-3","host":"nyc-1.us.uncletopia.com","port":27035,"enabled":true,"region":"us-east","cc":"us","latitude":40.73061,"longitude":-73.93524,"reserved":0,"last_update":"0001-01-01T00:00:00Z","name_a2s":"Uncletopia | New York City | 3 | Stopwatch Beta","protocol":17,"map":"cp_metalworks","folder":"tf","game":"Team Fortress","app_id":440,"player_count":0,"max_players":24,"Bots":0,"server_type":"Dedicated","server_os":"Linux","password":true,"vac":true,"version":"7757534","steam_id":85568392924742820,"keywords":["cp","nocrits","nodmgspread","uncletopia"],"game_id":440,"stv_port":27036,"stv_name":"Uncletopia | New York City | 3 | Stopwatch Beta | STV","players":null},{"server_id":16,"name":"Uncletopia | New York City | 4 | Community","name_short":"nyc-4","host":"nyc-1.us.uncletopia.com","port":27045,"enabled":true,"region":"us-east","cc":"us","latitude":40.73061,"longitude":-73.93524,"reserved":0,"last_update":"0001-01-01T00:00:00Z","name_a2s":"Uncletopia | New York City | 4 | Community","protocol":17,"map":"workshop/koth_bagel_rc6.ugc2514036946","folder":"tf","game":"Team Fortress","app_id":440,"player_count":0,"max_players":24,"Bots":0,"server_type":"Dedicated","server_os":"Linux","password":true,"vac":true,"version":"7757534","steam_id":85568392924742821,"keywords":["cp","nocrits","nodmgspread","uncletopia"],"game_id":440,"stv_port":27046,"stv_name":"Uncletopia | New York City | 4 | Community | STV","players":null},{"server_id":142,"name":"Uncletopia | S√£o Paulo | 1 | All Maps","name_short":"sao-1","host":"sao-1.br.uncletopia.com","port":27015,"enabled":true,"region":"sa","cc":"br","latitude":-23.533773,"longitude":-46.62529,"reserved":0,"last_update":"0001-01-01T00:00:00Z","name_a2s":"Uncletopia | S√£o Paulo | 1 | All Maps","protocol":17,"map":"koth_lakeside_final","folder":"tf","game":"Team Fortress","app_id":440,"player_count":0,"max_players":24,"Bots":0,"server_type":"Dedicated","server_os":"Linux","password":true,"vac":true,"version":"7757534","steam_id":85568392924469996,"keywords":["cp","nocrits","nodmgspread","uncletopia"],"game_id":440,"stv_port":27016,"stv_name":"Uncletopia | S√£o Paulo | 1 | All Maps | STV","players":null},{"server_id":143,"name":"Uncletopia | S√£o Paulo | 2 | All Maps","name_short":"sao-2","host":"sao-2.br.uncletopia.com","port":27015,"enabled":true,"region":"sa","cc":"br","latitude":-23.533773,"longitude":-46.62529,"reserved":0,"last_update":"0001-01-01T00:00:00Z","name_a2s":"Uncletopia | S√£o Paulo | 2 | All Maps","protocol":17,"map":"pl_frontier_final","folder":"tf","game":"Team Fortress","app_id":440,"player_count":0,"max_players":24,"Bots":0,"server_type":"Dedicated","server_os":"Linux","password":true,"vac":true,"version":"7757534","steam_id":85568392924485349,"keywords":["nocrits","nodmgspread","payload","uncletopia"],"game_id":440,"stv_port":27016,"stv_name":"Uncletopia | S√£o Paulo | 2 | All Maps | STV","players":null},{"server_id":7,"name":"Uncletopia | Seattle | 1 | All Maps","name_short":"sea-1","host":"sea-1.us.uncletopia.com","port":27015,"enabled":true,"region":"us-west","cc":"us","latitude":47.608013,"longitude":-122.33517,"reserved":0,"last_update":"0001-01-01T00:00:00Z","name_a2s":"Uncletopia | Seattle | 1 | All Maps","protocol":17,"map":"cp_altitude","folder":"tf","game":"Team Fortress","app_id":440,"player_count":24,"max_players":24,"Bots":0,"server_type":"Dedicated","server_os":"Linux","password":true,"vac":true,"version":"7757534","steam_id":85568392924469997,"keywords":["cp","nocrits","nodmgspread","uncletopia"],"game_id":440,"stv_port":27016,"stv_name":"Uncletopia | Seattle | 1 | All Maps | STV","players":[{"user_id":754,"name":"roryisonamobilehotspot","steam_id":76561198065825165,"connected_time":6809000000000,"state":"active","ping":110},{"user_id":797,"name":"Arsonist Goose","steam_id":76561198147441830,"connected_time":73000000000,"state":"active","ping":75},{"user_id":795,"name":"lyraaaaaaaaaaa","steam_id":76561198259331758,"connected_time":76000000000,"state":"active","ping":80},{"user_id":753,"name":"Brathic","steam_id":76561198966232163,"connected_time":6831000000000,"state":"active","ping":80},{"user_id":787,"name":"Delta Annihilator | trade.tf","steam_id":76561198055384748,"connected_time":1759000000000,"state":"active","ping":87},{"user_id":779,"name":"p9 jorts","steam_id":76561199041179985,"connected_time":3038000000000,"state":"active","ping":58},{"user_id":785,"name":"ShredMaan","steam_id":76561198429982138,"connected_time":1959000000000,"state":"active","ping":76},{"user_id":798,"name":"Peppy","steam_id":76561198866629645,"connected_time":70000000000,"state":"active","ping":81},{"user_id":767,"name":"Sweets","steam_id":76561198998446307,"connected_time":4505000000000,"state":"active","ping":60},{"user_id":773,"name":"Lord Hater","steam_id":76561199158148782,"connected_time":3540000000000,"state":"active","ping":56},{"user_id":789,"name":"jawnymac","steam_id":76561198179529599,"connected_time":1742000000000,"state":"active","ping":73},{"user_id":765,"name":"ed","steam_id":76561198080475712,"connected_time":4518000000000,"state":"active","ping":74},{"user_id":673,"name":"Forklift Certified Cat Girl","steam_id":76561198072555204,"connected_time":11410000000000,"state":"active","ping":73},{"user_id":775,"name":"bulk//Dinkolaw","steam_id":76561198154072948,"connected_time":3470000000000,"state":"active","ping":110},{"user_id":791,"name":"cream team","steam_id":76561198139043953,"connected_time":610000000000,"state":"active","ping":98},{"user_id":689,"name":"Cheezbeargur","steam_id":76561198164702899,"connected_time":10083000000000,"state":"active","ping":64},{"user_id":794,"name":"Chickey Cantor","steam_id":76561198028049904,"connected_time":77000000000,"state":"active","ping":65},{"user_id":682,"name":"o o o o o o o o o","steam_id":76561197993757506,"connected_time":10114000000000,"state":"active","ping":77},{"user_id":776,"name":"goldhed","steam_id":76561198051751133,"connected_time":3411000000000,"state":"active","ping":59},{"user_id":777,"name":"mike, buying 20 barefoots","steam_id":76561198225411004,"connected_time":3114000000000,"state":"active","ping":64},{"user_id":799,"name":"mub","steam_id":76561197961943948,"connected_time":69000000000,"state":"active","ping":45},{"user_id":768,"name":"Kaiga","steam_id":76561198044052046,"connected_time":4435000000000,"state":"active","ping":133},{"user_id":792,"name":"orthotic horse shoes","steam_id":76561198083242298,"connected_time":83000000000,"state":"active","ping":122},{"user_id":796,"name":"Tomato Soup","steam_id":76561198051834684,"connected_time":76000000000,"state":"active","ping":61}]},{"server_id":119,"name":"Uncletopia | Seattle | 2 | All Maps","name_short":"sea-2","host":"sea-1.us.uncletopia.com","port":27025,"enabled":true,"region":"us-west","cc":"us","latitude":47.608013,"longitude":-122.33517,"reserved":0,"last_update":"0001-01-01T00:00:00Z","name_a2s":"Uncletopia | Seattle | 2 | All Maps","protocol":17,"map":"pl_badwater","folder":"tf","game":"Team Fortress","app_id":440,"player_count":24,"max_players":24,"Bots":0,"server_type":"Dedicated","server_os":"Linux","password":true,"vac":true,"version":"7757534","steam_id":85568392924469998,"keywords":["nocrits","nodmgspread","payload","uncletopia"],"game_id":440,"stv_port":27026,"stv_name":"Uncletopia | Seattle | 2 | All Maps | STV","players":[{"user_id":574,"name":"1dk","steam_id":76561198135104742,"connected_time":2478000000000,"state":"active","ping":50},{"user_id":578,"name":"Frodo T Baggins","steam_id":76561198048090297,"connected_time":1633000000000,"state":"active","ping":97},{"user_id":562,"name":"Dylanxp300","steam_id":76561198271974937,"connected_time":3670000000000,"state":"active","ping":129},{"user_id":595,"name":"Quack Quack","steam_id":76561198040371105,"connected_time":1074000000000,"state":"active","ping":89},{"user_id":567,"name":"JIGRON","steam_id":76561197998694076,"connected_time":3457000000000,"state":"active","ping":74},{"user_id":580,"name":"Poopisviel Von Einzbern","steam_id":76561198259260433,"connected_time":1482000000000,"state":"active","ping":135},{"user_id":599,"name":"420blzItM8","steam_id":76561198137983285,"connected_time":782000000000,"state":"active","ping":74},{"user_id":603,"name":"der","steam_id":76561198060762287,"connected_time":652000000000,"state":"active","ping":53},{"user_id":572,"name":"MisterManne","steam_id":76561198106598600,"connected_time":2588000000000,"state":"active","ping":60},{"user_id":560,"name":"TrueDragonNoodle","steam_id":76561198041908961,"connected_time":3741000000000,"state":"active","ping":54},{"user_id":598,"name":"for the king","steam_id":76561197973488858,"connected_time":932000000000,"state":"active","ping":120},{"user_id":553,"name":"Bubbamanme","steam_id":76561198119778504,"connected_time":4711000000000,"state":"active","ping":60},{"user_id":569,"name":"BBL Sponsor","steam_id":76561199093733603,"connected_time":3425000000000,"state":"active","ping":86},{"user_id":570,"name":"IntravenusDeMilo","steam_id":76561197970629020,"connected_time":3321000000000,"state":"active","ping":39},{"user_id":600,"name":"SturmTea","steam_id":76561198027371308,"connected_time":774000000000,"state":"active","ping":86},{"user_id":597,"name":"The Grim Heaper","steam_id":76561197987759101,"connected_time":983000000000,"state":"active","ping":69},{"user_id":594,"name":"Ryuujin","steam_id":76561198000897946,"connected_time":1127000000000,"state":"active","ping":72},{"user_id":601,"name":"Tranq","steam_id":76561197967250757,"connected_time":729000000000,"state":"active","ping":104},{"user_id":602,"name":"Lompy","steam_id":76561198092237958,"connected_time":722000000000,"state":"active","ping":55},{"user_id":591,"name":"Bony","steam_id":76561199001748822,"connected_time":1276000000000,"state":"active","ping":45},{"user_id":558,"name":"NOT FRIENDLY","steam_id":76561198041327231,"connected_time":4520000000000,"state":"active","ping":63},{"user_id":573,"name":"Starpillow ‚ô°","steam_id":76561198095034817,"connected_time":2551000000000,"state":"active","ping":60},{"user_id":564,"name":"Cherno Beta","steam_id":76561198047918122,"connected_time":3655000000000,"state":"active","ping":50},{"user_id":576,"name":"mudunit","steam_id":76561198811544015,"connected_time":2021000000000,"state":"active","ping":57}]},{"server_id":406,"name":"Uncletopia | Seattle | 3 | Stopwatch Beta","name_short":"sea-3","host":"sea-1.us.uncletopia.com","port":27035,"enabled":true,"region":"us-west","cc":"us","latitude":47.608013,"longitude":-122.33517,"reserved":0,"last_update":"0001-01-01T00:00:00Z","name_a2s":"Uncletopia | Seattle | 3 | Stopwatch Beta","protocol":17,"map":"koth_lakeside_final","folder":"tf","game":"Team Fortress","app_id":440,"player_count":5,"max_players":24,"Bots":0,"server_type":"Dedicated","server_os":"Linux","password":true,"vac":true,"version":"7757534","steam_id":85568392924515217,"keywords":["cp","nocrits","nodmgspread","uncletopia"],"game_id":440,"stv_port":27036,"stv_name":"Uncletopia | Seattle | 3 | Stopwatch Beta | STV","players":[{"user_id":271,"name":"Globb","steam_id":76561198232629304,"connected_time":1995000000000,"state":"active","ping":48},{"user_id":272,"name":"Beens","steam_id":76561199076061523,"connected_time":1991000000000,"state":"active","ping":55},{"user_id":275,"name":"Zizen","steam_id":76561199011832069,"connected_time":1691000000000,"state":"active","ping":68},{"user_id":276,"name":"Luna_Blossom","steam_id":76561198816384987,"connected_time":1679000000000,"state":"active","ping":85},{"user_id":279,"name":"Fart Smella","steam_id":76561198419066993,"connected_time":558000000000,"state":"active","ping":68}]},{"server_id":17,"name":"Uncletopia | San Francisco | 1 | All Maps","name_short":"sfo-1","host":"sfo-1.us.uncletopia.com","port":27015,"enabled":true,"region":"us-west","cc":"us","latitude":37.77397,"longitude":-122.4313,"reserved":0,"last_update":"0001-01-01T00:00:00Z","name_a2s":"Uncletopia | San Francisco | 1 | All Maps","protocol":17,"map":"cp_snakewater_final1","folder":"tf","game":"Team Fortress","app_id":440,"player_count":12,"max_players":24,"Bots":0,"server_type":"Dedicated","server_os":"Linux","password":true,"vac":true,"version":"7757534","steam_id":85568392924469999,"keywords":["cp","nocrits","nodmgspread","uncletopia"],"game_id":440,"stv_port":27016,"stv_name":"Uncletopia | San Francisco | 1 | All Maps | STV","players":[{"user_id":271,"name":"Mr. Meatball","steam_id":76561198094980639,"connected_time":1272000000000,"state":"active","ping":120},{"user_id":278,"name":"o_o","steam_id":76561198014268696,"connected_time":115000000000,"state":"active","ping":119},{"user_id":269,"name":"Link_Starr","steam_id":76561198133884015,"connected_time":1708000000000,"state":"active","ping":56},{"user_id":279,"name":"Êó©ÂÆâ‰∏≠ÂõΩ‰ªäÂ§©ÊàëÊúâÂÜ∞Ê∑á","steam_id":76561198964725863,"connected_time":76000000000,"state":"active","ping":224},{"user_id":277,"name":"Have some faith","steam_id":76561198978665598,"connected_time":158000000000,"state":"active","ping":29},{"user_id":275,"name":"Frank","steam_id":76561198428759980,"connected_time":424000000000,"state":"active","ping":46},{"user_id":272,"name":"Nuts","steam_id":76561199258535559,"connected_time":1172000000000,"state":"active","ping":62},{"user_id":260,"name":"Quon Grene for Vice Prez","steam_id":76561198127545817,"connected_time":2370000000000,"state":"active","ping":57},{"user_id":239,"name":"Ravelord Nito","steam_id":76561198012131080,"connected_time":3853000000000,"state":"active","ping":105},{"user_id":240,"name":"Mug","steam_id":76561198079396982,"connected_time":3714000000000,"state":"active","ping":103},{"user_id":252,"name":"jumbert","steam_id":76561198355231658,"connected_time":3071000000000,"state":"active","ping":105},{"user_id":264,"name":"Octo","steam_id":76561198024056355,"connected_time":2028000000000,"state":"active","ping":59}]},{"server_id":18,"name":"Uncletopia | San Francisco | 2 | All Maps","name_short":"sfo-2","host":"sfo-1.us.uncletopia.com","port":27025,"enabled":true,"region":"us-west","cc":"us","latitude":37.77397,"longitude":-122.4313,"reserved":0,"last_update":"0001-01-01T00:00:00Z","name_a2s":"Uncletopia | San Francisco | 2 | All Maps","protocol":17,"map":"pl_borneo","folder":"tf","game":"Team Fortress","app_id":440,"player_count":24,"max_players":24,"Bots":0,"server_type":"Dedicated","server_os":"Linux","password":true,"vac":true,"version":"7757534","steam_id":85568392924470000,"keywords":["nocrits","nodmgspread","payload","uncletopia"],"game_id":440,"stv_port":27026,"stv_name":"Uncletopia | San Francisco | 2 | All Maps | STV","players":[{"user_id":177,"name":"ElectronX","steam_id":76561198116034988,"connected_time":1514000000000,"state":"active","ping":59},{"user_id":167,"name":"Buswolley","steam_id":76561197995205571,"connected_time":1715000000000,"state":"active","ping":54},{"user_id":202,"name":"hardfork","steam_id":76561197960958019,"connected_time":110000000000,"state":"active","ping":60},{"user_id":147,"name":"Biggie Grug","steam_id":76561198042998887,"connected_time":3745000000000,"state":"active","ping":87},{"user_id":199,"name":"Spoofle","steam_id":76561199003655066,"connected_time":178000000000,"state":"active","ping":60},{"user_id":158,"name":"Friggy","steam_id":76561198131467867,"connected_time":2591000000000,"state":"active","ping":30},{"user_id":129,"name":"PinguEnjoyer6","steam_id":76561199186723516,"connected_time":4413000000000,"state":"active","ping":48},{"user_id":192,"name":"EatSomeBEES","steam_id":76561198047334307,"connected_time":663000000000,"state":"active","ping":67},{"user_id":174,"name":"dante","steam_id":76561198217847091,"connected_time":1582000000000,"state":"active","ping":68},{"user_id":128,"name":"Agent Q","steam_id":76561198830829003,"connected_time":4542000000000,"state":"active","ping":72},{"user_id":191,"name":"Motorbung87","steam_id":76561198976821898,"connected_time":770000000000,"state":"active","ping":55},{"user_id":178,"name":"Bing Soy","steam_id":76561199091381775,"connected_time":1437000000000,"state":"active","ping":70},{"user_id":169,"name":"Pah-Wraith Gul Dukat","steam_id":76561198033918106,"connected_time":1682000000000,"state":"active","ping":42},{"user_id":193,"name":"zapato","steam_id":76561198142278437,"connected_time":660000000000,"state":"active","ping":103},{"user_id":203,"name":"üÖúüÖîüÖîüÖöüÖ¢üÖ£üÖî\ufffd\ufffd\ufffd","steam_id":76561197999748343,"connected_time":95000000000,"state":"active","ping":75},{"user_id":204,"name":"Blitzy","steam_id":76561198149472890,"connected_time":87000000000,"state":"active","ping":100},{"user_id":172,"name":"Rage Pyro","steam_id":76561197998285726,"connected_time":1608000000000,"state":"active","ping":128},{"user_id":180,"name":"DinkyPenguin","steam_id":76561198811225792,"connected_time":1422000000000,"state":"active","ping":89},{"user_id":205,"name":"Shochu Fiend","steam_id":76561198055193376,"connected_time":84000000000,"state":"active","ping":97},{"user_id":183,"name":"roythecyclops","steam_id":76561198055295759,"connected_time":1294000000000,"state":"active","ping":130},{"user_id":122,"name":"Keth","steam_id":76561198155903648,"connected_time":4834000000000,"state":"active","ping":71},{"user_id":123,"name":"Robotguy9","steam_id":76561198147429617,"connected_time":4824000000000,"state":"active","ping":95},{"user_id":206,"name":"Magnus1738","steam_id":76561198330283667,"connected_time":38000000000,"state":"active","ping":68},{"user_id":207,"name":"scarecrow (evil)","steam_id":76561198082979347,"connected_time":23000000000,"state":"active","ping":109}]},{"server_id":19,"name":"Uncletopia | San Francisco | 3 | Stopwatch Beta","name_short":"sfo-3","host":"sfo-1.us.uncletopia.com","port":27035,"enabled":true,"region":"us-west","cc":"us","latitude":37.77397,"longitude":-122.4313,"reserved":0,"last_update":"0001-01-01T00:00:00Z","name_a2s":"Uncletopia | San Francisco | 3 | Stopwatch Beta","protocol":17,"map":"pl_borneo","folder":"tf","game":"Team Fortress","app_id":440,"player_count":0,"max_players":24,"Bots":0,"server_type":"Dedicated","server_os":"Linux","password":true,"vac":true,"version":"7757534","steam_id":85568392924742824,"keywords":["nocrits","nodmgspread","payload","uncletopia"],"game_id":440,"stv_port":27036,"stv_name":"Uncletopia | San Francisco | 3 | Stopwatch Beta | STV","players":null},{"server_id":20,"name":"Uncletopia | San Francisco | 4 | Community","name_short":"sfo-4","host":"sfo-1.us.uncletopia.com","port":27045,"enabled":true,"region":"us-west","cc":"us","latitude":37.77397,"longitude":-122.4313,"reserved":0,"last_update":"0001-01-01T00:00:00Z","name_a2s":"Uncletopia | San Francisco | 4 | Community","protocol":17,"map":"workshop/cp_logjam_rc12.ugc454812035","folder":"tf","game":"Team Fortress","app_id":440,"player_count":16,"max_players":24,"Bots":0,"server_type":"Dedicated","server_os":"Linux","password":true,"vac":true,"version":"7757534","steam_id":85568392924742826,"keywords":["cp","nocrits","nodmgspread","uncletopia"],"game_id":440,"stv_port":27046,"stv_name":"Uncletopia | San Francisco | 4 | Community | STV","players":[{"user_id":294,"name":"Pete The \"Plummer\"","steam_id":76561199097450685,"connected_time":3582000000000,"state":"active","ping":46},{"user_id":271,"name":"Celia [ +/- ] ‚úî","steam_id":76561198067164431,"connected_time":4558000000000,"state":"active","ping":49},{"user_id":262,"name":"Tom Cr√∫aich","steam_id":76561197999439911,"connected_time":4959000000000,"state":"active","ping":75},{"user_id":316,"name":"Axo to the Maxo","steam_id":76561198045206604,"connected_time":716000000000,"state":"active","ping":63},{"user_id":318,"name":"Gitarooboy","steam_id":76561198935424407,"connected_time":278000000000,"state":"active","ping":71},{"user_id":313,"name":"freyja","steam_id":76561198012480197,"connected_time":819000000000,"state":"active","ping":41},{"user_id":306,"name":"muffinman12126","steam_id":76561199471924109,"connected_time":1758000000000,"state":"active","ping":42},{"user_id":310,"name":"THE stupid idiot","steam_id":76561199366682904,"connected_time":1183000000000,"state":"active","ping":79},{"user_id":295,"name":"dick suckcharlie","steam_id":76561198233978116,"connected_time":3522000000000,"state":"active","ping":68},{"user_id":317,"name":"Ptownicus","steam_id":76561198064530072,"connected_time":640000000000,"state":"active","ping":51},{"user_id":319,"name":"Kirbumnus","steam_id":76561197999987442,"connected_time":256000000000,"state":"active","ping":64},{"user_id":261,"name":"kendrick lamar bigmac ost","steam_id":76561198070136627,"connected_time":4984000000000,"state":"active","ping":53},{"user_id":320,"name":"Local Garbage Mammal","steam_id":76561198250463048,"connected_time":187000000000,"state":"active","ping":119},{"user_id":321,"name":"bob grimnor","steam_id":76561199083601153,"connected_time":126000000000,"state":"active","ping":88},{"user_id":315,"name":"Ahten Xevious","steam_id":76561198075469828,"connected_time":804000000000,"state":"active","ping":119},{"user_id":305,"name":"Dragonsalt","steam_id":76561198141927559,"connected_time":1920000000000,"state":"active","ping":62}]},{"server_id":141,"name":"Uncletopia | Sydney | 1 | All Maps","name_short":"syd-1","host":"syd-1.au.uncletopia.com","port":27015,"enabled":true,"region":"au","cc":"au","latitude":-33.865143,"longitude":151.2099,"reserved":0,"last_update":"0001-01-01T00:00:00Z","name_a2s":"Uncletopia | Sydney | 1 | All Maps","protocol":17,"map":"koth_lakeside_final","folder":"tf","game":"Team Fortress","app_id":440,"player_count":23,"max_players":24,"Bots":0,"server_type":"Dedicated","server_os":"Linux","password":true,"vac":true,"version":"7757534","steam_id":85568392924470001,"keywords":["cp","nocrits","nodmgspread","uncletopia"],"game_id":440,"stv_port":27016,"stv_name":"Uncletopia | Sydney | 1 | All Maps | STV","players":[{"user_id":144,"name":"oh no!","steam_id":76561199046481213,"connected_time":1517000000000,"state":"active","ping":63},{"user_id":125,"name":"maize","steam_id":76561199388029472,"connected_time":2247000000000,"state":"active","ping":62},{"user_id":164,"name":"ThatOneGuyWithTheReallyLongName","steam_id":76561198354762557,"connected_time":33000000000,"state":"active","ping":272},{"user_id":149,"name":"ŒúŒëŒõŒÜŒöŒë","steam_id":76561198304105258,"connected_time":1167000000000,"state":"active","ping":67},{"user_id":160,"name":"Frog Wellingtons","steam_id":76561198090088613,"connected_time":353000000000,"state":"active","ping":92},{"user_id":123,"name":"Pizza","steam_id":76561199154318083,"connected_time":2262000000000,"state":"active","ping":77},{"user_id":107,"name":"Crumpet","steam_id":76561199096381193,"connected_time":3436000000000,"state":"active","ping":62},{"user_id":153,"name":"AmethystDragon10","steam_id":76561198412979983,"connected_time":466000000000,"state":"active","ping":88},{"user_id":94,"name":"Cofwee","steam_id":76561198072414195,"connected_time":4990000000000,"state":"active","ping":69},{"user_id":137,"name":"CypressFluff (She/Her)","steam_id":76561198174667818,"connected_time":1679000000000,"state":"active","ping":106},{"user_id":146,"name":"Huxley Blownaparte","steam_id":76561198301282416,"connected_time":1265000000000,"state":"active","ping":52},{"user_id":158,"name":"‚Ñµ‚≤Ø‚æ∫‚üü‚†π‚ûç‚∫µ‚´¨‚°Ä‚∞ß","steam_id":76561198831069486,"connected_time":394000000000,"state":"active","ping":59},{"user_id":161,"name":"marcusmaurovic","steam_id":76561199471627940,"connected_time":243000000000,"state":"active","ping":65},{"user_id":157,"name":"Mr. Game \u0026 Watch","steam_id":76561198985044367,"connected_time":411000000000,"state":"active","ping":71},{"user_id":163,"name":"Eugene (built different)","steam_id":76561198079108027,"connected_time":203000000000,"state":"active","ping":55},{"user_id":132,"name":"AzureFox","steam_id":76561198108179408,"connected_time":2101000000000,"state":"active","ping":85},{"user_id":118,"name":"Uncle Fester","steam_id":76561198036511528,"connected_time":2806000000000,"state":"active","ping":72},{"user_id":155,"name":"Hydraulic Press Gaming","steam_id":76561199396024219,"connected_time":433000000000,"state":"active","ping":60},{"user_id":143,"name":"Traveller","steam_id":76561199161637215,"connected_time":1549000000000,"state":"active","ping":94},{"user_id":133,"name":"Mayor Ballsworth","steam_id":76561199174593635,"connected_time":2044000000000,"state":"spawning","ping":47},{"user_id":134,"name":"lemur","steam_id":76561198278239170,"connected_time":2001000000000,"state":"active","ping":89},{"user_id":150,"name":"flatty rob","steam_id":76561198195519834,"connected_time":1096000000000,"state":"active","ping":32},{"user_id":156,"name":"fortnitebattlepassbanditcamp.co","steam_id":76561198126600348,"connected_time":432000000000,"state":"active","ping":88}]},{"server_id":123,"name":"Uncletopia | Sydney | 2 | All Maps","name_short":"syd-2","host":"syd-1.au.uncletopia.com","port":27025,"enabled":true,"region":"au","cc":"au","latitude":-33.865143,"longitude":151.2099,"reserved":0,"last_update":"0001-01-01T00:00:00Z","name_a2s":"Uncletopia | Sydney | 2 | All Maps","protocol":17,"map":"koth_lakeside_final","folder":"tf","game":"Team Fortress","app_id":440,"player_count":0,"max_players":24,"Bots":0,"server_type":"Dedicated","server_os":"Linux","password":true,"vac":true,"version":"7757534","steam_id":85568392924470002,"keywords":["cp","nocrits","nodmgspread","uncletopia"],"game_id":440,"stv_port":27026,"stv_name":"Uncletopia | Sydney | 2 | All Maps | STV","players":null},{"server_id":395,"name":"Uncletopia | Sydney | 3 | All Maps","name_short":"syd-3","host":"syd-1.au.uncletopia.com","port":27035,"enabled":true,"region":"au","cc":"au","latitude":-33.865143,"longitude":151.2099,"reserved":0,"last_update":"0001-01-01T00:00:00Z","name_a2s":"Uncletopia | Sydney | 3 | All Maps","protocol":17,"map":"cp_sunshine","folder":"tf","game":"Team Fortress","app_id":440,"player_count":0,"max_players":24,"Bots":0,"server_type":"Dedicated","server_os":"Linux","password":true,"vac":true,"version":"7757534","steam_id":85568392925194467,"keywords":["cp","nocrits","nodmgspread","uncletopia"],"game_id":440,"stv_port":27036,"stv_name":"Uncletopia | Sydney | 3 | All Maps | STV","players":null},{"server_id":396,"name":"Uncletopia | Sydney | 4 | All Maps","name_short":"syd-4","host":"syd-1.au.uncletopia.com","port":27045,"enabled":true,"region":"au","cc":"au","latitude":-33.865143,"longitude":151.2099,"reserved":0,"last_update":"0001-01-01T00:00:00Z","name_a2s":"Uncletopia | Sydney | 4 | All Maps","protocol":17,"map":"koth_highpass","folder":"tf","game":"Team Fortress","app_id":440,"player_count":2,"max_players":24,"Bots":0,"server_type":"Dedicated","server_os":"Linux","password":true,"vac":true,"version":"7757534","steam_id":85568392925397958,"keywords":["cp","nocrits","nodmgspread","uncletopia"],"game_id":440,"stv_port":27046,"stv_name":"Uncletopia | Sydney | 4 | All Maps | STV","players":[{"user_id":10,"name":"tigerspirit99","steam_id":76561199092480640,"connected_time":419000000000,"state":"active","ping":56},{"user_id":9,"name":"zeekarot","steam_id":76561199197003908,"connected_time":437000000000,"state":"active","ping":56}]},{"server_id":58,"name":"Uncletopia | Sydney | 5 | Stopwatch Beta","name_short":"syd-5","host":"syd-1.au.uncletopia.com","port":27055,"enabled":true,"region":"au","cc":"au","latitude":-33.865143,"longitude":151.2099,"reserved":0,"last_update":"0001-01-01T00:00:00Z","name_a2s":"Uncletopia | Sydney | 5 | Stopwatch Beta","protocol":17,"map":"koth_cascade","folder":"tf","game":"Team Fortress","app_id":440,"player_count":0,"max_players":24,"Bots":0,"server_type":"Dedicated","server_os":"Linux","password":true,"vac":true,"version":"7757534","steam_id":85568392925397959,"keywords":["cp","nocrits","nodmgspread","uncletopia"],"game_id":440,"stv_port":27056,"stv_name":"Uncletopia | Sydney | 5 | Stopwatch Beta | STV","players":null},{"server_id":59,"name":"Uncletopia | Sydney | 6 | Community","name_short":"syd-6","host":"syd-1.au.uncletopia.com","port":27065,"enabled":true,"region":"au","cc":"au","latitude":-33.865143,"longitude":151.2099,"reserved":0,"last_update":"0001-01-01T00:00:00Z","name_a2s":"Uncletopia | Sydney | 6 | Community","protocol":17,"map":"workshop/cp_fulgur_rc2a.ugc2068252300","folder":"tf","game":"Team Fortress","app_id":440,"player_count":4,"max_players":24,"Bots":0,"server_type":"Dedicated","server_os":"Linux","password":true,"vac":true,"version":"7757534","steam_id":85568392925397960,"keywords":["cp","nocrits","nodmgspread","uncletopia"],"game_id":440,"stv_port":27066,"stv_name":"Uncletopia | Sydney | 6 | Community | STV","players":[{"user_id":13,"name":"Branko","steam_id":76561199262196710,"connected_time":2170000000000,"state":"active","ping":43},{"user_id":17,"name":"snee chong","steam_id":76561199205171109,"connected_time":615000000000,"state":"active","ping":68},{"user_id":18,"name":"Alice","steam_id":76561198322365540,"connected_time":460000000000,"state":"active","ping":446},{"user_id":19,"name":"Dinzo","steam_id":76561198153434596,"connected_time":327000000000,"state":"active","ping":57}]},{"server_id":49,"name":"Uncletopia | Warsaw | 1 | All Maps","name_short":"waw-1","host":"waw-1.pl.uncletopia.com","port":27015,"enabled":true,"region":"eu","cc":"pl","latitude":52.2297,"longitude":21.017532,"reserved":0,"last_update":"0001-01-01T00:00:00Z","name_a2s":"","protocol":0,"map":"","folder":"","game":"","app_id":0,"player_count":0,"max_players":0,"Bots":0,"server_type":"","server_os":"","password":false,"vac":false,"version":"","steam_id":0,"keywords":null,"game_id":0,"stv_port":0,"stv_name":"","players":null},{"server_id":50,"name":"Uncletopia | Warsaw | 2 | All Maps","name_short":"waw-2","host":"waw-1.pl.uncletopia.com","port":27025,"enabled":true,"region":"eu","cc":"pl","latitude":52.2297,"longitude":21.017532,"reserved":0,"last_update":"0001-01-01T00:00:00Z","name_a2s":"Uncletopia | Warsaw | 2 | All Maps","protocol":17,"map":"koth_viaduct","folder":"tf","game":"Team Fortress","app_id":440,"player_count":0,"max_players":24,"Bots":0,"server_type":"Dedicated","server_os":"Linux","password":true,"vac":true,"version":"7757534","steam_id":85568392925397851,"keywords":["cp","nocrits","nodmgspread","uncletopia"],"game_id":440,"stv_port":27026,"stv_name":"Uncletopia | Warsaw | 2 | All Maps | STV","players":null},{"server_id":51,"name":"Uncletopia | Warsaw | 3 | All Maps","name_short":"waw-3","host":"waw-1.pl.uncletopia.com","port":27035,"enabled":true,"region":"eu","cc":"pl","latitude":52.2297,"longitude":21.017532,"reserved":0,"last_update":"0001-01-01T00:00:00Z","name_a2s":"Uncletopia | Warsaw | 3 | All Maps","protocol":17,"map":"pl_badwater","folder":"tf","game":"Team Fortress","app_id":440,"player_count":0,"max_players":24,"Bots":0,"server_type":"Dedicated","server_os":"Linux","password":true,"vac":true,"version":"7757534","steam_id":85568392925397852,"keywords":["nocrits","nodmgspread","payload","uncletopia"],"game_id":440,"stv_port":27036,"stv_name":"Uncletopia | Warsaw | 3 | All Maps | STV","players":null},{"server_id":52,"name":"Uncletopia | Warsaw | 4 | All Maps","name_short":"waw-4","host":"waw-1.pl.uncletopia.com","port":27045,"enabled":true,"region":"eu","cc":"pl","latitude":52.2297,"longitude":21.017532,"reserved":0,"last_update":"0001-01-01T00:00:00Z","name_a2s":"Uncletopia | Warsaw | 4 | All Maps","protocol":17,"map":"koth_lakeside_final","folder":"tf","game":"Team Fortress","app_id":440,"player_count":0,"max_players":24,"Bots":0,"server_type":"Dedicated","server_os":"Linux","password":true,"vac":true,"version":"7757534","steam_id":85568392925397853,"keywords":["cp","nocrits","nodmgspread","uncletopia"],"game_id":440,"stv_port":27046,"stv_name":"Uncletopia | Warsaw | 4 | All Maps | STV","players":null},{"server_id":53,"name":"Uncletopia | Warsaw | 5 | Stopwatch Beta","name_short":"waw-5","host":"waw-1.pl.uncletopia.com","port":27055,"enabled":true,"region":"eu","cc":"pl","latitude":52.2297,"longitude":21.017532,"reserved":0,"last_update":"0001-01-01T00:00:00Z","name_a2s":"Uncletopia | Warsaw | 5 | Stopwatch Beta","protocol":17,"map":"pl_borneo","folder":"tf","game":"Team Fortress","app_id":440,"player_count":0,"max_players":24,"Bots":0,"server_type":"Dedicated","server_os":"Linux","password":true,"vac":true,"version":"7757534","steam_id":85568392925397854,"keywords":["nocrits","nodmgspread","payload","uncletopia"],"game_id":440,"stv_port":27056,"stv_name":"Uncletopia | Warsaw | 5 | Stopwatch Beta | STV","players":null},{"server_id":54,"name":"Uncletopia | Warsaw | 6 | Community","name_short":"waw-6","host":"waw-1.pl.uncletopia.com","port":27065,"enabled":true,"region":"eu","cc":"pl","latitude":52.2297,"longitude":21.017532,"reserved":0,"last_update":"0001-01-01T00:00:00Z","name_a2s":"Uncletopia | Warsaw | 6 | Community","protocol":17,"map":"koth_lakeside_final","folder":"tf","game":"Team Fortress","app_id":440,"player_count":0,"max_players":24,"Bots":0,"server_type":"Dedicated","server_os":"Linux","password":true,"vac":true,"version":"7757534","steam_id":85568392925397856,"keywords":["cp","nocrits","nodmgspread","uncletopia"],"game_id":440,"stv_port":27066,"stv_name":"Uncletopia | Warsaw | 6 | Community | STV","players":null}]}