{"status":true,"message":"","result":[{"server_id":9,"name":"Uncletopia | Atlanta | 1 | All Maps","name_short":"atl-1","host":"atl-1.us.uncletopia.com","port":27015,"enabled":true,"region":"us-east","cc":"us","latitude":33.753746,"longitude":-84.38633,"reserved":0,"last_update":"0001-01-01T00:00:00Z","name_a2s":"Uncletopia | Atlanta | 1 | All Maps","protocol":17,"map":"koth_viaduct","folder":"tf","game":"Team Fortress","app_id":440,"player_count":24,"max_players":24,"Bots":0,"server_type":"Dedicated","server_os":"Linux","password":true,"vac":true,"version":"7961495","steam_id":85568392924469982,"keywords":["cp","nocrits","nodmgspread","uncletopia"],"game_id":440,"stv_port":27016,"stv_name":"Uncletopia | Atlanta | 1 | All Maps | STV","players":null},{"server_id":104,"name":"Uncletopia | Atlanta | 2 | All Maps","name_short":"atl-2","host":"atl-1.us.uncletopia.com","port":27025,"enabled":true,"region":"us-east","cc":"us","latitude":33.753746,"longitude":-84.38633,"reserved":0,"last_update":"0001-01-01T00:00:00Z","name_a2s":"Uncletopia | Atlanta | 2 | All Maps","protocol":17,"map":"pl_frontier_final","folder":"tf","game":"Team Fortress","app_id":440,"player_count":0,"max_players":24,"Bots":0,"server_type":"Dedicated","server_os":"Linux","password":true,"vac":true,"version":"7961495","steam_id":85568392924469983,"keywords":["nocrits","nodmgspread","payload","uncletopia"],"game_id":440,"stv_port":27026,"stv_name":"Uncletopia | Atlanta | 2 | All Maps | STV","players":null},{"server_id":400,"name":"Uncletopia | Atlanta | 3 | All Maps","name_short":"atl-3","host":"atl-1.us.uncletopia.com","port":27035,"enabled":true,"region":"us-east","cc":"us","latitude":33.753746,"longitude":-84.38633,"reserved":0,"last_update":"0001-01-01T00:00:00Z","name_a2s":"Uncletopia | Atlanta | 3 | All Maps","protocol":17,"map":"pl_pier","folder":"tf","game":"Team Fortress","app_id":440,"player_count":23,"max_players":24,"Bots":0,"server_type":"Dedicated","server_os":"Linux","password":true,"vac":true,"version":"7961495","steam_id":85568392924515187,"keywords":["nocrits","nodmgspread","payload","uncletopia"],"game_id":440,"stv_port":27036,"stv_name":"Uncletopia | Atlanta | 3 | All Maps | STV","players":null},{"server_id":401,"name":"Uncletopia | Atlanta | 4 | Community","name_short":"atl-4","host":"atl-1.us.uncletopia.com","port":27045,"enabled":true,"region":"us-east","cc":"us","latitude":33.753746,"longitude":-84.38633,"reserved":0,"last_update":"0001-01-01T00:00:00Z","name_a2s":"Uncletopia | Atlanta | 4 | Community","protocol":17,"map":"cp_villa_b19","folder":"tf","game":"Team Fortress","app_id":440,"player_count":0,"max_players":24,"Bots":0,"server_type":"Dedicated","server_os":"Linux","password":true,"vac":true,"version":"7961495","steam_id":85568392924515188,"keywords":["cp","nocrits","nodmgspread","uncletopia"],"game_id":440,"stv_port":27046,"stv_name":"Uncletopia | Atlanta | 4 | Community | STV","players":null},{"server_id":2,"name":"Uncletopia | Chicago | 1 | All Maps","name_short":"chi-1","host":"chi-1.us.uncletopia.com","port":27015,"enabled":true,"region":"us-central","cc":"us","latitude":41.881832,"longitude":-87.62318,"reserved":0,"last_update":"0001-01-01T00:00:00Z","name_a2s":"Uncletopia | Chicago | 1 | All Maps","protocol":17,"map":"pl_swiftwater_final1","folder":"tf","game":"Team Fortress","app_id":440,"player_count":24,"max_players":24,"Bots":0,"server_type":"Dedicated","server_os":"Linux","password":true,"vac":true,"version":"7961495","steam_id":85568392924469984,"keywords":["nocrits","nodmgspread","payload","uncletopia"],"game_id":440,"stv_port":27016,"stv_name":"Uncletopia | Chicago | 1 | All Maps | STV","players":[{"user_id":301,"name":"brandon von hoesli","steam_id":76561198156333207,"connected_time":7554000000000,"state":"active","ping":99},{"user_id":359,"name":"xiii","steam_id":76561198079416036,"connected_time":4772000000000,"state":"active","ping":41},{"user_id":314,"name":"DuckMann","steam_id":76561198197058638,"connected_time":6462000000000,"state":"active","ping":60},{"user_id":354,"name":"fear_the-penguins","steam_id":76561199013292217,"connected_time":5011000000000,"state":"active","ping":68},{"user_id":344,"name":"Peepster","steam_id":76561198297854733,"connected_time":5749000000000,"state":"active","ping":73},{"user_id":410,"name":"Your Local Queer Librarian","steam_id":76561198013077080,"connected_time":99000000000,"state":"active","ping":55},{"user_id":400,"name":"TallBit","steam_id":76561199059748976,"connected_time":1490000000000,"state":"active","ping":60},{"user_id":407,"name":"Astoriae!","steam_id":76561199090168858,"connected_time":739000000000,"state":"active","ping":68},{"user_id":396,"name":"MUSHROOM MONSTER","steam_id":76561198067697879,"connected_time":1734000000000,"state":"active","ping":56},{"user_id":405,"name":"D0g","steam_id":76561198165312893,"connected_time":1126000000000,"state":"active","ping":70},{"user_id":404,"name":".JIFF","steam_id":76561198045181760,"connected_time":1160000000000,"state":"active","ping":58},{"user_id":372,"name":"unicornCatLili","steam_id":76561199391478575,"connected_time":3313000000000,"state":"active","ping":111},{"user_id":386,"name":"Undertime Slopper","steam_id":76561198396789061,"connected_time":2550000000000,"state":"active","ping":94},{"user_id":385,"name":"*yawns cutely*","steam_id":76561198239286750,"connected_time":2725000000000,"state":"active","ping":65},{"user_id":387,"name":"Sir Lagsalot","steam_id":76561198133576262,"connected_time":2414000000000,"state":"active","ping":109},{"user_id":368,"name":"HarryjusttHarry","steam_id":76561198982810452,"connected_time":3574000000000,"state":"active","ping":71},{"user_id":382,"name":"PhaserLazer","steam_id":76561198407341298,"connected_time":2955000000000,"state":"active","ping":78},{"user_id":357,"name":"qwerty nubbit","steam_id":76561198119732249,"connected_time":4975000000000,"state":"active","ping":81},{"user_id":362,"name":"boys who say :3","steam_id":76561198392539722,"connected_time":4449000000000,"state":"active","ping":81},{"user_id":398,"name":"Scuff1e","steam_id":76561198272995728,"connected_time":1668000000000,"state":"active","ping":80},{"user_id":350,"name":"ApertureCity","steam_id":76561198004153607,"connected_time":5252000000000,"state":"active","ping":84},{"user_id":399,"name":"Shigu","steam_id":76561199489391928,"connected_time":1564000000000,"state":"active","ping":59},{"user_id":388,"name":"Icaras","steam_id":76561198416724843,"connected_time":2409000000000,"state":"active","ping":134},{"user_id":341,"name":"freyjaaaaaaaaaaaaaaaaaaaaaaaaaa","steam_id":76561198249206656,"connected_time":6039000000000,"state":"active","ping":79}]},{"server_id":106,"name":"Uncletopia | Chicago | 2 | All Maps","name_short":"chi-2","host":"chi-1.us.uncletopia.com","port":27025,"enabled":true,"region":"us-central","cc":"us","latitude":41.881832,"longitude":-87.62318,"reserved":0,"last_update":"0001-01-01T00:00:00Z","name_a2s":"Uncletopia | Chicago | 2 | All Maps","protocol":17,"map":"cp_mountainlab","folder":"tf","game":"Team Fortress","app_id":440,"player_count":21,"max_players":24,"Bots":0,"server_type":"Dedicated","server_os":"Linux","password":true,"vac":true,"version":"7961495","steam_id":85568392924469985,"keywords":["cp","nocrits","nodmgspread","uncletopia"],"game_id":440,"stv_port":27026,"stv_name":"Uncletopia | Chicago | 2 | All Maps | STV","players":[{"user_id":240,"name":"P4RLMNT","steam_id":76561198054361045,"connected_time":1601000000000,"state":"active","ping":89},{"user_id":247,"name":"Wolbey","steam_id":76561198042148095,"connected_time":1132000000000,"state":"active","ping":44},{"user_id":228,"name":"general.b","steam_id":76561198162480519,"connected_time":2570000000000,"state":"active","ping":49},{"user_id":227,"name":"Ultimate Cookie","steam_id":76561198011297674,"connected_time":2624000000000,"state":"active","ping":45},{"user_id":230,"name":"Retro","steam_id":76561198414744723,"connected_time":2248000000000,"state":"active","ping":63},{"user_id":260,"name":"the blunz","steam_id":76561198420227358,"connected_time":19000000000,"state":"active","ping":106},{"user_id":152,"name":"TacoMan","steam_id":76561198049405741,"connected_time":7446000000000,"state":"active","ping":92},{"user_id":241,"name":"orphanslayer","steam_id":76561199476198856,"connected_time":1579000000000,"state":"active","ping":84},{"user_id":259,"name":"Skendiesel","steam_id":76561198015497676,"connected_time":61000000000,"state":"active","ping":38},{"user_id":229,"name":"jon.cinnamon","steam_id":76561198127316418,"connected_time":2294000000000,"state":"active","ping":62},{"user_id":254,"name":"derz","steam_id":76561198010742216,"connected_time":837000000000,"state":"active","ping":348},{"user_id":261,"name":"Butterscotch Poopies","steam_id":76561197985260403,"connected_time":19000000000,"state":"active","ping":89},{"user_id":249,"name":"MrBiggieCheese.","steam_id":76561199489528525,"connected_time":1088000000000,"state":"active","ping":90},{"user_id":244,"name":"Name","steam_id":76561199111748012,"connected_time":1550000000000,"state":"active","ping":70},{"user_id":176,"name":"Mer","steam_id":76561198192171041,"connected_time":6353000000000,"state":"active","ping":130},{"user_id":231,"name":"TheSnipersHat","steam_id":76561198057684066,"connected_time":2246000000000,"state":"active","ping":41},{"user_id":253,"name":"the real pinkerton by weezer","steam_id":76561198966306545,"connected_time":916000000000,"state":"active","ping":62},{"user_id":255,"name":"Scrumpy Main","steam_id":76561198146302597,"connected_time":803000000000,"state":"active","ping":54},{"user_id":262,"name":"caption cool","steam_id":76561197990612056,"connected_time":14000000000,"state":"spawning","ping":47},{"user_id":251,"name":"Moris","steam_id":76561198280461456,"connected_time":1067000000000,"state":"active","ping":116},{"user_id":238,"name":"TechnoBear2099","steam_id":76561198238863596,"connected_time":2079000000000,"state":"active","ping":74}]},{"server_id":402,"name":"Uncletopia | Chicago | 3 | All Maps","name_short":"chi-3","host":"chi-1.us.uncletopia.com","port":27035,"enabled":true,"region":"us-central","cc":"us","latitude":41.881832,"longitude":-87.62318,"reserved":0,"last_update":"0001-01-01T00:00:00Z","name_a2s":"Uncletopia | Chicago | 3 | All Maps","protocol":17,"map":"pl_badwater","folder":"tf","game":"Team Fortress","app_id":440,"player_count":24,"max_players":24,"Bots":0,"server_type":"Dedicated","server_os":"Linux","password":true,"vac":true,"version":"7961495","steam_id":85568392924515191,"keywords":["nocrits","nodmgspread","payload","uncletopia"],"game_id":440,"stv_port":27036,"stv_name":"Uncletopia | Chicago | 3 | All Maps | STV","players":[{"user_id":365,"name":"tools","steam_id":76561199010542612,"connected_time":2705000000000,"state":"active","ping":49},{"user_id":288,"name":"I have no idea what I am doing?","steam_id":76561198093152207,"connected_time":7328000000000,"state":"active","ping":67},{"user_id":383,"name":"The_atom_bomb","steam_id":76561198139944683,"connected_time":1409000000000,"state":"active","ping":59},{"user_id":398,"name":"engie","steam_id":76561199229629045,"connected_time":266000000000,"state":"active","ping":102},{"user_id":340,"name":"Imabee","steam_id":76561198032523749,"connected_time":3937000000000,"state":"active","ping":70},{"user_id":394,"name":"MINIFIE MAN19","steam_id":76561198259509461,"connected_time":520000000000,"state":"active","ping":69},{"user_id":384,"name":"Jabroni Kris","steam_id":76561198048736247,"connected_time":1359000000000,"state":"active","ping":85},{"user_id":407,"name":"Rodgedan","steam_id":76561198226236524,"connected_time":51000000000,"state":"active","ping":84},{"user_id":371,"name":"Jpxfred","steam_id":76561199414783749,"connected_time":2113000000000,"state":"active","ping":110},{"user_id":388,"name":"Sanic_Bum","steam_id":76561198094179822,"connected_time":962000000000,"state":"active","ping":52},{"user_id":402,"name":"el wiwi","steam_id":76561198857304367,"connected_time":237000000000,"state":"active","ping":77},{"user_id":391,"name":"VenANON","steam_id":76561198055676240,"connected_time":707000000000,"state":"active","ping":77},{"user_id":385,"name":"Vintage TV","steam_id":76561198800334545,"connected_time":1327000000000,"state":"active","ping":100},{"user_id":403,"name":"HOMESHAKE","steam_id":76561198045144546,"connected_time":226000000000,"state":"active","ping":86},{"user_id":404,"name":"Jimothy Pickens","steam_id":76561199020884797,"connected_time":206000000000,"state":"active","ping":67},{"user_id":397,"name":"yenseii","steam_id":76561198304265800,"connected_time":336000000000,"state":"active","ping":76},{"user_id":405,"name":"Anti swag corporation","steam_id":76561199015453645,"connected_time":197000000000,"state":"active","ping":80},{"user_id":330,"name":"N00SE","steam_id":76561198211473307,"connected_time":4646000000000,"state":"active","ping":60},{"user_id":390,"name":"Just a baby","steam_id":76561198018660838,"connected_time":804000000000,"state":"active","ping":101},{"user_id":406,"name":"Mic","steam_id":76561199098566897,"connected_time":182000000000,"state":"active","ping":66},{"user_id":380,"name":"♦♣Quadric♥♠","steam_id":76561198061003853,"connected_time":1835000000000,"state":"active","ping":71},{"user_id":386,"name":"Pasta","steam_id":76561198358320222,"connected_time":1326000000000,"state":"active","ping":84},{"user_id":393,"name":"BakedBushido","steam_id":76561197976095068,"connected_time":562000000000,"state":"active","ping":64},{"user_id":396,"name":"Geck","steam_id":76561198109072653,"connected_time":496000000000,"state":"active","ping":75}]},{"server_id":403,"name":"Uncletopia | Chicago | 4 | All Maps","name_short":"chi-4","host":"chi-1.us.uncletopia.com","port":27045,"enabled":true,"region":"us-central","cc":"us","latitude":41.881832,"longitude":-87.62318,"reserved":0,"last_update":"0001-01-01T00:00:00Z","name_a2s":"Uncletopia | Chicago | 4 | All Maps","protocol":17,"map":"pl_goldrush","folder":"tf","game":"Team Fortress","app_id":440,"player_count":24,"max_players":24,"Bots":0,"server_type":"Dedicated","server_os":"Linux","password":true,"vac":true,"version":"7961495","steam_id":85568392924515193,"keywords":["nocrits","nodmgspread","payload","uncletopia"],"game_id":440,"stv_port":27046,"stv_name":"Uncletopia | Chicago | 4 | All Maps | STV","players":[{"user_id":228,"name":"dedaF","steam_id":76561198006568936,"connected_time":3587000000000,"state":"active","ping":110},{"user_id":240,"name":"Gingie","steam_id":76561198258981931,"connected_time":2266000000000,"state":"active","ping":94},{"user_id":268,"name":"Queen Frau the Round","steam_id":76561197999942134,"connected_time":93000000000,"state":"active","ping":45},{"user_id":245,"name":"EatSomeBEES","steam_id":76561198047334307,"connected_time":1982000000000,"state":"active","ping":113},{"user_id":244,"name":"MitcheyHD","steam_id":76561198066489645,"connected_time":2063000000000,"state":"active","ping":86},{"user_id":266,"name":"Player0x01","steam_id":76561197979240996,"connected_time":382000000000,"state":"active","ping":110},{"user_id":257,"name":"iUseDvorak","steam_id":76561198064439037,"connected_time":1012000000000,"state":"active","ping":69},{"user_id":247,"name":"get scrongled, idiot","steam_id":76561198115874625,"connected_time":1904000000000,"state":"active","ping":103},{"user_id":254,"name":"LatinRhythms - 5 ref","steam_id":76561198025110751,"connected_time":1476000000000,"state":"active","ping":160},{"user_id":269,"name":"greg club","steam_id":76561198370506193,"connected_time":89000000000,"state":"active","ping":59},{"user_id":270,"name":"Super Gangsta Mario","steam_id":76561198411623667,"connected_time":88000000000,"state":"active","ping":171},{"user_id":226,"name":"butterdick dog","steam_id":76561198067926582,"connected_time":4050000000000,"state":"active","ping":86},{"user_id":263,"name":"Joe Family guy","steam_id":76561198065327106,"connected_time":754000000000,"state":"active","ping":72},{"user_id":196,"name":"not a good idea","steam_id":76561198032259680,"connected_time":5157000000000,"state":"active","ping":67},{"user_id":256,"name":"chicken pot pie gaming","steam_id":76561198104800182,"connected_time":1344000000000,"state":"active","ping":61},{"user_id":238,"name":"paypur -rng","steam_id":76561198214370515,"connected_time":2519000000000,"state":"active","ping":63},{"user_id":258,"name":"hudd","steam_id":76561198847873816,"connected_time":948000000000,"state":"active","ping":105},{"user_id":261,"name":"swaggot","steam_id":76561198077253646,"connected_time":856000000000,"state":"active","ping":106},{"user_id":218,"name":"kid named amogus","steam_id":76561198156093674,"connected_time":4351000000000,"state":"active","ping":59},{"user_id":221,"name":"☆","steam_id":76561199089788373,"connected_time":4264000000000,"state":"active","ping":89},{"user_id":259,"name":"$limek✔ngEM0.an1me.B0Y_33309","steam_id":76561198283687382,"connected_time":901000000000,"state":"active","ping":74},{"user_id":187,"name":"1-800-GHOST-DANCE","steam_id":76561198835430429,"connected_time":5936000000000,"state":"active","ping":89},{"user_id":271,"name":"gus","steam_id":76561198209316492,"connected_time":72000000000,"state":"active","ping":88},{"user_id":235,"name":"frank","steam_id":76561198137777483,"connected_time":3030000000000,"state":"active","ping":70}]},{"server_id":36,"name":"Uncletopia | Chicago | 5 | All Maps","name_short":"chi-5","host":"chi-2.us.uncletopia.com","port":27015,"enabled":true,"region":"us-central","cc":"us","latitude":41.881832,"longitude":-87.62318,"reserved":0,"last_update":"0001-01-01T00:00:00Z","name_a2s":"Uncletopia | Chicago | 5 | All Maps","protocol":17,"map":"pl_pier","folder":"tf","game":"Team Fortress","app_id":440,"player_count":24,"max_players":24,"Bots":0,"server_type":"Dedicated","server_os":"Linux","password":true,"vac":true,"version":"7961495","steam_id":85568392924866362,"keywords":["nocrits","nodmgspread","payload","uncletopia"],"game_id":440,"stv_port":27016,"stv_name":"Uncletopia | Chicago | 5 | All Maps | STV","players":[{"user_id":296,"name":"Civic Duty MK II Enthusiast","steam_id":76561198144049265,"connected_time":139000000000,"state":"active","ping":66},{"user_id":297,"name":"wise","steam_id":76561198030066204,"connected_time":39000000000,"state":"active","ping":58},{"user_id":298,"name":"idk man","steam_id":76561198065543771,"connected_time":37000000000,"state":"active","ping":73},{"user_id":274,"name":"leonardo doujinshi","steam_id":76561198025810326,"connected_time":1294000000000,"state":"active","ping":77},{"user_id":284,"name":"In Memory of Rick May","steam_id":76561198864475187,"connected_time":959000000000,"state":"active","ping":49},{"user_id":293,"name":"Rhutebeer","steam_id":76561198018302761,"connected_time":687000000000,"state":"active","ping":101},{"user_id":262,"name":"BRO_TEIN_SHAKE","steam_id":76561198035547173,"connected_time":1980000000000,"state":"active","ping":101},{"user_id":285,"name":"Drew P. Sack","steam_id":76561198036201738,"connected_time":940000000000,"state":"active","ping":56},{"user_id":289,"name":"Kamin","steam_id":76561198255299559,"connected_time":850000000000,"state":"active","ping":88},{"user_id":282,"name":"bunger","steam_id":76561199132076391,"connected_time":1047000000000,"state":"active","ping":59},{"user_id":229,"name":"LittleFieryOne","steam_id":76561198107463724,"connected_time":3823000000000,"state":"active","ping":64},{"user_id":277,"name":"MalarkeyCauser_ttv","steam_id":76561199209073877,"connected_time":1261000000000,"state":"active","ping":74},{"user_id":299,"name":"Bheem","steam_id":76561198170453459,"connected_time":30000000000,"state":"active","ping":77},{"user_id":294,"name":"dpaIIcx2","steam_id":76561197980810378,"connected_time":422000000000,"state":"active","ping":77},{"user_id":295,"name":"Charlotte","steam_id":76561199084344266,"connected_time":266000000000,"state":"active","ping":63},{"user_id":260,"name":"roto","steam_id":76561198138735860,"connected_time":2136000000000,"state":"active","ping":70},{"user_id":255,"name":"kibsta","steam_id":76561198991982630,"connected_time":2470000000000,"state":"active","ping":67},{"user_id":224,"name":"josh","steam_id":76561198077902438,"connected_time":4105000000000,"state":"active","ping":76},{"user_id":279,"name":"Dr. Maybe","steam_id":76561198268304564,"connected_time":1231000000000,"state":"active","ping":68},{"user_id":287,"name":"MinusSoup918","steam_id":76561198060902773,"connected_time":876000000000,"state":"active","ping":144},{"user_id":263,"name":"Church","steam_id":76561199214866732,"connected_time":1697000000000,"state":"active","ping":70},{"user_id":258,"name":"Moo_UwU","steam_id":76561199138512017,"connected_time":2449000000000,"state":"active","ping":64},{"user_id":292,"name":"Bucket Hat Trick","steam_id":76561198381785132,"connected_time":770000000000,"state":"active","ping":96},{"user_id":204,"name":"Spazz","steam_id":76561198036167494,"connected_time":5487000000000,"state":"active","ping":39}]},{"server_id":37,"name":"Uncletopia | Chicago | 6 | All Maps","name_short":"chi-6","host":"chi-2.us.uncletopia.com","port":27025,"enabled":true,"region":"us-central","cc":"us","latitude":41.881832,"longitude":-87.62318,"reserved":0,"last_update":"0001-01-01T00:00:00Z","name_a2s":"Uncletopia | Chicago | 6 | All Maps","protocol":17,"map":"pl_barnblitz","folder":"tf","game":"Team Fortress","app_id":440,"player_count":17,"max_players":24,"Bots":0,"server_type":"Dedicated","server_os":"Linux","password":true,"vac":true,"version":"7961495","steam_id":85568392924866363,"keywords":["nocrits","nodmgspread","payload","uncletopia"],"game_id":440,"stv_port":27026,"stv_name":"Uncletopia | Chicago | 6 | All Maps | STV","players":[{"user_id":212,"name":"Crouching Noob Hidden Sniper","steam_id":76561197971328473,"connected_time":57000000000,"state":"active","ping":89},{"user_id":213,"name":"Bleat","steam_id":76561198138678917,"connected_time":17000000000,"state":"spawning","ping":134},{"user_id":176,"name":"The CIA Killed JFK","steam_id":76561199013317980,"connected_time":2586000000000,"state":"active","ping":59},{"user_id":199,"name":"󠁳 ⁧Argo","steam_id":76561198353725622,"connected_time":1235000000000,"state":"active","ping":81},{"user_id":211,"name":"steakfarmasian","steam_id":76561198212754036,"connected_time":140000000000,"state":"active","ping":49},{"user_id":200,"name":"Shmizzy","steam_id":76561198189418762,"connected_time":1199000000000,"state":"active","ping":80},{"user_id":169,"name":"Hoopy_White","steam_id":76561198152768069,"connected_time":2974000000000,"state":"active","ping":70},{"user_id":185,"name":"roman","steam_id":76561198170066797,"connected_time":2404000000000,"state":"active","ping":67},{"user_id":210,"name":"dj_Beanland","steam_id":76561198047500009,"connected_time":240000000000,"state":"active","ping":97},{"user_id":204,"name":"Casroder","steam_id":76561198057586707,"connected_time":876000000000,"state":"active","ping":90},{"user_id":194,"name":"bachphong760 | Ham Mafia |","steam_id":76561199433780443,"connected_time":2121000000000,"state":"active","ping":81},{"user_id":209,"name":"THORNFIELDGAMER","steam_id":76561199087167473,"connected_time":324000000000,"state":"active","ping":91},{"user_id":128,"name":"Sanshi","steam_id":76561198145823543,"connected_time":6115000000000,"state":"active","ping":147},{"user_id":197,"name":"emerge","steam_id":76561198186882891,"connected_time":1836000000000,"state":"active","ping":77},{"user_id":208,"name":"Fightin Cow","steam_id":76561198080941486,"connected_time":455000000000,"state":"active","ping":78},{"user_id":206,"name":"RayMext","steam_id":76561198158152966,"connected_time":571000000000,"state":"active","ping":185},{"user_id":189,"name":"Stultus","steam_id":76561198115116367,"connected_time":2358000000000,"state":"active","ping":72}]},{"server_id":38,"name":"Uncletopia | Chicago | 7 | Stopwatch Beta","name_short":"chi-7","host":"chi-2.us.uncletopia.com","port":27035,"enabled":true,"region":"us-central","cc":"us","latitude":41.881832,"longitude":-87.62318,"reserved":0,"last_update":"0001-01-01T00:00:00Z","name_a2s":"Uncletopia | Chicago | 7 | Stopwatch Beta","protocol":17,"map":"workshop/pl_summercoast_rc8e.ugc1761528829","folder":"tf","game":"Team Fortress","app_id":440,"player_count":0,"max_players":24,"Bots":0,"server_type":"Dedicated","server_os":"Linux","password":true,"vac":true,"version":"7961495","steam_id":85568392924866364,"keywords":["nocrits","nodmgspread","payload","uncletopia"],"game_id":440,"stv_port":27036,"stv_name":"Uncletopia | Chicago | 7 | Stopwatch Beta | STV","players":null},{"server_id":39,"name":"Uncletopia | Chicago | 8 | Community","name_short":"chi-8","host":"chi-2.us.uncletopia.com","port":27045,"enabled":true,"region":"us-central","cc":"us","latitude":41.881832,"longitude":-87.62318,"reserved":0,"last_update":"0001-01-01T00:00:00Z","name_a2s":"Uncletopia | Chicago | 8 | Community","protocol":17,"map":"workshop/pl_cactuscanyon_redux_final2.ugc2579644293","folder":"tf","game":"Team Fortress","app_id":440,"player_count":21,"max_players":24,"Bots":0,"server_type":"Dedicated","server_os":"Linux","password":true,"vac":true,"version":"7961495","steam_id":85568392924866365,"keywords":["nocrits","nodmgspread","payload","uncletopia"],"game_id":440,"stv_port":27046,"stv_name":"Uncletopia | Chicago | 8 | Community | STV","players":[{"user_id":370,"name":"this","steam_id":76561198170195505,"connected_time":3490000000000,"state":"active","ping":80},{"user_id":376,"name":"Kasodani Kyouko","steam_id":76561198023178589,"connected_time":3215000000000,"state":"active","ping":86},{"user_id":382,"name":"Benny Da Butcher","steam_id":76561199276912523,"connected_time":1889000000000,"state":"active","ping":94},{"user_id":391,"name":"Dr_chilly","steam_id":76561198445383213,"connected_time":896000000000,"state":"active","ping":100},{"user_id":402,"name":"Person","steam_id":76561198093244204,"connected_time":219000000000,"state":"active","ping":69},{"user_id":386,"name":"berry delight","steam_id":76561198115254326,"connected_time":1447000000000,"state":"active","ping":50},{"user_id":374,"name":"green bean","steam_id":76561198113099204,"connected_time":3278000000000,"state":"active","ping":77},{"user_id":388,"name":"Blue⛧Melon","steam_id":76561197970926435,"connected_time":1370000000000,"state":"active","ping":74},{"user_id":393,"name":"Your Pal, Vegeta","steam_id":76561198064916816,"connected_time":884000000000,"state":"active","ping":85},{"user_id":358,"name":"Gh0w0st","steam_id":76561199471261226,"connected_time":4678000000000,"state":"active","ping":87},{"user_id":326,"name":"TheGrassMan (He/Him)","steam_id":76561198118984048,"connected_time":5914000000000,"state":"active","ping":63},{"user_id":398,"name":"cosmic ambiance","steam_id":76561198042788986,"connected_time":552000000000,"state":"active","ping":85},{"user_id":389,"name":"orangesuit1","steam_id":76561199020443017,"connected_time":1321000000000,"state":"active","ping":116},{"user_id":379,"name":"serialnumber435","steam_id":76561199466187650,"connected_time":2007000000000,"state":"active","ping":158},{"user_id":334,"name":"Knuckles","steam_id":76561198000704259,"connected_time":5553000000000,"state":"active","ping":58},{"user_id":397,"name":"frim le yousse","steam_id":76561198107765260,"connected_time":679000000000,"state":"active","ping":95},{"user_id":403,"name":"doorlarkeded","steam_id":76561199439227968,"connected_time":21000000000,"state":"active","ping":94},{"user_id":381,"name":"JC","steam_id":76561198135307995,"connected_time":1971000000000,"state":"active","ping":72},{"user_id":383,"name":"That Darned Imperialist","steam_id":76561198854501307,"connected_time":1855000000000,"state":"active","ping":64},{"user_id":396,"name":"Irritated Duck","steam_id":76561198247792076,"connected_time":837000000000,"state":"active","ping":128},{"user_id":375,"name":"Cherry Bomb!","steam_id":76561198017947020,"connected_time":3277000000000,"state":"active","ping":60}]},{"server_id":8,"name":"Uncletopia | Dallas | 1 | All Maps","name_short":"dal-1","host":"dal-1.us.uncletopia.com","port":27015,"enabled":true,"region":"us-central","cc":"us","latitude":32.779167,"longitude":-96.80889,"reserved":0,"last_update":"0001-01-01T00:00:00Z","name_a2s":"Uncletopia | Dallas | 1 | All Maps","protocol":17,"map":"cp_sunshine","folder":"tf","game":"Team Fortress","app_id":440,"player_count":24,"max_players":24,"Bots":0,"server_type":"Dedicated","server_os":"Linux","password":true,"vac":true,"version":"7961495","steam_id":85568392924469986,"keywords":["cp","nocrits","nodmgspread","uncletopia"],"game_id":440,"stv_port":27016,"stv_name":"Uncletopia | Dallas | 1 | All Maps | STV","players":[{"user_id":379,"name":"Ray","steam_id":76561198048011618,"connected_time":1430000000000,"state":"active","ping":79},{"user_id":390,"name":"feenman","steam_id":76561199383834799,"connected_time":353000000000,"state":"active","ping":70},{"user_id":378,"name":"thedittofemboy","steam_id":76561199013129784,"connected_time":1581000000000,"state":"active","ping":56},{"user_id":380,"name":"FanaticSalt","steam_id":76561199380123059,"connected_time":968000000000,"state":"active","ping":56},{"user_id":385,"name":"ume_ybbuhc","steam_id":76561199482149729,"connected_time":638000000000,"state":"active","ping":87},{"user_id":394,"name":"worker","steam_id":76561198039608940,"connected_time":124000000000,"state":"active","ping":114},{"user_id":388,"name":"Danger Daniel","steam_id":76561199085838474,"connected_time":512000000000,"state":"active","ping":98},{"user_id":393,"name":"VaL-ASROC","steam_id":76561198886493635,"connected_time":215000000000,"state":"active","ping":73},{"user_id":391,"name":"De MonkE","steam_id":76561198140626221,"connected_time":332000000000,"state":"active","ping":44},{"user_id":392,"name":"Ike Yard","steam_id":76561197998954523,"connected_time":267000000000,"state":"active","ping":82},{"user_id":338,"name":"Dwane Johnson From Amogus","steam_id":76561199091290729,"connected_time":5220000000000,"state":"active","ping":66},{"user_id":358,"name":"Jung","steam_id":76561198844037864,"connected_time":4091000000000,"state":"active","ping":84},{"user_id":375,"name":"a bucket of chicken","steam_id":76561198023710042,"connected_time":2047000000000,"state":"active","ping":48},{"user_id":310,"name":"Fatpoob","steam_id":76561198056730096,"connected_time":6928000000000,"state":"active","ping":73},{"user_id":389,"name":"RUF","steam_id":76561198062315805,"connected_time":445000000000,"state":"active","ping":91},{"user_id":373,"name":"dude6487","steam_id":76561199113081920,"connected_time":2812000000000,"state":"active","ping":79},{"user_id":351,"name":"Snivy","steam_id":76561198135488292,"connected_time":4693000000000,"state":"active","ping":75},{"user_id":381,"name":"Weegee","steam_id":76561198140095755,"connected_time":689000000000,"state":"active","ping":84},{"user_id":352,"name":"Farty McDooDoo","steam_id":76561198040367929,"connected_time":4685000000000,"state":"active","ping":44},{"user_id":382,"name":"Chilihuahua","steam_id":76561198004929152,"connected_time":673000000000,"state":"active","ping":102},{"user_id":370,"name":"gorf?","steam_id":76561198142286417,"connected_time":3447000000000,"state":"active","ping":80},{"user_id":384,"name":"snos","steam_id":76561198075334330,"connected_time":666000000000,"state":"active","ping":87},{"user_id":367,"name":"Theboigamer11","steam_id":76561199013615511,"connected_time":3631000000000,"state":"active","ping":94},{"user_id":387,"name":"Dog Deodorant","steam_id":76561199225832228,"connected_time":610000000000,"state":"active","ping":74}]},{"server_id":108,"name":"Uncletopia | Dallas | 2 | All Maps","name_short":"dal-2","host":"dal-1.us.uncletopia.com","port":27025,"enabled":true,"region":"us-central","cc":"us","latitude":32.779167,"longitude":-96.80889,"reserved":0,"last_update":"0001-01-01T00:00:00Z","name_a2s":"Uncletopia | Dallas | 2 | All Maps","protocol":17,"map":"pl_frontier_final","folder":"tf","game":"Team Fortress","app_id":440,"player_count":22,"max_players":24,"Bots":0,"server_type":"Dedicated","server_os":"Linux","password":true,"vac":true,"version":"7961495","steam_id":85568392924469988,"keywords":["nocrits","nodmgspread","payload","uncletopia"],"game_id":440,"stv_port":27026,"stv_name":"Uncletopia | Dallas | 2 | All Maps | STV","players":[{"user_id":266,"name":"Per My Last Email","steam_id":76561197970096950,"connected_time":5382000000000,"state":"active","ping":40},{"user_id":360,"name":"Malex","steam_id":76561198012216805,"connected_time":520000000000,"state":"active","ping":75},{"user_id":361,"name":"Colonel Chikara","steam_id":76561198010021087,"connected_time":517000000000,"state":"active","ping":85},{"user_id":374,"name":"Shattered Glass","steam_id":76561198116835391,"connected_time":5000000000,"state":"spawning","ping":68},{"user_id":340,"name":"Sgt Rathbone","steam_id":76561198171705397,"connected_time":1892000000000,"state":"active","ping":110},{"user_id":363,"name":"raccoonmanthing","steam_id":76561199042222863,"connected_time":476000000000,"state":"active","ping":87},{"user_id":359,"name":"Master John Thursday","steam_id":76561197987593154,"connected_time":542000000000,"state":"active","ping":36},{"user_id":344,"name":"asm_ghost","steam_id":76561199205363547,"connected_time":1880000000000,"state":"active","ping":102},{"user_id":364,"name":"Dreysidel","steam_id":76561198056496183,"connected_time":454000000000,"state":"active","ping":94},{"user_id":370,"name":"Mr. DeLarge","steam_id":76561198336820066,"connected_time":244000000000,"state":"active","ping":105},{"user_id":365,"name":"Soda","steam_id":76561198219209367,"connected_time":394000000000,"state":"active","ping":64},{"user_id":366,"name":"- //w\\\\ -","steam_id":76561198015467611,"connected_time":390000000000,"state":"active","ping":48},{"user_id":273,"name":"Gelliterate","steam_id":76561198107233070,"connected_time":4966000000000,"state":"active","ping":48},{"user_id":299,"name":"Stillkill","steam_id":76561198065069057,"connected_time":2933000000000,"state":"active","ping":30},{"user_id":367,"name":"IanTheAwsm","steam_id":76561198093031738,"connected_time":373000000000,"state":"active","ping":77},{"user_id":347,"name":"CadenLCheese","steam_id":76561199105517435,"connected_time":1817000000000,"state":"active","ping":105},{"user_id":279,"name":"loser","steam_id":76561198259380127,"connected_time":4479000000000,"state":"active","ping":77},{"user_id":373,"name":"7thelden","steam_id":76561198297428761,"connected_time":111000000000,"state":"active","ping":83},{"user_id":354,"name":"Gay Loogi Gang","steam_id":76561198097031529,"connected_time":894000000000,"state":"active","ping":77},{"user_id":369,"name":"clopherite","steam_id":76561198860351700,"connected_time":321000000000,"state":"active","ping":61},{"user_id":239,"name":"marantmed06","steam_id":76561199180381715,"connected_time":7659000000000,"state":"active","ping":79},{"user_id":289,"name":"Mephistopheles","steam_id":76561198253731826,"connected_time":3856000000000,"state":"active","ping":92}]},{"server_id":404,"name":"Uncletopia | Dallas | 3 | All Maps","name_short":"dal-3","host":"dal-1.us.uncletopia.com","port":27035,"enabled":true,"region":"us-central","cc":"us","latitude":32.779167,"longitude":-96.80889,"reserved":0,"last_update":"0001-01-01T00:00:00Z","name_a2s":"Uncletopia | Dallas | 3 | All Maps","protocol":17,"map":"cp_gorge","folder":"tf","game":"Team Fortress","app_id":440,"player_count":24,"max_players":24,"Bots":0,"server_type":"Dedicated","server_os":"Linux","password":true,"vac":true,"version":"7961495","steam_id":85568392924515219,"keywords":["cp","nocrits","nodmgspread","uncletopia"],"game_id":440,"stv_port":27036,"stv_name":"Uncletopia | Dallas | 3 | All Maps | STV","players":[{"user_id":306,"name":"negus 2","steam_id":76561198043862737,"connected_time":871000000000,"state":"active","ping":76},{"user_id":298,"name":"zeplinnn","steam_id":76561198301300987,"connected_time":1488000000000,"state":"active","ping":85},{"user_id":266,"name":"DavidAllanToad@.gg/KWWX7TyVSU","steam_id":76561198889579299,"connected_time":2887000000000,"state":"active","ping":44},{"user_id":311,"name":"Smoky Haus","steam_id":76561199040586542,"connected_time":445000000000,"state":"active","ping":92},{"user_id":314,"name":"Disney Junior","steam_id":76561198271881560,"connected_time":327000000000,"state":"active","ping":75},{"user_id":287,"name":"CrazyA","steam_id":76561198157885915,"connected_time":2305000000000,"state":"active","ping":90},{"user_id":307,"name":"Major Woody","steam_id":76561198835541533,"connected_time":818000000000,"state":"active","ping":77},{"user_id":316,"name":"buckaroo","steam_id":76561199222654338,"connected_time":287000000000,"state":"active","ping":97},{"user_id":317,"name":"Evil little man","steam_id":76561198311053471,"connected_time":274000000000,"state":"active","ping":53},{"user_id":318,"name":"thefrenchfry","steam_id":76561198088945198,"connected_time":257000000000,"state":"active","ping":93},{"user_id":294,"name":"BreakfastTacos","steam_id":76561198847620442,"connected_time":1576000000000,"state":"active","ping":81},{"user_id":319,"name":"megaboi796","steam_id":76561198122995438,"connected_time":254000000000,"state":"active","ping":99},{"user_id":310,"name":"somef2p","steam_id":76561199379135210,"connected_time":674000000000,"state":"active","ping":111},{"user_id":295,"name":"No.21 - Feral Scent","steam_id":76561198045844070,"connected_time":1562000000000,"state":"active","ping":54},{"user_id":320,"name":"TheGaming13","steam_id":76561199239498966,"connected_time":240000000000,"state":"active","ping":62},{"user_id":321,"name":"Farseer Ulwithy","steam_id":76561197965179245,"connected_time":237000000000,"state":"active","ping":117},{"user_id":302,"name":"webaline :3","steam_id":76561199052450127,"connected_time":1279000000000,"state":"active","ping":78},{"user_id":304,"name":"Jerry","steam_id":76561198199480758,"connected_time":1107000000000,"state":"active","ping":75},{"user_id":323,"name":"da chronic","steam_id":76561198806800054,"connected_time":200000000000,"state":"active","ping":53},{"user_id":324,"name":"Squids023","steam_id":76561199013031576,"connected_time":159000000000,"state":"active","ping":101},{"user_id":286,"name":"Pan-Demonica","steam_id":76561198294350105,"connected_time":2513000000000,"state":"active","ping":69},{"user_id":299,"name":"Tophatgitsdown","steam_id":76561198110815464,"connected_time":1383000000000,"state":"active","ping":67},{"user_id":303,"name":"Dizbuster","steam_id":76561197971276413,"connected_time":1224000000000,"state":"active","ping":106},{"user_id":152,"name":"the gamer","steam_id":76561199175442910,"connected_time":7015000000000,"state":"active","ping":102}]},{"server_id":405,"name":"Uncletopia | Dallas | 4 | Community","name_short":"dal-4","host":"dal-1.us.uncletopia.com","port":27045,"enabled":true,"region":"us-central","cc":"us","latitude":32.779167,"longitude":-96.80889,"reserved":0,"last_update":"0001-01-01T00:00:00Z","name_a2s":"Uncletopia | Dallas | 4 | Community","protocol":17,"map":"workshop/koth_kemptown_rc1.ugc767410655","folder":"tf","game":"Team Fortress","app_id":440,"player_count":0,"max_players":24,"Bots":0,"server_type":"Dedicated","server_os":"Linux","password":true,"vac":true,"version":"7961495","steam_id":85568392924515220,"keywords":["cp","nocrits","nodmgspread","uncletopia"],"game_id":440,"stv_port":27046,"stv_name":"Uncletopia | Dallas | 4 | Community | STV","players":null},{"server_id":5,"name":"Uncletopia | Frankfurt | 1 | All Maps","name_short":"frk-1","host":"frk-1.de.uncletopia.com","port":27015,"enabled":true,"region":"eu","cc":"de","latitude":50.110924,"longitude":8.682127,"reserved":0,"last_update":"0001-01-01T00:00:00Z","name_a2s":"Uncletopia | Frankfurt | 1 | All Maps","protocol":17,"map":"pl_rumford_event","folder":"tf","game":"Team Fortress","app_id":440,"player_count":24,"max_players":24,"Bots":0,"server_type":"Dedicated","server_os":"Linux","password":true,"vac":true,"version":"7961495","steam_id":85568392924469989,"keywords":["nocrits","nodmgspread","payload","uncletopia"],"game_id":440,"stv_port":27016,"stv_name":"Uncletopia | Frankfurt | 1 | All Maps | STV","players":[{"user_id":829,"name":"Gooner","steam_id":76561198087035309,"connected_time":685000000000,"state":"active","ping":51},{"user_id":817,"name":"Steen","steam_id":76561198122992510,"connected_time":1446000000000,"state":"active","ping":57},{"user_id":824,"name":"Pepis the smelly","steam_id":76561198191369066,"connected_time":1224000000000,"state":"active","ping":119},{"user_id":812,"name":"pardner","steam_id":76561198451471161,"connected_time":1660000000000,"state":"active","ping":70},{"user_id":828,"name":"Chef","steam_id":76561198113473099,"connected_time":1012000000000,"state":"active","ping":72},{"user_id":808,"name":"Twik","steam_id":76561198023835056,"connected_time":1893000000000,"state":"active","ping":57},{"user_id":813,"name":"Burger King Dante","steam_id":76561198390314734,"connected_time":1637000000000,"state":"active","ping":62},{"user_id":782,"name":"aida","steam_id":76561198311044984,"connected_time":4597000000000,"state":"active","ping":67},{"user_id":819,"name":"Aleknat","steam_id":76561198055379857,"connected_time":1413000000000,"state":"active","ping":62},{"user_id":785,"name":"LordWoodpecker","steam_id":76561198031647387,"connected_time":4403000000000,"state":"active","ping":54},{"user_id":831,"name":"SeaKane","steam_id":76561198165453318,"connected_time":578000000000,"state":"active","ping":59},{"user_id":791,"name":"Coda","steam_id":76561198250946954,"connected_time":3435000000000,"state":"active","ping":126},{"user_id":825,"name":"csg.haunts","steam_id":76561198044766573,"connected_time":1193000000000,"state":"active","ping":73},{"user_id":832,"name":"ouchie wouchies","steam_id":76561198105443986,"connected_time":567000000000,"state":"active","ping":81},{"user_id":840,"name":"Urfangonultasadana","steam_id":76561199389286151,"connected_time":300000000000,"state":"active","ping":91},{"user_id":809,"name":"tone","steam_id":76561197975301462,"connected_time":1779000000000,"state":"active","ping":91},{"user_id":834,"name":"NuclearMarmi","steam_id":76561199105766538,"connected_time":473000000000,"state":"active","ping":73},{"user_id":822,"name":"Ajvej","steam_id":76561198857665836,"connected_time":1310000000000,"state":"active","ping":59},{"user_id":841,"name":"order66.exe","steam_id":76561198057558449,"connected_time":75000000000,"state":"active","ping":65},{"user_id":836,"name":"Aimbotting until I get CS2","steam_id":76561198189475873,"connected_time":459000000000,"state":"active","ping":45},{"user_id":838,"name":"Joe","steam_id":76561198177821721,"connected_time":376000000000,"state":"active","ping":57},{"user_id":794,"name":"Henry Binklebottoms Dinglenut I","steam_id":76561198271798194,"connected_time":3336000000000,"state":"active","ping":89},{"user_id":839,"name":"Cahl","steam_id":76561198980863125,"connected_time":330000000000,"state":"active","ping":55},{"user_id":790,"name":"rob","steam_id":76561198122211848,"connected_time":3742000000000,"state":"active","ping":92}]},{"server_id":110,"name":"Uncletopia | Frankfurt | 2 | All Maps","name_short":"frk-2","host":"frk-1.de.uncletopia.com","port":27025,"enabled":true,"region":"eu","cc":"de","latitude":50.110924,"longitude":8.682127,"reserved":0,"last_update":"0001-01-01T00:00:00Z","name_a2s":"Uncletopia | Frankfurt | 2 | All Maps","protocol":17,"map":"pl_upward","folder":"tf","game":"Team Fortress","app_id":440,"player_count":24,"max_players":24,"Bots":0,"server_type":"Dedicated","server_os":"Linux","password":true,"vac":true,"version":"7961495","steam_id":85568392924469990,"keywords":["nocrits","nodmgspread","payload","uncletopia"],"game_id":440,"stv_port":27026,"stv_name":"Uncletopia | Frankfurt | 2 | All Maps | STV","players":[{"user_id":525,"name":"Klink","steam_id":76561198159063575,"connected_time":899000000000,"state":"active","ping":82},{"user_id":507,"name":"Dr. Dahl","steam_id":76561198036990047,"connected_time":2528000000000,"state":"active","ping":64},{"user_id":510,"name":"TeaAndPancakes","steam_id":76561199039103507,"connected_time":2426000000000,"state":"active","ping":62},{"user_id":523,"name":"Cex Employee","steam_id":76561198173581450,"connected_time":987000000000,"state":"active","ping":66},{"user_id":519,"name":"Eujekas","steam_id":76561198010527145,"connected_time":1256000000000,"state":"active","ping":89},{"user_id":482,"name":"Shapeshifter","steam_id":76561198052898368,"connected_time":3954000000000,"state":"active","ping":78},{"user_id":515,"name":"eLoeL","steam_id":76561198275528938,"connected_time":1381000000000,"state":"active","ping":53},{"user_id":456,"name":"LordTrap.exe","steam_id":76561198318089716,"connected_time":6162000000000,"state":"active","ping":61},{"user_id":516,"name":"Cikula","steam_id":76561198324384778,"connected_time":1379000000000,"state":"active","ping":45},{"user_id":496,"name":"Kyrie Kurage","steam_id":76561198020030175,"connected_time":3355000000000,"state":"active","ping":87},{"user_id":488,"name":"BELADIT","steam_id":76561198011911501,"connected_time":3841000000000,"state":"active","ping":65},{"user_id":517,"name":"Wesnicak CZ","steam_id":76561198124483688,"connected_time":1378000000000,"state":"active","ping":60},{"user_id":505,"name":"matthe","steam_id":76561198145465595,"connected_time":2792000000000,"state":"active","ping":57},{"user_id":529,"name":"Stu","steam_id":76561198131449281,"connected_time":428000000000,"state":"active","ping":46},{"user_id":511,"name":"51","steam_id":76561198083505031,"connected_time":1709000000000,"state":"active","ping":59},{"user_id":526,"name":"bird ideas","steam_id":76561199480942903,"connected_time":641000000000,"state":"active","ping":61},{"user_id":520,"name":"Hyppy ja liipasin pohjaan :D","steam_id":76561198080669698,"connected_time":1089000000000,"state":"active","ping":109},{"user_id":518,"name":"Braemenator","steam_id":76561198044864657,"connected_time":1370000000000,"state":"active","ping":60},{"user_id":531,"name":"Pain in a Box","steam_id":76561197990777173,"connected_time":122000000000,"state":"active","ping":87},{"user_id":501,"name":"F.Fazbear","steam_id":76561198406606196,"connected_time":3291000000000,"state":"active","ping":63},{"user_id":476,"name":"Virgil","steam_id":76561198248786778,"connected_time":4502000000000,"state":"active","ping":115},{"user_id":392,"name":"WAU","steam_id":76561198052486330,"connected_time":10637000000000,"state":"active","ping":44},{"user_id":524,"name":"MeBandae","steam_id":76561198910770432,"connected_time":987000000000,"state":"active","ping":84},{"user_id":491,"name":"☭King☭","steam_id":76561199214677088,"connected_time":3724000000000,"state":"active","ping":70}]},{"server_id":308,"name":"Uncletopia | Frankfurt | 3 | All Maps","name_short":"frk-3","host":"frk-1.de.uncletopia.com","port":27035,"enabled":true,"region":"eu","cc":"de","latitude":50.110924,"longitude":8.682127,"reserved":0,"last_update":"0001-01-01T00:00:00Z","name_a2s":"Uncletopia | Frankfurt | 3 | All Maps","protocol":17,"map":"pl_swiftwater_final1","folder":"tf","game":"Team Fortress","app_id":440,"player_count":24,"max_players":24,"Bots":0,"server_type":"Dedicated","server_os":"Linux","password":true,"vac":true,"version":"7961495","steam_id":85568392924504274,"keywords":["nocrits","nodmgspread","payload","uncletopia"],"game_id":440,"stv_port":27036,"stv_name":"Uncletopia | Frankfurt | 3 | All Maps | STV","players":[{"user_id":620,"name":"NickiCheetah","steam_id":76561198980540766,"connected_time":1339000000000,"state":"active","ping":70},{"user_id":555,"name":"VK2124 :D","steam_id":76561198111130688,"connected_time":5315000000000,"state":"active","ping":48},{"user_id":618,"name":"BigChunk","steam_id":76561198215962313,"connected_time":1376000000000,"state":"active","ping":36},{"user_id":539,"name":"Real (Real)","steam_id":76561198323425034,"connected_time":7014000000000,"state":"active","ping":81},{"user_id":606,"name":"Mammut","steam_id":76561198056773933,"connected_time":1834000000000,"state":"active","ping":46},{"user_id":613,"name":"fake (fake)","steam_id":76561198097507847,"connected_time":1539000000000,"state":"active","ping":77},{"user_id":629,"name":"Glenn Quagmire","steam_id":76561199348527880,"connected_time":308000000000,"state":"active","ping":84},{"user_id":593,"name":"Rask","steam_id":76561198052934944,"connected_time":2693000000000,"state":"active","ping":89},{"user_id":630,"name":"t0ast","steam_id":76561198141722573,"connected_time":142000000000,"state":"active","ping":46},{"user_id":619,"name":"shrky - ♡ A ♡","steam_id":76561198413761084,"connected_time":1355000000000,"state":"active","ping":72},{"user_id":602,"name":"Popop","steam_id":76561198004793795,"connected_time":2295000000000,"state":"active","ping":49},{"user_id":581,"name":"fronin","steam_id":76561198189553021,"connected_time":3715000000000,"state":"active","ping":61},{"user_id":604,"name":"WATANG!","steam_id":76561198040478926,"connected_time":1955000000000,"state":"active","ping":60},{"user_id":616,"name":"Alibi","steam_id":76561198061845595,"connected_time":1482000000000,"state":"active","ping":61},{"user_id":617,"name":"harrison","steam_id":76561198990132243,"connected_time":1480000000000,"state":"active","ping":78},{"user_id":592,"name":"Aroo","steam_id":76561198132601368,"connected_time":2724000000000,"state":"active","ping":71},{"user_id":628,"name":"R@DIO","steam_id":76561197995533046,"connected_time":469000000000,"state":"active","ping":75},{"user_id":578,"name":"pizda.com","steam_id":76561198179392402,"connected_time":3770000000000,"state":"active","ping":49},{"user_id":443,"name":"Nittugai","steam_id":76561198067366462,"connected_time":15901000000000,"state":"active","ping":60},{"user_id":625,"name":"ThatKetos","steam_id":76561198989682540,"connected_time":936000000000,"state":"active","ping":44},{"user_id":626,"name":"gothmoth","steam_id":76561198386910896,"connected_time":849000000000,"state":"active","ping":58},{"user_id":361,"name":"Fat Pigeon","steam_id":76561198817940142,"connected_time":22955000000000,"state":"active","ping":53},{"user_id":627,"name":"Marquis de Hoto","steam_id":76561198080687708,"connected_time":674000000000,"state":"active","ping":65},{"user_id":623,"name":"el paso engineer","steam_id":76561199262625492,"connected_time":1269000000000,"state":"active","ping":81}]},{"server_id":309,"name":"Uncletopia | Frankfurt | 4 | All Maps","name_short":"frk-4","host":"frk-1.de.uncletopia.com","port":27045,"enabled":true,"region":"eu","cc":"de","latitude":50.110924,"longitude":8.682127,"reserved":0,"last_update":"0001-01-01T00:00:00Z","name_a2s":"Uncletopia | Frankfurt | 4 | All Maps","protocol":17,"map":"pl_swiftwater_final1","folder":"tf","game":"Team Fortress","app_id":440,"player_count":7,"max_players":24,"Bots":0,"server_type":"Dedicated","server_os":"Linux","password":true,"vac":true,"version":"7961495","steam_id":85568392924504275,"keywords":["nocrits","nodmgspread","payload","uncletopia"],"game_id":440,"stv_port":27046,"stv_name":"Uncletopia | Frankfurt | 4 | All Maps | STV","players":[{"user_id":577,"name":"nikitosreznik22","steam_id":76561199494699363,"connected_time":1481000000000,"state":"active","ping":88},{"user_id":582,"name":"Kamikrazy","steam_id":76561198044254918,"connected_time":758000000000,"state":"active","ping":69},{"user_id":583,"name":"ice dragon gamer","steam_id":76561198873820157,"connected_time":679000000000,"state":"active","ping":192},{"user_id":587,"name":"Psychicpie","steam_id":76561198126065206,"connected_time":29000000000,"state":"active","ping":53},{"user_id":584,"name":"Borloxos","steam_id":76561198123110073,"connected_time":200000000000,"state":"active","ping":60},{"user_id":585,"name":"KingofCubes","steam_id":76561198258037513,"connected_time":127000000000,"state":"active","ping":67},{"user_id":586,"name":"Saymesal","steam_id":76561198886917393,"connected_time":124000000000,"state":"connecting","ping":80}]},{"server_id":310,"name":"Uncletopia | Frankfurt | 5 | All Maps","name_short":"frk-5","host":"frk-1.de.uncletopia.com","port":27055,"enabled":true,"region":"eu","cc":"de","latitude":50.110924,"longitude":8.682127,"reserved":0,"last_update":"0001-01-01T00:00:00Z","name_a2s":"Uncletopia | Frankfurt | 5 | All Maps","protocol":17,"map":"pl_upward","folder":"tf","game":"Team Fortress","app_id":440,"player_count":24,"max_players":24,"Bots":0,"server_type":"Dedicated","server_os":"Linux","password":true,"vac":true,"version":"7961495","steam_id":85568392924504277,"keywords":["nocrits","nodmgspread","payload","uncletopia"],"game_id":440,"stv_port":27056,"stv_name":"Uncletopia | Frankfurt | 5 | All Maps | STV","players":[{"user_id":480,"name":"Not A Fake Uncletopia Server","steam_id":76561198152871288,"connected_time":63000000000,"state":"active","ping":45},{"user_id":477,"name":"Lordsofbird","steam_id":76561198236092002,"connected_time":267000000000,"state":"active","ping":99},{"user_id":481,"name":"Ωmega","steam_id":76561198142672787,"connected_time":62000000000,"state":"active","ping":60},{"user_id":475,"name":"Tower","steam_id":76561198090278447,"connected_time":288000000000,"state":"active","ping":63},{"user_id":428,"name":"MaypulSoyrup","steam_id":76561199213966821,"connected_time":3311000000000,"state":"active","ping":92},{"user_id":440,"name":"prophits","steam_id":76561198011854314,"connected_time":2908000000000,"state":"active","ping":75},{"user_id":442,"name":"benry1964","steam_id":76561198008795422,"connected_time":2697000000000,"state":"active","ping":56},{"user_id":468,"name":"LEGEND FUMO.","steam_id":76561198061033903,"connected_time":624000000000,"state":"active","ping":45},{"user_id":449,"name":"guildyfan2001","steam_id":76561198038827937,"connected_time":2257000000000,"state":"active","ping":66},{"user_id":445,"name":"iiiiiii","steam_id":76561199082156030,"connected_time":2323000000000,"state":"active","ping":61},{"user_id":464,"name":"Flamy?","steam_id":76561198024332838,"connected_time":1030000000000,"state":"active","ping":72},{"user_id":441,"name":"Milosz52","steam_id":76561199060940204,"connected_time":2818000000000,"state":"active","ping":74},{"user_id":451,"name":"Golden Boy","steam_id":76561198193905753,"connected_time":2243000000000,"state":"active","ping":72},{"user_id":422,"name":"Archive","steam_id":76561198071255385,"connected_time":4038000000000,"state":"active","ping":91},{"user_id":465,"name":"cuddle","steam_id":76561198805181599,"connected_time":1016000000000,"state":"active","ping":65},{"user_id":397,"name":"top 10 movement videos","steam_id":76561199195985387,"connected_time":5063000000000,"state":"active","ping":75},{"user_id":438,"name":"Baribal","steam_id":76561198263513521,"connected_time":3036000000000,"state":"active","ping":48},{"user_id":452,"name":"Ririan | Scorched","steam_id":76561198799379621,"connected_time":2237000000000,"state":"active","ping":82},{"user_id":479,"name":"aabracadabra","steam_id":76561198061248329,"connected_time":99000000000,"state":"active","ping":63},{"user_id":437,"name":"Mr. Owl","steam_id":76561198144781153,"connected_time":3057000000000,"state":"active","ping":163},{"user_id":476,"name":"Plow cheese","steam_id":76561198142478067,"connected_time":283000000000,"state":"active","ping":77},{"user_id":471,"name":"[RUS]tfavvfan69❤","steam_id":76561198062362168,"connected_time":534000000000,"state":"active","ping":56},{"user_id":467,"name":"Silver","steam_id":76561198175238807,"connected_time":962000000000,"state":"active","ping":57},{"user_id":446,"name":"_Alonso","steam_id":76561198041893314,"connected_time":2323000000000,"state":"active","ping":49}]},{"server_id":311,"name":"Uncletopia | Frankfurt | 6 | All Maps","name_short":"frk-6","host":"frk-1.de.uncletopia.com","port":27065,"enabled":true,"region":"eu","cc":"de","latitude":50.110924,"longitude":8.682127,"reserved":0,"last_update":"0001-01-01T00:00:00Z","name_a2s":"Uncletopia | Frankfurt | 6 | All Maps","protocol":17,"map":"pl_badwater","folder":"tf","game":"Team Fortress","app_id":440,"player_count":24,"max_players":24,"Bots":0,"server_type":"Dedicated","server_os":"Linux","password":true,"vac":true,"version":"7961495","steam_id":85568392924504278,"keywords":["nocrits","nodmgspread","payload","uncletopia"],"game_id":440,"stv_port":27066,"stv_name":"Uncletopia | Frankfurt | 6 | All Maps | STV","players":[{"user_id":138,"name":"Dr Condom","steam_id":76561198378657692,"connected_time":687000000000,"state":"active","ping":79},{"user_id":144,"name":"modavak","steam_id":76561198946290908,"connected_time":391000000000,"state":"active","ping":95},{"user_id":96,"name":"woodenpcwarlord","steam_id":76561198037938833,"connected_time":2791000000000,"state":"active","ping":57},{"user_id":149,"name":"skill","steam_id":76561198106012909,"connected_time":112000000000,"state":"active","ping":69},{"user_id":37,"name":"Michał","steam_id":76561198320346362,"connected_time":6333000000000,"state":"active","ping":52},{"user_id":106,"name":"Aven","steam_id":76561198974343597,"connected_time":2123000000000,"state":"active","ping":88},{"user_id":125,"name":"Hitotsume","steam_id":76561198129157178,"connected_time":1295000000000,"state":"active","ping":88},{"user_id":79,"name":"blibby smalls","steam_id":76561198984296222,"connected_time":3800000000000,"state":"active","ping":77},{"user_id":110,"name":"lacurio","steam_id":76561198059701776,"connected_time":1947000000000,"state":"active","ping":53},{"user_id":108,"name":"Gent","steam_id":76561198037167890,"connected_time":2052000000000,"state":"active","ping":77},{"user_id":150,"name":"Wilderhammer","steam_id":76561198132133702,"connected_time":29000000000,"state":"active","ping":30},{"user_id":109,"name":"M I OK?","steam_id":76561198147277460,"connected_time":1978000000000,"state":"active","ping":55},{"user_id":147,"name":"angry soviet","steam_id":76561198190005183,"connected_time":237000000000,"state":"active","ping":70},{"user_id":124,"name":"TidB","steam_id":76561198055342304,"connected_time":1447000000000,"state":"active","ping":45},{"user_id":134,"name":"Fengerros","steam_id":76561199008363999,"connected_time":990000000000,"state":"active","ping":63},{"user_id":136,"name":"Xeno","steam_id":76561198975556646,"connected_time":893000000000,"state":"active","ping":48},{"user_id":131,"name":"CongleMeRats","steam_id":76561198336960085,"connected_time":1057000000000,"state":"active","ping":48},{"user_id":89,"name":"zak","steam_id":76561197998895428,"connected_time":3417000000000,"state":"active","ping":51},{"user_id":62,"name":"ff:ff:ff:ff:ff:ff","steam_id":76561198072122983,"connected_time":4698000000000,"state":"active","ping":70},{"user_id":63,"name":"generic alias","steam_id":76561198271607226,"connected_time":4697000000000,"state":"active","ping":91},{"user_id":143,"name":"rets","steam_id":76561198061551392,"connected_time":420000000000,"state":"active","ping":55},{"user_id":146,"name":"twscsvl","steam_id":76561198045304929,"connected_time":377000000000,"state":"active","ping":91},{"user_id":93,"name":"cowboy","steam_id":76561198080361351,"connected_time":3029000000000,"state":"active","ping":46},{"user_id":137,"name":"sareena","steam_id":76561198810194062,"connected_time":880000000000,"state":"active","ping":75}]},{"server_id":23,"name":"Uncletopia | Frankfurt | 7 | Stopwatch Beta","name_short":"frk-7","host":"frk-1.de.uncletopia.com","port":27075,"enabled":true,"region":"eu","cc":"de","latitude":50.110924,"longitude":8.682127,"reserved":0,"last_update":"0001-01-01T00:00:00Z","name_a2s":"Uncletopia | Frankfurt | 7 | Stopwatch Beta","protocol":17,"map":"pl_borneo","folder":"tf","game":"Team Fortress","app_id":440,"player_count":0,"max_players":24,"Bots":0,"server_type":"Dedicated","server_os":"Linux","password":true,"vac":true,"version":"7961495","steam_id":85568392924742827,"keywords":["nocrits","nodmgspread","payload","uncletopia"],"game_id":440,"stv_port":27076,"stv_name":"Uncletopia | Frankfurt | 7 | Stopwatch Beta | STV","players":null},{"server_id":24,"name":"Uncletopia | Frankfurt | 8 | Community","name_short":"frk-8","host":"frk-1.de.uncletopia.com","port":27085,"enabled":true,"region":"eu","cc":"de","latitude":50.110924,"longitude":8.682127,"reserved":0,"last_update":"0001-01-01T00:00:00Z","name_a2s":"Uncletopia | Frankfurt | 8 | Community","protocol":17,"map":"workshop/cp_bruhstbowl_b6.ugc2878604990","folder":"tf","game":"Team Fortress","app_id":440,"player_count":0,"max_players":24,"Bots":0,"server_type":"Dedicated","server_os":"Linux","password":true,"vac":true,"version":"7961495","steam_id":85568392924742828,"keywords":["cp","nocrits","nodmgspread","uncletopia"],"game_id":440,"stv_port":27086,"stv_name":"Uncletopia | Frankfurt | 8 | Community | STV","players":null},{"server_id":202,"name":"Uncletopia | Hong Kong | 1 | All Maps","name_short":"hgk-1","host":"hgk-1.hk.uncletopia.com","port":27015,"enabled":true,"region":"asia","cc":"hk","latitude":22.302711,"longitude":114.177216,"reserved":0,"last_update":"0001-01-01T00:00:00Z","name_a2s":"Uncletopia | Hong Kong | 1 | All Maps","protocol":17,"map":"cp_process_final","folder":"tf","game":"Team Fortress","app_id":440,"player_count":1,"max_players":24,"Bots":0,"server_type":"Dedicated","server_os":"Linux","password":true,"vac":true,"version":"7961495","steam_id":85568392924494504,"keywords":["cp","nocrits","nodmgspread","uncletopia"],"game_id":440,"stv_port":27016,"stv_name":"Uncletopia | Hong Kong | 1 | All Maps | STV","players":[{"user_id":4,"name":"3rwynM","steam_id":76561198288311270,"connected_time":718000000000,"state":"active","ping":45}]},{"server_id":1,"name":"Uncletopia | Los Angeles | 1 | All Maps","name_short":"lax-1","host":"lax-1.us.uncletopia.com","port":27015,"enabled":true,"region":"us-west","cc":"us","latitude":33.94279,"longitude":-118.41004,"reserved":0,"last_update":"0001-01-01T00:00:00Z","name_a2s":"Uncletopia | Los Angeles | 1 | All Maps","protocol":17,"map":"koth_cascade","folder":"tf","game":"Team Fortress","app_id":440,"player_count":0,"max_players":24,"Bots":0,"server_type":"Dedicated","server_os":"Linux","password":true,"vac":true,"version":"7961495","steam_id":85568392924469991,"keywords":["cp","nocrits","nodmgspread","uncletopia"],"game_id":440,"stv_port":27016,"stv_name":"Uncletopia | Los Angeles | 1 | All Maps | STV","players":null},{"server_id":112,"name":"Uncletopia | Los Angeles | 2 | All Maps","name_short":"lax-2","host":"lax-1.us.uncletopia.com","port":27025,"enabled":true,"region":"us-west","cc":"us","latitude":33.94279,"longitude":-118.41004,"reserved":0,"last_update":"0001-01-01T00:00:00Z","name_a2s":"Uncletopia | Los Angeles | 2 | All Maps","protocol":17,"map":"koth_viaduct","folder":"tf","game":"Team Fortress","app_id":440,"player_count":0,"max_players":24,"Bots":0,"server_type":"Dedicated","server_os":"Linux","password":true,"vac":true,"version":"7961495","steam_id":85568392924469992,"keywords":["cp","nocrits","nodmgspread","uncletopia"],"game_id":440,"stv_port":27026,"stv_name":"Uncletopia | Los Angeles | 2 | All Maps | STV","players":null},{"server_id":324,"name":"Uncletopia | Los Angeles | 3 | All Maps","name_short":"lax-3","host":"lax-1.us.uncletopia.com","port":27035,"enabled":true,"region":"us-west","cc":"us","latitude":33.94279,"longitude":-118.41004,"reserved":0,"last_update":"0001-01-01T00:00:00Z","name_a2s":"Uncletopia | Los Angeles | 3 | All Maps","protocol":17,"map":"pl_pier","folder":"tf","game":"Team Fortress","app_id":440,"player_count":24,"max_players":24,"Bots":0,"server_type":"Dedicated","server_os":"Linux","password":true,"vac":true,"version":"7961495","steam_id":85568392924510198,"keywords":["nocrits","nodmgspread","payload","uncletopia"],"game_id":440,"stv_port":27036,"stv_name":"Uncletopia | Los Angeles | 3 | All Maps | STV","players":[{"user_id":297,"name":"Ralph Kramden (Slim Charles)","steam_id":76561197981687895,"connected_time":3007000000000,"state":"active","ping":62},{"user_id":281,"name":"sqnguine","steam_id":76561199481839224,"connected_time":4707000000000,"state":"active","ping":63},{"user_id":316,"name":"Stapler","steam_id":76561198099295077,"connected_time":686000000000,"state":"active","ping":56},{"user_id":298,"name":"circus","steam_id":76561199085524751,"connected_time":2625000000000,"state":"active","ping":36},{"user_id":330,"name":"d4ngerd4n","steam_id":76561198043758735,"connected_time":157000000000,"state":"active","ping":62},{"user_id":328,"name":"_Ati","steam_id":76561198339777801,"connected_time":270000000000,"state":"active","ping":70},{"user_id":322,"name":"Captain Olimar Balancer of team","steam_id":76561198141737300,"connected_time":386000000000,"state":"active","ping":70},{"user_id":271,"name":"Altruisticailuridae","steam_id":76561198335295596,"connected_time":4951000000000,"state":"active","ping":56},{"user_id":324,"name":"usedhalfcart","steam_id":76561198072621852,"connected_time":357000000000,"state":"active","ping":75},{"user_id":307,"name":"Brain damage squirrel","steam_id":76561198846344452,"connected_time":1582000000000,"state":"active","ping":51},{"user_id":325,"name":"Lonlily","steam_id":76561198130418647,"connected_time":351000000000,"state":"active","ping":64},{"user_id":311,"name":"sauce","steam_id":76561198155481540,"connected_time":1492000000000,"state":"active","ping":47},{"user_id":299,"name":"ⓞ","steam_id":76561198338739253,"connected_time":2581000000000,"state":"active","ping":49},{"user_id":296,"name":"Grim","steam_id":76561198016978310,"connected_time":3107000000000,"state":"active","ping":74},{"user_id":304,"name":"InsulinDealer","steam_id":76561197994220909,"connected_time":1603000000000,"state":"active","ping":67},{"user_id":317,"name":"Sheev Palpatine","steam_id":76561198252332430,"connected_time":577000000000,"state":"active","ping":83},{"user_id":305,"name":"Weakforanimebitches","steam_id":76561198217663016,"connected_time":1599000000000,"state":"active","ping":50},{"user_id":321,"name":"plutonium isotope","steam_id":76561198319442494,"connected_time":401000000000,"state":"active","ping":50},{"user_id":270,"name":"yellow ᗜˬᗜ","steam_id":76561198366474647,"connected_time":4953000000000,"state":"active","ping":45},{"user_id":326,"name":"luketherobat","steam_id":76561198380515065,"connected_time":326000000000,"state":"active","ping":84},{"user_id":327,"name":"Matches_                       ","steam_id":76561198048925904,"connected_time":324000000000,"state":"active","ping":61},{"user_id":315,"name":"John16Mark","steam_id":76561198119445407,"connected_time":1326000000000,"state":"active","ping":97},{"user_id":329,"name":"donutdagger","steam_id":76561199203048300,"connected_time":267000000000,"state":"active","ping":58},{"user_id":319,"name":"McSpazatron","steam_id":76561198955942148,"connected_time":463000000000,"state":"active","ping":81}]},{"server_id":25,"name":"Uncletopia | Los Angeles | 4 | Stopwatch Beta","name_short":"lax-4","host":"lax-1.us.uncletopia.com","port":27045,"enabled":true,"region":"us-west","cc":"us","latitude":33.94279,"longitude":-118.41004,"reserved":0,"last_update":"0001-01-01T00:00:00Z","name_a2s":"Uncletopia | Los Angeles | 4 | Stopwatch Beta","protocol":17,"map":"pl_upward","folder":"tf","game":"Team Fortress","app_id":440,"player_count":0,"max_players":24,"Bots":0,"server_type":"Dedicated","server_os":"Linux","password":true,"vac":true,"version":"7961495","steam_id":85568392924510199,"keywords":["nocrits","nodmgspread","payload","uncletopia"],"game_id":440,"stv_port":27046,"stv_name":"Uncletopia | Los Angeles | 4 | Stopwatch Beta | STV","players":null},{"server_id":11,"name":"Uncletopia | London | 1 | All Maps","name_short":"lon-1","host":"lon-1.uk.uncletopia.com","port":27015,"enabled":true,"region":"eu","cc":"gb","latitude":51.509865,"longitude":-0.118092,"reserved":0,"last_update":"0001-01-01T00:00:00Z","name_a2s":"Uncletopia | London | 1 | All Maps","protocol":17,"map":"pl_swiftwater_final1","folder":"tf","game":"Team Fortress","app_id":440,"player_count":24,"max_players":24,"Bots":0,"server_type":"Dedicated","server_os":"Linux","password":true,"vac":true,"version":"7961495","steam_id":85568392924367362,"keywords":["nocrits","nodmgspread","payload","uncletopia"],"game_id":440,"stv_port":27016,"stv_name":"Uncletopia | London | 1 | All Maps | STV","players":[{"user_id":660,"name":"NI","steam_id":76561198941142018,"connected_time":7862000000000,"state":"spawning","ping":62},{"user_id":690,"name":"Son Goku","steam_id":76561199383437138,"connected_time":3965000000000,"state":"active","ping":167},{"user_id":658,"name":"♂ Twink Hunter ♂","steam_id":76561198397024973,"connected_time":7929000000000,"state":"active","ping":41},{"user_id":696,"name":"owo","steam_id":76561198158209651,"connected_time":2656000000000,"state":"active","ping":58},{"user_id":668,"name":"Kahvi","steam_id":76561198723244199,"connected_time":6802000000000,"state":"active","ping":78},{"user_id":671,"name":"fence_","steam_id":76561198150386379,"connected_time":6385000000000,"state":"active","ping":80},{"user_id":704,"name":"teddy","steam_id":76561198007436837,"connected_time":2034000000000,"state":"active","ping":60},{"user_id":604,"name":"Kphi(i)","steam_id":76561198970587061,"connected_time":11750000000000,"state":"spawning","ping":189},{"user_id":675,"name":"Wikk","steam_id":76561199006349076,"connected_time":4950000000000,"state":"active","ping":78},{"user_id":715,"name":"meow (they/them)","steam_id":76561198416657815,"connected_time":1265000000000,"state":"spawning","ping":92},{"user_id":703,"name":"gibb (official)","steam_id":76561198074097655,"connected_time":2055000000000,"state":"active","ping":45},{"user_id":721,"name":"Minimi","steam_id":76561198873850443,"connected_time":95000000000,"state":"active","ping":39},{"user_id":719,"name":"Maveth","steam_id":76561198315021197,"connected_time":821000000000,"state":"active","ping":142},{"user_id":722,"name":"BreadBubbles","steam_id":76561198174332826,"connected_time":36000000000,"state":"active","ping":72},{"user_id":705,"name":"sora","steam_id":76561198096547662,"connected_time":2009000000000,"state":"spawning","ping":57},{"user_id":716,"name":"ein'd","steam_id":76561198152162834,"connected_time":1161000000000,"state":"spawning","ping":98},{"user_id":717,"name":"shooer!","steam_id":76561198110531281,"connected_time":1095000000000,"state":"spawning","ping":52},{"user_id":698,"name":"Slifer the Sky Dragon","steam_id":76561198062255803,"connected_time":2242000000000,"state":"active","ping":89},{"user_id":702,"name":"✪ J","steam_id":76561198094911581,"connected_time":2080000000000,"state":"active","ping":132},{"user_id":687,"name":"jonesy","steam_id":76561198073975078,"connected_time":4031000000000,"state":"active","ping":45},{"user_id":720,"name":"HOLY BEAST!!!!!!!!!!!!1","steam_id":76561198107137362,"connected_time":215000000000,"state":"active","ping":68},{"user_id":689,"name":"123","steam_id":76561198113733477,"connected_time":3981000000000,"state":"active","ping":96},{"user_id":682,"name":"Sixie","steam_id":76561198251675360,"connected_time":4307000000000,"state":"active","ping":52},{"user_id":684,"name":"halow","steam_id":76561198061505163,"connected_time":4264000000000,"state":"active","ping":94}]},{"server_id":114,"name":"Uncletopia | London | 2 | All Maps","name_short":"lon-2","host":"lon-1.uk.uncletopia.com","port":27025,"enabled":true,"region":"eu","cc":"gb","latitude":51.509865,"longitude":-0.118092,"reserved":0,"last_update":"0001-01-01T00:00:00Z","name_a2s":"Uncletopia | London | 2 | All Maps","protocol":17,"map":"pl_swiftwater_final1","folder":"tf","game":"Team Fortress","app_id":440,"player_count":24,"max_players":24,"Bots":0,"server_type":"Dedicated","server_os":"Linux","password":true,"vac":true,"version":"7961495","steam_id":85568392924470941,"keywords":["nocrits","nodmgspread","payload","uncletopia"],"game_id":440,"stv_port":27026,"stv_name":"Uncletopia | London | 2 | All Maps | STV","players":[{"user_id":626,"name":"Aarquus","steam_id":76561198006689878,"connected_time":7918000000000,"state":"active","ping":57},{"user_id":674,"name":"Khrinde","steam_id":76561198036744526,"connected_time":3675000000000,"state":"active","ping":90},{"user_id":666,"name":"Mr_Pulse_","steam_id":76561198095001602,"connected_time":4098000000000,"state":"active","ping":113},{"user_id":659,"name":"Neeeiks","steam_id":76561198009156801,"connected_time":4515000000000,"state":"active","ping":79},{"user_id":700,"name":"Shvydrygailo [UA]","steam_id":76561198332237003,"connected_time":1742000000000,"state":"active","ping":83},{"user_id":704,"name":"Hex:Jane's big booty","steam_id":76561198392913987,"connected_time":1499000000000,"state":"active","ping":130},{"user_id":712,"name":"Intimatt","steam_id":76561198066393546,"connected_time":943000000000,"state":"active","ping":57},{"user_id":652,"name":"msh","steam_id":76561198367669395,"connected_time":5297000000000,"state":"active","ping":32},{"user_id":692,"name":"Ash J. Williams","steam_id":76561198087717456,"connected_time":2410000000000,"state":"active","ping":61},{"user_id":664,"name":"Garth Marenghi","steam_id":76561198009830164,"connected_time":4184000000000,"state":"active","ping":53},{"user_id":715,"name":"e36 1.8","steam_id":76561198134203031,"connected_time":481000000000,"state":"active","ping":64},{"user_id":708,"name":"Xonrus","steam_id":76561198074717396,"connected_time":1023000000000,"state":"active","ping":66},{"user_id":641,"name":"ROX","steam_id":76561198272289320,"connected_time":6735000000000,"state":"active","ping":68},{"user_id":680,"name":"mr.resetti","steam_id":76561198974520642,"connected_time":3540000000000,"state":"active","ping":73},{"user_id":717,"name":"Small Rat","steam_id":76561197970114051,"connected_time":7000000000,"state":"spawning","ping":36},{"user_id":710,"name":"AproX","steam_id":76561198880652045,"connected_time":983000000000,"state":"active","ping":89},{"user_id":706,"name":"etc","steam_id":76561197998394797,"connected_time":1324000000000,"state":"active","ping":47},{"user_id":711,"name":"my mom","steam_id":76561199225201569,"connected_time":954000000000,"state":"active","ping":123},{"user_id":631,"name":"Anri Okita's Massive Milkers","steam_id":76561199186352720,"connected_time":7823000000000,"state":"active","ping":70},{"user_id":716,"name":"Floris","steam_id":76561198001717422,"connected_time":18000000000,"state":"active","ping":60},{"user_id":713,"name":"Loubod","steam_id":76561198203288740,"connected_time":934000000000,"state":"active","ping":66},{"user_id":667,"name":"joachym","steam_id":76561198428579761,"connected_time":4088000000000,"state":"active","ping":69},{"user_id":714,"name":"Skinny101","steam_id":76561197985599360,"connected_time":927000000000,"state":"active","ping":56},{"user_id":696,"name":"MaeMae","steam_id":76561198252524452,"connected_time":2015000000000,"state":"active","ping":47}]},{"server_id":320,"name":"Uncletopia | London | 3 | All Maps","name_short":"lon-3","host":"lon-1.uk.uncletopia.com","port":27035,"enabled":true,"region":"eu","cc":"gb","latitude":51.509865,"longitude":-0.118092,"reserved":0,"last_update":"0001-01-01T00:00:00Z","name_a2s":"Uncletopia | London | 3 | All Maps","protocol":17,"map":"pl_pier","folder":"tf","game":"Team Fortress","app_id":440,"player_count":22,"max_players":24,"Bots":0,"server_type":"Dedicated","server_os":"Linux","password":true,"vac":true,"version":"7961495","steam_id":85568392924510192,"keywords":["nocrits","nodmgspread","payload","uncletopia"],"game_id":440,"stv_port":27036,"stv_name":"Uncletopia | London | 3 | All Maps | STV","players":[{"user_id":432,"name":"Umbro","steam_id":76561198087930438,"connected_time":1259000000000,"state":"active","ping":74},{"user_id":428,"name":"Wodaz","steam_id":76561198043263557,"connected_time":2172000000000,"state":"active","ping":60},{"user_id":453,"name":"Lord Lem0ns!","steam_id":76561198323174893,"connected_time":419000000000,"state":"active","ping":87},{"user_id":445,"name":"[503. ]captain swiftfingers","steam_id":76561198043684517,"connected_time":906000000000,"state":"active","ping":50},{"user_id":447,"name":"Flaming_Veil","steam_id":76561199229870438,"connected_time":684000000000,"state":"active","ping":170},{"user_id":443,"name":"Grillem Dafoe","steam_id":76561198306874574,"connected_time":1031000000000,"state":"active","ping":65},{"user_id":457,"name":"I sell exotic parrots","steam_id":76561199192434258,"connected_time":146000000000,"state":"active","ping":109},{"user_id":436,"name":"BD[PL]","steam_id":76561198115995871,"connected_time":1170000000000,"state":"active","ping":88},{"user_id":406,"name":"s a i","steam_id":76561197970379754,"connected_time":5093000000000,"state":"active","ping":61},{"user_id":460,"name":"Neiro👽ᗩYY ᒪᗰᗩO","steam_id":76561198046743985,"connected_time":36000000000,"state":"active","ping":67},{"user_id":442,"name":"Worm","steam_id":76561198296497176,"connected_time":1052000000000,"state":"active","ping":80},{"user_id":446,"name":"Hoxton","steam_id":76561198129209505,"connected_time":720000000000,"state":"active","ping":76},{"user_id":392,"name":"highest noon","steam_id":76561199103959197,"connected_time":5879000000000,"state":"active","ping":93},{"user_id":416,"name":"AFairFew","steam_id":76561198194484645,"connected_time":3471000000000,"state":"active","ping":49},{"user_id":427,"name":"randompixel","steam_id":76561198003941207,"connected_time":2346000000000,"state":"active","ping":50},{"user_id":456,"name":"COOL_JEANS","steam_id":76561199086227946,"connected_time":199000000000,"state":"active","ping":111},{"user_id":449,"name":"Not So Friendly Mouse","steam_id":76561198452471755,"connected_time":608000000000,"state":"active","ping":76},{"user_id":391,"name":"Eric Catman","steam_id":76561198802117294,"connected_time":6117000000000,"state":"active","ping":78},{"user_id":451,"name":"Tommy Toughknuckles","steam_id":76561198180438386,"connected_time":557000000000,"state":"active","ping":54},{"user_id":455,"name":"zherny","steam_id":76561198027033926,"connected_time":275000000000,"state":"active","ping":49},{"user_id":357,"name":"juicy","steam_id":76561198127264835,"connected_time":8121000000000,"state":"active","ping":44},{"user_id":450,"name":"Ziy???","steam_id":76561197995765491,"connected_time":589000000000,"state":"active","ping":56}]},{"server_id":321,"name":"Uncletopia | London | 4 | All Maps","name_short":"lon-4","host":"lon-1.uk.uncletopia.com","port":27045,"enabled":true,"region":"eu","cc":"gb","latitude":51.509865,"longitude":-0.118092,"reserved":0,"last_update":"0001-01-01T00:00:00Z","name_a2s":"Uncletopia | London | 4 | All Maps","protocol":17,"map":"pl_snowycoast","folder":"tf","game":"Team Fortress","app_id":440,"player_count":0,"max_players":24,"Bots":0,"server_type":"Dedicated","server_os":"Linux","password":true,"vac":true,"version":"7961495","steam_id":85568392924510193,"keywords":["nocrits","nodmgspread","payload","uncletopia"],"game_id":440,"stv_port":27046,"stv_name":"Uncletopia | London | 4 | All Maps | STV","players":null},{"server_id":21,"name":"Uncletopia | London | 5 | All Maps","name_short":"lon-5","host":"lon-1.uk.uncletopia.com","port":27055,"enabled":true,"region":"eu","cc":"gb","latitude":51.509865,"longitude":-0.118092,"reserved":0,"last_update":"0001-01-01T00:00:00Z","name_a2s":"Uncletopia | London | 5 | All Maps","protocol":17,"map":"pl_goldrush","folder":"tf","game":"Team Fortress","app_id":440,"player_count":23,"max_players":24,"Bots":0,"server_type":"Dedicated","server_os":"Linux","password":true,"vac":true,"version":"7961495","steam_id":85568392924742829,"keywords":["nocrits","nodmgspread","payload","uncletopia"],"game_id":440,"stv_port":27056,"stv_name":"Uncletopia | London | 5 | All Maps | STV","players":[{"user_id":722,"name":"PLATINUM PISSED","steam_id":76561198275955087,"connected_time":423000000000,"state":"active","ping":60},{"user_id":717,"name":"xTheDarkLight","steam_id":76561198239128298,"connected_time":1043000000000,"state":"active","ping":58},{"user_id":723,"name":"Oil-Chan","steam_id":76561198326691870,"connected_time":415000000000,"state":"active","ping":73},{"user_id":707,"name":"mh3","steam_id":76561198192204191,"connected_time":1855000000000,"state":"active","ping":68},{"user_id":725,"name":"Sauen","steam_id":76561198276433751,"connected_time":174000000000,"state":"active","ping":107},{"user_id":718,"name":"jóni","steam_id":76561197997323419,"connected_time":919000000000,"state":"active","ping":75},{"user_id":688,"name":"Potshott","steam_id":76561198184014158,"connected_time":2361000000000,"state":"active","ping":50},{"user_id":654,"name":"Jonno","steam_id":76561198023443744,"connected_time":5251000000000,"state":"active","ping":48},{"user_id":689,"name":"Kjat","steam_id":76561198839433592,"connected_time":2333000000000,"state":"active","ping":60},{"user_id":724,"name":"Saul Goodman","steam_id":76561199182988206,"connected_time":309000000000,"state":"active","ping":96},{"user_id":699,"name":"Vermin","steam_id":76561198045527771,"connected_time":2088000000000,"state":"active","ping":62},{"user_id":712,"name":"sarii ☆","steam_id":76561199155102111,"connected_time":1681000000000,"state":"active","ping":78},{"user_id":720,"name":"Redmailbox","steam_id":76561198042930322,"connected_time":712000000000,"state":"active","ping":66},{"user_id":711,"name":"Finn","steam_id":76561198179960193,"connected_time":1724000000000,"state":"active","ping":42},{"user_id":727,"name":"JUST","steam_id":76561198069064885,"connected_time":121000000000,"state":"active","ping":60},{"user_id":655,"name":"Nox Equites","steam_id":76561198115438449,"connected_time":5102000000000,"state":"active","ping":82},{"user_id":698,"name":"Dr ADHD MD","steam_id":76561198025252995,"connected_time":2093000000000,"state":"active","ping":46},{"user_id":705,"name":"Keke","steam_id":76561198042032908,"connected_time":2042000000000,"state":"active","ping":96},{"user_id":713,"name":"MaccyF","steam_id":76561198039214805,"connected_time":1634000000000,"state":"active","ping":44},{"user_id":702,"name":"Burpman","steam_id":76561198022897937,"connected_time":2065000000000,"state":"active","ping":47},{"user_id":703,"name":"flamingosaurus","steam_id":76561198051455397,"connected_time":2046000000000,"state":"active","ping":43},{"user_id":704,"name":"tompp","steam_id":76561198143529110,"connected_time":2043000000000,"state":"active","ping":45},{"user_id":728,"name":"eevee","steam_id":76561198447072392,"connected_time":86000000000,"state":"active","ping":89}]},{"server_id":22,"name":"Uncletopia | London | 6 | All Maps","name_short":"lon-6","host":"lon-1.uk.uncletopia.com","port":27065,"enabled":true,"region":"eu","cc":"gb","latitude":51.509865,"longitude":-0.118092,"reserved":0,"last_update":"0001-01-01T00:00:00Z","name_a2s":"Uncletopia | London | 6 | All Maps","protocol":17,"map":"pl_swiftwater_final1","folder":"tf","game":"Team Fortress","app_id":440,"player_count":0,"max_players":24,"Bots":0,"server_type":"Dedicated","server_os":"Linux","password":true,"vac":true,"version":"7961495","steam_id":85568392924742830,"keywords":["nocrits","nodmgspread","payload","uncletopia"],"game_id":440,"stv_port":27066,"stv_name":"Uncletopia | London | 6 | All Maps | STV","players":null},{"server_id":40,"name":"Uncletopia | London | 7 | No Payload","name_short":"lon-7","host":"lon-1.uk.uncletopia.com","port":27075,"enabled":true,"region":"eu","cc":"gb","latitude":51.509865,"longitude":-0.118092,"reserved":0,"last_update":"0001-01-01T00:00:00Z","name_a2s":"Uncletopia | London | 7 | No Payload","protocol":17,"map":"koth_sawmill","folder":"tf","game":"Team Fortress","app_id":440,"player_count":13,"max_players":24,"Bots":0,"server_type":"Dedicated","server_os":"Linux","password":true,"vac":true,"version":"7961495","steam_id":85568392924964314,"keywords":["cp","nocrits","nodmgspread","uncletopia"],"game_id":440,"stv_port":27076,"stv_name":"Uncletopia | London | 7 | No Payload | STV","players":[{"user_id":72,"name":"Sande","steam_id":76561198275239290,"connected_time":337000000000,"state":"active","ping":75},{"user_id":59,"name":"Bootleg Wah","steam_id":76561198215995743,"connected_time":1801000000000,"state":"active","ping":47},{"user_id":56,"name":"lorislk989","steam_id":76561199224251630,"connected_time":2612000000000,"state":"active","ping":71},{"user_id":61,"name":"Top Hat Fellow","steam_id":76561198294368161,"connected_time":1779000000000,"state":"active","ping":55},{"user_id":62,"name":"Beta Cuck Bill","steam_id":76561198202892701,"connected_time":1772000000000,"state":"active","ping":60},{"user_id":65,"name":"Truegear","steam_id":76561198059511386,"connected_time":692000000000,"state":"active","ping":61},{"user_id":73,"name":"Bobby Liberty","steam_id":76561199082643794,"connected_time":253000000000,"state":"active","ping":111},{"user_id":67,"name":"Skatnaset","steam_id":76561198298457353,"connected_time":627000000000,"state":"active","ping":70},{"user_id":68,"name":"SirDirtbag","steam_id":76561198091890855,"connected_time":606000000000,"state":"active","ping":77},{"user_id":69,"name":"mossfan1","steam_id":76561198087525446,"connected_time":597000000000,"state":"active","ping":74},{"user_id":74,"name":"Groose","steam_id":76561198261094295,"connected_time":225000000000,"state":"active","ping":60},{"user_id":71,"name":"Lyrista","steam_id":76561198136435129,"connected_time":533000000000,"state":"active","ping":57},{"user_id":75,"name":"timvs5","steam_id":76561198136646312,"connected_time":103000000000,"state":"active","ping":53}]},{"server_id":41,"name":"Uncletopia | London | 8 | Community","name_short":"lon-8","host":"lon-1.uk.uncletopia.com","port":27085,"enabled":true,"region":"eu","cc":"gb","latitude":51.509865,"longitude":-0.118092,"reserved":0,"last_update":"0001-01-01T00:00:00Z","name_a2s":"Uncletopia | London | 8 | Community","protocol":17,"map":"workshop/koth_synthetic_rc6a.ugc1549817316","folder":"tf","game":"Team Fortress","app_id":440,"player_count":0,"max_players":24,"Bots":0,"server_type":"Dedicated","server_os":"Linux","password":true,"vac":true,"version":"7961495","steam_id":85568392924964315,"keywords":["cp","nocrits","nodmgspread","uncletopia"],"game_id":440,"stv_port":27086,"stv_name":"Uncletopia | London | 8 | Community | STV","players":null},{"server_id":300,"name":"Uncletopia | Montréal | 1 | All Maps","name_short":"mtl-1","host":"mtl-1.ca.uncletopia.com","port":27015,"enabled":true,"region":"us-east","cc":"ca","latitude":45.50889,"longitude":-73.56167,"reserved":0,"last_update":"0001-01-01T00:00:00Z","name_a2s":"","protocol":0,"map":"","folder":"","game":"","app_id":0,"player_count":4,"max_players":0,"Bots":0,"server_type":"","server_os":"","password":false,"vac":false,"version":"","steam_id":0,"keywords":null,"game_id":0,"stv_port":0,"stv_name":"","players":[{"user_id":439,"name":"Charcoal","steam_id":76561198268638706,"connected_time":5312000000000,"state":"active","ping":123},{"user_id":441,"name":"ellis left 4 dead 2","steam_id":76561198364645366,"connected_time":3118000000000,"state":"active","ping":98},{"user_id":447,"name":"kdhbuilder","steam_id":76561199058095193,"connected_time":1572000000000,"state":"active","ping":83},{"user_id":444,"name":"gideon nav my beloved","steam_id":76561198259092181,"connected_time":2426000000000,"state":"active","ping":50}]},{"server_id":301,"name":"Uncletopia | Montréal | 2 | All Maps","name_short":"mtl-2","host":"mtl-1.ca.uncletopia.com","port":27025,"enabled":true,"region":"us-east","cc":"ca","latitude":45.50889,"longitude":-73.56167,"reserved":0,"last_update":"0001-01-01T00:00:00Z","name_a2s":"","protocol":0,"map":"","folder":"","game":"","app_id":0,"player_count":0,"max_players":0,"Bots":0,"server_type":"","server_os":"","password":false,"vac":false,"version":"","steam_id":0,"keywords":null,"game_id":0,"stv_port":0,"stv_name":"","players":null},{"server_id":302,"name":"Uncletopia | Montréal | 3 | All Maps","name_short":"mtl-3","host":"mtl-1.ca.uncletopia.com","port":27035,"enabled":true,"region":"us-east","cc":"ca","latitude":45.50889,"longitude":-73.56167,"reserved":0,"last_update":"0001-01-01T00:00:00Z","name_a2s":"","protocol":0,"map":"","folder":"","game":"","app_id":0,"player_count":0,"max_players":0,"Bots":0,"server_type":"","server_os":"","password":false,"vac":false,"version":"","steam_id":0,"keywords":null,"game_id":0,"stv_port":0,"stv_name":"","players":null},{"server_id":303,"name":"Uncletopia | Montréal | 4 | No Payload","name_short":"mtl-4","host":"mtl-1.ca.uncletopia.com","port":27045,"enabled":true,"region":"us-east","cc":"ca","latitude":45.50889,"longitude":-73.56167,"reserved":0,"last_update":"0001-01-01T00:00:00Z","name_a2s":"","protocol":0,"map":"","folder":"","game":"","app_id":0,"player_count":8,"max_players":0,"Bots":0,"server_type":"","server_os":"","password":false,"vac":false,"version":"","steam_id":0,"keywords":null,"game_id":0,"stv_port":0,"stv_name":"","players":[{"user_id":4,"name":"doamgeo468","steam_id":76561199485287045,"connected_time":5898000000000,"state":"active","ping":67},{"user_id":21,"name":"CCPodz","steam_id":76561199143506502,"connected_time":1308000000000,"state":"active","ping":70},{"user_id":22,"name":"Sabishi","steam_id":76561198348176826,"connected_time":1248000000000,"state":"active","ping":48},{"user_id":8,"name":"TinyGrunt16","steam_id":76561199064951235,"connected_time":5146000000000,"state":"active","ping":62},{"user_id":24,"name":"viln","steam_id":76561198073391796,"connected_time":1062000000000,"state":"active","ping":46},{"user_id":28,"name":"Chris Hansen, Kell of Kells","steam_id":76561198986775156,"connected_time":468000000000,"state":"active","ping":83},{"user_id":17,"name":"Bing Soy is best ARG #savetf2","steam_id":76561199162653647,"connected_time":2643000000000,"state":"active","ping":94},{"user_id":14,"name":"Tarnish DeBoot","steam_id":76561198148031251,"connected_time":3387000000000,"state":"active","ping":68}]},{"server_id":13,"name":"Uncletopia | New York City | 1 | All Maps","name_short":"nyc-1","host":"nyc-1.us.uncletopia.com","port":27015,"enabled":true,"region":"us-east","cc":"us","latitude":40.73061,"longitude":-73.93524,"reserved":0,"last_update":"0001-01-01T00:00:00Z","name_a2s":"Uncletopia | New York City | 1 | All Maps","protocol":17,"map":"pl_badwater","folder":"tf","game":"Team Fortress","app_id":440,"player_count":24,"max_players":24,"Bots":0,"server_type":"Dedicated","server_os":"Linux","password":true,"vac":true,"version":"7961495","steam_id":85568392924469993,"keywords":["nocrits","nodmgspread","payload","uncletopia"],"game_id":440,"stv_port":27016,"stv_name":"Uncletopia | New York City | 1 | All Maps | STV","players":[{"user_id":415,"name":"aversa","steam_id":76561198840460101,"connected_time":1833000000000,"state":"active","ping":54},{"user_id":424,"name":"Spex","steam_id":76561198404566859,"connected_time":1505000000000,"state":"active","ping":60},{"user_id":444,"name":"KillinYou32","steam_id":76561198833468802,"connected_time":13000000000,"state":"spawning","ping":65},{"user_id":407,"name":"gaelaspuru","steam_id":76561198838235696,"connected_time":2591000000000,"state":"active","ping":72},{"user_id":422,"name":"ProtogenRazu","steam_id":76561198389024640,"connected_time":1620000000000,"state":"active","ping":39},{"user_id":404,"name":"King of Ping","steam_id":76561198278737470,"connected_time":2758000000000,"state":"active","ping":57},{"user_id":437,"name":"NguyenThe","steam_id":76561198208416793,"connected_time":763000000000,"state":"active","ping":114},{"user_id":371,"name":"Polite Frog","steam_id":76561198296968646,"connected_time":5266000000000,"state":"active","ping":83},{"user_id":441,"name":"Tidwell","steam_id":76561198037414410,"connected_time":414000000000,"state":"active","ping":57},{"user_id":442,"name":"Hypn0s","steam_id":76561199147968746,"connected_time":253000000000,"state":"active","ping":100},{"user_id":419,"name":"0100101101100001011100100110110","steam_id":76561198034028769,"connected_time":1670000000000,"state":"active","ping":65},{"user_id":409,"name":"JACK BRUNO","steam_id":76561198027957690,"connected_time":2542000000000,"state":"active","ping":124},{"user_id":403,"name":"Wut dat dog doin","steam_id":76561198848535267,"connected_time":2796000000000,"state":"active","ping":65},{"user_id":443,"name":"Lancer Fan Club","steam_id":76561198355495948,"connected_time":74000000000,"state":"active","ping":66},{"user_id":410,"name":"Slob and Sup","steam_id":76561198123441203,"connected_time":2539000000000,"state":"active","ping":75},{"user_id":438,"name":"Jimbo Slice","steam_id":76561198064830847,"connected_time":721000000000,"state":"active","ping":57},{"user_id":431,"name":"radiation","steam_id":76561198001157602,"connected_time":1058000000000,"state":"active","ping":80},{"user_id":435,"name":"sharkbyt3","steam_id":76561197985793803,"connected_time":985000000000,"state":"active","ping":56},{"user_id":378,"name":"Jamendithas","steam_id":76561198119537716,"connected_time":4867000000000,"state":"active","ping":65},{"user_id":432,"name":"flylikepaper","steam_id":76561198082741571,"connected_time":1042000000000,"state":"active","ping":69},{"user_id":426,"name":"reddishscarf","steam_id":76561199084904694,"connected_time":1496000000000,"state":"active","ping":73},{"user_id":391,"name":"Gir Gaming","steam_id":76561198156782359,"connected_time":3905000000000,"state":"active","ping":56},{"user_id":434,"name":"yep","steam_id":76561198443401216,"connected_time":1007000000000,"state":"active","ping":87},{"user_id":388,"name":"space man","steam_id":76561198066333670,"connected_time":3950000000000,"state":"active","ping":69}]},{"server_id":14,"name":"Uncletopia | New York City | 2 | All Maps","name_short":"nyc-2","host":"nyc-1.us.uncletopia.com","port":27025,"enabled":true,"region":"us-east","cc":"us","latitude":40.73061,"longitude":-73.93524,"reserved":0,"last_update":"0001-01-01T00:00:00Z","name_a2s":"Uncletopia | New York City | 2 | All Maps","protocol":17,"map":"pl_pier","folder":"tf","game":"Team Fortress","app_id":440,"player_count":23,"max_players":24,"Bots":0,"server_type":"Dedicated","server_os":"Linux","password":true,"vac":true,"version":"7961495","steam_id":85568392924469994,"keywords":["nocrits","nodmgspread","payload","uncletopia"],"game_id":440,"stv_port":27026,"stv_name":"Uncletopia | New York City | 2 | All Maps | STV","players":[{"user_id":419,"name":"Agent Tibbs","steam_id":76561198139418570,"connected_time":1765000000000,"state":"active","ping":82},{"user_id":420,"name":"Muffin","steam_id":76561199156302434,"connected_time":1722000000000,"state":"active","ping":54},{"user_id":443,"name":"Pseudotriangle","steam_id":76561198058247667,"connected_time":155000000000,"state":"active","ping":84},{"user_id":415,"name":"A Puppy","steam_id":76561198828184456,"connected_time":2129000000000,"state":"active","ping":47},{"user_id":440,"name":"fireman","steam_id":76561198148199120,"connected_time":297000000000,"state":"active","ping":79},{"user_id":434,"name":"VAMOS ARGENOOBA JAJAJAJAJA","steam_id":76561199493902440,"connected_time":537000000000,"state":"active","ping":35},{"user_id":422,"name":"Nerf Clean Hit","steam_id":76561198257691881,"connected_time":1597000000000,"state":"active","ping":78},{"user_id":429,"name":"honch","steam_id":76561198832647822,"connected_time":1144000000000,"state":"active","ping":68},{"user_id":445,"name":"alex","steam_id":76561198095203229,"connected_time":40000000000,"state":"active","ping":67},{"user_id":442,"name":"Orange Triangle","steam_id":76561198320498182,"connected_time":188000000000,"state":"active","ping":85},{"user_id":403,"name":"UNIT 220","steam_id":76561198042243497,"connected_time":2661000000000,"state":"active","ping":68},{"user_id":428,"name":"B1scuitd0ughhandsman","steam_id":76561199195647314,"connected_time":1170000000000,"state":"active","ping":56},{"user_id":439,"name":"Sir.TopHats","steam_id":76561198267326839,"connected_time":364000000000,"state":"active","ping":109},{"user_id":427,"name":"Benge","steam_id":76561198142001891,"connected_time":1408000000000,"state":"active","ping":53},{"user_id":278,"name":"Non Critical Thinker","steam_id":76561198123401597,"connected_time":10974000000000,"state":"active","ping":86},{"user_id":437,"name":"Bones0010","steam_id":76561198096186958,"connected_time":497000000000,"state":"active","ping":93},{"user_id":406,"name":"{BUB} Royd Rage","steam_id":76561198127591926,"connected_time":2643000000000,"state":"active","ping":46},{"user_id":411,"name":"J-Booty Rasengan","steam_id":76561198088854411,"connected_time":2398000000000,"state":"active","ping":61},{"user_id":432,"name":"Les Claypool","steam_id":76561198237827742,"connected_time":933000000000,"state":"active","ping":71},{"user_id":410,"name":"Speedy","steam_id":76561198080761661,"connected_time":2453000000000,"state":"active","ping":63},{"user_id":444,"name":"Slazzer","steam_id":76561198404351844,"connected_time":104000000000,"state":"active","ping":64},{"user_id":407,"name":"Importality","steam_id":76561198049943127,"connected_time":2627000000000,"state":"active","ping":80},{"user_id":414,"name":"Aaron","steam_id":76561198091157802,"connected_time":2230000000000,"state":"active","ping":60}]},{"server_id":15,"name":"Uncletopia | New York City | 3 | Stopwatch Beta","name_short":"nyc-3","host":"nyc-1.us.uncletopia.com","port":27035,"enabled":true,"region":"us-east","cc":"us","latitude":40.73061,"longitude":-73.93524,"reserved":0,"last_update":"0001-01-01T00:00:00Z","name_a2s":"Uncletopia | New York City | 3 | Stopwatch Beta","protocol":17,"map":"workshop/koth_product_final.ugc454272353","folder":"tf","game":"Team Fortress","app_id":440,"player_count":1,"max_players":24,"Bots":0,"server_type":"Dedicated","server_os":"Linux","password":true,"vac":true,"version":"7961495","steam_id":85568392924742820,"keywords":["cp","nocrits","nodmgspread","uncletopia"],"game_id":440,"stv_port":27036,"stv_name":"Uncletopia | New York City | 3 | Stopwatch Beta | STV","players":[{"user_id":12,"name":"WinterShotgun","steam_id":76561199009870097,"connected_time":28000000000,"state":"active","ping":75}]},{"server_id":16,"name":"Uncletopia | New York City | 4 | Community","name_short":"nyc-4","host":"nyc-1.us.uncletopia.com","port":27045,"enabled":true,"region":"us-east","cc":"us","latitude":40.73061,"longitude":-73.93524,"reserved":0,"last_update":"0001-01-01T00:00:00Z","name_a2s":"Uncletopia | New York City | 4 | Community","protocol":17,"map":"koth_lakeside_final","folder":"tf","game":"Team Fortress","app_id":440,"player_count":0,"max_players":24,"Bots":0,"server_type":"Dedicated","server_os":"Linux","password":true,"vac":true,"version":"7961495","steam_id":85568392924742821,"keywords":["cp","nocrits","nodmgspread","uncletopia"],"game_id":440,"stv_port":27046,"stv_name":"Uncletopia | New York City | 4 | Community | STV","players":null},{"server_id":142,"name":"Uncletopia | São Paulo | 1 | All Maps","name_short":"sao-1","host":"sao-1.br.uncletopia.com","port":27015,"enabled":true,"region":"sa","cc":"br","latitude":-23.533773,"longitude":-46.62529,"reserved":0,"last_update":"0001-01-01T00:00:00Z","name_a2s":"Uncletopia | São Paulo | 1 | All Maps","protocol":17,"map":"koth_cascade","folder":"tf","game":"Team Fortress","app_id":440,"player_count":0,"max_players":24,"Bots":0,"server_type":"Dedicated","server_os":"Linux","password":true,"vac":true,"version":"7961495","steam_id":85568392924469996,"keywords":["cp","nocrits","nodmgspread","uncletopia"],"game_id":440,"stv_port":27016,"stv_name":"Uncletopia | São Paulo | 1 | All Maps | STV","players":null},{"server_id":143,"name":"Uncletopia | São Paulo | 2 | Community","name_short":"sao-2","host":"sao-2.br.uncletopia.com","port":27015,"enabled":true,"region":"sa","cc":"br","latitude":-23.533773,"longitude":-46.62529,"reserved":0,"last_update":"0001-01-01T00:00:00Z","name_a2s":"Uncletopia | São Paulo | 2 | Community","protocol":17,"map":"workshop/pl_badwater_pro_v12.ugc2142942074","folder":"tf","game":"Team Fortress","app_id":440,"player_count":23,"max_players":24,"Bots":0,"server_type":"Dedicated","server_os":"Linux","password":true,"vac":true,"version":"7961495","steam_id":85568392924485349,"keywords":["nocrits","nodmgspread","payload","uncletopia"],"game_id":440,"stv_port":27016,"stv_name":"Uncletopia | São Paulo | 2 | Community | STV","players":[{"user_id":113,"name":"Phalanx","steam_id":76561198043563282,"connected_time":5216000000000,"state":"active","ping":45},{"user_id":97,"name":"Lan","steam_id":76561198263163492,"connected_time":7280000000000,"state":"active","ping":63},{"user_id":130,"name":"mg11a3","steam_id":76561198872798175,"connected_time":3928000000000,"state":"active","ping":49},{"user_id":151,"name":"Jh0n","steam_id":76561198059013774,"connected_time":1651000000000,"state":"active","ping":122},{"user_id":148,"name":"Cuutc","steam_id":76561199117093999,"connected_time":2273000000000,"state":"active","ping":54},{"user_id":158,"name":"Aust","steam_id":76561198067966650,"connected_time":942000000000,"state":"active","ping":47},{"user_id":144,"name":"bus driver","steam_id":76561199059062371,"connected_time":2545000000000,"state":"active","ping":44},{"user_id":134,"name":"Sam","steam_id":76561198845065988,"connected_time":3467000000000,"state":"active","ping":75},{"user_id":147,"name":"hadinode","steam_id":76561198191475573,"connected_time":2322000000000,"state":"active","ping":52},{"user_id":149,"name":"MatsBR","steam_id":76561198274955662,"connected_time":1928000000000,"state":"active","ping":61},{"user_id":152,"name":"cezar","steam_id":76561198426484905,"connected_time":1491000000000,"state":"active","ping":59},{"user_id":103,"name":"My wife left me","steam_id":76561199093912386,"connected_time":6645000000000,"state":"active","ping":59},{"user_id":154,"name":"Fobus","steam_id":76561198830256370,"connected_time":1452000000000,"state":"active","ping":75},{"user_id":126,"name":"Kibetsuban","steam_id":76561198056480228,"connected_time":4395000000000,"state":"active","ping":57},{"user_id":115,"name":"Eiden","steam_id":76561198033798246,"connected_time":5114000000000,"state":"active","ping":61},{"user_id":167,"name":"Anão tunado","steam_id":76561199054466547,"connected_time":80000000000,"state":"spawning","ping":127},{"user_id":157,"name":".fnord","steam_id":76561198119754613,"connected_time":1227000000000,"state":"active","ping":45},{"user_id":137,"name":"Burilo","steam_id":76561198014445055,"connected_time":3228000000000,"state":"active","ping":52},{"user_id":159,"name":"cockman","steam_id":76561198929875383,"connected_time":763000000000,"state":"active","ping":109},{"user_id":160,"name":"Enyel","steam_id":76561198084306559,"connected_time":728000000000,"state":"active","ping":187},{"user_id":161,"name":"GwagwaMeowster","steam_id":76561198979682616,"connected_time":665000000000,"state":"active","ping":165},{"user_id":168,"name":"Derretimento Geral 2017","steam_id":76561198194300069,"connected_time":23000000000,"state":"spawning","ping":169},{"user_id":165,"name":"Au Revoir","steam_id":76561198176626650,"connected_time":406000000000,"state":"active","ping":47}]},{"server_id":7,"name":"Uncletopia | Seattle | 1 | All Maps","name_short":"sea-1","host":"sea-1.us.uncletopia.com","port":27015,"enabled":true,"region":"us-west","cc":"us","latitude":47.608013,"longitude":-122.33517,"reserved":0,"last_update":"0001-01-01T00:00:00Z","name_a2s":"Uncletopia | Seattle | 1 | All Maps","protocol":17,"map":"pl_rumford_event","folder":"tf","game":"Team Fortress","app_id":440,"player_count":24,"max_players":24,"Bots":0,"server_type":"Dedicated","server_os":"Linux","password":true,"vac":true,"version":"7961495","steam_id":85568392924469997,"keywords":["nocrits","nodmgspread","payload","uncletopia"],"game_id":440,"stv_port":27016,"stv_name":"Uncletopia | Seattle | 1 | All Maps | STV","players":[{"user_id":122,"name":"Alphaarmy01","steam_id":76561198818913025,"connected_time":11168000000000,"state":"active","ping":122},{"user_id":88,"name":"InterplanetaryGentlemann","steam_id":76561198146559390,"connected_time":13411000000000,"state":"active","ping":46},{"user_id":250,"name":"BlazedBunny","steam_id":76561198243610560,"connected_time":673000000000,"state":"active","ping":71},{"user_id":233,"name":"greens beans","steam_id":76561198153611491,"connected_time":3150000000000,"state":"active","ping":38},{"user_id":225,"name":"rad killl raccoon","steam_id":76561198980975595,"connected_time":3759000000000,"state":"active","ping":59},{"user_id":181,"name":"Manchurian Bandit","steam_id":76561198072410042,"connected_time":6178000000000,"state":"active","ping":76},{"user_id":236,"name":"Sailor","steam_id":76561199081983517,"connected_time":2567000000000,"state":"active","ping":99},{"user_id":241,"name":"CPTforever","steam_id":76561198237767198,"connected_time":1678000000000,"state":"active","ping":61},{"user_id":240,"name":"Skoad","steam_id":76561198104650528,"connected_time":1869000000000,"state":"active","ping":71},{"user_id":210,"name":"☢(XJ)","steam_id":76561198102189618,"connected_time":4833000000000,"state":"active","ping":64},{"user_id":238,"name":"choco","steam_id":76561199013498035,"connected_time":1977000000000,"state":"active","ping":57},{"user_id":252,"name":"Wafflemuscle","steam_id":76561198868628982,"connected_time":390000000000,"state":"active","ping":51},{"user_id":114,"name":"Immunityframes","steam_id":76561198318250550,"connected_time":11719000000000,"state":"active","ping":82},{"user_id":180,"name":"CashGordon","steam_id":76561197975594096,"connected_time":6313000000000,"state":"active","ping":45},{"user_id":171,"name":"[COS]SonneyDonkeh","steam_id":76561198091284496,"connected_time":6709000000000,"state":"active","ping":89},{"user_id":251,"name":"Mike Bean Burritos","steam_id":76561198173430607,"connected_time":401000000000,"state":"active","ping":59},{"user_id":246,"name":"ejschild745","steam_id":76561199013388867,"connected_time":857000000000,"state":"active","ping":80},{"user_id":248,"name":"NEBULA","steam_id":76561198086878595,"connected_time":839000000000,"state":"active","ping":74},{"user_id":249,"name":"SirDabsAlot","steam_id":76561198013287772,"connected_time":821000000000,"state":"active","ping":61},{"user_id":243,"name":"Big Floppa","steam_id":76561199152552589,"connected_time":919000000000,"state":"active","ping":58},{"user_id":247,"name":"Saint Pablo","steam_id":76561198083300159,"connected_time":856000000000,"state":"active","ping":73},{"user_id":253,"name":"NickoDeeBz","steam_id":76561198294657867,"connected_time":108000000000,"state":"active","ping":98},{"user_id":153,"name":"River Rat","steam_id":76561198116383976,"connected_time":8680000000000,"state":"active","ping":67},{"user_id":232,"name":"BolognaWithOlives","steam_id":76561198101262668,"connected_time":3180000000000,"state":"active","ping":89}]},{"server_id":119,"name":"Uncletopia | Seattle | 2 | All Maps","name_short":"sea-2","host":"sea-1.us.uncletopia.com","port":27025,"enabled":true,"region":"us-west","cc":"us","latitude":47.608013,"longitude":-122.33517,"reserved":0,"last_update":"0001-01-01T00:00:00Z","name_a2s":"Uncletopia | Seattle | 2 | All Maps","protocol":17,"map":"pl_pier","folder":"tf","game":"Team Fortress","app_id":440,"player_count":24,"max_players":24,"Bots":0,"server_type":"Dedicated","server_os":"Linux","password":true,"vac":true,"version":"7961495","steam_id":85568392924469998,"keywords":["nocrits","nodmgspread","payload","uncletopia"],"game_id":440,"stv_port":27026,"stv_name":"Uncletopia | Seattle | 2 | All Maps | STV","players":[{"user_id":150,"name":"piss man","steam_id":76561199031963925,"connected_time":1479000000000,"state":"active","ping":48},{"user_id":164,"name":"human (real)","steam_id":76561199001855562,"connected_time":193000000000,"state":"active","ping":54},{"user_id":128,"name":"CamiTheBrick","steam_id":76561198070394002,"connected_time":2399000000000,"state":"active","ping":56},{"user_id":156,"name":"Strikerbolt","steam_id":76561199095622897,"connected_time":842000000000,"state":"active","ping":84},{"user_id":137,"name":"SuperbSunnyD","steam_id":76561198057531269,"connected_time":2142000000000,"state":"active","ping":73},{"user_id":121,"name":"Yackaboi","steam_id":76561199444911765,"connected_time":2719000000000,"state":"active","ping":101},{"user_id":79,"name":"mm","steam_id":76561198088163909,"connected_time":5910000000000,"state":"active","ping":47},{"user_id":129,"name":"Arkus (real)","steam_id":76561199092478198,"connected_time":2393000000000,"state":"active","ping":45},{"user_id":122,"name":"chanoc","steam_id":76561198026734746,"connected_time":2686000000000,"state":"active","ping":65},{"user_id":148,"name":"MacchuPeachu","steam_id":76561199093242587,"connected_time":1585000000000,"state":"active","ping":62},{"user_id":40,"name":"SteveHarp","steam_id":76561198339530814,"connected_time":7569000000000,"state":"active","ping":64},{"user_id":144,"name":"hello","steam_id":76561199241533014,"connected_time":1757000000000,"state":"active","ping":118},{"user_id":153,"name":"Spoofle","steam_id":76561199003655066,"connected_time":1384000000000,"state":"active","ping":73},{"user_id":120,"name":"Crustacean Daddy","steam_id":76561198993807061,"connected_time":2963000000000,"state":"active","ping":78},{"user_id":44,"name":"Gamekiller839","steam_id":76561199475400469,"connected_time":7515000000000,"state":"active","ping":46},{"user_id":140,"name":"Lynx","steam_id":76561198322363286,"connected_time":2100000000000,"state":"active","ping":54},{"user_id":143,"name":"RIP COCO and FRANK :(","steam_id":76561198865172720,"connected_time":1853000000000,"state":"active","ping":97},{"user_id":152,"name":"Greskrendtregk","steam_id":76561197969553142,"connected_time":1436000000000,"state":"active","ping":60},{"user_id":154,"name":"SpamTheAlien","steam_id":76561199122290968,"connected_time":1360000000000,"state":"active","ping":78},{"user_id":93,"name":"Eurobeat too loud, can't hear :","steam_id":76561198330743199,"connected_time":4522000000000,"state":"active","ping":77},{"user_id":165,"name":"♦Benji♦","steam_id":76561198313529973,"connected_time":117000000000,"state":"active","ping":40},{"user_id":133,"name":"tiananmensquare1989","steam_id":76561199076837870,"connected_time":2283000000000,"state":"active","ping":150},{"user_id":146,"name":"Pop-Tart Eater","steam_id":76561198080822164,"connected_time":1670000000000,"state":"active","ping":47},{"user_id":162,"name":"MrPoisionousLabs","steam_id":76561199184552915,"connected_time":664000000000,"state":"active","ping":139}]},{"server_id":406,"name":"Uncletopia | Seattle | 3 | Stopwatch Beta","name_short":"sea-3","host":"sea-1.us.uncletopia.com","port":27035,"enabled":true,"region":"us-west","cc":"us","latitude":47.608013,"longitude":-122.33517,"reserved":0,"last_update":"0001-01-01T00:00:00Z","name_a2s":"Uncletopia | Seattle | 3 | Stopwatch Beta","protocol":17,"map":"workshop/pl_vigil_rc9.ugc1266210012","folder":"tf","game":"Team Fortress","app_id":440,"player_count":1,"max_players":24,"Bots":0,"server_type":"Dedicated","server_os":"Linux","password":true,"vac":true,"version":"7961495","steam_id":85568392924515217,"keywords":["nocrits","nodmgspread","payload","uncletopia"],"game_id":440,"stv_port":27036,"stv_name":"Uncletopia | Seattle | 3 | Stopwatch Beta | STV","players":[{"user_id":12,"name":"Krebs Fahig!","steam_id":76561198046876774,"connected_time":36000000000,"state":"spawning","ping":343}]},{"server_id":17,"name":"Uncletopia | San Francisco | 1 | All Maps","name_short":"sfo-1","host":"sfo-1.us.uncletopia.com","port":27015,"enabled":true,"region":"us-west","cc":"us","latitude":37.77397,"longitude":-122.4313,"reserved":0,"last_update":"0001-01-01T00:00:00Z","name_a2s":"Uncletopia | San Francisco | 1 | All Maps","protocol":17,"map":"cp_altitude","folder":"tf","game":"Team Fortress","app_id":440,"player_count":4,"max_players":24,"Bots":0,"server_type":"Dedicated","server_os":"Linux","password":true,"vac":true,"version":"7961495","steam_id":85568392924469999,"keywords":["cp","nocrits","nodmgspread","uncletopia"],"game_id":440,"stv_port":27016,"stv_name":"Uncletopia | San Francisco | 1 | All Maps | STV","players":[{"user_id":18,"name":"a cat plushie","steam_id":76561198080046542,"connected_time":715000000000,"state":"active","ping":58},{"user_id":19,"name":"Sirmrmagoo","steam_id":76561198993190424,"connected_time":673000000000,"state":"active","ping":91},{"user_id":20,"name":"ilun","steam_id":76561198042913843,"connected_time":603000000000,"state":"active","ping":71},{"user_id":21,"name":"Hector Salamanca","steam_id":76561199103213955,"connected_time":567000000000,"state":"active","ping":59}]},{"server_id":18,"name":"Uncletopia | San Francisco | 2 | All Maps","name_short":"sfo-2","host":"sfo-1.us.uncletopia.com","port":27025,"enabled":true,"region":"us-west","cc":"us","latitude":37.77397,"longitude":-122.4313,"reserved":0,"last_update":"0001-01-01T00:00:00Z","name_a2s":"Uncletopia | San Francisco | 2 | All Maps","protocol":17,"map":"pl_frontier_final","folder":"tf","game":"Team Fortress","app_id":440,"player_count":24,"max_players":24,"Bots":0,"server_type":"Dedicated","server_os":"Linux","password":true,"vac":true,"version":"7961495","steam_id":85568392924470000,"keywords":["nocrits","nodmgspread","payload","uncletopia"],"game_id":440,"stv_port":27026,"stv_name":"Uncletopia | San Francisco | 2 | All Maps | STV","players":[{"user_id":429,"name":"[GUT] RiDiK®","steam_id":76561197969756446,"connected_time":1612000000000,"state":"active","ping":107},{"user_id":435,"name":"Dallas","steam_id":76561198066542919,"connected_time":434000000000,"state":"active","ping":80},{"user_id":210,"name":"DIO Gaming","steam_id":76561198096858233,"connected_time":14536000000000,"state":"active","ping":108},{"user_id":439,"name":"Keamy","steam_id":76561199471434875,"connected_time":316000000000,"state":"active","ping":57},{"user_id":436,"name":"Amogous Supreme","steam_id":76561198025476774,"connected_time":433000000000,"state":"active","ping":55},{"user_id":364,"name":"16 tons of wheat","steam_id":76561198294080628,"connected_time":5662000000000,"state":"active","ping":104},{"user_id":432,"name":"Mina's Ninas","steam_id":76561198046502179,"connected_time":1585000000000,"state":"active","ping":64},{"user_id":407,"name":"Kermon","steam_id":76561198128027743,"connected_time":2949000000000,"state":"active","ping":79},{"user_id":426,"name":"Trousers","steam_id":76561198128158481,"connected_time":1880000000000,"state":"active","ping":59},{"user_id":412,"name":"Seanvich","steam_id":76561198065805500,"connected_time":2734000000000,"state":"active","ping":99},{"user_id":420,"name":"moe","steam_id":76561198929586245,"connected_time":2532000000000,"state":"active","ping":56},{"user_id":431,"name":"Serene Salamander","steam_id":76561198001094770,"connected_time":1589000000000,"state":"active","ping":70},{"user_id":321,"name":"GH578","steam_id":76561199493262585,"connected_time":9076000000000,"state":"active","ping":73},{"user_id":427,"name":"NoChillKarma","steam_id":76561198161891972,"connected_time":1680000000000,"state":"active","ping":58},{"user_id":413,"name":"WaWaSkittleTits","steam_id":76561198411234398,"connected_time":2728000000000,"state":"active","ping":81},{"user_id":440,"name":"Telushealth","steam_id":76561199422760247,"connected_time":238000000000,"state":"active","ping":79},{"user_id":416,"name":"Yarch0","steam_id":76561199106172477,"connected_time":2578000000000,"state":"active","ping":84},{"user_id":428,"name":"Western_dragon","steam_id":76561198130456105,"connected_time":1659000000000,"state":"active","ping":65},{"user_id":404,"name":"MORE BOUNCE TO THE OUNCE","steam_id":76561198243399336,"connected_time":3283000000000,"state":"active","ping":56},{"user_id":207,"name":"Blind_Deuce","steam_id":76561198155697762,"connected_time":14644000000000,"state":"active","ping":65},{"user_id":417,"name":"selling rice","steam_id":76561198063357023,"connected_time":2561000000000,"state":"active","ping":50},{"user_id":437,"name":"Hector Salamanca","steam_id":76561198438876215,"connected_time":394000000000,"state":"active","ping":117},{"user_id":346,"name":"Lord Brocktree","steam_id":76561198415527061,"connected_time":6844000000000,"state":"active","ping":69},{"user_id":438,"name":"nella","steam_id":76561198079349621,"connected_time":368000000000,"state":"active","ping":59}]},{"server_id":19,"name":"Uncletopia | San Francisco | 3 | Stopwatch Beta","name_short":"sfo-3","host":"sfo-1.us.uncletopia.com","port":27035,"enabled":true,"region":"us-west","cc":"us","latitude":37.77397,"longitude":-122.4313,"reserved":0,"last_update":"0001-01-01T00:00:00Z","name_a2s":"Uncletopia | San Francisco | 3 | Stopwatch Beta","protocol":17,"map":"pl_borneo","folder":"tf","game":"Team Fortress","app_id":440,"player_count":0,"max_players":24,"Bots":0,"server_type":"Dedicated","server_os":"Linux","password":true,"vac":true,"version":"7961495","steam_id":85568392924742824,"keywords":["nocrits","nodmgspread","payload","uncletopia"],"game_id":440,"stv_port":27036,"stv_name":"Uncletopia | San Francisco | 3 | Stopwatch Beta | STV","players":null},{"server_id":20,"name":"Uncletopia | San Francisco | 4 | Community","name_short":"sfo-4","host":"sfo-1.us.uncletopia.com","port":27045,"enabled":true,"region":"us-west","cc":"us","latitude":37.77397,"longitude":-122.4313,"reserved":0,"last_update":"0001-01-01T00:00:00Z","name_a2s":"Uncletopia | San Francisco | 4 | Community","protocol":17,"map":"koth_viaduct","folder":"tf","game":"Team Fortress","app_id":440,"player_count":0,"max_players":24,"Bots":0,"server_type":"Dedicated","server_os":"Linux","password":true,"vac":true,"version":"7961495","steam_id":85568392924742826,"keywords":["cp","nocrits","nodmgspread","uncletopia"],"game_id":440,"stv_port":27046,"stv_name":"Uncletopia | San Francisco | 4 | Community | STV","players":null},{"server_id":141,"name":"Uncletopia | Sydney | 1 | All Maps","name_short":"syd-1","host":"syd-1.au.uncletopia.com","port":27015,"enabled":true,"region":"au","cc":"au","latitude":-33.865143,"longitude":151.2099,"reserved":0,"last_update":"0001-01-01T00:00:00Z","name_a2s":"Uncletopia | Sydney | 1 | All Maps","protocol":17,"map":"cp_snakewater_final1","folder":"tf","game":"Team Fortress","app_id":440,"player_count":0,"max_players":24,"Bots":0,"server_type":"Dedicated","server_os":"Linux","password":true,"vac":true,"version":"7961495","steam_id":85568392924470001,"keywords":["cp","nocrits","nodmgspread","uncletopia"],"game_id":440,"stv_port":27016,"stv_name":"Uncletopia | Sydney | 1 | All Maps | STV","players":null},{"server_id":123,"name":"Uncletopia | Sydney | 2 | All Maps","name_short":"syd-2","host":"syd-1.au.uncletopia.com","port":27025,"enabled":true,"region":"au","cc":"au","latitude":-33.865143,"longitude":151.2099,"reserved":0,"last_update":"0001-01-01T00:00:00Z","name_a2s":"Uncletopia | Sydney | 2 | All Maps","protocol":17,"map":"pl_snowycoast","folder":"tf","game":"Team Fortress","app_id":440,"player_count":0,"max_players":24,"Bots":0,"server_type":"Dedicated","server_os":"Linux","password":true,"vac":true,"version":"7961495","steam_id":85568392924470002,"keywords":["nocrits","nodmgspread","payload","uncletopia"],"game_id":440,"stv_port":27026,"stv_name":"Uncletopia | Sydney | 2 | All Maps | STV","players":null},{"server_id":395,"name":"Uncletopia | Sydney | 3 | All Maps","name_short":"syd-3","host":"syd-1.au.uncletopia.com","port":27035,"enabled":true,"region":"au","cc":"au","latitude":-33.865143,"longitude":151.2099,"reserved":0,"last_update":"0001-01-01T00:00:00Z","name_a2s":"Uncletopia | Sydney | 3 | All Maps","protocol":17,"map":"cp_dustbowl","folder":"tf","game":"Team Fortress","app_id":440,"player_count":0,"max_players":24,"Bots":0,"server_type":"Dedicated","server_os":"Linux","password":true,"vac":true,"version":"7961495","steam_id":85568392925194467,"keywords":["cp","nocrits","nodmgspread","uncletopia"],"game_id":440,"stv_port":27036,"stv_name":"Uncletopia | Sydney | 3 | All Maps | STV","players":null},{"server_id":396,"name":"Uncletopia | Sydney | 4 | All Maps","name_short":"syd-4","host":"syd-1.au.uncletopia.com","port":27045,"enabled":true,"region":"au","cc":"au","latitude":-33.865143,"longitude":151.2099,"reserved":0,"last_update":"0001-01-01T00:00:00Z","name_a2s":"Uncletopia | Sydney | 4 | All Maps","protocol":17,"map":"cp_dustbowl","folder":"tf","game":"Team Fortress","app_id":440,"player_count":0,"max_players":24,"Bots":0,"server_type":"Dedicated","server_os":"Linux","password":true,"vac":true,"version":"7961495","steam_id":85568392925397958,"keywords":["cp","nocrits","nodmgspread","uncletopia"],"game_id":440,"stv_port":27046,"stv_name":"Uncletopia | Sydney | 4 | All Maps | STV","players":null},{"server_id":58,"name":"Uncletopia | Sydney | 5 | Stopwatch Beta","name_short":"syd-5","host":"syd-1.au.uncletopia.com","port":27055,"enabled":true,"region":"au","cc":"au","latitude":-33.865143,"longitude":151.2099,"reserved":0,"last_update":"0001-01-01T00:00:00Z","name_a2s":"Uncletopia | Sydney | 5 | Stopwatch Beta","protocol":17,"map":"koth_viaduct","folder":"tf","game":"Team Fortress","app_id":440,"player_count":0,"max_players":24,"Bots":0,"server_type":"Dedicated","server_os":"Linux","password":true,"vac":true,"version":"7961495","steam_id":85568392925397959,"keywords":["cp","nocrits","nodmgspread","uncletopia"],"game_id":440,"stv_port":27056,"stv_name":"Uncletopia | Sydney | 5 | Stopwatch Beta | STV","players":null},{"server_id":59,"name":"Uncletopia | Sydney | 6 | Community","name_short":"syd-6","host":"syd-1.au.uncletopia.com","port":27065,"enabled":true,"region":"au","cc":"au","latitude":-33.865143,"longitude":151.2099,"reserved":0,"last_update":"0001-01-01T00:00:00Z","name_a2s":"Uncletopia | Sydney | 6 | Community","protocol":17,"map":"koth_cascade","folder":"tf","game":"Team Fortress","app_id":440,"player_count":0,"max_players":24,"Bots":0,"server_type":"Dedicated","server_os":"Linux","password":true,"vac":true,"version":"7961495","steam_id":85568392925397960,"keywords":["cp","nocrits","nodmgspread","uncletopia"],"game_id":440,"stv_port":27066,"stv_name":"Uncletopia | Sydney | 6 | Community | STV","players":null},{"server_id":49,"name":"Uncletopia | Warsaw | 1 | All Maps","name_short":"waw-1","host":"waw-1.pl.uncletopia.com","port":27015,"enabled":true,"region":"eu","cc":"pl","latitude":52.2297,"longitude":21.017532,"reserved":0,"last_update":"0001-01-01T00:00:00Z","name_a2s":"Uncletopia | Warsaw | 1 | All Maps","protocol":17,"map":"pl_swiftwater_final1","folder":"tf","game":"Team Fortress","app_id":440,"player_count":0,"max_players":24,"Bots":0,"server_type":"Dedicated","server_os":"Linux","password":true,"vac":true,"version":"7961495","steam_id":85568392925397850,"keywords":["nocrits","nodmgspread","payload","uncletopia"],"game_id":440,"stv_port":27016,"stv_name":"Uncletopia | Warsaw | 1 | All Maps | STV","players":null},{"server_id":50,"name":"Uncletopia | Warsaw | 2 | All Maps","name_short":"waw-2","host":"waw-1.pl.uncletopia.com","port":27025,"enabled":true,"region":"eu","cc":"pl","latitude":52.2297,"longitude":21.017532,"reserved":0,"last_update":"0001-01-01T00:00:00Z","name_a2s":"Uncletopia | Warsaw | 2 | All Maps","protocol":17,"map":"koth_cascade","folder":"tf","game":"Team Fortress","app_id":440,"player_count":1,"max_players":24,"Bots":0,"server_type":"Dedicated","server_os":"Linux","password":true,"vac":true,"version":"7961495","steam_id":85568392925397851,"keywords":["cp","nocrits","nodmgspread","uncletopia"],"game_id":440,"stv_port":27026,"stv_name":"Uncletopia | Warsaw | 2 | All Maps | STV","players":[{"user_id":21,"name":"Джекет","steam_id":76561198327897125,"connected_time":316000000000,"state":"active","ping":92}]},{"server_id":51,"name":"Uncletopia | Warsaw | 3 | All Maps","name_short":"waw-3","host":"waw-1.pl.uncletopia.com","port":27035,"enabled":true,"region":"eu","cc":"pl","latitude":52.2297,"longitude":21.017532,"reserved":0,"last_update":"0001-01-01T00:00:00Z","name_a2s":"Uncletopia | Warsaw | 3 | All Maps","protocol":17,"map":"koth_viaduct","folder":"tf","game":"Team Fortress","app_id":440,"player_count":0,"max_players":24,"Bots":0,"server_type":"Dedicated","server_os":"Linux","password":true,"vac":true,"version":"7961495","steam_id":85568392925397852,"keywords":["cp","nocrits","nodmgspread","uncletopia"],"game_id":440,"stv_port":27036,"stv_name":"Uncletopia | Warsaw | 3 | All Maps | STV","players":null},{"server_id":52,"name":"Uncletopia | Warsaw | 4 | All Maps","name_short":"waw-4","host":"waw-1.pl.uncletopia.com","port":27045,"enabled":true,"region":"eu","cc":"pl","latitude":52.2297,"longitude":21.017532,"reserved":0,"last_update":"0001-01-01T00:00:00Z","name_a2s":"Uncletopia | Warsaw | 4 | All Maps","protocol":17,"map":"pl_barnblitz","folder":"tf","game":"Team Fortress","app_id":440,"player_count":0,"max_players":24,"Bots":0,"server_type":"Dedicated","server_os":"Linux","password":true,"vac":true,"version":"7961495","steam_id":85568392925397853,"keywords":["nocrits","nodmgspread","payload","uncletopia"],"game_id":440,"stv_port":27046,"stv_name":"Uncletopia | Warsaw | 4 | All Maps | STV","players":null},{"server_id":53,"name":"Uncletopia | Warsaw | 5 | Stopwatch Beta","name_short":"waw-5","host":"waw-1.pl.uncletopia.com","port":27055,"enabled":true,"region":"eu","cc":"pl","latitude":52.2297,"longitude":21.017532,"reserved":0,"last_update":"0001-01-01T00:00:00Z","name_a2s":"Uncletopia | Warsaw | 5 | Stopwatch Beta","protocol":17,"map":"workshop/pl_badwater_pro_v12.ugc2142942074","folder":"tf","game":"Team Fortress","app_id":440,"player_count":0,"max_players":24,"Bots":0,"server_type":"Dedicated","server_os":"Linux","password":true,"vac":true,"version":"7961495","steam_id":85568392925397854,"keywords":["nocrits","nodmgspread","payload","uncletopia"],"game_id":440,"stv_port":27056,"stv_name":"Uncletopia | Warsaw | 5 | Stopwatch Beta | STV","players":null},{"server_id":54,"name":"Uncletopia | Warsaw | 6 | Community","name_short":"waw-6","host":"waw-1.pl.uncletopia.com","port":27065,"enabled":true,"region":"eu","cc":"pl","latitude":52.2297,"longitude":21.017532,"reserved":0,"last_update":"0001-01-01T00:00:00Z","name_a2s":"Uncletopia | Warsaw | 6 | Community","protocol":17,"map":"workshop/pl_boundary_final1.ugc456799153","folder":"tf","game":"Team Fortress","app_id":440,"player_count":0,"max_players":24,"Bots":0,"server_type":"Dedicated","server_os":"Linux","password":true,"vac":true,"version":"7961495","steam_id":85568392925397856,"keywords":["nocrits","nodmgspread","payload","uncletopia"],"game_id":440,"stv_port":27066,"stv_name":"Uncletopia | Warsaw | 6 | Community | STV","players":null}]}