{"status":true,"message":"","result":[{"server_id":9,"name":"Uncletopia | Atlanta | 1 | All Maps","name_short":"atl-1","host":"atl-1.us.uncletopia.com","port":27015,"enabled":true,"region":"us-east","cc":"us","latitude":33.753746,"longitude":-84.38633,"reserved":0,"last_update":"0001-01-01T00:00:00Z","name_a2s":"Uncletopia | Atlanta | 1 | All Maps","protocol":17,"map":"cp_sunshine","folder":"tf","game":"Team Fortress","app_id":440,"player_count":0,"max_players":24,"Bots":0,"server_type":"Dedicated","server_os":"Linux","password":true,"vac":true,"version":"7708610","steam_id":85568392924469982,"keywords":["cp","nocrits","nodmgspread","uncletopia"],"game_id":440,"stv_port":27016,"stv_name":"Uncletopia | Atlanta | 1 | All Maps | STV","players":null},{"server_id":400,"name":"Uncletopia | Atlanta | 3 | All Maps","name_short":"atl-3","host":"atl-1.us.uncletopia.com","port":27035,"enabled":true,"region":"us-east","cc":"us","latitude":33.753746,"longitude":-84.38633,"reserved":0,"last_update":"0001-01-01T00:00:00Z","name_a2s":"Uncletopia | Atlanta | 3 | All Maps","protocol":17,"map":"plr_bananabay","folder":"tf","game":"Team Fortress","app_id":440,"player_count":0,"max_players":24,"Bots":0,"server_type":"Dedicated","server_os":"Linux","password":true,"vac":true,"version":"7708610","steam_id":85568392924515187,"keywords":["nocrits","nodmgspread","payload","uncletopia"],"game_id":440,"stv_port":27036,"stv_name":"Uncletopia | Atlanta | 3 | All Maps | STV","players":null},{"server_id":401,"name":"Uncletopia | Atlanta | 4 | No Payload","name_short":"atl-4","host":"atl-1.us.uncletopia.com","port":27045,"enabled":true,"region":"us-east","cc":"us","latitude":33.753746,"longitude":-84.38633,"reserved":0,"last_update":"0001-01-01T00:00:00Z","name_a2s":"Uncletopia | Atlanta | 4 | No Payload","protocol":17,"map":"plr_bananabay","folder":"tf","game":"Team Fortress","app_id":440,"player_count":0,"max_players":24,"Bots":0,"server_type":"Dedicated","server_os":"Linux","password":true,"vac":true,"version":"7708610","steam_id":85568392924515188,"keywords":["nocrits","nodmgspread","payload","uncletopia"],"game_id":440,"stv_port":27046,"stv_name":"Uncletopia | Atlanta | 4 | No Payload | STV","players":null},{"server_id":2,"name":"Uncletopia | Chicago | 1 | All Maps","name_short":"chi-1","host":"chi-1.us.uncletopia.com","port":27015,"enabled":true,"region":"us-central","cc":"us","latitude":41.881832,"longitude":-87.62318,"reserved":0,"last_update":"0001-01-01T00:00:00Z","name_a2s":"Uncletopia | Chicago | 1 | All Maps","protocol":17,"map":"pl_barnblitz","folder":"tf","game":"Team Fortress","app_id":440,"player_count":24,"max_players":24,"Bots":0,"server_type":"Dedicated","server_os":"Linux","password":true,"vac":true,"version":"7708610","steam_id":85568392924469984,"keywords":["nocrits","nodmgspread","payload","uncletopia"],"game_id":440,"stv_port":27016,"stv_name":"Uncletopia | Chicago | 1 | All Maps | STV","players":[{"user_id":42,"name":"OneTrueCorvid","steam_id":76561199012953221,"connected_time":938000000000,"state":"active","ping":85},{"user_id":51,"name":"Tink??","steam_id":76561199164166210,"connected_time":364000000000,"state":"active","ping":66},{"user_id":30,"name":"FrostyFrontier","steam_id":76561198370530394,"connected_time":1771000000000,"state":"active","ping":59},{"user_id":10,"name":"Dancing Nuggets","steam_id":76561198307986253,"connected_time":2661000000000,"state":"active","ping":65},{"user_id":54,"name":"jnn","steam_id":76561198078395002,"connected_time":32000000000,"state":"active","ping":61},{"user_id":40,"name":"icecxld","steam_id":76561198079018805,"connected_time":1353000000000,"state":"active","ping":55},{"user_id":16,"name":"extinct111","steam_id":76561199013696367,"connected_time":2201000000000,"state":"active","ping":61},{"user_id":48,"name":"R0cksf0rd7","steam_id":76561198041637759,"connected_time":472000000000,"state":"active","ping":45},{"user_id":20,"name":"McSpazatron","steam_id":76561198955942148,"connected_time":2052000000000,"state":"active","ping":87},{"user_id":21,"name":"ash","steam_id":76561198127890645,"connected_time":2047000000000,"state":"active","ping":82},{"user_id":28,"name":"Mixomin","steam_id":76561198295061570,"connected_time":1828000000000,"state":"active","ping":53},{"user_id":23,"name":"family guy im peter","steam_id":76561199229169396,"connected_time":1951000000000,"state":"active","ping":65},{"user_id":53,"name":"A Hard Boiled Egg","steam_id":76561197979078330,"connected_time":258000000000,"state":"active","ping":62},{"user_id":46,"name":"MadRukx","steam_id":76561198119080922,"connected_time":563000000000,"state":"active","ping":102},{"user_id":43,"name":"JDizzle","steam_id":76561199122696841,"connected_time":769000000000,"state":"active","ping":97},{"user_id":29,"name":"Hex TheGrassMan #SaveTf2","steam_id":76561198016931455,"connected_time":1816000000000,"state":"active","ping":99},{"user_id":52,"name":"Braixen","steam_id":76561198354314389,"connected_time":360000000000,"state":"active","ping":70},{"user_id":32,"name":"fridolin","steam_id":76561198005806915,"connected_time":1746000000000,"state":"active","ping":60},{"user_id":33,"name":"The Animated Gamer","steam_id":76561198120639995,"connected_time":1705000000000,"state":"active","ping":97},{"user_id":49,"name":"Throckmorton","steam_id":76561198083636412,"connected_time":386000000000,"state":"active","ping":71},{"user_id":35,"name":"this world is primal","steam_id":76561198991982630,"connected_time":1634000000000,"state":"active","ping":112},{"user_id":36,"name":"Ros","steam_id":76561199055963822,"connected_time":1627000000000,"state":"active","ping":90},{"user_id":50,"name":"StinkyWinky","steam_id":76561198132849725,"connected_time":380000000000,"state":"active","ping":65},{"user_id":45,"name":"Veirū Viseris","steam_id":76561197989857176,"connected_time":678000000000,"state":"active","ping":157}]},{"server_id":106,"name":"Uncletopia | Chicago | 2 | All Maps","name_short":"chi-2","host":"chi-1.us.uncletopia.com","port":27025,"enabled":true,"region":"us-central","cc":"us","latitude":41.881832,"longitude":-87.62318,"reserved":0,"last_update":"0001-01-01T00:00:00Z","name_a2s":"Uncletopia | Chicago | 2 | All Maps","protocol":17,"map":"plr_bananabay","folder":"tf","game":"Team Fortress","app_id":440,"player_count":10,"max_players":24,"Bots":0,"server_type":"Dedicated","server_os":"Linux","password":true,"vac":true,"version":"7708610","steam_id":85568392924469985,"keywords":["nocrits","nodmgspread","payload","uncletopia"],"game_id":440,"stv_port":27026,"stv_name":"Uncletopia | Chicago | 2 | All Maps | STV","players":[{"user_id":8,"name":"LooseCannon1010","steam_id":76561198201377137,"connected_time":145000000000,"state":"active","ping":57},{"user_id":9,"name":"thob","steam_id":76561199173618294,"connected_time":138000000000,"state":"active","ping":65},{"user_id":10,"name":"Devinish","steam_id":76561198024927243,"connected_time":93000000000,"state":"active","ping":81},{"user_id":11,"name":"Bumbo Blast","steam_id":76561198061498882,"connected_time":88000000000,"state":"active","ping":51},{"user_id":12,"name":"♥ Swiss ♥","steam_id":76561198306966579,"connected_time":57000000000,"state":"active","ping":63},{"user_id":13,"name":"Takumi","steam_id":76561199068407516,"connected_time":53000000000,"state":"active","ping":56},{"user_id":14,"name":"kramer","steam_id":76561198117761965,"connected_time":49000000000,"state":"spawning","ping":87},{"user_id":15,"name":"Demon","steam_id":76561199012192496,"connected_time":38000000000,"state":"active","ping":69},{"user_id":16,"name":"cort","steam_id":76561198087429033,"connected_time":35000000000,"state":"spawning","ping":64},{"user_id":17,"name":"darrettsmithjunior2002","steam_id":76561199033727618,"connected_time":27000000000,"state":"active","ping":70}]},{"server_id":402,"name":"Uncletopia | Chicago | 3 | All Maps","name_short":"chi-3","host":"chi-1.us.uncletopia.com","port":27035,"enabled":true,"region":"us-central","cc":"us","latitude":41.881832,"longitude":-87.62318,"reserved":0,"last_update":"0001-01-01T00:00:00Z","name_a2s":"Uncletopia | Chicago | 3 | All Maps","protocol":17,"map":"cp_process_final","folder":"tf","game":"Team Fortress","app_id":440,"player_count":24,"max_players":24,"Bots":0,"server_type":"Dedicated","server_os":"Linux","password":true,"vac":true,"version":"7708610","steam_id":85568392924515191,"keywords":["cp","nocrits","nodmgspread","uncletopia"],"game_id":440,"stv_port":27036,"stv_name":"Uncletopia | Chicago | 3 | All Maps | STV","players":[{"user_id":104,"name":"BlueZombieBlood","steam_id":76561198123590661,"connected_time":373000000000,"state":"active","ping":112},{"user_id":7,"name":"Dwaggy","steam_id":76561198027369555,"connected_time":8839000000000,"state":"active","ping":70},{"user_id":81,"name":"GREG","steam_id":76561198073021168,"connected_time":2600000000000,"state":"active","ping":66},{"user_id":26,"name":"paj","steam_id":76561198080026026,"connected_time":7664000000000,"state":"active","ping":97},{"user_id":111,"name":"Birds1Ω6","steam_id":76561198819495676,"connected_time":88000000000,"state":"active","ping":98},{"user_id":110,"name":"4ling","steam_id":76561197994398381,"connected_time":146000000000,"state":"active","ping":71},{"user_id":88,"name":"zonemaster95","steam_id":76561198072572032,"connected_time":1955000000000,"state":"active","ping":113},{"user_id":83,"name":"Sgt","steam_id":76561198139818111,"connected_time":2481000000000,"state":"active","ping":51},{"user_id":103,"name":"jenny ☆","steam_id":76561198190106735,"connected_time":510000000000,"state":"active","ping":63},{"user_id":114,"name":"грустный","steam_id":76561198274550638,"connected_time":4000000000,"state":"spawning","ping":67},{"user_id":76,"name":"bonk","steam_id":76561198004823930,"connected_time":3729000000000,"state":"active","ping":55},{"user_id":113,"name":"Laundry","steam_id":76561198106170346,"connected_time":29000000000,"state":"active","ping":60},{"user_id":112,"name":"Riandox","steam_id":76561198130577326,"connected_time":84000000000,"state":"active","ping":63},{"user_id":51,"name":"OKlWONT","steam_id":76561198060328407,"connected_time":5750000000000,"state":"active","ping":71},{"user_id":93,"name":"Amogus The Sussy Baka ඞ","steam_id":76561198008577961,"connected_time":1706000000000,"state":"active","ping":70},{"user_id":60,"name":"THE NUT","steam_id":76561198067813626,"connected_time":4918000000000,"state":"active","ping":94},{"user_id":34,"name":"belugawhalegod322","steam_id":76561198115458307,"connected_time":7407000000000,"state":"active","ping":109},{"user_id":97,"name":"Literally Roxy's Wife Tsuyu","steam_id":76561198175421763,"connected_time":1400000000000,"state":"active","ping":60},{"user_id":95,"name":"apple","steam_id":76561198090531755,"connected_time":1543000000000,"state":"active","ping":72},{"user_id":98,"name":"SomeRandomPerson (F2p)","steam_id":76561198977045933,"connected_time":1382000000000,"state":"active","ping":88},{"user_id":77,"name":"Kitsu ♥","steam_id":76561198091741658,"connected_time":3729000000000,"state":"active","ping":71},{"user_id":96,"name":"Kartyac","steam_id":76561197991069005,"connected_time":1435000000000,"state":"active","ping":86},{"user_id":99,"name":"Habber The Quesomancer","steam_id":76561198049642751,"connected_time":1381000000000,"state":"active","ping":68},{"user_id":109,"name":"Heartz","steam_id":76561198108143973,"connected_time":226000000000,"state":"active","ping":56}]},{"server_id":403,"name":"Uncletopia | Chicago | 4 | All Maps","name_short":"chi-4","host":"chi-1.us.uncletopia.com","port":27045,"enabled":true,"region":"us-central","cc":"us","latitude":41.881832,"longitude":-87.62318,"reserved":0,"last_update":"0001-01-01T00:00:00Z","name_a2s":"Uncletopia | Chicago | 4 | All Maps","protocol":17,"map":"cp_process_final","folder":"tf","game":"Team Fortress","app_id":440,"player_count":0,"max_players":24,"Bots":0,"server_type":"Dedicated","server_os":"Linux","password":true,"vac":true,"version":"7708610","steam_id":85568392924515193,"keywords":["cp","nocrits","nodmgspread","uncletopia"],"game_id":440,"stv_port":27046,"stv_name":"Uncletopia | Chicago | 4 | All Maps | STV","players":null},{"server_id":36,"name":"Uncletopia | Chicago | 5 | All Maps","name_short":"chi-5","host":"chi-2.us.uncletopia.com","port":27015,"enabled":true,"region":"us-central","cc":"us","latitude":41.881832,"longitude":-87.62318,"reserved":0,"last_update":"0001-01-01T00:00:00Z","name_a2s":"Uncletopia | Chicago | 5 | All Maps","protocol":17,"map":"pl_swiftwater_final1","folder":"tf","game":"Team Fortress","app_id":440,"player_count":0,"max_players":24,"Bots":0,"server_type":"Dedicated","server_os":"Linux","password":true,"vac":true,"version":"7708610","steam_id":85568392924866362,"keywords":["nocrits","nodmgspread","payload","uncletopia"],"game_id":440,"stv_port":27016,"stv_name":"Uncletopia | Chicago | 5 | All Maps | STV","players":null},{"server_id":37,"name":"Uncletopia | Chicago | 6 | All Maps","name_short":"chi-6","host":"chi-2.us.uncletopia.com","port":27025,"enabled":true,"region":"us-central","cc":"us","latitude":41.881832,"longitude":-87.62318,"reserved":0,"last_update":"0001-01-01T00:00:00Z","name_a2s":"Uncletopia | Chicago | 6 | All Maps","protocol":17,"map":"pl_swiftwater_final1","folder":"tf","game":"Team Fortress","app_id":440,"player_count":0,"max_players":24,"Bots":0,"server_type":"Dedicated","server_os":"Linux","password":true,"vac":true,"version":"7708610","steam_id":85568392924866363,"keywords":["nocrits","nodmgspread","payload","uncletopia"],"game_id":440,"stv_port":27026,"stv_name":"Uncletopia | Chicago | 6 | All Maps | STV","players":null},{"server_id":38,"name":"Uncletopia | Chicago | 7 | No Payload","name_short":"chi-7","host":"chi-2.us.uncletopia.com","port":27035,"enabled":true,"region":"us-central","cc":"us","latitude":41.881832,"longitude":-87.62318,"reserved":0,"last_update":"0001-01-01T00:00:00Z","name_a2s":"Uncletopia | Chicago | 7 | No Payload","protocol":17,"map":"koth_highpass","folder":"tf","game":"Team Fortress","app_id":440,"player_count":1,"max_players":24,"Bots":0,"server_type":"Dedicated","server_os":"Linux","password":true,"vac":true,"version":"7708610","steam_id":85568392924866364,"keywords":["cp","nocrits","nodmgspread","uncletopia"],"game_id":440,"stv_port":27036,"stv_name":"Uncletopia | Chicago | 7 | No Payload | STV","players":[{"user_id":4,"name":"King_CatLord","steam_id":76561198388739171,"connected_time":582000000000,"state":"active","ping":44}]},{"server_id":39,"name":"Uncletopia | Chicago | 8 | Community","name_short":"chi-8","host":"chi-2.us.uncletopia.com","port":27045,"enabled":true,"region":"us-central","cc":"us","latitude":41.881832,"longitude":-87.62318,"reserved":0,"last_update":"0001-01-01T00:00:00Z","name_a2s":"Uncletopia | Chicago | 8 | Community","protocol":17,"map":"workshop/pl_fifthcurve_rc1.ugc648227046","folder":"tf","game":"Team Fortress","app_id":440,"player_count":0,"max_players":24,"Bots":0,"server_type":"Dedicated","server_os":"Linux","password":true,"vac":true,"version":"7708610","steam_id":85568392924866365,"keywords":["nocrits","nodmgspread","payload","uncletopia"],"game_id":440,"stv_port":27046,"stv_name":"Uncletopia | Chicago | 8 | Community | STV","players":null},{"server_id":8,"name":"Uncletopia | Dallas | 1 | All Maps","name_short":"dal-1","host":"dal-1.us.uncletopia.com","port":27015,"enabled":true,"region":"us-central","cc":"us","latitude":32.779167,"longitude":-96.80889,"reserved":0,"last_update":"0001-01-01T00:00:00Z","name_a2s":"Uncletopia | Dallas | 1 | All Maps","protocol":17,"map":"pl_badwater","folder":"tf","game":"Team Fortress","app_id":440,"player_count":24,"max_players":24,"Bots":0,"server_type":"Dedicated","server_os":"Linux","password":true,"vac":true,"version":"7708610","steam_id":85568392924469986,"keywords":["nocrits","nodmgspread","payload","uncletopia"],"game_id":440,"stv_port":27016,"stv_name":"Uncletopia | Dallas | 1 | All Maps | STV","players":[{"user_id":43,"name":"motherfucker 2.0","steam_id":76561198141189209,"connected_time":1339000000000,"state":"active","ping":36},{"user_id":57,"name":"old man Jenkins","steam_id":76561198375258290,"connected_time":216000000000,"state":"active","ping":62},{"user_id":44,"name":"firetamer2","steam_id":76561198040886980,"connected_time":1333000000000,"state":"active","ping":81},{"user_id":47,"name":"christmas.jimmy.2014","steam_id":76561199177672325,"connected_time":1153000000000,"state":"active","ping":60},{"user_id":53,"name":"Dr. WAH","steam_id":76561198297778149,"connected_time":910000000000,"state":"active","ping":188},{"user_id":36,"name":"static","steam_id":76561199093261935,"connected_time":1534000000000,"state":"active","ping":93},{"user_id":56,"name":"Horizons","steam_id":76561198106417594,"connected_time":230000000000,"state":"active","ping":46},{"user_id":58,"name":"the jolly flying demoman","steam_id":76561198049254621,"connected_time":137000000000,"state":"active","ping":64},{"user_id":54,"name":"radiation","steam_id":76561198001157602,"connected_time":529000000000,"state":"active","ping":62},{"user_id":19,"name":"Tyler\u0026Fingers","steam_id":76561198085154485,"connected_time":2351000000000,"state":"active","ping":87},{"user_id":37,"name":"Zorlovo","steam_id":76561198006443283,"connected_time":1522000000000,"state":"active","ping":70},{"user_id":23,"name":"raduski","steam_id":76561198795699119,"connected_time":2083000000000,"state":"active","ping":75},{"user_id":38,"name":"azzy","steam_id":76561198825918211,"connected_time":1506000000000,"state":"active","ping":205},{"user_id":55,"name":"Nyplestheclown","steam_id":76561198028600291,"connected_time":481000000000,"state":"active","ping":47},{"user_id":26,"name":"deadcalm","steam_id":76561199443781572,"connected_time":2011000000000,"state":"active","ping":80},{"user_id":28,"name":"shut up im watching the TV","steam_id":76561198389068053,"connected_time":1940000000000,"state":"active","ping":53},{"user_id":29,"name":"crippling fumo addiction","steam_id":76561198115874625,"connected_time":1926000000000,"state":"active","ping":80},{"user_id":30,"name":"mac wit the chicken strips","steam_id":76561198257668336,"connected_time":1864000000000,"state":"active","ping":45},{"user_id":31,"name":"clems17","steam_id":76561199420685482,"connected_time":1819000000000,"state":"active","ping":160},{"user_id":34,"name":"Maranata","steam_id":76561198830158092,"connected_time":1674000000000,"state":"active","ping":67},{"user_id":39,"name":"DMM","steam_id":76561198065426171,"connected_time":1504000000000,"state":"active","ping":55},{"user_id":40,"name":"Jammburger","steam_id":76561198091716240,"connected_time":1501000000000,"state":"active","ping":57},{"user_id":41,"name":"Murky the murloc","steam_id":76561198004343439,"connected_time":1491000000000,"state":"active","ping":94},{"user_id":46,"name":"Taska","steam_id":76561198807325888,"connected_time":1181000000000,"state":"active","ping":186}]},{"server_id":108,"name":"Uncletopia | Dallas | 2 | All Maps","name_short":"dal-2","host":"dal-1.us.uncletopia.com","port":27025,"enabled":true,"region":"us-central","cc":"us","latitude":32.779167,"longitude":-96.80889,"reserved":0,"last_update":"0001-01-01T00:00:00Z","name_a2s":"Uncletopia | Dallas | 2 | All Maps","protocol":17,"map":"ctf_well","folder":"tf","game":"Team Fortress","app_id":440,"player_count":0,"max_players":24,"Bots":0,"server_type":"Dedicated","server_os":"Linux","password":true,"vac":true,"version":"7708610","steam_id":85568392924469988,"keywords":["ctf","nocrits","nodmgspread","uncletopia"],"game_id":440,"stv_port":27026,"stv_name":"Uncletopia | Dallas | 2 | All Maps | STV","players":null},{"server_id":5,"name":"Uncletopia | Frankfurt | 1 | All Maps","name_short":"frk-1","host":"frk-1.de.uncletopia.com","port":27015,"enabled":true,"region":"eu","cc":"de","latitude":50.110924,"longitude":8.682127,"reserved":0,"last_update":"0001-01-01T00:00:00Z","name_a2s":"Uncletopia | Frankfurt | 1 | All Maps","protocol":17,"map":"pl_upward","folder":"tf","game":"Team Fortress","app_id":440,"player_count":24,"max_players":24,"Bots":0,"server_type":"Dedicated","server_os":"Linux","password":true,"vac":true,"version":"7708610","steam_id":85568392924469989,"keywords":["nocrits","nodmgspread","payload","uncletopia"],"game_id":440,"stv_port":27016,"stv_name":"Uncletopia | Frankfurt | 1 | All Maps | STV","players":[{"user_id":307,"name":"anairat","steam_id":76561198863788240,"connected_time":2817000000000,"state":"active","ping":82},{"user_id":354,"name":"alfus","steam_id":76561198071003109,"connected_time":174000000000,"state":"active","ping":57},{"user_id":314,"name":"heavy sings (real)","steam_id":76561199023804405,"connected_time":2359000000000,"state":"active","ping":246},{"user_id":348,"name":"Muffin Mcswagot ඞ","steam_id":76561198055394835,"connected_time":940000000000,"state":"active","ping":71},{"user_id":331,"name":"Zigzagzigal","steam_id":76561198025474606,"connected_time":1905000000000,"state":"active","ping":73},{"user_id":346,"name":"3igen3ggy","steam_id":76561197989548015,"connected_time":1011000000000,"state":"active","ping":66},{"user_id":319,"name":"jingleboob","steam_id":76561198097507847,"connected_time":2270000000000,"state":"active","ping":72},{"user_id":351,"name":"Mr. Mundy","steam_id":76561198132008918,"connected_time":801000000000,"state":"active","ping":75},{"user_id":356,"name":"WAAALUIGI ♥","steam_id":76561198142453459,"connected_time":97000000000,"state":"active","ping":53},{"user_id":353,"name":"Pabs :D","steam_id":76561198000016962,"connected_time":259000000000,"state":"active","ping":57},{"user_id":347,"name":"промокашка","steam_id":76561199064297073,"connected_time":1009000000000,"state":"active","ping":137},{"user_id":320,"name":"twitch.tv/biofun_","steam_id":76561198170609049,"connected_time":2257000000000,"state":"active","ping":62},{"user_id":349,"name":"kbbq","steam_id":76561198346638308,"connected_time":934000000000,"state":"active","ping":60},{"user_id":322,"name":"Nick","steam_id":76561198036109469,"connected_time":2186000000000,"state":"active","ping":90},{"user_id":323,"name":"ruby (ribbit)","steam_id":76561198040870467,"connected_time":2177000000000,"state":"active","ping":61},{"user_id":357,"name":"Reloaded","steam_id":76561198814025386,"connected_time":97000000000,"state":"active","ping":73},{"user_id":340,"name":"Hexagon","steam_id":76561198151205758,"connected_time":1412000000000,"state":"active","ping":78},{"user_id":134,"name":"до смерть","steam_id":76561199042470246,"connected_time":14867000000000,"state":"active","ping":59},{"user_id":343,"name":"JP3","steam_id":76561197970963576,"connected_time":1134000000000,"state":"active","ping":64},{"user_id":333,"name":"Good Boy","steam_id":76561198090838017,"connected_time":1901000000000,"state":"active","ping":48},{"user_id":338,"name":"Fat Pigeon","steam_id":76561198817940142,"connected_time":1548000000000,"state":"active","ping":52},{"user_id":135,"name":"nuclear winter","steam_id":76561198189686075,"connected_time":14859000000000,"state":"active","ping":59},{"user_id":291,"name":"DeCypher","steam_id":76561198171992619,"connected_time":3910000000000,"state":"active","ping":67},{"user_id":344,"name":"Krokinet","steam_id":76561198985877252,"connected_time":1115000000000,"state":"active","ping":106}]},{"server_id":110,"name":"Uncletopia | Frankfurt | 2 | All Maps","name_short":"frk-2","host":"frk-1.de.uncletopia.com","port":27025,"enabled":true,"region":"eu","cc":"de","latitude":50.110924,"longitude":8.682127,"reserved":0,"last_update":"0001-01-01T00:00:00Z","name_a2s":"Uncletopia | Frankfurt | 2 | All Maps","protocol":17,"map":"pl_frontier_final","folder":"tf","game":"Team Fortress","app_id":440,"player_count":24,"max_players":24,"Bots":0,"server_type":"Dedicated","server_os":"Linux","password":true,"vac":true,"version":"7708610","steam_id":85568392924469990,"keywords":["nocrits","nodmgspread","payload","uncletopia"],"game_id":440,"stv_port":27026,"stv_name":"Uncletopia | Frankfurt | 2 | All Maps | STV","players":[{"user_id":329,"name":"tallen","steam_id":76561198061708595,"connected_time":1346000000000,"state":"active","ping":75},{"user_id":318,"name":"Cantaloaf","steam_id":76561198222164132,"connected_time":1658000000000,"state":"active","ping":180},{"user_id":334,"name":"coin dexter","steam_id":76561198092376975,"connected_time":1287000000000,"state":"active","ping":46},{"user_id":346,"name":"Hugz","steam_id":76561198069572147,"connected_time":368000000000,"state":"active","ping":54},{"user_id":313,"name":"Der Herr Doktor","steam_id":76561198119476089,"connected_time":2130000000000,"state":"active","ping":59},{"user_id":319,"name":"bMG morlo^","steam_id":76561198249301650,"connected_time":1630000000000,"state":"active","ping":44},{"user_id":342,"name":"linkinparkfan123","steam_id":76561199033782005,"connected_time":535000000000,"state":"active","ping":95},{"user_id":241,"name":"AFon","steam_id":76561198080783287,"connected_time":6988000000000,"state":"active","ping":92},{"user_id":321,"name":"food","steam_id":76561198308341534,"connected_time":1616000000000,"state":"active","ping":60},{"user_id":337,"name":"Vollys","steam_id":76561198018077773,"connected_time":1141000000000,"state":"active","ping":50},{"user_id":311,"name":"Maxwell Gaming","steam_id":76561199114568070,"connected_time":2611000000000,"state":"active","ping":90},{"user_id":322,"name":"bMG || i eat sex","steam_id":76561198369335263,"connected_time":1598000000000,"state":"active","ping":49},{"user_id":323,"name":"ff:ff:ff:ff:ff:ff","steam_id":76561198072122983,"connected_time":1593000000000,"state":"active","ping":65},{"user_id":343,"name":"dassasinb","steam_id":76561198128316186,"connected_time":468000000000,"state":"active","ping":56},{"user_id":345,"name":"syndenz","steam_id":76561198176063813,"connected_time":382000000000,"state":"active","ping":61},{"user_id":341,"name":"pizza time","steam_id":76561199015899793,"connected_time":978000000000,"state":"active","ping":59},{"user_id":348,"name":"grand autismo","steam_id":76561199074305227,"connected_time":241000000000,"state":"active","ping":75},{"user_id":333,"name":"g","steam_id":76561198033524151,"connected_time":1313000000000,"state":"active","ping":53},{"user_id":347,"name":"Coach","steam_id":76561198090835995,"connected_time":281000000000,"state":"active","ping":71},{"user_id":326,"name":"Mari Christmas","steam_id":76561197997020707,"connected_time":1555000000000,"state":"active","ping":63},{"user_id":344,"name":"Layton","steam_id":76561198087221314,"connected_time":400000000000,"state":"active","ping":46},{"user_id":340,"name":"Kötta","steam_id":76561198048588521,"connected_time":1047000000000,"state":"active","ping":92},{"user_id":336,"name":"panakid","steam_id":76561198364121077,"connected_time":1159000000000,"state":"active","ping":93},{"user_id":316,"name":"a mild inconvenience","steam_id":76561199087055541,"connected_time":1725000000000,"state":"active","ping":96}]},{"server_id":308,"name":"Uncletopia | Frankfurt | 3 | All Maps","name_short":"frk-3","host":"frk-1.de.uncletopia.com","port":27035,"enabled":true,"region":"eu","cc":"de","latitude":50.110924,"longitude":8.682127,"reserved":0,"last_update":"0001-01-01T00:00:00Z","name_a2s":"Uncletopia | Frankfurt | 3 | All Maps","protocol":17,"map":"cp_fastlane","folder":"tf","game":"Team Fortress","app_id":440,"player_count":24,"max_players":24,"Bots":0,"server_type":"Dedicated","server_os":"Linux","password":true,"vac":true,"version":"7708610","steam_id":85568392924504274,"keywords":["cp","nocrits","nodmgspread","uncletopia"],"game_id":440,"stv_port":27036,"stv_name":"Uncletopia | Frankfurt | 3 | All Maps | STV","players":[{"user_id":161,"name":"MagicTITIKAKA","steam_id":76561198129509548,"connected_time":1703000000000,"state":"active","ping":112},{"user_id":177,"name":"relaxtionfuel","steam_id":76561198868673990,"connected_time":203000000000,"state":"active","ping":182},{"user_id":157,"name":"Alain de l'ombre","steam_id":76561198037938833,"connected_time":1909000000000,"state":"active","ping":58},{"user_id":151,"name":"JC","steam_id":76561198029213352,"connected_time":2390000000000,"state":"active","ping":45},{"user_id":59,"name":"Big Gamer (real)","steam_id":76561198160114532,"connected_time":7386000000000,"state":"active","ping":46},{"user_id":176,"name":"Skyfoogle","steam_id":76561198027177883,"connected_time":564000000000,"state":"active","ping":64},{"user_id":179,"name":"Minimi","steam_id":76561198873850443,"connected_time":105000000000,"state":"active","ping":51},{"user_id":162,"name":"tshirt","steam_id":76561198040757844,"connected_time":1571000000000,"state":"active","ping":75},{"user_id":180,"name":"yamikari (f2p)","steam_id":76561198892167960,"connected_time":77000000000,"state":"active","ping":60},{"user_id":122,"name":"walpurgis","steam_id":76561199117720299,"connected_time":4417000000000,"state":"active","ping":59},{"user_id":150,"name":"Ennard777","steam_id":76561198965409493,"connected_time":2730000000000,"state":"active","ping":98},{"user_id":146,"name":"Heninem","steam_id":76561197998252354,"connected_time":2982000000000,"state":"active","ping":58},{"user_id":175,"name":"卄乇几ㄒ卂丨 爪卂几 \ufffd\ufffd","steam_id":76561198059281585,"connected_time":789000000000,"state":"active","ping":88},{"user_id":154,"name":"BitToBot","steam_id":76561198124080817,"connected_time":2159000000000,"state":"active","ping":55},{"user_id":167,"name":"2D","steam_id":76561199113659141,"connected_time":1019000000000,"state":"active","ping":120},{"user_id":166,"name":"UwU","steam_id":76561198895433462,"connected_time":1028000000000,"state":"active","ping":68},{"user_id":178,"name":"Господин Морфий","steam_id":76561199181848818,"connected_time":178000000000,"state":"active","ping":103},{"user_id":79,"name":"'_'","steam_id":76561198120264459,"connected_time":6265000000000,"state":"active","ping":61},{"user_id":168,"name":"assassin","steam_id":76561199016050401,"connected_time":995000000000,"state":"active","ping":135},{"user_id":169,"name":"DailyCage","steam_id":76561198013580622,"connected_time":988000000000,"state":"active","ping":115},{"user_id":173,"name":"syla8215","steam_id":76561199007869949,"connected_time":950000000000,"state":"active","ping":64},{"user_id":171,"name":"nifeking_34","steam_id":76561198069610704,"connected_time":973000000000,"state":"active","ping":82},{"user_id":132,"name":"Optimist 50","steam_id":76561198039631442,"connected_time":3373000000000,"state":"active","ping":77},{"user_id":172,"name":"Big Boss","steam_id":76561198419293827,"connected_time":967000000000,"state":"active","ping":90}]},{"server_id":309,"name":"Uncletopia | Frankfurt | 4 | All Maps","name_short":"frk-4","host":"frk-1.de.uncletopia.com","port":27045,"enabled":true,"region":"eu","cc":"de","latitude":50.110924,"longitude":8.682127,"reserved":0,"last_update":"0001-01-01T00:00:00Z","name_a2s":"Uncletopia | Frankfurt | 4 | All Maps","protocol":17,"map":"pl_frontier_final","folder":"tf","game":"Team Fortress","app_id":440,"player_count":23,"max_players":24,"Bots":0,"server_type":"Dedicated","server_os":"Linux","password":true,"vac":true,"version":"7708610","steam_id":85568392924504275,"keywords":["nocrits","nodmgspread","payload","uncletopia"],"game_id":440,"stv_port":27046,"stv_name":"Uncletopia | Frankfurt | 4 | All Maps | STV","players":[{"user_id":214,"name":"Plop_","steam_id":76561198112567921,"connected_time":2552000000000,"state":"active","ping":46},{"user_id":238,"name":"fisch","steam_id":76561198382833003,"connected_time":1476000000000,"state":"active","ping":59},{"user_id":260,"name":"Hooggers","steam_id":76561198120447741,"connected_time":212000000000,"state":"active","ping":89},{"user_id":256,"name":"Echhin","steam_id":76561198048715382,"connected_time":404000000000,"state":"active","ping":119},{"user_id":228,"name":"Dzieciol","steam_id":76561198160237556,"connected_time":2121000000000,"state":"active","ping":60},{"user_id":243,"name":"Whoopi Goldberg","steam_id":76561199378865926,"connected_time":1365000000000,"state":"active","ping":81},{"user_id":262,"name":"Combat Wombat","steam_id":76561197994720068,"connected_time":75000000000,"state":"active","ping":65},{"user_id":254,"name":"?","steam_id":76561199114927025,"connected_time":858000000000,"state":"active","ping":112},{"user_id":255,"name":"Zane","steam_id":76561199046185361,"connected_time":842000000000,"state":"active","ping":78},{"user_id":258,"name":"Cirox","steam_id":76561198383142404,"connected_time":292000000000,"state":"active","ping":83},{"user_id":245,"name":"WhenSheSuccinUrNuts AndUaGangst","steam_id":76561199063168110,"connected_time":1361000000000,"state":"active","ping":116},{"user_id":227,"name":"Vanny","steam_id":76561198297961039,"connected_time":2146000000000,"state":"active","ping":162},{"user_id":193,"name":"ÃNVS DRÃNVS","steam_id":76561198138733015,"connected_time":3544000000000,"state":"active","ping":105},{"user_id":216,"name":"Furkan","steam_id":76561198175613166,"connected_time":2518000000000,"state":"active","ping":105},{"user_id":224,"name":"YV","steam_id":76561198147868242,"connected_time":2364000000000,"state":"active","ping":56},{"user_id":184,"name":"We are in a world of magic","steam_id":76561198104745492,"connected_time":4170000000000,"state":"active","ping":63},{"user_id":208,"name":"cosmetical","steam_id":76561198444036574,"connected_time":2965000000000,"state":"active","ping":72},{"user_id":246,"name":"lilsnek","steam_id":76561198378830443,"connected_time":1342000000000,"state":"active","ping":79},{"user_id":219,"name":"Genesis","steam_id":76561198330049859,"connected_time":2480000000000,"state":"active","ping":72},{"user_id":188,"name":"Hoks","steam_id":76561198126442242,"connected_time":4150000000000,"state":"active","ping":120},{"user_id":247,"name":"dotdotdot","steam_id":76561198057628751,"connected_time":1341000000000,"state":"active","ping":60},{"user_id":248,"name":"concussion gaming","steam_id":76561198425494530,"connected_time":1336000000000,"state":"active","ping":111},{"user_id":249,"name":"0","steam_id":76561198335304615,"connected_time":1335000000000,"state":"active","ping":75}]},{"server_id":310,"name":"Uncletopia | Frankfurt | 5 | All Maps","name_short":"frk-5","host":"frk-1.de.uncletopia.com","port":27055,"enabled":true,"region":"eu","cc":"de","latitude":50.110924,"longitude":8.682127,"reserved":0,"last_update":"0001-01-01T00:00:00Z","name_a2s":"Uncletopia | Frankfurt | 5 | All Maps","protocol":17,"map":"pl_badwater","folder":"tf","game":"Team Fortress","app_id":440,"player_count":24,"max_players":24,"Bots":0,"server_type":"Dedicated","server_os":"Linux","password":true,"vac":true,"version":"7708610","steam_id":85568392924504277,"keywords":["nocrits","nodmgspread","payload","uncletopia"],"game_id":440,"stv_port":27056,"stv_name":"Uncletopia | Frankfurt | 5 | All Maps | STV","players":[{"user_id":150,"name":"Ilsagar","steam_id":76561198182957762,"connected_time":473000000000,"state":"active","ping":106},{"user_id":153,"name":"norespectforthedevil","steam_id":76561197998922218,"connected_time":32000000000,"state":"spawning","ping":288},{"user_id":140,"name":"ViktorYoshi","steam_id":76561199157555246,"connected_time":1275000000000,"state":"active","ping":71},{"user_id":124,"name":"wxyz kapıcı izzet","steam_id":76561198241873438,"connected_time":1878000000000,"state":"active","ping":90},{"user_id":154,"name":"HeloOo_per The Communist","steam_id":76561199099995357,"connected_time":6000000000,"state":"spawning","ping":82},{"user_id":139,"name":"[TMT] ZombieJezus","steam_id":76561198249338110,"connected_time":1499000000000,"state":"active","ping":51},{"user_id":129,"name":"hushhx","steam_id":76561198216200092,"connected_time":1723000000000,"state":"active","ping":60},{"user_id":112,"name":"Noob_with_source","steam_id":76561198870362103,"connected_time":3016000000000,"state":"active","ping":60},{"user_id":98,"name":"Chris","steam_id":76561199443600515,"connected_time":3528000000000,"state":"active","ping":63},{"user_id":152,"name":"Empyrean","steam_id":76561198138552502,"connected_time":273000000000,"state":"active","ping":71},{"user_id":130,"name":"reho-iwnw","steam_id":76561198348062373,"connected_time":1722000000000,"state":"active","ping":82},{"user_id":131,"name":"Tel Ltd.","steam_id":76561198045137670,"connected_time":1721000000000,"state":"active","ping":59},{"user_id":119,"name":"Cardbrige","steam_id":76561198294453886,"connected_time":2578000000000,"state":"spawning","ping":343},{"user_id":101,"name":"Ross from F.R.I.E.N.D.S.","steam_id":76561198008511665,"connected_time":3483000000000,"state":"active","ping":64},{"user_id":86,"name":"I love minorities","steam_id":76561199083148582,"connected_time":4262000000000,"state":"active","ping":67},{"user_id":87,"name":"The Wolf Leader","steam_id":76561198038007462,"connected_time":4182000000000,"state":"active","ping":61},{"user_id":144,"name":"Wujek Cacek","steam_id":76561198010267943,"connected_time":893000000000,"state":"active","ping":69},{"user_id":145,"name":"Signor_UpB","steam_id":76561199145637231,"connected_time":638000000000,"state":"active","ping":163},{"user_id":121,"name":"Kurage","steam_id":76561198021221288,"connected_time":2217000000000,"state":"active","ping":62},{"user_id":113,"name":"KingPotatoChips","steam_id":76561198035156465,"connected_time":2955000000000,"state":"active","ping":53},{"user_id":104,"name":"CaptainAwesome","steam_id":76561198030377233,"connected_time":3380000000000,"state":"active","ping":193},{"user_id":135,"name":"NikyuuVl","steam_id":76561198159506454,"connected_time":1585000000000,"state":"active","ping":69},{"user_id":142,"name":"it just ain't fair","steam_id":76561198418538887,"connected_time":1147000000000,"state":"active","ping":98},{"user_id":149,"name":"Bastard'Nick","steam_id":76561198044044651,"connected_time":521000000000,"state":"active","ping":71}]},{"server_id":311,"name":"Uncletopia | Frankfurt | 6 | All Maps","name_short":"frk-6","host":"frk-1.de.uncletopia.com","port":27065,"enabled":true,"region":"eu","cc":"de","latitude":50.110924,"longitude":8.682127,"reserved":0,"last_update":"0001-01-01T00:00:00Z","name_a2s":"Uncletopia | Frankfurt | 6 | All Maps","protocol":17,"map":"koth_viaduct","folder":"tf","game":"Team Fortress","app_id":440,"player_count":0,"max_players":24,"Bots":0,"server_type":"Dedicated","server_os":"Linux","password":true,"vac":true,"version":"7708610","steam_id":85568392924504278,"keywords":["cp","nocrits","nodmgspread","uncletopia"],"game_id":440,"stv_port":27066,"stv_name":"Uncletopia | Frankfurt | 6 | All Maps | STV","players":null},{"server_id":23,"name":"Uncletopia | Frankfurt | 7 | No Payload","name_short":"frk-7","host":"frk-1.de.uncletopia.com","port":27075,"enabled":true,"region":"eu","cc":"de","latitude":50.110924,"longitude":8.682127,"reserved":0,"last_update":"0001-01-01T00:00:00Z","name_a2s":"Uncletopia | Frankfurt | 7 | No Payload","protocol":17,"map":"koth_viaduct","folder":"tf","game":"Team Fortress","app_id":440,"player_count":0,"max_players":24,"Bots":0,"server_type":"Dedicated","server_os":"Linux","password":true,"vac":true,"version":"7708610","steam_id":85568392924742827,"keywords":["cp","nocrits","nodmgspread","uncletopia"],"game_id":440,"stv_port":27076,"stv_name":"Uncletopia | Frankfurt | 7 | No Payload | STV","players":null},{"server_id":24,"name":"Uncletopia | Frankfurt | 8 | Community","name_short":"frk-8","host":"frk-1.de.uncletopia.com","port":27085,"enabled":true,"region":"eu","cc":"de","latitude":50.110924,"longitude":8.682127,"reserved":0,"last_update":"0001-01-01T00:00:00Z","name_a2s":"Uncletopia | Frankfurt | 8 | Community","protocol":17,"map":"workshop/cp_overgrown_rc7b.ugc503939302","folder":"tf","game":"Team Fortress","app_id":440,"player_count":24,"max_players":24,"Bots":0,"server_type":"Dedicated","server_os":"Linux","password":true,"vac":true,"version":"7708610","steam_id":85568392924742828,"keywords":["cp","nocrits","nodmgspread","uncletopia"],"game_id":440,"stv_port":27086,"stv_name":"Uncletopia | Frankfurt | 8 | Community | STV","players":[{"user_id":404,"name":"Dummy","steam_id":76561198349741126,"connected_time":287000000000,"state":"active","ping":75},{"user_id":399,"name":"Irbynx","steam_id":76561197980421195,"connected_time":551000000000,"state":"active","ping":86},{"user_id":388,"name":"Frenchie","steam_id":76561198178298931,"connected_time":1246000000000,"state":"active","ping":47},{"user_id":375,"name":"soccerlava67","steam_id":76561198084174868,"connected_time":1785000000000,"state":"active","ping":57},{"user_id":387,"name":"CampMaster49","steam_id":76561198353096926,"connected_time":1361000000000,"state":"active","ping":79},{"user_id":392,"name":"ZazyLou_","steam_id":76561198411134617,"connected_time":823000000000,"state":"active","ping":65},{"user_id":403,"name":"Astyloblatta","steam_id":76561199222909666,"connected_time":336000000000,"state":"active","ping":60},{"user_id":374,"name":"RikyBiky","steam_id":76561198261545177,"connected_time":1831000000000,"state":"active","ping":70},{"user_id":391,"name":"JohkupohkuXD","steam_id":76561198391108762,"connected_time":925000000000,"state":"active","ping":82},{"user_id":405,"name":"round object","steam_id":76561198136239861,"connected_time":285000000000,"state":"active","ping":61},{"user_id":406,"name":"gart","steam_id":76561198203394358,"connected_time":276000000000,"state":"active","ping":110},{"user_id":401,"name":"Yate","steam_id":76561198063141490,"connected_time":458000000000,"state":"active","ping":73},{"user_id":390,"name":"Yoggen","steam_id":76561198048785962,"connected_time":1237000000000,"state":"active","ping":65},{"user_id":294,"name":"mikey","steam_id":76561198281694064,"connected_time":6348000000000,"state":"active","ping":83},{"user_id":407,"name":"Car Gear","steam_id":76561199183213205,"connected_time":245000000000,"state":"active","ping":86},{"user_id":291,"name":"☣Strale☣","steam_id":76561198026578820,"connected_time":6408000000000,"state":"active","ping":69},{"user_id":409,"name":"Nut Master","steam_id":76561198865371617,"connected_time":127000000000,"state":"active","ping":65},{"user_id":292,"name":"Fireeagle711","steam_id":76561198146687146,"connected_time":6397000000000,"state":"active","ping":56},{"user_id":397,"name":"kret","steam_id":76561198435353837,"connected_time":670000000000,"state":"active","ping":51},{"user_id":369,"name":"Warpzel65","steam_id":76561198799303596,"connected_time":2107000000000,"state":"active","ping":103},{"user_id":382,"name":"...","steam_id":76561198969234594,"connected_time":1639000000000,"state":"active","ping":64},{"user_id":402,"name":"Arizona Ranger","steam_id":76561198859118707,"connected_time":436000000000,"state":"active","ping":63},{"user_id":356,"name":"idfk","steam_id":76561199013486916,"connected_time":2554000000000,"state":"active","ping":100},{"user_id":384,"name":"seap","steam_id":76561198068054530,"connected_time":1600000000000,"state":"active","ping":90}]},{"server_id":202,"name":"Uncletopia | Hong Kong | 1 | All Maps","name_short":"hgk-1","host":"hgk-1.hk.uncletopia.com","port":27015,"enabled":true,"region":"asia","cc":"hk","latitude":22.302711,"longitude":114.177216,"reserved":0,"last_update":"0001-01-01T00:00:00Z","name_a2s":"Uncletopia | Hong Kong | 1 | All Maps","protocol":17,"map":"pl_borneo","folder":"tf","game":"Team Fortress","app_id":440,"player_count":24,"max_players":24,"Bots":0,"server_type":"Dedicated","server_os":"Linux","password":true,"vac":true,"version":"7708610","steam_id":85568392924494504,"keywords":["nocrits","nodmgspread","payload","uncletopia"],"game_id":440,"stv_port":27016,"stv_name":"Uncletopia | Hong Kong | 1 | All Maps | STV","players":[{"user_id":389,"name":"rachel","steam_id":76561198057200043,"connected_time":1591000000000,"state":"active","ping":84},{"user_id":391,"name":"NOMNOM","steam_id":76561199228203619,"connected_time":1316000000000,"state":"active","ping":62},{"user_id":332,"name":"tiden2000","steam_id":76561198092969425,"connected_time":5356000000000,"state":"active","ping":73},{"user_id":381,"name":"calebisjk","steam_id":76561198380010286,"connected_time":2000000000000,"state":"active","ping":56},{"user_id":371,"name":"instant karma","steam_id":76561198027307933,"connected_time":2832000000000,"state":"active","ping":48},{"user_id":372,"name":"Kawaii Koneko-chan","steam_id":76561198057662510,"connected_time":2722000000000,"state":"active","ping":90},{"user_id":403,"name":"acesty","steam_id":76561197963303514,"connected_time":333000000000,"state":"active","ping":56},{"user_id":397,"name":"skypot","steam_id":76561198073840014,"connected_time":971000000000,"state":"active","ping":83},{"user_id":396,"name":"IDontLaunder","steam_id":76561199103223706,"connected_time":1118000000000,"state":"active","ping":177},{"user_id":398,"name":"domjni","steam_id":76561198287931508,"connected_time":908000000000,"state":"active","ping":60},{"user_id":334,"name":"Luye","steam_id":76561198811403379,"connected_time":5308000000000,"state":"active","ping":98},{"user_id":373,"name":"scrumpy","steam_id":76561198242319638,"connected_time":2689000000000,"state":"active","ping":56},{"user_id":383,"name":"mosqito","steam_id":76561198195487041,"connected_time":1878000000000,"state":"active","ping":80},{"user_id":308,"name":"NathellaBoi","steam_id":76561198093299560,"connected_time":6595000000000,"state":"active","ping":72},{"user_id":399,"name":"krasmas","steam_id":76561198378829574,"connected_time":884000000000,"state":"active","ping":52},{"user_id":329,"name":"Yes'Tir'Day","steam_id":76561198091798037,"connected_time":5720000000000,"state":"active","ping":100},{"user_id":401,"name":"Hallucates","steam_id":76561198872636453,"connected_time":748000000000,"state":"active","ping":100},{"user_id":402,"name":"diss","steam_id":76561199085668965,"connected_time":367000000000,"state":"active","ping":65},{"user_id":395,"name":"Col_Gate","steam_id":76561198115459326,"connected_time":1199000000000,"state":"active","ping":64},{"user_id":404,"name":"brizzard","steam_id":76561198048438653,"connected_time":331000000000,"state":"active","ping":50},{"user_id":405,"name":"Caelum","steam_id":76561198094074693,"connected_time":281000000000,"state":"active","ping":85},{"user_id":331,"name":"AmaiToxic","steam_id":76561199122491157,"connected_time":5560000000000,"state":"active","ping":66},{"user_id":363,"name":"lk❆","steam_id":76561199077602424,"connected_time":3393000000000,"state":"active","ping":61},{"user_id":406,"name":"Century Gun","steam_id":76561199158560796,"connected_time":280000000000,"state":"active","ping":58}]},{"server_id":1,"name":"Uncletopia | Los Angeles | 1 | All Maps","name_short":"lax-1","host":"lax-1.us.uncletopia.com","port":27015,"enabled":true,"region":"us-west","cc":"us","latitude":33.94279,"longitude":-118.41004,"reserved":0,"last_update":"0001-01-01T00:00:00Z","name_a2s":"Uncletopia | Los Angeles | 1 | All Maps","protocol":17,"map":"cp_snakewater_final1","folder":"tf","game":"Team Fortress","app_id":440,"player_count":0,"max_players":24,"Bots":0,"server_type":"Dedicated","server_os":"Linux","password":true,"vac":true,"version":"7708610","steam_id":85568392924469991,"keywords":["cp","nocrits","nodmgspread","uncletopia"],"game_id":440,"stv_port":27016,"stv_name":"Uncletopia | Los Angeles | 1 | All Maps | STV","players":null},{"server_id":112,"name":"Uncletopia | Los Angeles | 2 | All Maps","name_short":"lax-2","host":"lax-1.us.uncletopia.com","port":27025,"enabled":true,"region":"us-west","cc":"us","latitude":33.94279,"longitude":-118.41004,"reserved":0,"last_update":"0001-01-01T00:00:00Z","name_a2s":"Uncletopia | Los Angeles | 2 | All Maps","protocol":17,"map":"cp_snakewater_final1","folder":"tf","game":"Team Fortress","app_id":440,"player_count":0,"max_players":24,"Bots":0,"server_type":"Dedicated","server_os":"Linux","password":true,"vac":true,"version":"7708610","steam_id":85568392924469992,"keywords":["cp","nocrits","nodmgspread","uncletopia"],"game_id":440,"stv_port":27026,"stv_name":"Uncletopia | Los Angeles | 2 | All Maps | STV","players":null},{"server_id":324,"name":"Uncletopia | Los Angeles | 3 | All Maps","name_short":"lax-3","host":"lax-1.us.uncletopia.com","port":27035,"enabled":true,"region":"us-west","cc":"us","latitude":33.94279,"longitude":-118.41004,"reserved":0,"last_update":"0001-01-01T00:00:00Z","name_a2s":"Uncletopia | Los Angeles | 3 | All Maps","protocol":17,"map":"cp_mountainlab","folder":"tf","game":"Team Fortress","app_id":440,"player_count":0,"max_players":24,"Bots":0,"server_type":"Dedicated","server_os":"Linux","password":true,"vac":true,"version":"7708610","steam_id":85568392924510198,"keywords":["cp","nocrits","nodmgspread","uncletopia"],"game_id":440,"stv_port":27036,"stv_name":"Uncletopia | Los Angeles | 3 | All Maps | STV","players":null},{"server_id":25,"name":"Uncletopia | Los Angeles | 4 | No Payload","name_short":"lax-4","host":"lax-1.us.uncletopia.com","port":27045,"enabled":true,"region":"us-west","cc":"us","latitude":33.94279,"longitude":-118.41004,"reserved":0,"last_update":"0001-01-01T00:00:00Z","name_a2s":"Uncletopia | Los Angeles | 4 | No Payload","protocol":17,"map":"pl_swiftwater_final1","folder":"tf","game":"Team Fortress","app_id":440,"player_count":0,"max_players":24,"Bots":0,"server_type":"Dedicated","server_os":"Linux","password":true,"vac":true,"version":"7708610","steam_id":85568392924510199,"keywords":["nocrits","nodmgspread","payload","uncletopia"],"game_id":440,"stv_port":27046,"stv_name":"Uncletopia | Los Angeles | 4 | No Payload | STV","players":null},{"server_id":11,"name":"Uncletopia | London | 1 | All Maps","name_short":"lon-1","host":"lon-1.uk.uncletopia.com","port":27015,"enabled":true,"region":"eu","cc":"gb","latitude":51.509865,"longitude":-0.118092,"reserved":0,"last_update":"0001-01-01T00:00:00Z","name_a2s":"Uncletopia | London | 1 | All Maps","protocol":17,"map":"pl_barnblitz","folder":"tf","game":"Team Fortress","app_id":440,"player_count":21,"max_players":24,"Bots":0,"server_type":"Dedicated","server_os":"Linux","password":true,"vac":true,"version":"7708610","steam_id":85568392924367362,"keywords":["nocrits","nodmgspread","payload","uncletopia"],"game_id":440,"stv_port":27016,"stv_name":"Uncletopia | London | 1 | All Maps | STV","players":[{"user_id":406,"name":"Festive Maya","steam_id":76561198128616615,"connected_time":7000000000,"state":"spawning","ping":81},{"user_id":346,"name":"ӋԼן.maS","steam_id":76561198114953928,"connected_time":3882000000000,"state":"active","ping":74},{"user_id":303,"name":"jan-anne-wiebe","steam_id":76561199077022985,"connected_time":7209000000000,"state":"active","ping":57},{"user_id":407,"name":"Happygamer","steam_id":76561198309248699,"connected_time":4000000000,"state":"spawning","ping":56},{"user_id":400,"name":"pizza pasta (the boxer)","steam_id":76561198106455841,"connected_time":781000000000,"state":"active","ping":71},{"user_id":361,"name":"Gideon","steam_id":76561198045132575,"connected_time":3293000000000,"state":"active","ping":36},{"user_id":401,"name":"Kareem","steam_id":76561198364462049,"connected_time":771000000000,"state":"active","ping":99},{"user_id":403,"name":"DropShot","steam_id":76561198042476724,"connected_time":326000000000,"state":"active","ping":73},{"user_id":391,"name":"Mr. Huntsman","steam_id":76561197981910397,"connected_time":1617000000000,"state":"active","ping":60},{"user_id":408,"name":"Dlaf'rferg (she/her)","steam_id":76561198284744735,"connected_time":2000000000,"state":"spawning","ping":114},{"user_id":383,"name":"KPhii","steam_id":76561198970587061,"connected_time":1799000000000,"state":"active","ping":63},{"user_id":348,"name":"Blink","steam_id":76561198144033005,"connected_time":3877000000000,"state":"active","ping":50},{"user_id":389,"name":"sumweeb","steam_id":76561198311624395,"connected_time":1761000000000,"state":"active","ping":34},{"user_id":393,"name":"Table","steam_id":76561198091145295,"connected_time":1418000000000,"state":"active","ping":104},{"user_id":365,"name":"More abs then ribs","steam_id":76561198060143998,"connected_time":3208000000000,"state":"active","ping":44},{"user_id":404,"name":"AWP Bodyshot :) ❤","steam_id":76561198029928533,"connected_time":272000000000,"state":"active","ping":59},{"user_id":370,"name":"The creator of sex","steam_id":76561199213901239,"connected_time":2876000000000,"state":"active","ping":43},{"user_id":388,"name":"fuzzymanboob12321","steam_id":76561199068951322,"connected_time":1774000000000,"state":"active","ping":84},{"user_id":344,"name":"Johnny Boy","steam_id":76561197969525453,"connected_time":4023000000000,"state":"active","ping":53},{"user_id":405,"name":"FizzyPug","steam_id":76561198131449652,"connected_time":269000000000,"state":"active","ping":21},{"user_id":399,"name":"Dingus","steam_id":76561198140514058,"connected_time":807000000000,"state":"active","ping":38}]},{"server_id":114,"name":"Uncletopia | London | 2 | All Maps","name_short":"lon-2","host":"lon-1.uk.uncletopia.com","port":27025,"enabled":true,"region":"eu","cc":"gb","latitude":51.509865,"longitude":-0.118092,"reserved":0,"last_update":"0001-01-01T00:00:00Z","name_a2s":"Uncletopia | London | 2 | All Maps","protocol":17,"map":"pl_snowycoast","folder":"tf","game":"Team Fortress","app_id":440,"player_count":24,"max_players":24,"Bots":0,"server_type":"Dedicated","server_os":"Linux","password":true,"vac":true,"version":"7708610","steam_id":85568392924470941,"keywords":["nocrits","nodmgspread","payload","uncletopia"],"game_id":440,"stv_port":27026,"stv_name":"Uncletopia | London | 2 | All Maps | STV","players":[{"user_id":317,"name":"Pazival","steam_id":76561198064380330,"connected_time":529000000000,"state":"active","ping":75},{"user_id":313,"name":"luma","steam_id":76561198081649669,"connected_time":727000000000,"state":"active","ping":75},{"user_id":316,"name":"Chocofrolik","steam_id":76561198454779847,"connected_time":634000000000,"state":"active","ping":54},{"user_id":257,"name":"romaingallo","steam_id":76561198268112907,"connected_time":3092000000000,"state":"active","ping":56},{"user_id":306,"name":"Caliban","steam_id":76561197999696839,"connected_time":879000000000,"state":"active","ping":105},{"user_id":320,"name":"JoJo","steam_id":76561198296920548,"connected_time":347000000000,"state":"active","ping":78},{"user_id":280,"name":"Vasko Жабата","steam_id":76561198205475839,"connected_time":2156000000000,"state":"active","ping":95},{"user_id":248,"name":"Scootz","steam_id":76561198018491455,"connected_time":3891000000000,"state":"active","ping":50},{"user_id":294,"name":"Meowth","steam_id":76561198439442146,"connected_time":1854000000000,"state":"active","ping":113},{"user_id":300,"name":"Mannequin","steam_id":76561198128833974,"connected_time":1435000000000,"state":"active","ping":57},{"user_id":298,"name":"dafydd","steam_id":76561198052200325,"connected_time":1519000000000,"state":"active","ping":89},{"user_id":321,"name":"Big Beef","steam_id":76561198042317775,"connected_time":37000000000,"state":"spawning","ping":75},{"user_id":264,"name":"テイルス","steam_id":76561198022403271,"connected_time":2776000000000,"state":"active","ping":57},{"user_id":302,"name":"Witor","steam_id":76561198127584681,"connected_time":1216000000000,"state":"active","ping":73},{"user_id":281,"name":"Fox","steam_id":76561198079364100,"connected_time":2151000000000,"state":"active","ping":75},{"user_id":265,"name":"ㄚ卂乃ㄖ丨千卂乃ㄩ","steam_id":76561198174160738,"connected_time":2769000000000,"state":"active","ping":64},{"user_id":266,"name":"Инспектор Атас","steam_id":76561199175688390,"connected_time":2767000000000,"state":"active","ping":86},{"user_id":311,"name":"ds","steam_id":76561198236296958,"connected_time":800000000000,"state":"active","ping":46},{"user_id":290,"name":"Druid5333","steam_id":76561198348066287,"connected_time":1934000000000,"state":"active","ping":58},{"user_id":224,"name":"When Life gives you Lemons","steam_id":76561198318290663,"connected_time":5114000000000,"state":"active","ping":60},{"user_id":310,"name":"Clitorina","steam_id":76561198077570815,"connected_time":811000000000,"state":"active","ping":43},{"user_id":299,"name":"SOULDOG","steam_id":76561199212057006,"connected_time":1497000000000,"state":"active","ping":75},{"user_id":312,"name":"SaltyPig","steam_id":76561198213643013,"connected_time":797000000000,"state":"active","ping":55},{"user_id":315,"name":"you (DK)","steam_id":76561198061472971,"connected_time":706000000000,"state":"active","ping":60}]},{"server_id":320,"name":"Uncletopia | London | 3 | All Maps","name_short":"lon-3","host":"lon-1.uk.uncletopia.com","port":27035,"enabled":true,"region":"eu","cc":"gb","latitude":51.509865,"longitude":-0.118092,"reserved":0,"last_update":"0001-01-01T00:00:00Z","name_a2s":"Uncletopia | London | 3 | All Maps","protocol":17,"map":"pl_frontier_final","folder":"tf","game":"Team Fortress","app_id":440,"player_count":24,"max_players":24,"Bots":0,"server_type":"Dedicated","server_os":"Linux","password":true,"vac":true,"version":"7708610","steam_id":85568392924510192,"keywords":["nocrits","nodmgspread","payload","uncletopia"],"game_id":440,"stv_port":27036,"stv_name":"Uncletopia | London | 3 | All Maps | STV","players":[{"user_id":374,"name":"Clown","steam_id":76561199063268772,"connected_time":498000000000,"state":"active","ping":66},{"user_id":375,"name":".Aq","steam_id":76561198043376092,"connected_time":497000000000,"state":"active","ping":90},{"user_id":362,"name":"goblinninja110","steam_id":76561198269159354,"connected_time":1161000000000,"state":"active","ping":57},{"user_id":339,"name":"[SST] Tora","steam_id":76561198060583505,"connected_time":2495000000000,"state":"active","ping":114},{"user_id":334,"name":"Domberry","steam_id":76561199346712175,"connected_time":2636000000000,"state":"active","ping":69},{"user_id":285,"name":"Smag","steam_id":76561198153675141,"connected_time":4650000000000,"state":"active","ping":45},{"user_id":277,"name":"random_player691","steam_id":76561199209946306,"connected_time":4862000000000,"state":"active","ping":60},{"user_id":329,"name":"Diana Ball","steam_id":76561198382533813,"connected_time":2887000000000,"state":"active","ping":49},{"user_id":336,"name":"Festive Yuletart","steam_id":76561198023918830,"connected_time":2576000000000,"state":"active","ping":43},{"user_id":355,"name":"Tsunaris (i play kazoo)","steam_id":76561198357653870,"connected_time":1393000000000,"state":"active","ping":91},{"user_id":376,"name":"ribs","steam_id":76561198354735240,"connected_time":479000000000,"state":"active","ping":45},{"user_id":359,"name":"meatsoupcube","steam_id":76561198276802249,"connected_time":1213000000000,"state":"active","ping":105},{"user_id":346,"name":"Andersexe","steam_id":76561198383864449,"connected_time":1924000000000,"state":"active","ping":63},{"user_id":341,"name":"Suomenjuusto","steam_id":76561198991491758,"connected_time":2357000000000,"state":"active","ping":90},{"user_id":360,"name":"ayuumi","steam_id":76561198796327257,"connected_time":1192000000000,"state":"active","ping":53},{"user_id":377,"name":"jackchan37","steam_id":76561199084555750,"connected_time":192000000000,"state":"active","ping":59},{"user_id":369,"name":"LOBZIK","steam_id":76561198114830120,"connected_time":761000000000,"state":"active","ping":77},{"user_id":373,"name":"KAZAM | Tervez","steam_id":76561198045459068,"connected_time":563000000000,"state":"active","ping":87},{"user_id":371,"name":"yeldad","steam_id":76561198447264153,"connected_time":718000000000,"state":"active","ping":125},{"user_id":337,"name":"opaacic","steam_id":76561199158514501,"connected_time":2575000000000,"state":"active","ping":75},{"user_id":370,"name":"Ezio Auditore","steam_id":76561198453527850,"connected_time":754000000000,"state":"active","ping":57},{"user_id":364,"name":"disposablesuperbread","steam_id":76561199074703607,"connected_time":1106000000000,"state":"active","ping":70},{"user_id":372,"name":"ck","steam_id":76561197984084920,"connected_time":606000000000,"state":"active","ping":75},{"user_id":368,"name":"Salesman","steam_id":76561198045527771,"connected_time":840000000000,"state":"active","ping":46}]},{"server_id":321,"name":"Uncletopia | London | 4 | All Maps","name_short":"lon-4","host":"lon-1.uk.uncletopia.com","port":27045,"enabled":true,"region":"eu","cc":"gb","latitude":51.509865,"longitude":-0.118092,"reserved":0,"last_update":"0001-01-01T00:00:00Z","name_a2s":"Uncletopia | London | 4 | All Maps","protocol":17,"map":"pl_pier","folder":"tf","game":"Team Fortress","app_id":440,"player_count":24,"max_players":24,"Bots":0,"server_type":"Dedicated","server_os":"Linux","password":true,"vac":true,"version":"7708610","steam_id":85568392924510193,"keywords":["nocrits","nodmgspread","payload","uncletopia"],"game_id":440,"stv_port":27046,"stv_name":"Uncletopia | London | 4 | All Maps | STV","players":[{"user_id":21,"name":"gamer man","steam_id":76561198436817109,"connected_time":898000000000,"state":"active","ping":50},{"user_id":22,"name":"cof","steam_id":76561199128417805,"connected_time":860000000000,"state":"active","ping":54},{"user_id":23,"name":"SaSSolino","steam_id":76561198011308018,"connected_time":845000000000,"state":"active","ping":74},{"user_id":24,"name":"Geoff the Oracle","steam_id":76561198053759965,"connected_time":803000000000,"state":"active","ping":57},{"user_id":35,"name":"ඞbominasus 2137  #SaveTF2","steam_id":76561198030062981,"connected_time":433000000000,"state":"active","ping":69},{"user_id":42,"name":"FarbrorBarbro","steam_id":76561198044432289,"connected_time":296000000000,"state":"active","ping":75},{"user_id":57,"name":"i got","steam_id":76561198170649510,"connected_time":6000000000,"state":"spawning","ping":120},{"user_id":54,"name":"queerio","steam_id":76561199400809482,"connected_time":33000000000,"state":"active","ping":51},{"user_id":32,"name":"Nix (they/them)","steam_id":76561198150006573,"connected_time":473000000000,"state":"active","ping":47},{"user_id":33,"name":"turntechCathead","steam_id":76561198351249088,"connected_time":449000000000,"state":"active","ping":66},{"user_id":34,"name":"Dom.","steam_id":76561199065917088,"connected_time":444000000000,"state":"active","ping":59},{"user_id":53,"name":"Dolcelatte","steam_id":76561198038501770,"connected_time":116000000000,"state":"active","ping":67},{"user_id":55,"name":"Gettomanu","steam_id":76561198999996657,"connected_time":32000000000,"state":"spawning","ping":142},{"user_id":38,"name":"BinaryTrees","steam_id":76561198046819746,"connected_time":390000000000,"state":"active","ping":43},{"user_id":39,"name":"funny","steam_id":76561198032468866,"connected_time":380000000000,"state":"active","ping":57},{"user_id":49,"name":"CAMON ENGELAND","steam_id":76561198054301125,"connected_time":212000000000,"state":"active","ping":78},{"user_id":41,"name":"Baklava Enjoyer","steam_id":76561198990679631,"connected_time":326000000000,"state":"active","ping":128},{"user_id":43,"name":"cat (they/them)","steam_id":76561198416657815,"connected_time":271000000000,"state":"active","ping":86},{"user_id":45,"name":"Jingleboob's Elf","steam_id":76561198067204908,"connected_time":229000000000,"state":"active","ping":58},{"user_id":46,"name":"Zyrok","steam_id":76561198271348982,"connected_time":228000000000,"state":"active","ping":154},{"user_id":47,"name":"Kaiser","steam_id":76561198145421612,"connected_time":222000000000,"state":"active","ping":80},{"user_id":48,"name":"Pistol man","steam_id":76561199113330655,"connected_time":222000000000,"state":"active","ping":85},{"user_id":56,"name":"jaMie","steam_id":76561198170148783,"connected_time":20000000000,"state":"spawning","ping":48},{"user_id":52,"name":"LegoKatt","steam_id":76561198064536870,"connected_time":186000000000,"state":"active","ping":93}]},{"server_id":21,"name":"Uncletopia | London | 5 | All Maps","name_short":"lon-5","host":"lon-1.uk.uncletopia.com","port":27055,"enabled":true,"region":"eu","cc":"gb","latitude":51.509865,"longitude":-0.118092,"reserved":0,"last_update":"0001-01-01T00:00:00Z","name_a2s":"Uncletopia | London | 5 | All Maps","protocol":17,"map":"pl_snowycoast","folder":"tf","game":"Team Fortress","app_id":440,"player_count":0,"max_players":24,"Bots":0,"server_type":"Dedicated","server_os":"Linux","password":true,"vac":true,"version":"7708610","steam_id":85568392924742829,"keywords":["nocrits","nodmgspread","payload","uncletopia"],"game_id":440,"stv_port":27056,"stv_name":"Uncletopia | London | 5 | All Maps | STV","players":null},{"server_id":22,"name":"Uncletopia | London | 6 | All Maps","name_short":"lon-6","host":"lon-1.uk.uncletopia.com","port":27065,"enabled":true,"region":"eu","cc":"gb","latitude":51.509865,"longitude":-0.118092,"reserved":0,"last_update":"0001-01-01T00:00:00Z","name_a2s":"Uncletopia | London | 6 | All Maps","protocol":17,"map":"pl_badwater","folder":"tf","game":"Team Fortress","app_id":440,"player_count":0,"max_players":24,"Bots":0,"server_type":"Dedicated","server_os":"Linux","password":true,"vac":true,"version":"7708610","steam_id":85568392924742830,"keywords":["nocrits","nodmgspread","payload","uncletopia"],"game_id":440,"stv_port":27066,"stv_name":"Uncletopia | London | 6 | All Maps | STV","players":null},{"server_id":40,"name":"Uncletopia | London | 7 | No Payload","name_short":"lon-7","host":"lon-1.uk.uncletopia.com","port":27075,"enabled":true,"region":"eu","cc":"gb","latitude":51.509865,"longitude":-0.118092,"reserved":0,"last_update":"0001-01-01T00:00:00Z","name_a2s":"Uncletopia | London | 7 | No Payload","protocol":17,"map":"koth_lakeside_final","folder":"tf","game":"Team Fortress","app_id":440,"player_count":0,"max_players":24,"Bots":0,"server_type":"Dedicated","server_os":"Linux","password":true,"vac":true,"version":"7708610","steam_id":85568392924964314,"keywords":["cp","nocrits","nodmgspread","uncletopia"],"game_id":440,"stv_port":27076,"stv_name":"Uncletopia | London | 7 | No Payload | STV","players":null},{"server_id":41,"name":"Uncletopia | London | 8 | Community","name_short":"lon-8","host":"lon-1.uk.uncletopia.com","port":27085,"enabled":true,"region":"eu","cc":"gb","latitude":51.509865,"longitude":-0.118092,"reserved":0,"last_update":"0001-01-01T00:00:00Z","name_a2s":"Uncletopia | London | 8 | Community","protocol":17,"map":"koth_highpass","folder":"tf","game":"Team Fortress","app_id":440,"player_count":0,"max_players":24,"Bots":0,"server_type":"Dedicated","server_os":"Linux","password":true,"vac":true,"version":"7708610","steam_id":85568392924964315,"keywords":["cp","nocrits","nodmgspread","uncletopia"],"game_id":440,"stv_port":27086,"stv_name":"Uncletopia | London | 8 | Community | STV","players":null},{"server_id":300,"name":"Uncletopia | Montréal | 1 | All Maps","name_short":"mtl-1","host":"mtl-1.ca.uncletopia.com","port":27015,"enabled":true,"region":"us-east","cc":"ca","latitude":45.50889,"longitude":-73.56167,"reserved":0,"last_update":"0001-01-01T00:00:00Z","name_a2s":"Uncletopia | Montréal | 1 | All Maps","protocol":17,"map":"pl_barnblitz","folder":"tf","game":"Team Fortress","app_id":440,"player_count":0,"max_players":24,"Bots":0,"server_type":"Dedicated","server_os":"Linux","password":true,"vac":true,"version":"7708610","steam_id":85568392924500087,"keywords":["nocrits","nodmgspread","payload","uncletopia"],"game_id":440,"stv_port":0,"stv_name":"","players":null},{"server_id":301,"name":"Uncletopia | Montréal | 2 | All Maps","name_short":"mtl-2","host":"mtl-1.ca.uncletopia.com","port":27025,"enabled":true,"region":"us-east","cc":"ca","latitude":45.50889,"longitude":-73.56167,"reserved":0,"last_update":"0001-01-01T00:00:00Z","name_a2s":"Uncletopia | Montréal | 2 | All Maps","protocol":17,"map":"pl_frontier_final","folder":"tf","game":"Team Fortress","app_id":440,"player_count":0,"max_players":24,"Bots":0,"server_type":"Dedicated","server_os":"Linux","password":true,"vac":true,"version":"7708610","steam_id":85568392924500088,"keywords":["nocrits","nodmgspread","payload","uncletopia"],"game_id":440,"stv_port":0,"stv_name":"","players":null},{"server_id":302,"name":"Uncletopia | Montréal | 3 | All Maps","name_short":"mtl-3","host":"mtl-1.ca.uncletopia.com","port":27035,"enabled":true,"region":"us-east","cc":"ca","latitude":45.50889,"longitude":-73.56167,"reserved":0,"last_update":"0001-01-01T00:00:00Z","name_a2s":"Uncletopia | Montréal | 3 | All Maps","protocol":17,"map":"pl_snowycoast","folder":"tf","game":"Team Fortress","app_id":440,"player_count":0,"max_players":24,"Bots":0,"server_type":"Dedicated","server_os":"Linux","password":true,"vac":true,"version":"7708610","steam_id":85568392924500089,"keywords":["nocrits","nodmgspread","payload","uncletopia"],"game_id":440,"stv_port":0,"stv_name":"","players":null},{"server_id":303,"name":"Uncletopia | Montréal | 4 | No Payload","name_short":"mtl-4","host":"mtl-1.ca.uncletopia.com","port":27045,"enabled":true,"region":"us-east","cc":"ca","latitude":45.50889,"longitude":-73.56167,"reserved":0,"last_update":"0001-01-01T00:00:00Z","name_a2s":"Uncletopia | Montréal | 4 | No Payload","protocol":17,"map":"pl_frontier_final","folder":"tf","game":"Team Fortress","app_id":440,"player_count":0,"max_players":24,"Bots":0,"server_type":"Dedicated","server_os":"Linux","password":true,"vac":true,"version":"7708610","steam_id":85568392924500090,"keywords":["nocrits","nodmgspread","payload","uncletopia"],"game_id":440,"stv_port":0,"stv_name":"","players":null},{"server_id":13,"name":"Uncletopia | New York City | 1 | All Maps","name_short":"nyc-1","host":"nyc-1.us.uncletopia.com","port":27015,"enabled":true,"region":"us-east","cc":"us","latitude":40.73061,"longitude":-73.93524,"reserved":0,"last_update":"0001-01-01T00:00:00Z","name_a2s":"Uncletopia | New York City | 1 | All Maps","protocol":17,"map":"pl_badwater","folder":"tf","game":"Team Fortress","app_id":440,"player_count":1,"max_players":24,"Bots":0,"server_type":"Dedicated","server_os":"Linux","password":true,"vac":true,"version":"7708610","steam_id":85568392924469993,"keywords":["nocrits","nodmgspread","payload","uncletopia"],"game_id":440,"stv_port":27016,"stv_name":"Uncletopia | New York City | 1 | All Maps | STV","players":[{"user_id":12,"name":"Yankee_Pirate","steam_id":76561198260667117,"connected_time":827000000000,"state":"active","ping":47}]},{"server_id":14,"name":"Uncletopia | New York City | 2 | All Maps","name_short":"nyc-2","host":"nyc-1.us.uncletopia.com","port":27025,"enabled":true,"region":"us-east","cc":"us","latitude":40.73061,"longitude":-73.93524,"reserved":0,"last_update":"0001-01-01T00:00:00Z","name_a2s":"Uncletopia | New York City | 2 | All Maps","protocol":17,"map":"pl_upward","folder":"tf","game":"Team Fortress","app_id":440,"player_count":24,"max_players":24,"Bots":0,"server_type":"Dedicated","server_os":"Linux","password":true,"vac":true,"version":"7708610","steam_id":85568392924469994,"keywords":["nocrits","nodmgspread","payload","uncletopia"],"game_id":440,"stv_port":27026,"stv_name":"Uncletopia | New York City | 2 | All Maps | STV","players":[{"user_id":4,"name":"cooperson","steam_id":76561198276866938,"connected_time":2414000000000,"state":"active","ping":54},{"user_id":5,"name":"Phoenix","steam_id":76561199222233650,"connected_time":2311000000000,"state":"active","ping":45},{"user_id":25,"name":"igbygames","steam_id":76561199169224041,"connected_time":637000000000,"state":"active","ping":73},{"user_id":7,"name":"You Don't Nomi.","steam_id":76561197969137836,"connected_time":1942000000000,"state":"active","ping":49},{"user_id":32,"name":"United Bank of M O N E Y","steam_id":76561198251647556,"connected_time":540000000000,"state":"active","ping":104},{"user_id":9,"name":"Dana","steam_id":76561198331338298,"connected_time":1628000000000,"state":"active","ping":50},{"user_id":10,"name":"jorjor wells","steam_id":76561199073429082,"connected_time":1235000000000,"state":"active","ping":63},{"user_id":11,"name":"error","steam_id":76561198829283420,"connected_time":1153000000000,"state":"active","ping":70},{"user_id":12,"name":"flyingcube","steam_id":76561197960865187,"connected_time":998000000000,"state":"active","ping":60},{"user_id":13,"name":"Ham Fatty","steam_id":76561198071454198,"connected_time":921000000000,"state":"active","ping":91},{"user_id":23,"name":"Loafus","steam_id":76561198154561111,"connected_time":657000000000,"state":"active","ping":60},{"user_id":15,"name":"rev174","steam_id":76561198027981090,"connected_time":834000000000,"state":"active","ping":63},{"user_id":34,"name":"Sleepy","steam_id":76561198812423309,"connected_time":272000000000,"state":"active","ping":112},{"user_id":17,"name":"Sharky Sparkerson","steam_id":76561198066934860,"connected_time":798000000000,"state":"active","ping":51},{"user_id":18,"name":"MeKaso TropStar","steam_id":76561199109895840,"connected_time":788000000000,"state":"active","ping":45},{"user_id":19,"name":"willpstackhouse","steam_id":76561199429341254,"connected_time":752000000000,"state":"active","ping":80},{"user_id":20,"name":"the entire country of scotland","steam_id":76561198272712911,"connected_time":722000000000,"state":"active","ping":47},{"user_id":21,"name":"5D-132 | Ethan C.","steam_id":76561199226079310,"connected_time":704000000000,"state":"active","ping":94},{"user_id":24,"name":"epitome","steam_id":76561198834412436,"connected_time":656000000000,"state":"active","ping":52},{"user_id":27,"name":"WHO","steam_id":76561198380484033,"connected_time":636000000000,"state":"active","ping":126},{"user_id":28,"name":"Something Spooky","steam_id":76561198115040209,"connected_time":588000000000,"state":"active","ping":78},{"user_id":29,"name":"Fake Checkmate","steam_id":76561199164847195,"connected_time":580000000000,"state":"active","ping":65},{"user_id":30,"name":"GuyDude321","steam_id":76561199095049662,"connected_time":570000000000,"state":"active","ping":131},{"user_id":33,"name":"IGOR","steam_id":76561199021673059,"connected_time":315000000000,"state":"active","ping":71}]},{"server_id":15,"name":"Uncletopia | New York City | 3 | All Maps","name_short":"nyc-3","host":"nyc-1.us.uncletopia.com","port":27035,"enabled":true,"region":"us-east","cc":"us","latitude":40.73061,"longitude":-73.93524,"reserved":0,"last_update":"0001-01-01T00:00:00Z","name_a2s":"Uncletopia | New York City | 3 | All Maps","protocol":17,"map":"pl_swiftwater_final1","folder":"tf","game":"Team Fortress","app_id":440,"player_count":0,"max_players":24,"Bots":0,"server_type":"Dedicated","server_os":"Linux","password":true,"vac":true,"version":"7708610","steam_id":85568392924742820,"keywords":["nocrits","nodmgspread","payload","uncletopia"],"game_id":440,"stv_port":27036,"stv_name":"Uncletopia | New York City | 3 | All Maps | STV","players":null},{"server_id":16,"name":"Uncletopia | New York City | 4 | Community","name_short":"nyc-4","host":"nyc-1.us.uncletopia.com","port":27045,"enabled":true,"region":"us-east","cc":"us","latitude":40.73061,"longitude":-73.93524,"reserved":0,"last_update":"0001-01-01T00:00:00Z","name_a2s":"Uncletopia | New York City | 4 | Community","protocol":17,"map":"pl_upward","folder":"tf","game":"Team Fortress","app_id":440,"player_count":0,"max_players":24,"Bots":0,"server_type":"Dedicated","server_os":"Linux","password":true,"vac":true,"version":"7708610","steam_id":85568392924742821,"keywords":["nocrits","nodmgspread","payload","uncletopia"],"game_id":440,"stv_port":27046,"stv_name":"Uncletopia | New York City | 4 | Community | STV","players":null},{"server_id":142,"name":"Uncletopia | São Paulo | 1 | All Maps","name_short":"sao-1","host":"sao-1.br.uncletopia.com","port":27015,"enabled":true,"region":"sa","cc":"br","latitude":-23.533773,"longitude":-46.62529,"reserved":0,"last_update":"0001-01-01T00:00:00Z","name_a2s":"Uncletopia | São Paulo | 1 | All Maps","protocol":17,"map":"koth_viaduct","folder":"tf","game":"Team Fortress","app_id":440,"player_count":0,"max_players":24,"Bots":0,"server_type":"Dedicated","server_os":"Linux","password":true,"vac":true,"version":"7708610","steam_id":85568392924469996,"keywords":["cp","nocrits","nodmgspread","uncletopia"],"game_id":440,"stv_port":27016,"stv_name":"Uncletopia | São Paulo | 1 | All Maps | STV","players":null},{"server_id":143,"name":"Uncletopia | São Paulo | 2 | All Maps","name_short":"sao-2","host":"sao-2.br.uncletopia.com","port":27015,"enabled":true,"region":"sa","cc":"br","latitude":-23.533773,"longitude":-46.62529,"reserved":0,"last_update":"0001-01-01T00:00:00Z","name_a2s":"Uncletopia | São Paulo | 2 | All Maps","protocol":17,"map":"pl_badwater","folder":"tf","game":"Team Fortress","app_id":440,"player_count":0,"max_players":24,"Bots":0,"server_type":"Dedicated","server_os":"Linux","password":true,"vac":true,"version":"7708610","steam_id":85568392924485349,"keywords":["nocrits","nodmgspread","payload","uncletopia"],"game_id":440,"stv_port":27016,"stv_name":"Uncletopia | São Paulo | 2 | All Maps | STV","players":null},{"server_id":7,"name":"Uncletopia | Seattle | 1 | All Maps","name_short":"sea-1","host":"sea-1.us.uncletopia.com","port":27015,"enabled":true,"region":"us-west","cc":"us","latitude":47.608013,"longitude":-122.33517,"reserved":0,"last_update":"0001-01-01T00:00:00Z","name_a2s":"Uncletopia | Seattle | 1 | All Maps","protocol":17,"map":"cp_snakewater_final1","folder":"tf","game":"Team Fortress","app_id":440,"player_count":0,"max_players":24,"Bots":0,"server_type":"Dedicated","server_os":"Linux","password":true,"vac":true,"version":"7708610","steam_id":85568392924469997,"keywords":["cp","nocrits","nodmgspread","uncletopia"],"game_id":440,"stv_port":27016,"stv_name":"Uncletopia | Seattle | 1 | All Maps | STV","players":null},{"server_id":119,"name":"Uncletopia | Seattle | 2 | All Maps","name_short":"sea-2","host":"sea-1.us.uncletopia.com","port":27025,"enabled":true,"region":"us-west","cc":"us","latitude":47.608013,"longitude":-122.33517,"reserved":0,"last_update":"0001-01-01T00:00:00Z","name_a2s":"Uncletopia | Seattle | 2 | All Maps","protocol":17,"map":"pl_frontier_final","folder":"tf","game":"Team Fortress","app_id":440,"player_count":0,"max_players":24,"Bots":0,"server_type":"Dedicated","server_os":"Linux","password":true,"vac":true,"version":"7708610","steam_id":85568392924469998,"keywords":["nocrits","nodmgspread","payload","uncletopia"],"game_id":440,"stv_port":27026,"stv_name":"Uncletopia | Seattle | 2 | All Maps | STV","players":null},{"server_id":17,"name":"Uncletopia | San Francisco | 1 | All Maps","name_short":"sfo-1","host":"sfo-1.us.uncletopia.com","port":27015,"enabled":true,"region":"us-west","cc":"us","latitude":37.77397,"longitude":-122.4313,"reserved":0,"last_update":"0001-01-01T00:00:00Z","name_a2s":"Uncletopia | San Francisco | 1 | All Maps","protocol":17,"map":"koth_lakeside_final","folder":"tf","game":"Team Fortress","app_id":440,"player_count":0,"max_players":24,"Bots":0,"server_type":"Dedicated","server_os":"Linux","password":true,"vac":true,"version":"7708610","steam_id":85568392924469999,"keywords":["cp","nocrits","nodmgspread","uncletopia"],"game_id":440,"stv_port":27016,"stv_name":"Uncletopia | San Francisco | 1 | All Maps | STV","players":null},{"server_id":18,"name":"Uncletopia | San Francisco | 2 | All Maps","name_short":"sfo-2","host":"sfo-1.us.uncletopia.com","port":27025,"enabled":true,"region":"us-west","cc":"us","latitude":37.77397,"longitude":-122.4313,"reserved":0,"last_update":"0001-01-01T00:00:00Z","name_a2s":"Uncletopia | San Francisco | 2 | All Maps","protocol":17,"map":"cp_process_final","folder":"tf","game":"Team Fortress","app_id":440,"player_count":0,"max_players":24,"Bots":0,"server_type":"Dedicated","server_os":"Linux","password":true,"vac":true,"version":"7708610","steam_id":85568392924470000,"keywords":["cp","nocrits","nodmgspread","uncletopia"],"game_id":440,"stv_port":27026,"stv_name":"Uncletopia | San Francisco | 2 | All Maps | STV","players":null},{"server_id":19,"name":"Uncletopia | San Francisco | 3 | No Payload","name_short":"sfo-3","host":"sfo-1.us.uncletopia.com","port":27035,"enabled":true,"region":"us-west","cc":"us","latitude":37.77397,"longitude":-122.4313,"reserved":0,"last_update":"0001-01-01T00:00:00Z","name_a2s":"Uncletopia | San Francisco | 3 | No Payload","protocol":17,"map":"cp_mountainlab","folder":"tf","game":"Team Fortress","app_id":440,"player_count":0,"max_players":24,"Bots":0,"server_type":"Dedicated","server_os":"Linux","password":true,"vac":true,"version":"7708610","steam_id":85568392924742824,"keywords":["cp","nocrits","nodmgspread","uncletopia"],"game_id":440,"stv_port":27036,"stv_name":"Uncletopia | San Francisco | 3 | No Payload | STV","players":null},{"server_id":20,"name":"Uncletopia | San Francisco | 4 | Community","name_short":"sfo-4","host":"sfo-1.us.uncletopia.com","port":27045,"enabled":true,"region":"us-west","cc":"us","latitude":37.77397,"longitude":-122.4313,"reserved":0,"last_update":"0001-01-01T00:00:00Z","name_a2s":"Uncletopia | San Francisco | 4 | Community","protocol":17,"map":"cp_altitude","folder":"tf","game":"Team Fortress","app_id":440,"player_count":0,"max_players":24,"Bots":0,"server_type":"Dedicated","server_os":"Linux","password":true,"vac":true,"version":"7708610","steam_id":85568392924742826,"keywords":["cp","nocrits","nodmgspread","uncletopia"],"game_id":440,"stv_port":27046,"stv_name":"Uncletopia | San Francisco | 4 | Community | STV","players":null},{"server_id":141,"name":"Uncletopia | Sydney | 1 | All Maps","name_short":"syd-1","host":"syd-1.au.uncletopia.com","port":27015,"enabled":true,"region":"au","cc":"au","latitude":-33.865143,"longitude":151.2099,"reserved":0,"last_update":"0001-01-01T00:00:00Z","name_a2s":"Uncletopia | Sydney | 1 | All Maps","protocol":17,"map":"pl_barnblitz","folder":"tf","game":"Team Fortress","app_id":440,"player_count":0,"max_players":24,"Bots":0,"server_type":"Dedicated","server_os":"Linux","password":true,"vac":true,"version":"7708610","steam_id":85568392924470001,"keywords":["nocrits","nodmgspread","payload","uncletopia"],"game_id":440,"stv_port":27016,"stv_name":"Uncletopia | Sydney | 1 | All Maps | STV","players":null},{"server_id":123,"name":"Uncletopia | Sydney | 2 | All Maps","name_short":"syd-2","host":"syd-1.au.uncletopia.com","port":27025,"enabled":true,"region":"au","cc":"au","latitude":-33.865143,"longitude":151.2099,"reserved":0,"last_update":"0001-01-01T00:00:00Z","name_a2s":"Uncletopia | Sydney | 2 | All Maps","protocol":17,"map":"koth_lakeside_final","folder":"tf","game":"Team Fortress","app_id":440,"player_count":0,"max_players":24,"Bots":0,"server_type":"Dedicated","server_os":"Linux","password":true,"vac":true,"version":"7708610","steam_id":85568392924470002,"keywords":["cp","nocrits","nodmgspread","uncletopia"],"game_id":440,"stv_port":27026,"stv_name":"Uncletopia | Sydney | 2 | All Maps | STV","players":null},{"server_id":395,"name":"Uncletopia | Sydney | 3 | All Maps","name_short":"syd-3","host":"syd-1.au.uncletopia.com","port":27035,"enabled":true,"region":"au","cc":"au","latitude":-33.865143,"longitude":151.2099,"reserved":0,"last_update":"0001-01-01T00:00:00Z","name_a2s":"Uncletopia | Sydney | 3 | All Maps","protocol":17,"map":"cp_altitude","folder":"tf","game":"Team Fortress","app_id":440,"player_count":0,"max_players":24,"Bots":0,"server_type":"Dedicated","server_os":"Linux","password":true,"vac":true,"version":"7708610","steam_id":85568392925194467,"keywords":["cp","nocrits","nodmgspread","uncletopia"],"game_id":440,"stv_port":27036,"stv_name":"Uncletopia | Sydney | 3 | All Maps | STV","players":null},{"server_id":396,"name":"Uncletopia | Sydney | 4 | All Maps","name_short":"syd-4","host":"syd-1.au.uncletopia.com","port":27045,"enabled":true,"region":"au","cc":"au","latitude":-33.865143,"longitude":151.2099,"reserved":0,"last_update":"0001-01-01T00:00:00Z","name_a2s":"Uncletopia | Sydney | 4 | All Maps","protocol":17,"map":"plr_bananabay","folder":"tf","game":"Team Fortress","app_id":440,"player_count":0,"max_players":24,"Bots":0,"server_type":"Dedicated","server_os":"Linux","password":true,"vac":true,"version":"7708610","steam_id":85568392925397958,"keywords":["nocrits","nodmgspread","payload","uncletopia"],"game_id":440,"stv_port":27046,"stv_name":"Uncletopia | Sydney | 4 | All Maps | STV","players":null},{"server_id":58,"name":"Uncletopia | Sydney | 5 | No Payload","name_short":"syd-5","host":"syd-1.au.uncletopia.com","port":27055,"enabled":true,"region":"au","cc":"au","latitude":-33.865143,"longitude":151.2099,"reserved":0,"last_update":"0001-01-01T00:00:00Z","name_a2s":"Uncletopia | Sydney | 5 | No Payload","protocol":17,"map":"plr_bananabay","folder":"tf","game":"Team Fortress","app_id":440,"player_count":0,"max_players":24,"Bots":0,"server_type":"Dedicated","server_os":"Linux","password":true,"vac":true,"version":"7708610","steam_id":85568392925397959,"keywords":["nocrits","nodmgspread","payload","uncletopia"],"game_id":440,"stv_port":27056,"stv_name":"Uncletopia | Sydney | 5 | No Payload | STV","players":null},{"server_id":59,"name":"Uncletopia | Sydney | 6 | Community","name_short":"syd-6","host":"syd-1.au.uncletopia.com","port":27065,"enabled":true,"region":"au","cc":"au","latitude":-33.865143,"longitude":151.2099,"reserved":0,"last_update":"0001-01-01T00:00:00Z","name_a2s":"Uncletopia | Sydney | 6 | Community","protocol":17,"map":"koth_lakeside_final","folder":"tf","game":"Team Fortress","app_id":440,"player_count":0,"max_players":24,"Bots":0,"server_type":"Dedicated","server_os":"Linux","password":true,"vac":true,"version":"7708610","steam_id":85568392925397960,"keywords":["cp","nocrits","nodmgspread","uncletopia"],"game_id":440,"stv_port":27066,"stv_name":"Uncletopia | Sydney | 6 | Community | STV","players":null},{"server_id":49,"name":"Uncletopia | Warsaw | 1 | All Maps","name_short":"waw-1","host":"waw-1.pl.uncletopia.com","port":27015,"enabled":true,"region":"eu","cc":"pl","latitude":52.2297,"longitude":21.017532,"reserved":0,"last_update":"0001-01-01T00:00:00Z","name_a2s":"Uncletopia | Warsaw | 1 | All Maps","protocol":17,"map":"koth_viaduct","folder":"tf","game":"Team Fortress","app_id":440,"player_count":0,"max_players":24,"Bots":0,"server_type":"Dedicated","server_os":"Linux","password":true,"vac":true,"version":"7708610","steam_id":85568392925397850,"keywords":["cp","nocrits","nodmgspread","uncletopia"],"game_id":440,"stv_port":27016,"stv_name":"Uncletopia | Warsaw | 1 | All Maps | STV","players":null},{"server_id":50,"name":"Uncletopia | Warsaw | 2 | All Maps","name_short":"waw-2","host":"waw-1.pl.uncletopia.com","port":27025,"enabled":true,"region":"eu","cc":"pl","latitude":52.2297,"longitude":21.017532,"reserved":0,"last_update":"0001-01-01T00:00:00Z","name_a2s":"Uncletopia | Warsaw | 2 | All Maps","protocol":17,"map":"koth_cascade","folder":"tf","game":"Team Fortress","app_id":440,"player_count":0,"max_players":24,"Bots":0,"server_type":"Dedicated","server_os":"Linux","password":true,"vac":true,"version":"7708610","steam_id":85568392925397851,"keywords":["cp","nocrits","nodmgspread","uncletopia"],"game_id":440,"stv_port":27026,"stv_name":"Uncletopia | Warsaw | 2 | All Maps | STV","players":null},{"server_id":51,"name":"Uncletopia | Warsaw | 3 | All Maps","name_short":"waw-3","host":"waw-1.pl.uncletopia.com","port":27035,"enabled":true,"region":"eu","cc":"pl","latitude":52.2297,"longitude":21.017532,"reserved":0,"last_update":"0001-01-01T00:00:00Z","name_a2s":"Uncletopia | Warsaw | 3 | All Maps","protocol":17,"map":"cp_process_final","folder":"tf","game":"Team Fortress","app_id":440,"player_count":0,"max_players":24,"Bots":0,"server_type":"Dedicated","server_os":"Linux","password":true,"vac":true,"version":"7708610","steam_id":85568392925397852,"keywords":["cp","nocrits","nodmgspread","uncletopia"],"game_id":440,"stv_port":27036,"stv_name":"Uncletopia | Warsaw | 3 | All Maps | STV","players":null},{"server_id":52,"name":"Uncletopia | Warsaw | 4 | All Maps","name_short":"waw-4","host":"waw-1.pl.uncletopia.com","port":27045,"enabled":true,"region":"eu","cc":"pl","latitude":52.2297,"longitude":21.017532,"reserved":0,"last_update":"0001-01-01T00:00:00Z","name_a2s":"Uncletopia | Warsaw | 4 | All Maps","protocol":17,"map":"koth_cascade","folder":"tf","game":"Team Fortress","app_id":440,"player_count":0,"max_players":24,"Bots":0,"server_type":"Dedicated","server_os":"Linux","password":true,"vac":true,"version":"7708610","steam_id":85568392925397853,"keywords":["cp","nocrits","nodmgspread","uncletopia"],"game_id":440,"stv_port":27046,"stv_name":"Uncletopia | Warsaw | 4 | All Maps | STV","players":null},{"server_id":53,"name":"Uncletopia | Warsaw | 5 | No Payload","name_short":"waw-5","host":"waw-1.pl.uncletopia.com","port":27055,"enabled":true,"region":"eu","cc":"pl","latitude":52.2297,"longitude":21.017532,"reserved":0,"last_update":"0001-01-01T00:00:00Z","name_a2s":"Uncletopia | Warsaw | 5 | No Payload","protocol":17,"map":"cp_altitude","folder":"tf","game":"Team Fortress","app_id":440,"player_count":0,"max_players":24,"Bots":0,"server_type":"Dedicated","server_os":"Linux","password":true,"vac":true,"version":"7708610","steam_id":85568392925397854,"keywords":["cp","nocrits","nodmgspread","uncletopia"],"game_id":440,"stv_port":27056,"stv_name":"Uncletopia | Warsaw | 5 | No Payload | STV","players":null},{"server_id":54,"name":"Uncletopia | Warsaw | 6 | Community","name_short":"waw-6","host":"waw-1.pl.uncletopia.com","port":27065,"enabled":true,"region":"eu","cc":"pl","latitude":52.2297,"longitude":21.017532,"reserved":0,"last_update":"0001-01-01T00:00:00Z","name_a2s":"Uncletopia | Warsaw | 6 | Community","protocol":17,"map":"workshop/cp_reckoner_rc6.ugc674719999","folder":"tf","game":"Team Fortress","app_id":440,"player_count":0,"max_players":24,"Bots":0,"server_type":"Dedicated","server_os":"Linux","password":true,"vac":true,"version":"7708610","steam_id":85568392925397856,"keywords":["cp","nocrits","nodmgspread","uncletopia"],"game_id":440,"stv_port":27066,"stv_name":"Uncletopia | Warsaw | 6 | Community | STV","players":null}]}