{"status":true,"message":"","result":[{"server_id":9,"name":"Uncletopia | Atlanta | 1 | All Maps","name_short":"atl-1","host":"atl-1.us.uncletopia.com","port":27015,"enabled":true,"region":"us-east","cc":"us","latitude":33.753746,"longitude":-84.38633,"reserved":0,"last_update":"0001-01-01T00:00:00Z","name_a2s":"Uncletopia | Atlanta | 1 | All Maps","protocol":17,"map":"pl_badwater","folder":"tf","game":"Team Fortress","app_id":440,"player_count":24,"max_players":24,"Bots":0,"server_type":"Dedicated","server_os":"Linux","password":true,"vac":true,"version":"7961495","steam_id":85568392924469982,"keywords":["nocrits","nodmgspread","payload","uncletopia"],"game_id":440,"stv_port":27016,"stv_name":"Uncletopia | Atlanta | 1 | All Maps | STV","players":null},{"server_id":104,"name":"Uncletopia | Atlanta | 2 | All Maps","name_short":"atl-2","host":"atl-1.us.uncletopia.com","port":27025,"enabled":true,"region":"us-east","cc":"us","latitude":33.753746,"longitude":-84.38633,"reserved":0,"last_update":"0001-01-01T00:00:00Z","name_a2s":"Uncletopia | Atlanta | 2 | All Maps","protocol":17,"map":"pl_frontier_final","folder":"tf","game":"Team Fortress","app_id":440,"player_count":21,"max_players":24,"Bots":0,"server_type":"Dedicated","server_os":"Linux","password":true,"vac":true,"version":"7961495","steam_id":85568392924469983,"keywords":["nocrits","nodmgspread","payload","uncletopia"],"game_id":440,"stv_port":27026,"stv_name":"Uncletopia | Atlanta | 2 | All Maps | STV","players":null},{"server_id":400,"name":"Uncletopia | Atlanta | 3 | Stopwatch","name_short":"atl-3","host":"atl-1.us.uncletopia.com","port":27035,"enabled":true,"region":"us-east","cc":"us","latitude":33.753746,"longitude":-84.38633,"reserved":0,"last_update":"0001-01-01T00:00:00Z","name_a2s":"Uncletopia | Atlanta | 3 | Stopwatch","protocol":17,"map":"koth_clearcut_b15","folder":"tf","game":"Team Fortress","app_id":440,"player_count":0,"max_players":24,"Bots":0,"server_type":"Dedicated","server_os":"Linux","password":true,"vac":true,"version":"7961495","steam_id":85568392924515187,"keywords":["cp","nocrits","nodmgspread","uncletopia"],"game_id":440,"stv_port":27036,"stv_name":"Uncletopia | Atlanta | 3 | Stopwatch | STV","players":null},{"server_id":401,"name":"Uncletopia | Atlanta | 4 | Community","name_short":"atl-4","host":"atl-1.us.uncletopia.com","port":27045,"enabled":true,"region":"us-east","cc":"us","latitude":33.753746,"longitude":-84.38633,"reserved":0,"last_update":"0001-01-01T00:00:00Z","name_a2s":"Uncletopia | Atlanta | 4 | Community","protocol":17,"map":"koth_bagel_rc6","folder":"tf","game":"Team Fortress","app_id":440,"player_count":12,"max_players":24,"Bots":0,"server_type":"Dedicated","server_os":"Linux","password":true,"vac":true,"version":"7961495","steam_id":85568392924515188,"keywords":["cp","nocrits","nodmgspread","uncletopia"],"game_id":440,"stv_port":27046,"stv_name":"Uncletopia | Atlanta | 4 | Community | STV","players":null},{"server_id":2,"name":"Uncletopia | Chicago | 1 | All Maps","name_short":"chi-1","host":"chi-1.us.uncletopia.com","port":27015,"enabled":true,"region":"us-central","cc":"us","latitude":41.881832,"longitude":-87.62318,"reserved":0,"last_update":"0001-01-01T00:00:00Z","name_a2s":"Uncletopia | Chicago | 1 | All Maps","protocol":17,"map":"pl_borneo","folder":"tf","game":"Team Fortress","app_id":440,"player_count":24,"max_players":24,"Bots":0,"server_type":"Dedicated","server_os":"Linux","password":true,"vac":true,"version":"7961495","steam_id":85568392924469984,"keywords":["nocrits","nodmgspread","payload","uncletopia"],"game_id":440,"stv_port":27016,"stv_name":"Uncletopia | Chicago | 1 | All Maps | STV","players":[{"user_id":306,"name":"TheOneZoot","steam_id":76561198121944243,"connected_time":1625000000000,"state":"active","ping":48},{"user_id":271,"name":"SiltyStar85","steam_id":76561198309175923,"connected_time":4395000000000,"state":"active","ping":92},{"user_id":314,"name":"Ariel","steam_id":76561199072335323,"connected_time":514000000000,"state":"active","ping":117},{"user_id":267,"name":"Word To Your Mothership","steam_id":76561198034329138,"connected_time":4709000000000,"state":"active","ping":94},{"user_id":311,"name":"Rein","steam_id":76561198300340427,"connected_time":845000000000,"state":"active","ping":65},{"user_id":296,"name":"DinkleBerg","steam_id":76561198891626233,"connected_time":2567000000000,"state":"active","ping":67},{"user_id":207,"name":"flamingcookies","steam_id":76561198280864779,"connected_time":9395000000000,"state":"active","ping":65},{"user_id":304,"name":"MedRed‚Ñ¢ #IATAH","steam_id":76561198002962970,"connected_time":1655000000000,"state":"active","ping":95},{"user_id":301,"name":"‚ô•Bunny‚ô•Slut‚ô•","steam_id":76561198206376851,"connected_time":2262000000000,"state":"active","ping":86},{"user_id":312,"name":"Thatoneguybunchanumbers","steam_id":76561198028039160,"connected_time":525000000000,"state":"active","ping":76},{"user_id":242,"name":".JIFF","steam_id":76561198045181760,"connected_time":6882000000000,"state":"active","ping":61},{"user_id":272,"name":"Your Local Queer Librarian","steam_id":76561198013077080,"connected_time":4198000000000,"state":"active","ping":62},{"user_id":310,"name":"Philomentus","steam_id":76561198067714196,"connected_time":1189000000000,"state":"active","ping":72},{"user_id":315,"name":":)","steam_id":76561198093921290,"connected_time":500000000000,"state":"active","ping":48},{"user_id":307,"name":"JellyParrot","steam_id":76561199190990163,"connected_time":1557000000000,"state":"active","ping":82},{"user_id":298,"name":"RusticCarp42989","steam_id":76561198361151865,"connected_time":2565000000000,"state":"active","ping":130},{"user_id":308,"name":"ElephantHydrogen4277882","steam_id":76561198175741741,"connected_time":1553000000000,"state":"active","ping":75},{"user_id":309,"name":"goblin?","steam_id":76561198007192438,"connected_time":1533000000000,"state":"active","ping":71},{"user_id":299,"name":"Lyathan","steam_id":76561198062773218,"connected_time":2564000000000,"state":"active","ping":67},{"user_id":285,"name":"Praise_to_the_Flashlight!","steam_id":76561199001728789,"connected_time":3296000000000,"state":"active","ping":63},{"user_id":280,"name":"Hylic","steam_id":76561199051314589,"connected_time":3740000000000,"state":"active","ping":63},{"user_id":292,"name":"Ras","steam_id":76561198123546775,"connected_time":3201000000000,"state":"active","ping":63},{"user_id":302,"name":"Milkmur","steam_id":76561198210043821,"connected_time":2226000000000,"state":"active","ping":64},{"user_id":294,"name":"Anthid","steam_id":76561198074493797,"connected_time":2778000000000,"state":"active","ping":70}]},{"server_id":106,"name":"Uncletopia | Chicago | 2 | All Maps","name_short":"chi-2","host":"chi-1.us.uncletopia.com","port":27025,"enabled":true,"region":"us-central","cc":"us","latitude":41.881832,"longitude":-87.62318,"reserved":0,"last_update":"0001-01-01T00:00:00Z","name_a2s":"Uncletopia | Chicago | 2 | All Maps","protocol":17,"map":"pl_barnblitz","folder":"tf","game":"Team Fortress","app_id":440,"player_count":24,"max_players":24,"Bots":0,"server_type":"Dedicated","server_os":"Linux","password":true,"vac":true,"version":"7961495","steam_id":85568392924469985,"keywords":["nocrits","nodmgspread","payload","uncletopia"],"game_id":440,"stv_port":27026,"stv_name":"Uncletopia | Chicago | 2 | All Maps | STV","players":[{"user_id":609,"name":"KappinFappin","steam_id":76561198312075660,"connected_time":2451000000000,"state":"active","ping":72},{"user_id":625,"name":"chinosdjjeej","steam_id":76561199159561914,"connected_time":473000000000,"state":"active","ping":87},{"user_id":558,"name":"Ace Chromatica","steam_id":76561198042211131,"connected_time":5104000000000,"state":"active","ping":65},{"user_id":626,"name":"Mix","steam_id":76561198835593895,"connected_time":469000000000,"state":"active","ping":84},{"user_id":627,"name":"Bennet","steam_id":76561198194582382,"connected_time":464000000000,"state":"active","ping":73},{"user_id":602,"name":"CherriKat","steam_id":76561198821297512,"connected_time":2788000000000,"state":"active","ping":99},{"user_id":628,"name":"gIBBY","steam_id":76561198080099598,"connected_time":443000000000,"state":"active","ping":57},{"user_id":629,"name":"Mythic","steam_id":76561198028616665,"connected_time":443000000000,"state":"active","ping":74},{"user_id":621,"name":"B R O W N","steam_id":76561198084016173,"connected_time":838000000000,"state":"active","ping":71},{"user_id":619,"name":"Jeiyo","steam_id":76561199070161957,"connected_time":1262000000000,"state":"active","ping":75},{"user_id":607,"name":"gwataguy","steam_id":76561198093838029,"connected_time":2476000000000,"state":"active","ping":72},{"user_id":618,"name":"Discourse","steam_id":76561198984286678,"connected_time":1414000000000,"state":"active","ping":58},{"user_id":610,"name":"Nutty McNuts","steam_id":76561199382747995,"connected_time":2449000000000,"state":"active","ping":78},{"user_id":630,"name":"JtsRes","steam_id":76561197994809241,"connected_time":440000000000,"state":"active","ping":64},{"user_id":636,"name":"WitheringLeo","steam_id":76561198046722918,"connected_time":289000000000,"state":"active","ping":110},{"user_id":638,"name":"Steuski","steam_id":76561199212297248,"connected_time":224000000000,"state":"active","ping":73},{"user_id":622,"name":"Rafl","steam_id":76561198055222756,"connected_time":775000000000,"state":"active","ping":70},{"user_id":633,"name":"CoconutRice","steam_id":76561198114909164,"connected_time":359000000000,"state":"active","ping":47},{"user_id":599,"name":"ViserOfOrder","steam_id":76561198137222506,"connected_time":2858000000000,"state":"active","ping":66},{"user_id":614,"name":"Child Incinerator","steam_id":76561198115707039,"connected_time":1720000000000,"state":"active","ping":60},{"user_id":569,"name":"MR SKELTAL","steam_id":76561198031089598,"connected_time":4197000000000,"state":"active","ping":70},{"user_id":541,"name":"Dr. Dick","steam_id":76561198138011922,"connected_time":6178000000000,"state":"active","ping":74},{"user_id":634,"name":"Roundybout","steam_id":76561198320309597,"connected_time":311000000000,"state":"active","ping":75},{"user_id":635,"name":"Kirby.exe","steam_id":76561198242714582,"connected_time":299000000000,"state":"active","ping":65}]},{"server_id":402,"name":"Uncletopia | Chicago | 3 | All Maps","name_short":"chi-3","host":"chi-1.us.uncletopia.com","port":27035,"enabled":true,"region":"us-central","cc":"us","latitude":41.881832,"longitude":-87.62318,"reserved":0,"last_update":"0001-01-01T00:00:00Z","name_a2s":"Uncletopia | Chicago | 3 | All Maps","protocol":17,"map":"pl_barnblitz","folder":"tf","game":"Team Fortress","app_id":440,"player_count":24,"max_players":24,"Bots":0,"server_type":"Dedicated","server_os":"Linux","password":true,"vac":true,"version":"7961495","steam_id":85568392924515191,"keywords":["nocrits","nodmgspread","payload","uncletopia"],"game_id":440,"stv_port":27036,"stv_name":"Uncletopia | Chicago | 3 | All Maps | STV","players":[{"user_id":509,"name":"Dallas","steam_id":76561198066542919,"connected_time":139000000000,"state":"active","ping":96},{"user_id":495,"name":"JetZ","steam_id":76561199122488957,"connected_time":1350000000000,"state":"active","ping":72},{"user_id":483,"name":"chain chomp","steam_id":76561198155872356,"connected_time":1756000000000,"state":"active","ping":57},{"user_id":508,"name":"i fucking love minesweeper","steam_id":76561198992250013,"connected_time":164000000000,"state":"active","ping":87},{"user_id":506,"name":"Deathpill","steam_id":76561197994404793,"connected_time":940000000000,"state":"active","ping":71},{"user_id":484,"name":"Xyverle","steam_id":76561198799726415,"connected_time":1734000000000,"state":"active","ping":62},{"user_id":504,"name":"Dalburgh","steam_id":76561198044331017,"connected_time":1017000000000,"state":"active","ping":73},{"user_id":475,"name":"Rukks","steam_id":76561197993918954,"connected_time":3188000000000,"state":"active","ping":87},{"user_id":497,"name":"big steve","steam_id":76561199037050183,"connected_time":1347000000000,"state":"active","ping":87},{"user_id":510,"name":"Revolutionary War Soldier","steam_id":76561199446367874,"connected_time":134000000000,"state":"active","ping":45},{"user_id":476,"name":"guy","steam_id":76561198079925551,"connected_time":3183000000000,"state":"active","ping":71},{"user_id":473,"name":"aphexjh","steam_id":76561197985854658,"connected_time":3337000000000,"state":"active","ping":60},{"user_id":488,"name":"frost atronach","steam_id":76561198804901722,"connected_time":1675000000000,"state":"active","ping":63},{"user_id":489,"name":"ElElliot","steam_id":76561198842278840,"connected_time":1660000000000,"state":"active","ping":70},{"user_id":502,"name":"shibe","steam_id":76561198125817296,"connected_time":1105000000000,"state":"active","ping":114},{"user_id":498,"name":"Kamin","steam_id":76561198255299559,"connected_time":1328000000000,"state":"active","ping":89},{"user_id":490,"name":"SHADOW","steam_id":76561198207768148,"connected_time":1654000000000,"state":"active","ping":112},{"user_id":450,"name":"The Jar","steam_id":76561198146013385,"connected_time":6137000000000,"state":"active","ping":74},{"user_id":503,"name":"smooth brain","steam_id":76561198049253541,"connected_time":1081000000000,"state":"active","ping":67},{"user_id":505,"name":"spaghetti","steam_id":76561198069600113,"connected_time":1015000000000,"state":"active","ping":61},{"user_id":492,"name":"chunkysquare","steam_id":76561199076468383,"connected_time":1648000000000,"state":"active","ping":97},{"user_id":511,"name":"booty jiggae","steam_id":76561198089026129,"connected_time":121000000000,"state":"active","ping":62},{"user_id":512,"name":"LiterallyDark","steam_id":76561198042573388,"connected_time":115000000000,"state":"active","ping":57},{"user_id":499,"name":"Worst Scenario","steam_id":76561199052130229,"connected_time":1227000000000,"state":"active","ping":53}]},{"server_id":403,"name":"Uncletopia | Chicago | 4 | All Maps","name_short":"chi-4","host":"chi-1.us.uncletopia.com","port":27045,"enabled":true,"region":"us-central","cc":"us","latitude":41.881832,"longitude":-87.62318,"reserved":0,"last_update":"0001-01-01T00:00:00Z","name_a2s":"Uncletopia | Chicago | 4 | All Maps","protocol":17,"map":"pl_snowycoast","folder":"tf","game":"Team Fortress","app_id":440,"player_count":24,"max_players":24,"Bots":0,"server_type":"Dedicated","server_os":"Linux","password":true,"vac":true,"version":"7961495","steam_id":85568392924515193,"keywords":["nocrits","nodmgspread","payload","uncletopia"],"game_id":440,"stv_port":27046,"stv_name":"Uncletopia | Chicago | 4 | All Maps | STV","players":[{"user_id":372,"name":"Ojen","steam_id":76561197998414482,"connected_time":836000000000,"state":"active","ping":66},{"user_id":377,"name":"scrambledeggs3","steam_id":76561198066112579,"connected_time":753000000000,"state":"active","ping":61},{"user_id":382,"name":"[12V] Marv","steam_id":76561198158638384,"connected_time":180000000000,"state":"active","ping":72},{"user_id":373,"name":"menk3","steam_id":76561198120888597,"connected_time":807000000000,"state":"active","ping":72},{"user_id":310,"name":"eish","steam_id":76561198089463603,"connected_time":7134000000000,"state":"active","ping":133},{"user_id":354,"name":"The Professor","steam_id":76561198113760863,"connected_time":3180000000000,"state":"active","ping":64},{"user_id":369,"name":"TritonOfTheMinnows","steam_id":76561198048763371,"connected_time":858000000000,"state":"active","ping":75},{"user_id":330,"name":"ipodmini","steam_id":76561198060525089,"connected_time":6451000000000,"state":"active","ping":60},{"user_id":384,"name":"Awenova","steam_id":76561198322928940,"connected_time":92000000000,"state":"active","ping":60},{"user_id":357,"name":"Special agent Wu","steam_id":76561198307370168,"connected_time":2809000000000,"state":"active","ping":59},{"user_id":353,"name":"Kimba","steam_id":76561199092078325,"connected_time":3217000000000,"state":"active","ping":86},{"user_id":312,"name":"Cherry Coke","steam_id":76561198178233006,"connected_time":7120000000000,"state":"active","ping":59},{"user_id":350,"name":"henryissoreal","steam_id":76561198128074539,"connected_time":3533000000000,"state":"active","ping":85},{"user_id":383,"name":"Nordie","steam_id":76561198102297774,"connected_time":170000000000,"state":"active","ping":59},{"user_id":381,"name":"Malachi [NGC|ST]","steam_id":76561197995129935,"connected_time":302000000000,"state":"active","ping":64},{"user_id":376,"name":"Jokergamma","steam_id":76561198807984541,"connected_time":781000000000,"state":"active","ping":92},{"user_id":348,"name":"The Notorious P.U.E.R.","steam_id":76561198046715542,"connected_time":3925000000000,"state":"active","ping":70},{"user_id":364,"name":"Rhutebeer","steam_id":76561198018302761,"connected_time":2025000000000,"state":"active","ping":104},{"user_id":385,"name":"TrashDargon","steam_id":76561198423900560,"connected_time":65000000000,"state":"active","ping":65},{"user_id":297,"name":"I3lasteroid","steam_id":76561197985463901,"connected_time":7924000000000,"state":"active","ping":85},{"user_id":378,"name":"Epha","steam_id":76561198079379951,"connected_time":583000000000,"state":"active","ping":62},{"user_id":360,"name":"alextruckman97","steam_id":76561198066867150,"connected_time":2404000000000,"state":"active","ping":64},{"user_id":379,"name":"a festive sooley","steam_id":76561198134500189,"connected_time":528000000000,"state":"active","ping":34},{"user_id":386,"name":"Dragus","steam_id":76561198032967285,"connected_time":60000000000,"state":"active","ping":52}]},{"server_id":36,"name":"Uncletopia | Chicago | 5 | All Maps","name_short":"chi-5","host":"chi-2.us.uncletopia.com","port":27015,"enabled":true,"region":"us-central","cc":"us","latitude":41.881832,"longitude":-87.62318,"reserved":0,"last_update":"0001-01-01T00:00:00Z","name_a2s":"Uncletopia | Chicago | 5 | All Maps","protocol":17,"map":"pl_badwater","folder":"tf","game":"Team Fortress","app_id":440,"player_count":24,"max_players":24,"Bots":0,"server_type":"Dedicated","server_os":"Linux","password":true,"vac":true,"version":"7961495","steam_id":85568392924866362,"keywords":["nocrits","nodmgspread","payload","uncletopia"],"game_id":440,"stv_port":27016,"stv_name":"Uncletopia | Chicago | 5 | All Maps | STV","players":[{"user_id":180,"name":"Shrimpcess Supreme","steam_id":76561198276385778,"connected_time":9183000000000,"state":"active","ping":89},{"user_id":281,"name":"CHIKN","steam_id":76561198277792665,"connected_time":2014000000000,"state":"active","ping":107},{"user_id":264,"name":"Mega_Man23","steam_id":76561198138341391,"connected_time":3303000000000,"state":"active","ping":61},{"user_id":288,"name":"Spank McDugan","steam_id":76561198046401833,"connected_time":820000000000,"state":"active","ping":59},{"user_id":292,"name":"Queen of Latex","steam_id":76561198037779673,"connected_time":576000000000,"state":"active","ping":70},{"user_id":269,"name":"ThiccNicc","steam_id":76561198236828842,"connected_time":3035000000000,"state":"active","ping":72},{"user_id":283,"name":"moeb","steam_id":76561197989281781,"connected_time":1967000000000,"state":"active","ping":135},{"user_id":270,"name":"eepy kitty :3","steam_id":76561198106313563,"connected_time":2968000000000,"state":"active","ping":67},{"user_id":289,"name":"GreekGoat_Coffee","steam_id":76561198129331088,"connected_time":820000000000,"state":"active","ping":46},{"user_id":290,"name":"vifi269","steam_id":76561198283749166,"connected_time":752000000000,"state":"active","ping":84},{"user_id":282,"name":"Funke Monke","steam_id":76561198079440976,"connected_time":2012000000000,"state":"active","ping":70},{"user_id":253,"name":"Up yours, woke moralists!","steam_id":76561198326083509,"connected_time":3711000000000,"state":"active","ping":92},{"user_id":220,"name":"RandomRainbow","steam_id":76561199107573588,"connected_time":6534000000000,"state":"active","ping":54},{"user_id":277,"name":"steady","steam_id":76561198210433363,"connected_time":2582000000000,"state":"active","ping":56},{"user_id":256,"name":"KarmaKid","steam_id":76561198079580094,"connected_time":3583000000000,"state":"active","ping":115},{"user_id":275,"name":"hart","steam_id":76561198094780633,"connected_time":2633000000000,"state":"active","ping":59},{"user_id":276,"name":"mollusk_obliteration","steam_id":76561198085388962,"connected_time":2628000000000,"state":"active","ping":59},{"user_id":291,"name":"t","steam_id":76561198175988929,"connected_time":734000000000,"state":"active","ping":67},{"user_id":182,"name":"Princess Stinkypants","steam_id":76561198096221632,"connected_time":9167000000000,"state":"active","ping":61},{"user_id":278,"name":"MR. BEEEEEEEEEEEEEAAAAAAAAAAST","steam_id":76561198205346760,"connected_time":2121000000000,"state":"active","ping":45},{"user_id":268,"name":"Innercord","steam_id":76561198122486639,"connected_time":3179000000000,"state":"active","ping":98},{"user_id":284,"name":"Torensz64(But weezer)","steam_id":76561198239036482,"connected_time":1859000000000,"state":"active","ping":57},{"user_id":279,"name":"We Go Crazy","steam_id":76561198209641359,"connected_time":2040000000000,"state":"active","ping":70},{"user_id":286,"name":"Toaster","steam_id":76561198152610412,"connected_time":1748000000000,"state":"active","ping":62}]},{"server_id":37,"name":"Uncletopia | Chicago | 6 | All Maps","name_short":"chi-6","host":"chi-2.us.uncletopia.com","port":27025,"enabled":true,"region":"us-central","cc":"us","latitude":41.881832,"longitude":-87.62318,"reserved":0,"last_update":"0001-01-01T00:00:00Z","name_a2s":"Uncletopia | Chicago | 6 | All Maps","protocol":17,"map":"cp_altitude","folder":"tf","game":"Team Fortress","app_id":440,"player_count":24,"max_players":24,"Bots":0,"server_type":"Dedicated","server_os":"Linux","password":true,"vac":true,"version":"7961495","steam_id":85568392924866363,"keywords":["cp","nocrits","nodmgspread","uncletopia"],"game_id":440,"stv_port":27026,"stv_name":"Uncletopia | Chicago | 6 | All Maps | STV","players":[{"user_id":879,"name":"Fanatic","steam_id":76561198036960509,"connected_time":1219000000000,"state":"active","ping":64},{"user_id":873,"name":"godtierJack.jpeg","steam_id":76561198089827454,"connected_time":1492000000000,"state":"active","ping":65},{"user_id":875,"name":"Aglovail","steam_id":76561198276988844,"connected_time":1365000000000,"state":"active","ping":99},{"user_id":856,"name":"SPIRE_FAN","steam_id":76561198001486573,"connected_time":3048000000000,"state":"active","ping":70},{"user_id":877,"name":"sansa musa","steam_id":76561198163723555,"connected_time":1242000000000,"state":"active","ping":61},{"user_id":863,"name":"Wet","steam_id":76561199474220124,"connected_time":2357000000000,"state":"active","ping":89},{"user_id":890,"name":"kicks","steam_id":76561199228854923,"connected_time":338000000000,"state":"active","ping":69},{"user_id":854,"name":"TheWhoman","steam_id":76561198103921750,"connected_time":3243000000000,"state":"active","ping":98},{"user_id":885,"name":"Dosszy","steam_id":76561198116281299,"connected_time":1001000000000,"state":"active","ping":69},{"user_id":880,"name":"Selment","steam_id":76561198026489601,"connected_time":1176000000000,"state":"active","ping":49},{"user_id":865,"name":"Zartas","steam_id":76561198008861994,"connected_time":2342000000000,"state":"active","ping":98},{"user_id":893,"name":"-W3E- grim10465","steam_id":76561198045698581,"connected_time":122000000000,"state":"active","ping":53},{"user_id":886,"name":"Pablo.Minecraft.2007","steam_id":76561199041819861,"connected_time":839000000000,"state":"active","ping":95},{"user_id":874,"name":"Tick","steam_id":76561198184161214,"connected_time":1451000000000,"state":"active","ping":44},{"user_id":891,"name":"sorrow","steam_id":76561199108203038,"connected_time":278000000000,"state":"active","ping":60},{"user_id":888,"name":"Incoming","steam_id":76561199062581310,"connected_time":471000000000,"state":"active","ping":68},{"user_id":845,"name":"fifteen22","steam_id":76561198138781868,"connected_time":3853000000000,"state":"active","ping":78},{"user_id":869,"name":"Haxer","steam_id":76561198438402692,"connected_time":2044000000000,"state":"active","ping":38},{"user_id":882,"name":"Puke Skyfucker","steam_id":76561198012846213,"connected_time":1113000000000,"state":"active","ping":81},{"user_id":841,"name":"wunkem","steam_id":76561198055948497,"connected_time":4031000000000,"state":"active","ping":66},{"user_id":860,"name":"Fiendish Frog","steam_id":76561198029478821,"connected_time":2444000000000,"state":"active","ping":74},{"user_id":838,"name":"YWCHLAN.IO","steam_id":76561198041438503,"connected_time":4080000000000,"state":"active","ping":85},{"user_id":894,"name":"koko","steam_id":76561198355923929,"connected_time":67000000000,"state":"active","ping":84},{"user_id":883,"name":"lilscaphoid","steam_id":76561198006723172,"connected_time":1107000000000,"state":"active","ping":97}]},{"server_id":38,"name":"Uncletopia | Chicago | 7 | Stopwatch","name_short":"chi-7","host":"chi-2.us.uncletopia.com","port":27035,"enabled":true,"region":"us-central","cc":"us","latitude":41.881832,"longitude":-87.62318,"reserved":0,"last_update":"0001-01-01T00:00:00Z","name_a2s":"Uncletopia | Chicago | 7 | Stopwatch","protocol":17,"map":"pl_swiftwater_final1","folder":"tf","game":"Team Fortress","app_id":440,"player_count":0,"max_players":24,"Bots":0,"server_type":"Dedicated","server_os":"Linux","password":true,"vac":true,"version":"7961495","steam_id":85568392924866364,"keywords":["nocrits","nodmgspread","payload","uncletopia"],"game_id":440,"stv_port":27036,"stv_name":"Uncletopia | Chicago | 7 | Stopwatch | STV","players":null},{"server_id":39,"name":"Uncletopia | Chicago | 8 | Community","name_short":"chi-8","host":"chi-2.us.uncletopia.com","port":27045,"enabled":true,"region":"us-central","cc":"us","latitude":41.881832,"longitude":-87.62318,"reserved":0,"last_update":"0001-01-01T00:00:00Z","name_a2s":"Uncletopia | Chicago | 8 | Community","protocol":17,"map":"workshop/cp_propaganda_b18.ugc1603743849","folder":"tf","game":"Team Fortress","app_id":440,"player_count":23,"max_players":24,"Bots":0,"server_type":"Dedicated","server_os":"Linux","password":true,"vac":true,"version":"7961495","steam_id":85568392924866365,"keywords":["cp","nocrits","nodmgspread","uncletopia"],"game_id":440,"stv_port":27046,"stv_name":"Uncletopia | Chicago | 8 | Community | STV","players":[{"user_id":182,"name":"DaMultiversalist","steam_id":76561198239552412,"connected_time":55000000000,"state":"active","ping":59},{"user_id":153,"name":"y our #1 bigest fan!1","steam_id":76561198425503395,"connected_time":2433000000000,"state":"active","ping":62},{"user_id":170,"name":"Viennetta","steam_id":76561198044088335,"connected_time":1395000000000,"state":"active","ping":59},{"user_id":183,"name":"Man Man","steam_id":76561199068338634,"connected_time":51000000000,"state":"active","ping":81},{"user_id":129,"name":"NUt","steam_id":76561198031007966,"connected_time":3958000000000,"state":"active","ping":58},{"user_id":184,"name":"s420","steam_id":76561198065339248,"connected_time":48000000000,"state":"active","ping":102},{"user_id":147,"name":"LeBron James","steam_id":76561198086978424,"connected_time":2851000000000,"state":"active","ping":54},{"user_id":131,"name":"Some_Arse","steam_id":76561198039095394,"connected_time":3841000000000,"state":"active","ping":60},{"user_id":172,"name":"chunk","steam_id":76561198134775401,"connected_time":999000000000,"state":"active","ping":56},{"user_id":185,"name":"HAHAHAHA!!!","steam_id":76561199208835578,"connected_time":32000000000,"state":"spawning","ping":231},{"user_id":133,"name":"gundself","steam_id":76561198799241927,"connected_time":3818000000000,"state":"active","ping":131},{"user_id":178,"name":"PokoRacc","steam_id":76561198931436503,"connected_time":487000000000,"state":"active","ping":56},{"user_id":166,"name":"chok","steam_id":76561198242016100,"connected_time":1709000000000,"state":"active","ping":89},{"user_id":167,"name":"he suckin on my rick til i mort","steam_id":76561198310711692,"connected_time":1634000000000,"state":"active","ping":171},{"user_id":134,"name":"Nola","steam_id":76561198969082311,"connected_time":3796000000000,"state":"active","ping":105},{"user_id":171,"name":"spurdala","steam_id":76561198886546942,"connected_time":1004000000000,"state":"active","ping":142},{"user_id":186,"name":"batheman63","steam_id":76561198881818552,"connected_time":26000000000,"state":"active","ping":85},{"user_id":187,"name":"CheekiBreeki","steam_id":76561198008596138,"connected_time":7000000000,"state":"spawning","ping":119},{"user_id":168,"name":"thai","steam_id":76561198052462287,"connected_time":1537000000000,"state":"active","ping":76},{"user_id":180,"name":"aisu","steam_id":76561198043768507,"connected_time":319000000000,"state":"active","ping":60},{"user_id":169,"name":"BLANK3T [They/He femboy on THC]","steam_id":76561198028875624,"connected_time":1528000000000,"state":"spawning","ping":184},{"user_id":181,"name":"teegs","steam_id":76561198067905221,"connected_time":163000000000,"state":"active","ping":47},{"user_id":174,"name":"y0","steam_id":76561198143894333,"connected_time":992000000000,"state":"active","ping":60}]},{"server_id":8,"name":"Uncletopia | Dallas | 1 | All Maps","name_short":"dal-1","host":"dal-1.us.uncletopia.com","port":27015,"enabled":true,"region":"us-central","cc":"us","latitude":32.779167,"longitude":-96.80889,"reserved":0,"last_update":"0001-01-01T00:00:00Z","name_a2s":"Uncletopia | Dallas | 1 | All Maps","protocol":17,"map":"cp_5gorge","folder":"tf","game":"Team Fortress","app_id":440,"player_count":24,"max_players":24,"Bots":0,"server_type":"Dedicated","server_os":"Linux","password":true,"vac":true,"version":"7961495","steam_id":85568392924469986,"keywords":["cp","nocrits","nodmgspread","uncletopia"],"game_id":440,"stv_port":27016,"stv_name":"Uncletopia | Dallas | 1 | All Maps | STV","players":[{"user_id":394,"name":"123Domino","steam_id":76561199162776745,"connected_time":1409000000000,"state":"active","ping":85},{"user_id":420,"name":"Avenging Spirit","steam_id":76561198119572121,"connected_time":159000000000,"state":"active","ping":73},{"user_id":425,"name":"Gary Budussy","steam_id":76561197969793969,"connected_time":32000000000,"state":"active","ping":83},{"user_id":380,"name":"A Shiny Meat Bicycle","steam_id":76561198358757709,"connected_time":1883000000000,"state":"active","ping":85},{"user_id":413,"name":"RaixaR","steam_id":76561198025289430,"connected_time":422000000000,"state":"active","ping":51},{"user_id":415,"name":"LampMan","steam_id":76561198079857527,"connected_time":214000000000,"state":"active","ping":49},{"user_id":337,"name":"tj3002rocks","steam_id":76561199017921546,"connected_time":5121000000000,"state":"active","ping":57},{"user_id":399,"name":"Zelumie","steam_id":76561198147335801,"connected_time":1019000000000,"state":"active","ping":75},{"user_id":414,"name":"Rob","steam_id":76561199187786660,"connected_time":276000000000,"state":"active","ping":56},{"user_id":390,"name":"DivineBanana","steam_id":76561198026529731,"connected_time":1576000000000,"state":"active","ping":92},{"user_id":404,"name":"my piss isnt neon yellow anymor","steam_id":76561198257023512,"connected_time":980000000000,"state":"active","ping":57},{"user_id":384,"name":"SparksKitsune","steam_id":76561198066890691,"connected_time":1779000000000,"state":"active","ping":50},{"user_id":412,"name":"munch","steam_id":76561198820480684,"connected_time":499000000000,"state":"active","ping":60},{"user_id":410,"name":"Two-Ton Heavy Thing","steam_id":76561198201724274,"connected_time":565000000000,"state":"active","ping":97},{"user_id":386,"name":"xLeoparrd","steam_id":76561198940657194,"connected_time":1747000000000,"state":"active","ping":60},{"user_id":418,"name":"Hunter","steam_id":76561198071823667,"connected_time":185000000000,"state":"active","ping":76},{"user_id":421,"name":"üîªSanguine","steam_id":76561198059145903,"connected_time":151000000000,"state":"active","ping":61},{"user_id":422,"name":"Saiki K.","steam_id":76561199187226776,"connected_time":126000000000,"state":"active","ping":175},{"user_id":423,"name":"trash beast","steam_id":76561198015792736,"connected_time":78000000000,"state":"active","ping":74},{"user_id":405,"name":"aofi the flat tgirl","steam_id":76561199172110503,"connected_time":957000000000,"state":"active","ping":52},{"user_id":406,"name":"scoobert","steam_id":76561199215184828,"connected_time":946000000000,"state":"active","ping":97},{"user_id":424,"name":"Not Giga Chad","steam_id":76561198059785363,"connected_time":70000000000,"state":"active","ping":63},{"user_id":393,"name":"Indian Elephant From Pokemon","steam_id":76561198064249841,"connected_time":1422000000000,"state":"active","ping":88},{"user_id":396,"name":"Super Trump","steam_id":76561198064302940,"connected_time":1150000000000,"state":"active","ping":90}]},{"server_id":108,"name":"Uncletopia | Dallas | 2 | All Maps","name_short":"dal-2","host":"dal-1.us.uncletopia.com","port":27025,"enabled":true,"region":"us-central","cc":"us","latitude":32.779167,"longitude":-96.80889,"reserved":0,"last_update":"0001-01-01T00:00:00Z","name_a2s":"Uncletopia | Dallas | 2 | All Maps","protocol":17,"map":"pl_badwater","folder":"tf","game":"Team Fortress","app_id":440,"player_count":24,"max_players":24,"Bots":0,"server_type":"Dedicated","server_os":"Linux","password":true,"vac":true,"version":"7961495","steam_id":85568392924469988,"keywords":["nocrits","nodmgspread","payload","uncletopia"],"game_id":440,"stv_port":27026,"stv_name":"Uncletopia | Dallas | 2 | All Maps | STV","players":[{"user_id":535,"name":"BurnN8or101","steam_id":76561198132668224,"connected_time":3942000000000,"state":"active","ping":66},{"user_id":559,"name":"caspian","steam_id":76561197985724357,"connected_time":2148000000000,"state":"active","ping":130},{"user_id":562,"name":"[DATS‚û°] Sugar Meowth","steam_id":76561197995251793,"connected_time":1412000000000,"state":"active","ping":97},{"user_id":563,"name":"Rudy","steam_id":76561198013456828,"connected_time":1410000000000,"state":"active","ping":82},{"user_id":542,"name":"DeckofDragons","steam_id":76561198057398213,"connected_time":3300000000000,"state":"active","ping":73},{"user_id":550,"name":"Voids","steam_id":76561198128386726,"connected_time":2854000000000,"state":"active","ping":82},{"user_id":571,"name":"yeeye","steam_id":76561198094306054,"connected_time":1176000000000,"state":"active","ping":62},{"user_id":552,"name":"Cat doin laundry","steam_id":76561198063895852,"connected_time":2705000000000,"state":"active","ping":59},{"user_id":574,"name":"my name jeff","steam_id":76561198179816898,"connected_time":609000000000,"state":"active","ping":107},{"user_id":564,"name":"hot twinks","steam_id":76561198004541426,"connected_time":1376000000000,"state":"active","ping":75},{"user_id":533,"name":"Gary Busey","steam_id":76561197970096950,"connected_time":4103000000000,"state":"active","ping":39},{"user_id":546,"name":"twitch.tv/madvillainwill","steam_id":76561197961102957,"connected_time":3286000000000,"state":"active","ping":71},{"user_id":565,"name":"bingus :3","steam_id":76561199198633203,"connected_time":1319000000000,"state":"active","ping":130},{"user_id":483,"name":"Phos","steam_id":76561198122339506,"connected_time":6918000000000,"state":"active","ping":69},{"user_id":534,"name":"Kzjytsugn","steam_id":76561198130241974,"connected_time":4032000000000,"state":"active","ping":103},{"user_id":566,"name":"SaxyThePhone","steam_id":76561199439167761,"connected_time":1318000000000,"state":"active","ping":79},{"user_id":567,"name":"bonk man","steam_id":76561198386542309,"connected_time":1305000000000,"state":"active","ping":131},{"user_id":575,"name":"‚≠ê aloha! :3 ‚≠ê","steam_id":76561198148517055,"connected_time":116000000000,"state":"active","ping":135},{"user_id":560,"name":"D.E.O","steam_id":76561198096992957,"connected_time":1740000000000,"state":"active","ping":132},{"user_id":569,"name":"Hart","steam_id":76561199118241286,"connected_time":1271000000000,"state":"active","ping":80},{"user_id":570,"name":"Yoloman64","steam_id":76561199046752039,"connected_time":1188000000000,"state":"active","ping":116},{"user_id":555,"name":"Dent","steam_id":76561198304978514,"connected_time":2511000000000,"state":"active","ping":88},{"user_id":573,"name":"Toasterduds","steam_id":76561198163477584,"connected_time":646000000000,"state":"active","ping":94},{"user_id":531,"name":"rf","steam_id":76561198195359229,"connected_time":4324000000000,"state":"active","ping":96}]},{"server_id":404,"name":"Uncletopia | Dallas | 3 | All Maps","name_short":"dal-3","host":"dal-1.us.uncletopia.com","port":27035,"enabled":true,"region":"us-central","cc":"us","latitude":32.779167,"longitude":-96.80889,"reserved":0,"last_update":"0001-01-01T00:00:00Z","name_a2s":"Uncletopia | Dallas | 3 | All Maps","protocol":17,"map":"pl_upward","folder":"tf","game":"Team Fortress","app_id":440,"player_count":24,"max_players":24,"Bots":0,"server_type":"Dedicated","server_os":"Linux","password":true,"vac":true,"version":"7961495","steam_id":85568392924515219,"keywords":["nocrits","nodmgspread","payload","uncletopia"],"game_id":440,"stv_port":27036,"stv_name":"Uncletopia | Dallas | 3 | All Maps | STV","players":[{"user_id":189,"name":"Gavil√°n","steam_id":76561198285212453,"connected_time":1527000000000,"state":"active","ping":72},{"user_id":204,"name":"Grilled Jizo","steam_id":76561199250875340,"connected_time":205000000000,"state":"active","ping":110},{"user_id":205,"name":"DudeBergs","steam_id":76561198399777833,"connected_time":50000000000,"state":"active","ping":67},{"user_id":182,"name":"doughboy","steam_id":76561198219012928,"connected_time":2162000000000,"state":"active","ping":76},{"user_id":169,"name":"BrightOrangeMango","steam_id":76561198023144607,"connected_time":4072000000000,"state":"active","ping":83},{"user_id":188,"name":"U œâ U","steam_id":76561198118802562,"connected_time":1587000000000,"state":"active","ping":89},{"user_id":199,"name":"Elder Titan","steam_id":76561198025397370,"connected_time":722000000000,"state":"active","ping":83},{"user_id":197,"name":"Hugs","steam_id":76561198214584133,"connected_time":1153000000000,"state":"active","ping":92},{"user_id":175,"name":"self sufficient kitten","steam_id":76561197960592612,"connected_time":2921000000000,"state":"active","ping":92},{"user_id":198,"name":"transbian disaster","steam_id":76561198407600762,"connected_time":1135000000000,"state":"active","ping":110},{"user_id":176,"name":"conner","steam_id":76561198052911241,"connected_time":2904000000000,"state":"active","ping":95},{"user_id":179,"name":"H2OBourne","steam_id":76561198396293109,"connected_time":2251000000000,"state":"active","ping":67},{"user_id":193,"name":"Alex","steam_id":76561198176724251,"connected_time":1517000000000,"state":"active","ping":62},{"user_id":202,"name":"blademiss","steam_id":76561198062083019,"connected_time":448000000000,"state":"active","ping":81},{"user_id":123,"name":"TheBrocklobster","steam_id":76561198039682984,"connected_time":7954000000000,"state":"active","ping":93},{"user_id":146,"name":"tail slap +36 (4d12+18)","steam_id":76561198040425096,"connected_time":5907000000000,"state":"active","ping":73},{"user_id":153,"name":"‚ù§ Ashley ‚ù§","steam_id":76561198056428303,"connected_time":5761000000000,"state":"active","ping":82},{"user_id":178,"name":"Breach","steam_id":76561198045060392,"connected_time":2539000000000,"state":"active","ping":60},{"user_id":196,"name":"reko","steam_id":76561198278020887,"connected_time":1294000000000,"state":"active","ping":85},{"user_id":195,"name":"Chemzo","steam_id":76561199092858118,"connected_time":1504000000000,"state":"active","ping":82},{"user_id":203,"name":"Krackman","steam_id":76561198868818762,"connected_time":358000000000,"state":"active","ping":45},{"user_id":149,"name":"Eden","steam_id":76561198081284664,"connected_time":5874000000000,"state":"active","ping":81},{"user_id":180,"name":"A Fruit","steam_id":76561198951830050,"connected_time":2226000000000,"state":"active","ping":48},{"user_id":174,"name":"Six","steam_id":76561198035688070,"connected_time":3705000000000,"state":"active","ping":99}]},{"server_id":405,"name":"Uncletopia | Dallas | 4 | Community","name_short":"dal-4","host":"dal-1.us.uncletopia.com","port":27045,"enabled":true,"region":"us-central","cc":"us","latitude":32.779167,"longitude":-96.80889,"reserved":0,"last_update":"0001-01-01T00:00:00Z","name_a2s":"Uncletopia | Dallas | 4 | Community","protocol":17,"map":"workshop/pl_emerge_rc2.ugc888027758","folder":"tf","game":"Team Fortress","app_id":440,"player_count":0,"max_players":24,"Bots":0,"server_type":"Dedicated","server_os":"Linux","password":true,"vac":true,"version":"7961495","steam_id":85568392924515220,"keywords":["nocrits","nodmgspread","payload","uncletopia"],"game_id":440,"stv_port":27046,"stv_name":"Uncletopia | Dallas | 4 | Community | STV","players":null},{"server_id":5,"name":"Uncletopia | Frankfurt | 1 | All Maps","name_short":"frk-1","host":"frk-1.de.uncletopia.com","port":27015,"enabled":true,"region":"eu","cc":"de","latitude":50.110924,"longitude":8.682127,"reserved":0,"last_update":"0001-01-01T00:00:00Z","name_a2s":"Uncletopia | Frankfurt | 1 | All Maps","protocol":17,"map":"koth_viaduct","folder":"tf","game":"Team Fortress","app_id":440,"player_count":0,"max_players":24,"Bots":0,"server_type":"Dedicated","server_os":"Linux","password":true,"vac":true,"version":"7961495","steam_id":85568392924469989,"keywords":["cp","nocrits","nodmgspread","uncletopia"],"game_id":440,"stv_port":27016,"stv_name":"Uncletopia | Frankfurt | 1 | All Maps | STV","players":null},{"server_id":110,"name":"Uncletopia | Frankfurt | 2 | All Maps","name_short":"frk-2","host":"frk-1.de.uncletopia.com","port":27025,"enabled":true,"region":"eu","cc":"de","latitude":50.110924,"longitude":8.682127,"reserved":0,"last_update":"0001-01-01T00:00:00Z","name_a2s":"Uncletopia | Frankfurt | 2 | All Maps","protocol":17,"map":"pl_upward","folder":"tf","game":"Team Fortress","app_id":440,"player_count":24,"max_players":24,"Bots":0,"server_type":"Dedicated","server_os":"Linux","password":true,"vac":true,"version":"7961495","steam_id":85568392924469990,"keywords":["nocrits","nodmgspread","payload","uncletopia"],"game_id":440,"stv_port":27026,"stv_name":"Uncletopia | Frankfurt | 2 | All Maps | STV","players":[{"user_id":604,"name":"lili's boy","steam_id":76561198162873354,"connected_time":5572000000000,"state":"active","ping":90},{"user_id":612,"name":"snowycoast","steam_id":76561198346638308,"connected_time":4565000000000,"state":"active","ping":61},{"user_id":660,"name":"Zedifo","steam_id":76561198044032070,"connected_time":218000000000,"state":"active","ping":55},{"user_id":613,"name":"boombox","steam_id":76561198083122882,"connected_time":4487000000000,"state":"active","ping":48},{"user_id":650,"name":"Opigufyt","steam_id":76561198016838575,"connected_time":1364000000000,"state":"active","ping":47},{"user_id":638,"name":"Kreld","steam_id":76561198047794615,"connected_time":2581000000000,"state":"active","ping":105},{"user_id":659,"name":"Mourning","steam_id":76561198156343940,"connected_time":347000000000,"state":"active","ping":51},{"user_id":603,"name":"noseb","steam_id":76561199480942903,"connected_time":5789000000000,"state":"active","ping":71},{"user_id":653,"name":"‚ô• Sara ‚ô•","steam_id":76561198074863163,"connected_time":917000000000,"state":"active","ping":75},{"user_id":661,"name":"SameOldSong","steam_id":76561199006752737,"connected_time":173000000000,"state":"active","ping":74},{"user_id":607,"name":"SuperBob103","steam_id":76561199175360012,"connected_time":5444000000000,"state":"active","ping":61},{"user_id":577,"name":"sad monkey","steam_id":76561198116530769,"connected_time":8846000000000,"state":"active","ping":86},{"user_id":640,"name":"h1tlex","steam_id":76561198129781465,"connected_time":2519000000000,"state":"active","ping":57},{"user_id":616,"name":"FredBoat‚ô™‚ô™ ·¥Æ·¥º·µÄ","steam_id":76561198444947648,"connected_time":4400000000000,"state":"active","ping":136},{"user_id":654,"name":"lillunya ‚ô°","steam_id":76561198330418866,"connected_time":820000000000,"state":"active","ping":58},{"user_id":655,"name":"Arkainiel Silver","steam_id":76561198188302519,"connected_time":628000000000,"state":"active","ping":47},{"user_id":597,"name":"Zor","steam_id":76561198009851383,"connected_time":5809000000000,"state":"active","ping":62},{"user_id":637,"name":"Seroker","steam_id":76561198268138058,"connected_time":2603000000000,"state":"active","ping":196},{"user_id":662,"name":"Mizzow","steam_id":76561198008040797,"connected_time":171000000000,"state":"active","ping":73},{"user_id":639,"name":"Lyncurion","steam_id":76561199260022725,"connected_time":2571000000000,"state":"active","ping":70},{"user_id":595,"name":"Bobirulez","steam_id":76561198009125458,"connected_time":6226000000000,"state":"active","ping":74},{"user_id":641,"name":"KennyD","steam_id":76561198117763254,"connected_time":2498000000000,"state":"active","ping":79},{"user_id":576,"name":"syms","steam_id":76561198066679812,"connected_time":8870000000000,"state":"active","ping":73},{"user_id":649,"name":"Lewylow","steam_id":76561198005425686,"connected_time":1427000000000,"state":"active","ping":62}]},{"server_id":308,"name":"Uncletopia | Frankfurt | 3 | All Maps","name_short":"frk-3","host":"frk-1.de.uncletopia.com","port":27035,"enabled":true,"region":"eu","cc":"de","latitude":50.110924,"longitude":8.682127,"reserved":0,"last_update":"0001-01-01T00:00:00Z","name_a2s":"Uncletopia | Frankfurt | 3 | All Maps","protocol":17,"map":"cp_dustbowl","folder":"tf","game":"Team Fortress","app_id":440,"player_count":0,"max_players":24,"Bots":0,"server_type":"Dedicated","server_os":"Linux","password":true,"vac":true,"version":"7961495","steam_id":85568392924504274,"keywords":["cp","nocrits","nodmgspread","uncletopia"],"game_id":440,"stv_port":27036,"stv_name":"Uncletopia | Frankfurt | 3 | All Maps | STV","players":null},{"server_id":309,"name":"Uncletopia | Frankfurt | 4 | All Maps","name_short":"frk-4","host":"frk-1.de.uncletopia.com","port":27045,"enabled":true,"region":"eu","cc":"de","latitude":50.110924,"longitude":8.682127,"reserved":0,"last_update":"0001-01-01T00:00:00Z","name_a2s":"Uncletopia | Frankfurt | 4 | All Maps","protocol":17,"map":"pl_badwater","folder":"tf","game":"Team Fortress","app_id":440,"player_count":0,"max_players":24,"Bots":0,"server_type":"Dedicated","server_os":"Linux","password":true,"vac":true,"version":"7961495","steam_id":85568392924504275,"keywords":["nocrits","nodmgspread","payload","uncletopia"],"game_id":440,"stv_port":27046,"stv_name":"Uncletopia | Frankfurt | 4 | All Maps | STV","players":null},{"server_id":310,"name":"Uncletopia | Frankfurt | 5 | All Maps","name_short":"frk-5","host":"frk-1.de.uncletopia.com","port":27055,"enabled":true,"region":"eu","cc":"de","latitude":50.110924,"longitude":8.682127,"reserved":0,"last_update":"0001-01-01T00:00:00Z","name_a2s":"Uncletopia | Frankfurt | 5 | All Maps","protocol":17,"map":"cp_dustbowl","folder":"tf","game":"Team Fortress","app_id":440,"player_count":0,"max_players":24,"Bots":0,"server_type":"Dedicated","server_os":"Linux","password":true,"vac":true,"version":"7961495","steam_id":85568392924504277,"keywords":["cp","nocrits","nodmgspread","uncletopia"],"game_id":440,"stv_port":27056,"stv_name":"Uncletopia | Frankfurt | 5 | All Maps | STV","players":null},{"server_id":311,"name":"Uncletopia | Frankfurt | 6 | All Maps","name_short":"frk-6","host":"frk-1.de.uncletopia.com","port":27065,"enabled":true,"region":"eu","cc":"de","latitude":50.110924,"longitude":8.682127,"reserved":0,"last_update":"0001-01-01T00:00:00Z","name_a2s":"Uncletopia | Frankfurt | 6 | All Maps","protocol":17,"map":"cp_altitude","folder":"tf","game":"Team Fortress","app_id":440,"player_count":0,"max_players":24,"Bots":0,"server_type":"Dedicated","server_os":"Linux","password":true,"vac":true,"version":"7961495","steam_id":85568392924504278,"keywords":["cp","nocrits","nodmgspread","uncletopia"],"game_id":440,"stv_port":27066,"stv_name":"Uncletopia | Frankfurt | 6 | All Maps | STV","players":null},{"server_id":23,"name":"Uncletopia | Frankfurt | 7 | Stopwatch","name_short":"frk-7","host":"frk-1.de.uncletopia.com","port":27075,"enabled":true,"region":"eu","cc":"de","latitude":50.110924,"longitude":8.682127,"reserved":0,"last_update":"0001-01-01T00:00:00Z","name_a2s":"Uncletopia | Frankfurt | 7 | Stopwatch","protocol":17,"map":"workshop/koth_clearcut_b15.ugc2107050255","folder":"tf","game":"Team Fortress","app_id":440,"player_count":0,"max_players":24,"Bots":0,"server_type":"Dedicated","server_os":"Linux","password":true,"vac":true,"version":"7961495","steam_id":85568392924742827,"keywords":["cp","nocrits","nodmgspread","uncletopia"],"game_id":440,"stv_port":27076,"stv_name":"Uncletopia | Frankfurt | 7 | Stopwatch | STV","players":null},{"server_id":24,"name":"Uncletopia | Frankfurt | 8 | Community","name_short":"frk-8","host":"frk-1.de.uncletopia.com","port":27085,"enabled":true,"region":"eu","cc":"de","latitude":50.110924,"longitude":8.682127,"reserved":0,"last_update":"0001-01-01T00:00:00Z","name_a2s":"Uncletopia | Frankfurt | 8 | Community","protocol":17,"map":"workshop/koth_bagel_rc6.ugc2514036946","folder":"tf","game":"Team Fortress","app_id":440,"player_count":0,"max_players":24,"Bots":0,"server_type":"Dedicated","server_os":"Linux","password":true,"vac":true,"version":"7961495","steam_id":85568392924742828,"keywords":["cp","nocrits","nodmgspread","uncletopia"],"game_id":440,"stv_port":27086,"stv_name":"Uncletopia | Frankfurt | 8 | Community | STV","players":null},{"server_id":202,"name":"Uncletopia | Hong Kong | 1 | All Maps","name_short":"hgk-1","host":"hgk-1.hk.uncletopia.com","port":27015,"enabled":true,"region":"asia","cc":"hk","latitude":22.302711,"longitude":114.177216,"reserved":0,"last_update":"0001-01-01T00:00:00Z","name_a2s":"Uncletopia | Hong Kong | 1 | All Maps","protocol":17,"map":"pl_frontier_final","folder":"tf","game":"Team Fortress","app_id":440,"player_count":0,"max_players":24,"Bots":0,"server_type":"Dedicated","server_os":"Linux","password":true,"vac":true,"version":"7961495","steam_id":85568392924494504,"keywords":["nocrits","nodmgspread","payload","uncletopia"],"game_id":440,"stv_port":27016,"stv_name":"Uncletopia | Hong Kong | 1 | All Maps | STV","players":null},{"server_id":1,"name":"Uncletopia | Los Angeles | 1 | All Maps","name_short":"lax-1","host":"lax-1.us.uncletopia.com","port":27015,"enabled":true,"region":"us-west","cc":"us","latitude":33.94279,"longitude":-118.41004,"reserved":0,"last_update":"0001-01-01T00:00:00Z","name_a2s":"Uncletopia | Los Angeles | 1 | All Maps","protocol":17,"map":"koth_lakeside_final","folder":"tf","game":"Team Fortress","app_id":440,"player_count":2,"max_players":24,"Bots":0,"server_type":"Dedicated","server_os":"Linux","password":true,"vac":true,"version":"7961495","steam_id":85568392924469991,"keywords":["cp","nocrits","nodmgspread","uncletopia"],"game_id":440,"stv_port":27016,"stv_name":"Uncletopia | Los Angeles | 1 | All Maps | STV","players":[{"user_id":16,"name":"Wexlop","steam_id":76561198355710841,"connected_time":65000000000,"state":"active","ping":54},{"user_id":17,"name":"Birdman743","steam_id":76561198799636748,"connected_time":3000000000,"state":"spawning","ping":70}]},{"server_id":112,"name":"Uncletopia | Los Angeles | 2 | All Maps","name_short":"lax-2","host":"lax-1.us.uncletopia.com","port":27025,"enabled":true,"region":"us-west","cc":"us","latitude":33.94279,"longitude":-118.41004,"reserved":0,"last_update":"0001-01-01T00:00:00Z","name_a2s":"Uncletopia | Los Angeles | 2 | All Maps","protocol":17,"map":"pl_upward","folder":"tf","game":"Team Fortress","app_id":440,"player_count":24,"max_players":24,"Bots":0,"server_type":"Dedicated","server_os":"Linux","password":true,"vac":true,"version":"7961495","steam_id":85568392924469992,"keywords":["nocrits","nodmgspread","payload","uncletopia"],"game_id":440,"stv_port":27026,"stv_name":"Uncletopia | Los Angeles | 2 | All Maps | STV","players":[{"user_id":108,"name":"Marz","steam_id":76561198799364911,"connected_time":2179000000000,"state":"active","ping":114},{"user_id":64,"name":"King Glouton","steam_id":76561197998979392,"connected_time":3989000000000,"state":"active","ping":119},{"user_id":137,"name":"momus","steam_id":76561198966979196,"connected_time":194000000000,"state":"active","ping":46},{"user_id":115,"name":"poopweed24","steam_id":76561198338739253,"connected_time":2123000000000,"state":"active","ping":61},{"user_id":139,"name":"Ian","steam_id":76561198159334435,"connected_time":95000000000,"state":"active","ping":166},{"user_id":109,"name":"Mocha Josie","steam_id":76561198066452726,"connected_time":2166000000000,"state":"active","ping":62},{"user_id":21,"name":"Gerbias","steam_id":76561198001002427,"connected_time":6114000000000,"state":"active","ping":63},{"user_id":123,"name":"Wub-Zero","steam_id":76561198321416241,"connected_time":1680000000000,"state":"active","ping":60},{"user_id":125,"name":"MonkeyNobody","steam_id":76561199451266605,"connected_time":981000000000,"state":"active","ping":55},{"user_id":59,"name":"SAVECASEY","steam_id":76561198857896847,"connected_time":4763000000000,"state":"active","ping":45},{"user_id":133,"name":"Owl_eyes","steam_id":76561198066199203,"connected_time":671000000000,"state":"active","ping":56},{"user_id":66,"name":"phfez","steam_id":76561198046150386,"connected_time":3885000000000,"state":"active","ping":106},{"user_id":129,"name":"Pines","steam_id":76561199024146278,"connected_time":903000000000,"state":"active","ping":65},{"user_id":72,"name":"Daz","steam_id":76561198041431938,"connected_time":3242000000000,"state":"active","ping":76},{"user_id":130,"name":"PepperPotPete","steam_id":76561198251267326,"connected_time":902000000000,"state":"active","ping":80},{"user_id":67,"name":"SuperSX","steam_id":76561199230865085,"connected_time":3884000000000,"state":"active","ping":96},{"user_id":128,"name":"Reem0h","steam_id":76561198169848690,"connected_time":914000000000,"state":"active","ping":162},{"user_id":111,"name":"Pop","steam_id":76561199012562851,"connected_time":2160000000000,"state":"active","ping":120},{"user_id":118,"name":"Rock Kickass","steam_id":76561198450510841,"connected_time":2093000000000,"state":"active","ping":81},{"user_id":121,"name":"Bluedemon","steam_id":76561199212058684,"connected_time":1885000000000,"state":"active","ping":57},{"user_id":138,"name":"[TKC]NZNinja99","steam_id":76561198079315815,"connected_time":194000000000,"state":"active","ping":47},{"user_id":120,"name":"Argon","steam_id":76561199254804349,"connected_time":2017000000000,"state":"active","ping":114},{"user_id":134,"name":"TheBeepMann","steam_id":76561198156230733,"connected_time":494000000000,"state":"active","ping":42},{"user_id":83,"name":"Dog","steam_id":76561198041841128,"connected_time":2960000000000,"state":"active","ping":58}]},{"server_id":324,"name":"Uncletopia | Los Angeles | 3 | All Maps","name_short":"lax-3","host":"lax-1.us.uncletopia.com","port":27035,"enabled":true,"region":"us-west","cc":"us","latitude":33.94279,"longitude":-118.41004,"reserved":0,"last_update":"0001-01-01T00:00:00Z","name_a2s":"Uncletopia | Los Angeles | 3 | All Maps","protocol":17,"map":"cp_snakewater_final1","folder":"tf","game":"Team Fortress","app_id":440,"player_count":0,"max_players":24,"Bots":0,"server_type":"Dedicated","server_os":"Linux","password":true,"vac":true,"version":"7961495","steam_id":85568392924510198,"keywords":["cp","nocrits","nodmgspread","uncletopia"],"game_id":440,"stv_port":27036,"stv_name":"Uncletopia | Los Angeles | 3 | All Maps | STV","players":null},{"server_id":25,"name":"Uncletopia | Los Angeles | 4 | Stopwatch","name_short":"lax-4","host":"lax-1.us.uncletopia.com","port":27045,"enabled":true,"region":"us-west","cc":"us","latitude":33.94279,"longitude":-118.41004,"reserved":0,"last_update":"0001-01-01T00:00:00Z","name_a2s":"Uncletopia | Los Angeles | 4 | Stopwatch","protocol":17,"map":"workshop/pl_vigil_rc10.ugc1266210012","folder":"tf","game":"Team Fortress","app_id":440,"player_count":0,"max_players":24,"Bots":0,"server_type":"Dedicated","server_os":"Linux","password":true,"vac":true,"version":"7961495","steam_id":85568392924510199,"keywords":["nocrits","nodmgspread","payload","uncletopia"],"game_id":440,"stv_port":27046,"stv_name":"Uncletopia | Los Angeles | 4 | Stopwatch | STV","players":null},{"server_id":11,"name":"Uncletopia | London | 1 | All Maps","name_short":"lon-1","host":"lon-1.uk.uncletopia.com","port":27015,"enabled":true,"region":"eu","cc":"gb","latitude":51.509865,"longitude":-0.118092,"reserved":0,"last_update":"0001-01-01T00:00:00Z","name_a2s":"Uncletopia | London | 1 | All Maps","protocol":17,"map":"koth_harvest_final","folder":"tf","game":"Team Fortress","app_id":440,"player_count":0,"max_players":24,"Bots":0,"server_type":"Dedicated","server_os":"Linux","password":true,"vac":true,"version":"7961495","steam_id":85568392924367362,"keywords":["cp","nocrits","nodmgspread","uncletopia"],"game_id":440,"stv_port":27016,"stv_name":"Uncletopia | London | 1 | All Maps | STV","players":null},{"server_id":114,"name":"Uncletopia | London | 2 | All Maps","name_short":"lon-2","host":"lon-1.uk.uncletopia.com","port":27025,"enabled":true,"region":"eu","cc":"gb","latitude":51.509865,"longitude":-0.118092,"reserved":0,"last_update":"0001-01-01T00:00:00Z","name_a2s":"Uncletopia | London | 2 | All Maps","protocol":17,"map":"pl_barnblitz","folder":"tf","game":"Team Fortress","app_id":440,"player_count":23,"max_players":24,"Bots":0,"server_type":"Dedicated","server_os":"Linux","password":true,"vac":true,"version":"7961495","steam_id":85568392924470941,"keywords":["nocrits","nodmgspread","payload","uncletopia"],"game_id":440,"stv_port":27026,"stv_name":"Uncletopia | London | 2 | All Maps | STV","players":[{"user_id":628,"name":"Zerfesh","steam_id":76561198117534358,"connected_time":10072000000000,"state":"active","ping":106},{"user_id":650,"name":"David","steam_id":76561198017852330,"connected_time":7584000000000,"state":"active","ping":85},{"user_id":669,"name":"Perpetual Pub Push","steam_id":76561198256714846,"connected_time":6701000000000,"state":"active","ping":30},{"user_id":727,"name":"Jonas","steam_id":76561198168975319,"connected_time":112000000000,"state":"active","ping":60},{"user_id":688,"name":"a chimp with a keyboard","steam_id":76561198060270322,"connected_time":4357000000000,"state":"active","ping":88},{"user_id":714,"name":"Mehlord","steam_id":76561198061371289,"connected_time":1481000000000,"state":"active","ping":116},{"user_id":712,"name":"Vivian From Paper Mario","steam_id":76561198077624205,"connected_time":1824000000000,"state":"active","ping":74},{"user_id":694,"name":"JuanPonchoGringo‚Ñ¢","steam_id":76561198038046899,"connected_time":3817000000000,"state":"active","ping":130},{"user_id":719,"name":"Cranbury","steam_id":76561198079170457,"connected_time":1246000000000,"state":"active","ping":47},{"user_id":685,"name":"amjugan","steam_id":76561198018488216,"connected_time":4876000000000,"state":"active","ping":129},{"user_id":680,"name":"xX_DogWater-Gaming69_Xx","steam_id":76561198335486000,"connected_time":5314000000000,"state":"active","ping":65},{"user_id":717,"name":"Visphiric","steam_id":76561198071938027,"connected_time":1316000000000,"state":"active","ping":37},{"user_id":713,"name":"JJ","steam_id":76561198040955086,"connected_time":1528000000000,"state":"active","ping":153},{"user_id":718,"name":"Emaen","steam_id":76561198093983380,"connected_time":1312000000000,"state":"active","ping":39},{"user_id":725,"name":"Comilot","steam_id":76561198040234609,"connected_time":345000000000,"state":"active","ping":102},{"user_id":695,"name":"LemonAids","steam_id":76561198151605171,"connected_time":3233000000000,"state":"active","ping":118},{"user_id":689,"name":"gamerweed5","steam_id":76561198087651151,"connected_time":4324000000000,"state":"active","ping":44},{"user_id":711,"name":"-Buzzy Lightyear-","steam_id":76561198160420805,"connected_time":1938000000000,"state":"active","ping":90},{"user_id":683,"name":"Tattletails","steam_id":76561198055690341,"connected_time":5075000000000,"state":"active","ping":56},{"user_id":715,"name":"SuntanPikachu","steam_id":76561198121242476,"connected_time":1479000000000,"state":"active","ping":55},{"user_id":660,"name":"\u003e\u003c\u003e","steam_id":76561198152392309,"connected_time":7494000000000,"state":"active","ping":50},{"user_id":716,"name":"PyroMorphik","steam_id":76561198157628007,"connected_time":1476000000000,"state":"active","ping":160},{"user_id":726,"name":"Ishbel","steam_id":76561198211990879,"connected_time":155000000000,"state":"active","ping":52}]},{"server_id":320,"name":"Uncletopia | London | 3 | All Maps","name_short":"lon-3","host":"lon-1.uk.uncletopia.com","port":27035,"enabled":true,"region":"eu","cc":"gb","latitude":51.509865,"longitude":-0.118092,"reserved":0,"last_update":"0001-01-01T00:00:00Z","name_a2s":"Uncletopia | London | 3 | All Maps","protocol":17,"map":"pl_frontier_final","folder":"tf","game":"Team Fortress","app_id":440,"player_count":0,"max_players":24,"Bots":0,"server_type":"Dedicated","server_os":"Linux","password":true,"vac":true,"version":"7961495","steam_id":85568392924510192,"keywords":["nocrits","nodmgspread","payload","uncletopia"],"game_id":440,"stv_port":27036,"stv_name":"Uncletopia | London | 3 | All Maps | STV","players":null},{"server_id":321,"name":"Uncletopia | London | 4 | All Maps","name_short":"lon-4","host":"lon-1.uk.uncletopia.com","port":27045,"enabled":true,"region":"eu","cc":"gb","latitude":51.509865,"longitude":-0.118092,"reserved":0,"last_update":"0001-01-01T00:00:00Z","name_a2s":"Uncletopia | London | 4 | All Maps","protocol":17,"map":"koth_highpass","folder":"tf","game":"Team Fortress","app_id":440,"player_count":0,"max_players":24,"Bots":0,"server_type":"Dedicated","server_os":"Linux","password":true,"vac":true,"version":"7961495","steam_id":85568392924510193,"keywords":["cp","nocrits","nodmgspread","uncletopia"],"game_id":440,"stv_port":27046,"stv_name":"Uncletopia | London | 4 | All Maps | STV","players":null},{"server_id":21,"name":"Uncletopia | London | 5 | All Maps","name_short":"lon-5","host":"lon-1.uk.uncletopia.com","port":27055,"enabled":true,"region":"eu","cc":"gb","latitude":51.509865,"longitude":-0.118092,"reserved":0,"last_update":"0001-01-01T00:00:00Z","name_a2s":"Uncletopia | London | 5 | All Maps","protocol":17,"map":"koth_viaduct","folder":"tf","game":"Team Fortress","app_id":440,"player_count":0,"max_players":24,"Bots":0,"server_type":"Dedicated","server_os":"Linux","password":true,"vac":true,"version":"7961495","steam_id":85568392924742829,"keywords":["cp","nocrits","nodmgspread","uncletopia"],"game_id":440,"stv_port":27056,"stv_name":"Uncletopia | London | 5 | All Maps | STV","players":null},{"server_id":22,"name":"Uncletopia | London | 6 | All Maps","name_short":"lon-6","host":"lon-1.uk.uncletopia.com","port":27065,"enabled":true,"region":"eu","cc":"gb","latitude":51.509865,"longitude":-0.118092,"reserved":0,"last_update":"0001-01-01T00:00:00Z","name_a2s":"Uncletopia | London | 6 | All Maps","protocol":17,"map":"cp_process_final","folder":"tf","game":"Team Fortress","app_id":440,"player_count":0,"max_players":24,"Bots":0,"server_type":"Dedicated","server_os":"Linux","password":true,"vac":true,"version":"7961495","steam_id":85568392924742830,"keywords":["cp","nocrits","nodmgspread","uncletopia"],"game_id":440,"stv_port":27066,"stv_name":"Uncletopia | London | 6 | All Maps | STV","players":null},{"server_id":40,"name":"Uncletopia | London | 7 | Stopwatch","name_short":"lon-7","host":"lon-1.uk.uncletopia.com","port":27075,"enabled":true,"region":"eu","cc":"gb","latitude":51.509865,"longitude":-0.118092,"reserved":0,"last_update":"0001-01-01T00:00:00Z","name_a2s":"Uncletopia | London | 7 | Stopwatch","protocol":17,"map":"pl_upward","folder":"tf","game":"Team Fortress","app_id":440,"player_count":0,"max_players":24,"Bots":0,"server_type":"Dedicated","server_os":"Linux","password":true,"vac":true,"version":"7961495","steam_id":85568392924964314,"keywords":["nocrits","nodmgspread","payload","uncletopia"],"game_id":440,"stv_port":27076,"stv_name":"Uncletopia | London | 7 | Stopwatch | STV","players":null},{"server_id":41,"name":"Uncletopia | London | 8 | Community","name_short":"lon-8","host":"lon-1.uk.uncletopia.com","port":27085,"enabled":true,"region":"eu","cc":"gb","latitude":51.509865,"longitude":-0.118092,"reserved":0,"last_update":"0001-01-01T00:00:00Z","name_a2s":"Uncletopia | London | 8 | Community","protocol":17,"map":"workshop/koth_bagel_rc6.ugc2514036946","folder":"tf","game":"Team Fortress","app_id":440,"player_count":0,"max_players":24,"Bots":0,"server_type":"Dedicated","server_os":"Linux","password":true,"vac":true,"version":"7961495","steam_id":85568392924964315,"keywords":["cp","nocrits","nodmgspread","uncletopia"],"game_id":440,"stv_port":27086,"stv_name":"Uncletopia | London | 8 | Community | STV","players":null},{"server_id":300,"name":"Uncletopia | Montr√©al | 1 | One Thousand Uncles","name_short":"mtl-1","host":"mtl-1.ca.uncletopia.com","port":27015,"enabled":true,"region":"us-east","cc":"ca","latitude":45.50889,"longitude":-73.56167,"reserved":0,"last_update":"0001-01-01T00:00:00Z","name_a2s":"","protocol":0,"map":"","folder":"","game":"","app_id":0,"player_count":5,"max_players":0,"Bots":0,"server_type":"","server_os":"","password":false,"vac":false,"version":"","steam_id":0,"keywords":null,"game_id":0,"stv_port":0,"stv_name":"","players":[{"user_id":463,"name":"Krabby","steam_id":76561198038002264,"connected_time":10648000000000,"state":"active","ping":79},{"user_id":661,"name":"orcluvr69","steam_id":76561198068712028,"connected_time":58000000000,"state":"active","ping":54},{"user_id":603,"name":"ArcticRescue","steam_id":76561198055362404,"connected_time":2808000000000,"state":"active","ping":45},{"user_id":573,"name":"A Future US Army Soldier","steam_id":76561198008263869,"connected_time":3705000000000,"state":"active","ping":47},{"user_id":335,"name":"Star_Mann_Jr.","steam_id":76561198071148924,"connected_time":16032000000000,"state":"active","ping":108}]},{"server_id":301,"name":"Uncletopia | Montr√©al | 2 | One Thousand Uncles","name_short":"mtl-2","host":"mtl-1.ca.uncletopia.com","port":27025,"enabled":true,"region":"us-east","cc":"ca","latitude":45.50889,"longitude":-73.56167,"reserved":0,"last_update":"0001-01-01T00:00:00Z","name_a2s":"","protocol":0,"map":"","folder":"","game":"","app_id":0,"player_count":0,"max_players":0,"Bots":0,"server_type":"","server_os":"","password":false,"vac":false,"version":"","steam_id":0,"keywords":null,"game_id":0,"stv_port":0,"stv_name":"","players":null},{"server_id":302,"name":"Uncletopia | Montr√©al | 3 | One Thousand Uncles","name_short":"mtl-3","host":"mtl-1.ca.uncletopia.com","port":27035,"enabled":true,"region":"us-east","cc":"ca","latitude":45.50889,"longitude":-73.56167,"reserved":0,"last_update":"0001-01-01T00:00:00Z","name_a2s":"","protocol":0,"map":"","folder":"","game":"","app_id":0,"player_count":12,"max_players":0,"Bots":0,"server_type":"","server_os":"","password":false,"vac":false,"version":"","steam_id":0,"keywords":null,"game_id":0,"stv_port":0,"stv_name":"","players":[{"user_id":281,"name":"Captian Wobbs","steam_id":76561198142884936,"connected_time":6625000000000,"state":"active","ping":86},{"user_id":313,"name":"pipebombrater","steam_id":76561199029030831,"connected_time":3754000000000,"state":"active","ping":78},{"user_id":282,"name":"concrete_car","steam_id":76561198388207363,"connected_time":6526000000000,"state":"active","ping":60},{"user_id":363,"name":"BrownMemeSter","steam_id":76561198113745020,"connected_time":29000000000,"state":"active","ping":50},{"user_id":341,"name":"you've got mail","steam_id":76561199216217686,"connected_time":944000000000,"state":"active","ping":75},{"user_id":333,"name":"bouncypear","steam_id":76561198199800094,"connected_time":2197000000000,"state":"active","ping":65},{"user_id":334,"name":"Mr.Bady","steam_id":76561199094651706,"connected_time":2187000000000,"state":"active","ping":36},{"user_id":342,"name":"Silly-Brained Sh3ba","steam_id":76561198047412394,"connected_time":423000000000,"state":"active","ping":164},{"user_id":361,"name":"St. Michael","steam_id":76561198037611052,"connected_time":169000000000,"state":"active","ping":76},{"user_id":337,"name":"man","steam_id":76561198003593070,"connected_time":1967000000000,"state":"active","ping":53},{"user_id":343,"name":"”®chpochmak","steam_id":76561198434212101,"connected_time":327000000000,"state":"active","ping":56},{"user_id":362,"name":"Im Groot","steam_id":76561198294943420,"connected_time":94000000000,"state":"active","ping":89}]},{"server_id":13,"name":"Uncletopia | New York City | 1 | All Maps","name_short":"nyc-1","host":"nyc-1.us.uncletopia.com","port":27015,"enabled":true,"region":"us-east","cc":"us","latitude":40.73061,"longitude":-73.93524,"reserved":0,"last_update":"0001-01-01T00:00:00Z","name_a2s":"Uncletopia | New York City | 1 | All Maps","protocol":17,"map":"pl_borneo","folder":"tf","game":"Team Fortress","app_id":440,"player_count":24,"max_players":24,"Bots":0,"server_type":"Dedicated","server_os":"Linux","password":true,"vac":true,"version":"7961495","steam_id":85568392924469993,"keywords":["nocrits","nodmgspread","payload","uncletopia"],"game_id":440,"stv_port":27016,"stv_name":"Uncletopia | New York City | 1 | All Maps | STV","players":[{"user_id":457,"name":"sooty","steam_id":76561198830243167,"connected_time":2125000000000,"state":"active","ping":60},{"user_id":458,"name":"BRUCE U","steam_id":76561198420252121,"connected_time":2002000000000,"state":"active","ping":52},{"user_id":478,"name":"stevie ape-shit","steam_id":76561198243965308,"connected_time":574000000000,"state":"active","ping":86},{"user_id":484,"name":"Parth Makeo","steam_id":76561198002516581,"connected_time":73000000000,"state":"spawning","ping":43},{"user_id":418,"name":"Yuzu","steam_id":76561198417913035,"connected_time":5651000000000,"state":"active","ping":77},{"user_id":465,"name":"soymilksteak","steam_id":76561198001488041,"connected_time":1122000000000,"state":"active","ping":115},{"user_id":459,"name":"i hate my bitchmade son","steam_id":76561198044034546,"connected_time":1952000000000,"state":"active","ping":67},{"user_id":487,"name":"bouncyhousin","steam_id":76561198852902827,"connected_time":25000000000,"state":"active","ping":73},{"user_id":486,"name":"[SEI]amike191","steam_id":76561198098094454,"connected_time":30000000000,"state":"active","ping":67},{"user_id":421,"name":"TheGrassMan (He/Him)","steam_id":76561198118984048,"connected_time":5573000000000,"state":"active","ping":72},{"user_id":468,"name":"ven the foreskin haver","steam_id":76561198880428283,"connected_time":1080000000000,"state":"active","ping":58},{"user_id":432,"name":"Voracious Puma","steam_id":76561197963621649,"connected_time":4359000000000,"state":"active","ping":90},{"user_id":470,"name":"Who loves orange soda?","steam_id":76561198059808982,"connected_time":1048000000000,"state":"active","ping":78},{"user_id":483,"name":"courtham","steam_id":76561198092023855,"connected_time":147000000000,"state":"active","ping":76},{"user_id":485,"name":"Gnome Gaming |HM|","steam_id":76561199034149160,"connected_time":50000000000,"state":"active","ping":141},{"user_id":440,"name":"SouerLuigi","steam_id":76561198261896480,"connected_time":3951000000000,"state":"active","ping":83},{"user_id":427,"name":"Brawns","steam_id":76561198045190199,"connected_time":5249000000000,"state":"active","ping":69},{"user_id":475,"name":"A man with no plan","steam_id":76561198031075099,"connected_time":841000000000,"state":"active","ping":104},{"user_id":429,"name":"space man","steam_id":76561198066333670,"connected_time":4600000000000,"state":"active","ping":72},{"user_id":472,"name":"AKA-1NC","steam_id":76561199397330767,"connected_time":1012000000000,"state":"active","ping":85},{"user_id":473,"name":"Nobody","steam_id":76561198286486517,"connected_time":1007000000000,"state":"active","ping":71},{"user_id":477,"name":"RandyPickleshoes","steam_id":76561198064139260,"connected_time":608000000000,"state":"active","ping":58},{"user_id":451,"name":"patdine","steam_id":76561198060865671,"connected_time":2535000000000,"state":"active","ping":65},{"user_id":425,"name":"Tristen0808","steam_id":76561198154235444,"connected_time":5352000000000,"state":"active","ping":76}]},{"server_id":14,"name":"Uncletopia | New York City | 2 | All Maps","name_short":"nyc-2","host":"nyc-1.us.uncletopia.com","port":27025,"enabled":true,"region":"us-east","cc":"us","latitude":40.73061,"longitude":-73.93524,"reserved":0,"last_update":"0001-01-01T00:00:00Z","name_a2s":"Uncletopia | New York City | 2 | All Maps","protocol":17,"map":"pl_goldrush","folder":"tf","game":"Team Fortress","app_id":440,"player_count":24,"max_players":24,"Bots":0,"server_type":"Dedicated","server_os":"Linux","password":true,"vac":true,"version":"7961495","steam_id":85568392924469994,"keywords":["nocrits","nodmgspread","payload","uncletopia"],"game_id":440,"stv_port":27026,"stv_name":"Uncletopia | New York City | 2 | All Maps | STV","players":[{"user_id":384,"name":"jaytheking05","steam_id":76561198856419769,"connected_time":836000000000,"state":"active","ping":44},{"user_id":389,"name":"Anbu.Karma","steam_id":76561198311923354,"connected_time":447000000000,"state":"active","ping":119},{"user_id":331,"name":"YesMargaret","steam_id":76561198127971751,"connected_time":5565000000000,"state":"active","ping":79},{"user_id":367,"name":"retinz","steam_id":76561198135563495,"connected_time":2250000000000,"state":"active","ping":59},{"user_id":388,"name":"JustSparky","steam_id":76561198043074739,"connected_time":492000000000,"state":"active","ping":56},{"user_id":315,"name":"OKAY","steam_id":76561198091980659,"connected_time":7007000000000,"state":"active","ping":64},{"user_id":390,"name":"maxwell.cat","steam_id":76561199164582237,"connected_time":411000000000,"state":"active","ping":116},{"user_id":391,"name":"dillon/dylan","steam_id":76561198118054166,"connected_time":387000000000,"state":"active","ping":52},{"user_id":369,"name":"CatMagic","steam_id":76561199454230243,"connected_time":2186000000000,"state":"active","ping":72},{"user_id":340,"name":"kmochi","steam_id":76561198023391988,"connected_time":5121000000000,"state":"active","ping":69},{"user_id":395,"name":"Classy","steam_id":76561198128415840,"connected_time":214000000000,"state":"active","ping":56},{"user_id":376,"name":"Bobfleadip","steam_id":76561198043788642,"connected_time":2100000000000,"state":"active","ping":82},{"user_id":393,"name":"Lemoncurry","steam_id":76561198045356414,"connected_time":357000000000,"state":"active","ping":87},{"user_id":254,"name":"the 04","steam_id":76561198164502862,"connected_time":10693000000000,"state":"active","ping":86},{"user_id":399,"name":"Hertz","steam_id":76561198310927351,"connected_time":80000000000,"state":"active","ping":142},{"user_id":345,"name":"Flowers","steam_id":76561198031669899,"connected_time":5006000000000,"state":"active","ping":72},{"user_id":353,"name":"‚ù§Womp‚ù§(Road To 2 Mil Heals)","steam_id":76561198167488304,"connected_time":4116000000000,"state":"active","ping":74},{"user_id":377,"name":"Bob Weaver","steam_id":76561197960450046,"connected_time":1878000000000,"state":"active","ping":60},{"user_id":346,"name":"Pokon","steam_id":76561198053113088,"connected_time":4881000000000,"state":"active","ping":74},{"user_id":373,"name":"Femboy Bowsette‚Ñ¢","steam_id":76561198028183029,"connected_time":2148000000000,"state":"active","ping":65},{"user_id":383,"name":"flappyflap2","steam_id":76561198285048973,"connected_time":860000000000,"state":"active","ping":40},{"user_id":374,"name":"ShortenedName","steam_id":76561198079337360,"connected_time":2140000000000,"state":"active","ping":68},{"user_id":387,"name":"AJTarcza","steam_id":76561198070800190,"connected_time":535000000000,"state":"active","ping":72},{"user_id":400,"name":"sfoster","steam_id":76561197993895857,"connected_time":80000000000,"state":"active","ping":80}]},{"server_id":15,"name":"Uncletopia | New York City | 3 | Stopwatch","name_short":"nyc-3","host":"nyc-1.us.uncletopia.com","port":27035,"enabled":true,"region":"us-east","cc":"us","latitude":40.73061,"longitude":-73.93524,"reserved":0,"last_update":"0001-01-01T00:00:00Z","name_a2s":"Uncletopia | New York City | 3 | Stopwatch","protocol":17,"map":"workshop/cp_reckoner_rc6.ugc674719999","folder":"tf","game":"Team Fortress","app_id":440,"player_count":0,"max_players":24,"Bots":0,"server_type":"Dedicated","server_os":"Linux","password":true,"vac":true,"version":"7961495","steam_id":85568392924742820,"keywords":["cp","nocrits","nodmgspread","uncletopia"],"game_id":440,"stv_port":27036,"stv_name":"Uncletopia | New York City | 3 | Stopwatch | STV","players":null},{"server_id":16,"name":"Uncletopia | New York City | 4 | Community","name_short":"nyc-4","host":"nyc-1.us.uncletopia.com","port":27045,"enabled":true,"region":"us-east","cc":"us","latitude":40.73061,"longitude":-73.93524,"reserved":0,"last_update":"0001-01-01T00:00:00Z","name_a2s":"Uncletopia | New York City | 4 | Community","protocol":17,"map":"workshop/koth_ramjam_rc1.ugc459778887","folder":"tf","game":"Team Fortress","app_id":440,"player_count":2,"max_players":24,"Bots":0,"server_type":"Dedicated","server_os":"Linux","password":true,"vac":true,"version":"7961495","steam_id":85568392924742821,"keywords":["cp","nocrits","nodmgspread","uncletopia"],"game_id":440,"stv_port":27046,"stv_name":"Uncletopia | New York City | 4 | Community | STV","players":[{"user_id":19,"name":"minihoog","steam_id":76561198102156780,"connected_time":345000000000,"state":"active","ping":62},{"user_id":20,"name":"Fifthcrusade1","steam_id":76561198142136640,"connected_time":329000000000,"state":"active","ping":83}]},{"server_id":142,"name":"Uncletopia | S√£o Paulo | 1 | All Maps","name_short":"sao-1","host":"sao-1.br.uncletopia.com","port":27015,"enabled":true,"region":"sa","cc":"br","latitude":-23.533773,"longitude":-46.62529,"reserved":0,"last_update":"0001-01-01T00:00:00Z","name_a2s":"Uncletopia | S√£o Paulo | 1 | All Maps","protocol":17,"map":"cp_dustbowl","folder":"tf","game":"Team Fortress","app_id":440,"player_count":0,"max_players":24,"Bots":0,"server_type":"Dedicated","server_os":"Linux","password":true,"vac":true,"version":"7961495","steam_id":85568392924469996,"keywords":["cp","nocrits","nodmgspread","uncletopia"],"game_id":440,"stv_port":27016,"stv_name":"Uncletopia | S√£o Paulo | 1 | All Maps | STV","players":null},{"server_id":143,"name":"Uncletopia | S√£o Paulo | 2 | Community","name_short":"sao-2","host":"sao-2.br.uncletopia.com","port":27015,"enabled":true,"region":"sa","cc":"br","latitude":-23.533773,"longitude":-46.62529,"reserved":0,"last_update":"0001-01-01T00:00:00Z","name_a2s":"Uncletopia | S√£o Paulo | 2 | Community","protocol":17,"map":"workshop/koth_ramjam_rc1.ugc459778887","folder":"tf","game":"Team Fortress","app_id":440,"player_count":0,"max_players":24,"Bots":0,"server_type":"Dedicated","server_os":"Linux","password":true,"vac":true,"version":"7961495","steam_id":85568392924485349,"keywords":["cp","nocrits","nodmgspread","uncletopia"],"game_id":440,"stv_port":27016,"stv_name":"Uncletopia | S√£o Paulo | 2 | Community | STV","players":null},{"server_id":7,"name":"Uncletopia | Seattle | 1 | All Maps","name_short":"sea-1","host":"sea-1.us.uncletopia.com","port":27015,"enabled":true,"region":"us-west","cc":"us","latitude":47.608013,"longitude":-122.33517,"reserved":0,"last_update":"0001-01-01T00:00:00Z","name_a2s":"Uncletopia | Seattle | 1 | All Maps","protocol":17,"map":"pl_badwater","folder":"tf","game":"Team Fortress","app_id":440,"player_count":24,"max_players":24,"Bots":0,"server_type":"Dedicated","server_os":"Linux","password":true,"vac":true,"version":"7961495","steam_id":85568392924469997,"keywords":["nocrits","nodmgspread","payload","uncletopia"],"game_id":440,"stv_port":27016,"stv_name":"Uncletopia | Seattle | 1 | All Maps | STV","players":[{"user_id":700,"name":"Arzee","steam_id":76561198857237473,"connected_time":401000000000,"state":"active","ping":51},{"user_id":669,"name":"Ayayayayayahuasca","steam_id":76561199002906056,"connected_time":3801000000000,"state":"active","ping":53},{"user_id":681,"name":"Arkus","steam_id":76561199092478198,"connected_time":2561000000000,"state":"active","ping":45},{"user_id":697,"name":"weed lesbian","steam_id":76561198042263805,"connected_time":667000000000,"state":"active","ping":52},{"user_id":695,"name":"owl","steam_id":76561198088403016,"connected_time":964000000000,"state":"active","ping":150},{"user_id":663,"name":"Xain35","steam_id":76561198121834307,"connected_time":4262000000000,"state":"active","ping":50},{"user_id":691,"name":"Toaster (Hamilton Beach)","steam_id":76561198039891934,"connected_time":1393000000000,"state":"active","ping":60},{"user_id":615,"name":"SkobeBeef","steam_id":76561198078638948,"connected_time":7597000000000,"state":"active","ping":59},{"user_id":696,"name":"Boltchaos","steam_id":76561199036229797,"connected_time":949000000000,"state":"active","ping":70},{"user_id":693,"name":"Ay24j","steam_id":76561199154814514,"connected_time":987000000000,"state":"active","ping":52},{"user_id":641,"name":"Hindmost","steam_id":76561199081837220,"connected_time":5340000000000,"state":"active","ping":104},{"user_id":642,"name":"gmele1","steam_id":76561199219013004,"connected_time":5336000000000,"state":"active","ping":128},{"user_id":664,"name":"Skeleop","steam_id":76561198981106464,"connected_time":4246000000000,"state":"active","ping":75},{"user_id":702,"name":"SavageBOB","steam_id":76561198356876285,"connected_time":248000000000,"state":"active","ping":64},{"user_id":672,"name":"The King of Piss World","steam_id":76561198082806956,"connected_time":3496000000000,"state":"active","ping":145},{"user_id":654,"name":"CashGordon","steam_id":76561197975594096,"connected_time":5084000000000,"state":"active","ping":45},{"user_id":690,"name":"Gregg Rulz ok","steam_id":76561199027131213,"connected_time":1694000000000,"state":"active","ping":48},{"user_id":674,"name":"Quaalude","steam_id":76561198100177449,"connected_time":3250000000000,"state":"active","ping":90},{"user_id":703,"name":"Mr.Thirteen","steam_id":76561198047468836,"connected_time":174000000000,"state":"active","ping":71},{"user_id":671,"name":"trackpad gaming | f2p","steam_id":76561198840414371,"connected_time":3517000000000,"state":"active","ping":53},{"user_id":653,"name":"≈Ωin√¢lyga","steam_id":76561198067803679,"connected_time":5109000000000,"state":"active","ping":60},{"user_id":689,"name":"soup","steam_id":76561198043209046,"connected_time":1775000000000,"state":"active","ping":64},{"user_id":694,"name":"lavender","steam_id":76561199069518286,"connected_time":985000000000,"state":"active","ping":73},{"user_id":699,"name":"soltuno","steam_id":76561198074430565,"connected_time":593000000000,"state":"active","ping":79}]},{"server_id":119,"name":"Uncletopia | Seattle | 2 | All Maps","name_short":"sea-2","host":"sea-1.us.uncletopia.com","port":27025,"enabled":true,"region":"us-west","cc":"us","latitude":47.608013,"longitude":-122.33517,"reserved":0,"last_update":"0001-01-01T00:00:00Z","name_a2s":"Uncletopia | Seattle | 2 | All Maps","protocol":17,"map":"koth_highpass","folder":"tf","game":"Team Fortress","app_id":440,"player_count":24,"max_players":24,"Bots":0,"server_type":"Dedicated","server_os":"Linux","password":true,"vac":true,"version":"7961495","steam_id":85568392924469998,"keywords":["cp","nocrits","nodmgspread","uncletopia"],"game_id":440,"stv_port":27026,"stv_name":"Uncletopia | Seattle | 2 | All Maps | STV","players":[{"user_id":307,"name":"Glanderson booper","steam_id":76561198021223747,"connected_time":1647000000000,"state":"active","ping":53},{"user_id":325,"name":"sez","steam_id":76561199465922101,"connected_time":1043000000000,"state":"active","ping":87},{"user_id":339,"name":"ninja45","steam_id":76561198150619521,"connected_time":316000000000,"state":"active","ping":51},{"user_id":331,"name":"The Don","steam_id":76561198322125657,"connected_time":478000000000,"state":"active","ping":53},{"user_id":329,"name":"Yummy Kabobz","steam_id":76561198067661705,"connected_time":824000000000,"state":"active","ping":119},{"user_id":290,"name":"a familiar cat","steam_id":76561198080046542,"connected_time":2768000000000,"state":"active","ping":49},{"user_id":238,"name":"Lili","steam_id":76561199488457138,"connected_time":7945000000000,"state":"active","ping":57},{"user_id":340,"name":"C^a^L","steam_id":76561198241124222,"connected_time":294000000000,"state":"active","ping":61},{"user_id":330,"name":"Azary56","steam_id":76561198321404617,"connected_time":517000000000,"state":"active","ping":61},{"user_id":334,"name":"[Industrial] A_HUMBLEBUMBLED","steam_id":76561198064771878,"connected_time":386000000000,"state":"active","ping":38},{"user_id":327,"name":"ArsalAsam","steam_id":76561198153165950,"connected_time":898000000000,"state":"active","ping":123},{"user_id":304,"name":"Vaccine Eater","steam_id":76561198026301425,"connected_time":1850000000000,"state":"active","ping":90},{"user_id":344,"name":"Pah-Wraith Gul Dukat","steam_id":76561198033918106,"connected_time":24000000000,"state":"spawning","ping":181},{"user_id":342,"name":"Skabbety","steam_id":76561198168044257,"connected_time":226000000000,"state":"active","ping":39},{"user_id":310,"name":"wdylm","steam_id":76561198206523304,"connected_time":1581000000000,"state":"active","ping":46},{"user_id":336,"name":"Bus!","steam_id":76561199082304859,"connected_time":375000000000,"state":"active","ping":46},{"user_id":337,"name":"whittecar","steam_id":76561198169715643,"connected_time":356000000000,"state":"active","ping":35},{"user_id":235,"name":":(){ :|:\u0026 };:","steam_id":76561198115242460,"connected_time":7963000000000,"state":"active","ping":47},{"user_id":311,"name":"havarti gaming","steam_id":76561198069895678,"connected_time":1560000000000,"state":"active","ping":60},{"user_id":259,"name":"ilun","steam_id":76561198042913843,"connected_time":5771000000000,"state":"active","ping":56},{"user_id":341,"name":"camp3r","steam_id":76561197992870439,"connected_time":255000000000,"state":"active","ping":40},{"user_id":50,"name":"Nom Skirrett","steam_id":76561198014600788,"connected_time":19963000000000,"state":"active","ping":65},{"user_id":326,"name":"oil","steam_id":76561198099980149,"connected_time":1005000000000,"state":"active","ping":80},{"user_id":343,"name":"Noah","steam_id":76561198059048749,"connected_time":183000000000,"state":"active","ping":55}]},{"server_id":406,"name":"Uncletopia | Seattle | 3 | Stopwatch","name_short":"sea-3","host":"sea-1.us.uncletopia.com","port":27035,"enabled":true,"region":"us-west","cc":"us","latitude":47.608013,"longitude":-122.33517,"reserved":0,"last_update":"0001-01-01T00:00:00Z","name_a2s":"Uncletopia | Seattle | 3 | Stopwatch","protocol":17,"map":"workshop/koth_clearcut_b15.ugc2107050255","folder":"tf","game":"Team Fortress","app_id":440,"player_count":0,"max_players":24,"Bots":0,"server_type":"Dedicated","server_os":"Linux","password":true,"vac":true,"version":"7961495","steam_id":85568392924515217,"keywords":["cp","nocrits","nodmgspread","uncletopia"],"game_id":440,"stv_port":27036,"stv_name":"Uncletopia | Seattle | 3 | Stopwatch | STV","players":null},{"server_id":17,"name":"Uncletopia | San Francisco | 1 | All Maps","name_short":"sfo-1","host":"sfo-1.us.uncletopia.com","port":27015,"enabled":true,"region":"us-west","cc":"us","latitude":37.77397,"longitude":-122.4313,"reserved":0,"last_update":"0001-01-01T00:00:00Z","name_a2s":"Uncletopia | San Francisco | 1 | All Maps","protocol":17,"map":"pl_thundermountain","folder":"tf","game":"Team Fortress","app_id":440,"player_count":24,"max_players":24,"Bots":0,"server_type":"Dedicated","server_os":"Linux","password":true,"vac":true,"version":"7961495","steam_id":85568392924469999,"keywords":["nocrits","nodmgspread","payload","uncletopia"],"game_id":440,"stv_port":27016,"stv_name":"Uncletopia | San Francisco | 1 | All Maps | STV","players":[{"user_id":241,"name":"crowe","steam_id":76561198142185527,"connected_time":1863000000000,"state":"active","ping":51},{"user_id":185,"name":"FaZe hyazZzZaZa","steam_id":76561199100342013,"connected_time":5261000000000,"state":"active","ping":58},{"user_id":209,"name":"Who","steam_id":76561198013049671,"connected_time":3722000000000,"state":"active","ping":62},{"user_id":254,"name":"postman","steam_id":76561198453203619,"connected_time":125000000000,"state":"active","ping":56},{"user_id":252,"name":"Ralph Kramden (Slim Charles)","steam_id":76561197981687895,"connected_time":158000000000,"state":"active","ping":69},{"user_id":198,"name":"Psycho Raptor","steam_id":76561198325853767,"connected_time":4337000000000,"state":"active","ping":61},{"user_id":239,"name":"AzuriteFoxx","steam_id":76561198998093240,"connected_time":1891000000000,"state":"active","ping":124},{"user_id":227,"name":"brotalium","steam_id":76561198055439054,"connected_time":2554000000000,"state":"active","ping":119},{"user_id":236,"name":"Kazoo","steam_id":76561199229748300,"connected_time":2167000000000,"state":"active","ping":63},{"user_id":230,"name":"Avem","steam_id":76561198058763710,"connected_time":2445000000000,"state":"active","ping":49},{"user_id":248,"name":"jasus","steam_id":76561198088035919,"connected_time":995000000000,"state":"active","ping":58},{"user_id":201,"name":"PizzaMuncher89","steam_id":76561199121856753,"connected_time":4135000000000,"state":"active","ping":85},{"user_id":250,"name":"WitchesBwew","steam_id":76561198871652065,"connected_time":564000000000,"state":"active","ping":80},{"user_id":224,"name":"Igrium","steam_id":76561198119549811,"connected_time":2637000000000,"state":"active","ping":60},{"user_id":253,"name":"Untermensch","steam_id":76561198149634242,"connected_time":142000000000,"state":"active","ping":88},{"user_id":251,"name":"Landlord","steam_id":76561198987913057,"connected_time":289000000000,"state":"active","ping":82},{"user_id":255,"name":"Mint Widget","steam_id":76561198036875245,"connected_time":108000000000,"state":"active","ping":87},{"user_id":215,"name":"diamondskyir","steam_id":76561199223952268,"connected_time":3625000000000,"state":"active","ping":68},{"user_id":232,"name":"Kanye Asada","steam_id":76561198186678831,"connected_time":2339000000000,"state":"active","ping":66},{"user_id":246,"name":"Professor Sex","steam_id":76561198396414319,"connected_time":1443000000000,"state":"active","ping":62},{"user_id":37,"name":"‚ùÄRami‚ùÄ","steam_id":76561198993652475,"connected_time":14396000000000,"state":"active","ping":83},{"user_id":137,"name":"Refreshments, anyone?","steam_id":76561198011675372,"connected_time":7078000000000,"state":"active","ping":80},{"user_id":256,"name":"i cant aim","steam_id":76561198065873462,"connected_time":99000000000,"state":"active","ping":56},{"user_id":234,"name":"H.","steam_id":76561198074951179,"connected_time":2333000000000,"state":"active","ping":78}]},{"server_id":18,"name":"Uncletopia | San Francisco | 2 | All Maps","name_short":"sfo-2","host":"sfo-1.us.uncletopia.com","port":27025,"enabled":true,"region":"us-west","cc":"us","latitude":37.77397,"longitude":-122.4313,"reserved":0,"last_update":"0001-01-01T00:00:00Z","name_a2s":"Uncletopia | San Francisco | 2 | All Maps","protocol":17,"map":"cp_mercenarypark","folder":"tf","game":"Team Fortress","app_id":440,"player_count":24,"max_players":24,"Bots":0,"server_type":"Dedicated","server_os":"Linux","password":true,"vac":true,"version":"7961495","steam_id":85568392924470000,"keywords":["cp","nocrits","nodmgspread","uncletopia"],"game_id":440,"stv_port":27026,"stv_name":"Uncletopia | San Francisco | 2 | All Maps | STV","players":[{"user_id":170,"name":"Schmupp","steam_id":76561198150928115,"connected_time":983000000000,"state":"active","ping":46},{"user_id":122,"name":"Big Yoshi","steam_id":76561199160576376,"connected_time":3180000000000,"state":"active","ping":69},{"user_id":65,"name":"Mercantile Pig","steam_id":76561198416391778,"connected_time":5041000000000,"state":"active","ping":51},{"user_id":132,"name":"Hazeyboi","steam_id":76561198130687838,"connected_time":3016000000000,"state":"active","ping":94},{"user_id":158,"name":"Spare(8)Ball","steam_id":76561197982432995,"connected_time":1706000000000,"state":"active","ping":57},{"user_id":154,"name":"Dosario","steam_id":76561198298095535,"connected_time":1857000000000,"state":"active","ping":81},{"user_id":159,"name":"whycameback","steam_id":76561198222556872,"connected_time":1643000000000,"state":"active","ping":120},{"user_id":155,"name":"Ashified21","steam_id":76561199357672686,"connected_time":1829000000000,"state":"active","ping":107},{"user_id":134,"name":"Maximum Flame","steam_id":76561198073682529,"connected_time":2957000000000,"state":"active","ping":88},{"user_id":160,"name":"Shy","steam_id":76561198394890836,"connected_time":1540000000000,"state":"active","ping":102},{"user_id":162,"name":"john xbox","steam_id":76561198239012758,"connected_time":1463000000000,"state":"active","ping":59},{"user_id":117,"name":"fallingtree123","steam_id":76561198937414442,"connected_time":3250000000000,"state":"active","ping":94},{"user_id":176,"name":"copper","steam_id":76561198146250533,"connected_time":269000000000,"state":"active","ping":59},{"user_id":175,"name":"Pretentious Gunspy","steam_id":76561199241325005,"connected_time":392000000000,"state":"active","ping":129},{"user_id":164,"name":"nfseskimo","steam_id":76561198078745666,"connected_time":1447000000000,"state":"active","ping":61},{"user_id":169,"name":"4","steam_id":76561198105374054,"connected_time":1061000000000,"state":"active","ping":71},{"user_id":136,"name":"DerpyNate","steam_id":76561198100249037,"connected_time":2923000000000,"state":"active","ping":87},{"user_id":93,"name":"Jeffery","steam_id":76561198352805460,"connected_time":3732000000000,"state":"active","ping":98},{"user_id":84,"name":"Magician","steam_id":76561198011734385,"connected_time":4100000000000,"state":"active","ping":69},{"user_id":144,"name":"snail2646","steam_id":76561198061411251,"connected_time":2337000000000,"state":"active","ping":98},{"user_id":166,"name":"The Rock","steam_id":76561198433328517,"connected_time":1430000000000,"state":"active","ping":134},{"user_id":174,"name":"SoCal Kaizer","steam_id":76561198334361081,"connected_time":610000000000,"state":"active","ping":80},{"user_id":177,"name":"elephant thumb","steam_id":76561198118859752,"connected_time":177000000000,"state":"active","ping":57}]},{"server_id":19,"name":"Uncletopia | San Francisco | 3 | Stopwatch","name_short":"sfo-3","host":"sfo-1.us.uncletopia.com","port":27035,"enabled":true,"region":"us-west","cc":"us","latitude":37.77397,"longitude":-122.4313,"reserved":0,"last_update":"0001-01-01T00:00:00Z","name_a2s":"Uncletopia | San Francisco | 3 | Stopwatch","protocol":17,"map":"workshop/koth_ramjam_rc1.ugc459778887","folder":"tf","game":"Team Fortress","app_id":440,"player_count":0,"max_players":24,"Bots":0,"server_type":"Dedicated","server_os":"Linux","password":true,"vac":true,"version":"7961495","steam_id":85568392924742824,"keywords":["cp","nocrits","nodmgspread","uncletopia"],"game_id":440,"stv_port":27036,"stv_name":"Uncletopia | San Francisco | 3 | Stopwatch | STV","players":null},{"server_id":20,"name":"Uncletopia | San Francisco | 4 | Community","name_short":"sfo-4","host":"sfo-1.us.uncletopia.com","port":27045,"enabled":true,"region":"us-west","cc":"us","latitude":37.77397,"longitude":-122.4313,"reserved":0,"last_update":"0001-01-01T00:00:00Z","name_a2s":"Uncletopia | San Francisco | 4 | Community","protocol":17,"map":"workshop/koth_product_final.ugc454272353","folder":"tf","game":"Team Fortress","app_id":440,"player_count":0,"max_players":24,"Bots":0,"server_type":"Dedicated","server_os":"Linux","password":true,"vac":true,"version":"7961495","steam_id":85568392924742826,"keywords":["cp","nocrits","nodmgspread","uncletopia"],"game_id":440,"stv_port":27046,"stv_name":"Uncletopia | San Francisco | 4 | Community | STV","players":null},{"server_id":141,"name":"Uncletopia | Sydney | 1 | All Maps","name_short":"syd-1","host":"syd-1.au.uncletopia.com","port":27015,"enabled":true,"region":"au","cc":"au","latitude":-33.865143,"longitude":151.2099,"reserved":0,"last_update":"0001-01-01T00:00:00Z","name_a2s":"Uncletopia | Sydney | 1 | All Maps","protocol":17,"map":"koth_viaduct","folder":"tf","game":"Team Fortress","app_id":440,"player_count":0,"max_players":24,"Bots":0,"server_type":"Dedicated","server_os":"Linux","password":true,"vac":true,"version":"7961495","steam_id":85568392924470001,"keywords":["cp","nocrits","nodmgspread","uncletopia"],"game_id":440,"stv_port":27016,"stv_name":"Uncletopia | Sydney | 1 | All Maps | STV","players":null},{"server_id":123,"name":"Uncletopia | Sydney | 2 | All Maps","name_short":"syd-2","host":"syd-1.au.uncletopia.com","port":27025,"enabled":true,"region":"au","cc":"au","latitude":-33.865143,"longitude":151.2099,"reserved":0,"last_update":"0001-01-01T00:00:00Z","name_a2s":"Uncletopia | Sydney | 2 | All Maps","protocol":17,"map":"koth_lakeside_final","folder":"tf","game":"Team Fortress","app_id":440,"player_count":0,"max_players":24,"Bots":0,"server_type":"Dedicated","server_os":"Linux","password":true,"vac":true,"version":"7961495","steam_id":85568392924470002,"keywords":["cp","nocrits","nodmgspread","uncletopia"],"game_id":440,"stv_port":27026,"stv_name":"Uncletopia | Sydney | 2 | All Maps | STV","players":null},{"server_id":395,"name":"Uncletopia | Sydney | 3 | All Maps","name_short":"syd-3","host":"syd-1.au.uncletopia.com","port":27035,"enabled":true,"region":"au","cc":"au","latitude":-33.865143,"longitude":151.2099,"reserved":0,"last_update":"0001-01-01T00:00:00Z","name_a2s":"Uncletopia | Sydney | 3 | All Maps","protocol":17,"map":"pl_frontier_final","folder":"tf","game":"Team Fortress","app_id":440,"player_count":0,"max_players":24,"Bots":0,"server_type":"Dedicated","server_os":"Linux","password":true,"vac":true,"version":"7961495","steam_id":85568392925194467,"keywords":["nocrits","nodmgspread","payload","uncletopia"],"game_id":440,"stv_port":27036,"stv_name":"Uncletopia | Sydney | 3 | All Maps | STV","players":null},{"server_id":396,"name":"Uncletopia | Sydney | 4 | All Maps","name_short":"syd-4","host":"syd-1.au.uncletopia.com","port":27045,"enabled":true,"region":"au","cc":"au","latitude":-33.865143,"longitude":151.2099,"reserved":0,"last_update":"0001-01-01T00:00:00Z","name_a2s":"Uncletopia | Sydney | 4 | All Maps","protocol":17,"map":"cp_process_final","folder":"tf","game":"Team Fortress","app_id":440,"player_count":0,"max_players":24,"Bots":0,"server_type":"Dedicated","server_os":"Linux","password":true,"vac":true,"version":"7961495","steam_id":85568392925397958,"keywords":["cp","nocrits","nodmgspread","uncletopia"],"game_id":440,"stv_port":27046,"stv_name":"Uncletopia | Sydney | 4 | All Maps | STV","players":null},{"server_id":58,"name":"Uncletopia | Sydney | 5 | Stopwatch","name_short":"syd-5","host":"syd-1.au.uncletopia.com","port":27055,"enabled":true,"region":"au","cc":"au","latitude":-33.865143,"longitude":151.2099,"reserved":0,"last_update":"0001-01-01T00:00:00Z","name_a2s":"Uncletopia | Sydney | 5 | Stopwatch","protocol":17,"map":"pl_frontier_final","folder":"tf","game":"Team Fortress","app_id":440,"player_count":0,"max_players":24,"Bots":0,"server_type":"Dedicated","server_os":"Linux","password":true,"vac":true,"version":"7961495","steam_id":85568392925397959,"keywords":["nocrits","nodmgspread","payload","uncletopia"],"game_id":440,"stv_port":27056,"stv_name":"Uncletopia | Sydney | 5 | Stopwatch | STV","players":null},{"server_id":59,"name":"Uncletopia | Sydney | 6 | Community","name_short":"syd-6","host":"syd-1.au.uncletopia.com","port":27065,"enabled":true,"region":"au","cc":"au","latitude":-33.865143,"longitude":151.2099,"reserved":0,"last_update":"0001-01-01T00:00:00Z","name_a2s":"Uncletopia | Sydney | 6 | Community","protocol":17,"map":"workshop/cp_sulfur_rc2.ugc619869471","folder":"tf","game":"Team Fortress","app_id":440,"player_count":0,"max_players":24,"Bots":0,"server_type":"Dedicated","server_os":"Linux","password":true,"vac":true,"version":"7961495","steam_id":85568392925397960,"keywords":["cp","nocrits","nodmgspread","uncletopia"],"game_id":440,"stv_port":27066,"stv_name":"Uncletopia | Sydney | 6 | Community | STV","players":null},{"server_id":49,"name":"Uncletopia | Warsaw | 1 | One Thousand Uncles","name_short":"waw-1","host":"waw-1.pl.uncletopia.com","port":27015,"enabled":true,"region":"eu","cc":"pl","latitude":52.2297,"longitude":21.017532,"reserved":0,"last_update":"0001-01-01T00:00:00Z","name_a2s":"Uncletopia | Warsaw | 1 | One Thousand Uncles","protocol":17,"map":"pl_badwater","folder":"tf","game":"Team Fortress","app_id":440,"player_count":0,"max_players":32,"Bots":0,"server_type":"Dedicated","server_os":"Linux","password":true,"vac":true,"version":"7961495","steam_id":85568392925397850,"keywords":["alltalk","danepve","increased_maxplayers","nocrits","norespawntime","payload","uncletopia"],"game_id":440,"stv_port":0,"stv_name":"","players":null},{"server_id":50,"name":"Uncletopia | Warsaw | 2 | One Thousand Uncles","name_short":"waw-2","host":"waw-1.pl.uncletopia.com","port":27025,"enabled":true,"region":"eu","cc":"pl","latitude":52.2297,"longitude":21.017532,"reserved":0,"last_update":"0001-01-01T00:00:00Z","name_a2s":"Uncletopia | Warsaw | 2 | One Thousand Uncles","protocol":17,"map":"pl_badwater","folder":"tf","game":"Team Fortress","app_id":440,"player_count":0,"max_players":32,"Bots":0,"server_type":"Dedicated","server_os":"Linux","password":true,"vac":true,"version":"7961495","steam_id":85568392925397851,"keywords":["alltalk","danepve","increased_maxplayers","nocrits","norespawntime","payload","uncletopia"],"game_id":440,"stv_port":0,"stv_name":"","players":null},{"server_id":51,"name":"Uncletopia | Warsaw | 3 | All Maps","name_short":"waw-3","host":"waw-1.pl.uncletopia.com","port":27035,"enabled":true,"region":"eu","cc":"pl","latitude":52.2297,"longitude":21.017532,"reserved":0,"last_update":"0001-01-01T00:00:00Z","name_a2s":"Uncletopia | Warsaw | 3 | All Maps","protocol":17,"map":"koth_viaduct","folder":"tf","game":"Team Fortress","app_id":440,"player_count":0,"max_players":24,"Bots":0,"server_type":"Dedicated","server_os":"Linux","password":true,"vac":true,"version":"7961495","steam_id":85568392925397852,"keywords":["cp","nocrits","nodmgspread","uncletopia"],"game_id":440,"stv_port":27036,"stv_name":"Uncletopia | Warsaw | 3 | All Maps | STV","players":null},{"server_id":52,"name":"Uncletopia | Warsaw | 4 | All Maps","name_short":"waw-4","host":"waw-1.pl.uncletopia.com","port":27045,"enabled":true,"region":"eu","cc":"pl","latitude":52.2297,"longitude":21.017532,"reserved":0,"last_update":"0001-01-01T00:00:00Z","name_a2s":"Uncletopia | Warsaw | 4 | All Maps","protocol":17,"map":"koth_highpass","folder":"tf","game":"Team Fortress","app_id":440,"player_count":0,"max_players":24,"Bots":0,"server_type":"Dedicated","server_os":"Linux","password":true,"vac":true,"version":"7961495","steam_id":85568392925397853,"keywords":["cp","nocrits","nodmgspread","uncletopia"],"game_id":440,"stv_port":27046,"stv_name":"Uncletopia | Warsaw | 4 | All Maps | STV","players":null},{"server_id":53,"name":"Uncletopia | Warsaw | 5 | Stopwatch","name_short":"waw-5","host":"waw-1.pl.uncletopia.com","port":27055,"enabled":true,"region":"eu","cc":"pl","latitude":52.2297,"longitude":21.017532,"reserved":0,"last_update":"0001-01-01T00:00:00Z","name_a2s":"Uncletopia | Warsaw | 5 | Stopwatch","protocol":17,"map":"koth_highpass","folder":"tf","game":"Team Fortress","app_id":440,"player_count":0,"max_players":24,"Bots":0,"server_type":"Dedicated","server_os":"Linux","password":true,"vac":true,"version":"7961495","steam_id":85568392925397854,"keywords":["cp","nocrits","nodmgspread","uncletopia"],"game_id":440,"stv_port":27056,"stv_name":"Uncletopia | Warsaw | 5 | Stopwatch | STV","players":null},{"server_id":54,"name":"Uncletopia | Warsaw | 6 | Community","name_short":"waw-6","host":"waw-1.pl.uncletopia.com","port":27065,"enabled":true,"region":"eu","cc":"pl","latitude":52.2297,"longitude":21.017532,"reserved":0,"last_update":"0001-01-01T00:00:00Z","name_a2s":"Uncletopia | Warsaw | 6 | Community","protocol":17,"map":"workshop/koth_synthetic_rc6a.ugc1549817316","folder":"tf","game":"Team Fortress","app_id":440,"player_count":0,"max_players":24,"Bots":0,"server_type":"Dedicated","server_os":"Linux","password":true,"vac":true,"version":"7961495","steam_id":85568392925397856,"keywords":["cp","nocrits","nodmgspread","uncletopia"],"game_id":440,"stv_port":27066,"stv_name":"Uncletopia | Warsaw | 6 | Community | STV","players":null}]}