{"status":true,"message":"","result":[{"server_id":9,"name":"Uncletopia | Atlanta | 1 | All Maps","name_short":"atl-1","host":"atl-1.us.uncletopia.com","port":27015,"enabled":true,"region":"us-east","cc":"us","latitude":33.753746,"longitude":-84.38633,"reserved":0,"last_update":"0001-01-01T00:00:00Z","name_a2s":"Uncletopia | Atlanta | 1 | All Maps","protocol":17,"map":"pl_barnblitz","folder":"tf","game":"Team Fortress","app_id":440,"player_count":24,"max_players":24,"Bots":0,"server_type":"Dedicated","server_os":"Linux","password":true,"vac":true,"version":"7961495","steam_id":85568392924469982,"keywords":["nocrits","nodmgspread","payload","uncletopia"],"game_id":440,"stv_port":27016,"stv_name":"Uncletopia | Atlanta | 1 | All Maps | STV","players":null},{"server_id":104,"name":"Uncletopia | Atlanta | 2 | All Maps","name_short":"atl-2","host":"atl-1.us.uncletopia.com","port":27025,"enabled":true,"region":"us-east","cc":"us","latitude":33.753746,"longitude":-84.38633,"reserved":0,"last_update":"0001-01-01T00:00:00Z","name_a2s":"Uncletopia | Atlanta | 2 | All Maps","protocol":17,"map":"pl_upward","folder":"tf","game":"Team Fortress","app_id":440,"player_count":24,"max_players":24,"Bots":0,"server_type":"Dedicated","server_os":"Linux","password":true,"vac":true,"version":"7961495","steam_id":85568392924469983,"keywords":["nocrits","nodmgspread","payload","uncletopia"],"game_id":440,"stv_port":27026,"stv_name":"Uncletopia | Atlanta | 2 | All Maps | STV","players":null},{"server_id":400,"name":"Uncletopia | Atlanta | 3 | Stopwatch","name_short":"atl-3","host":"atl-1.us.uncletopia.com","port":27035,"enabled":true,"region":"us-east","cc":"us","latitude":33.753746,"longitude":-84.38633,"reserved":0,"last_update":"0001-01-01T00:00:00Z","name_a2s":"Uncletopia | Atlanta | 3 | Stopwatch","protocol":17,"map":"pl_badwater","folder":"tf","game":"Team Fortress","app_id":440,"player_count":0,"max_players":24,"Bots":0,"server_type":"Dedicated","server_os":"Linux","password":true,"vac":true,"version":"7961495","steam_id":85568392924515187,"keywords":["nocrits","nodmgspread","payload","uncletopia"],"game_id":440,"stv_port":27036,"stv_name":"Uncletopia | Atlanta | 3 | Stopwatch | STV","players":null},{"server_id":401,"name":"Uncletopia | Atlanta | 4 | Community","name_short":"atl-4","host":"atl-1.us.uncletopia.com","port":27045,"enabled":true,"region":"us-east","cc":"us","latitude":33.753746,"longitude":-84.38633,"reserved":0,"last_update":"0001-01-01T00:00:00Z","name_a2s":"Uncletopia | Atlanta | 4 | Community","protocol":17,"map":"cp_caldera_rc2","folder":"tf","game":"Team Fortress","app_id":440,"player_count":0,"max_players":24,"Bots":0,"server_type":"Dedicated","server_os":"Linux","password":true,"vac":true,"version":"7961495","steam_id":85568392924515188,"keywords":["cp","nocrits","nodmgspread","uncletopia"],"game_id":440,"stv_port":27046,"stv_name":"Uncletopia | Atlanta | 4 | Community | STV","players":null},{"server_id":2,"name":"Uncletopia | Chicago | 1 | All Maps","name_short":"chi-1","host":"chi-1.us.uncletopia.com","port":27015,"enabled":true,"region":"us-central","cc":"us","latitude":41.881832,"longitude":-87.62318,"reserved":0,"last_update":"0001-01-01T00:00:00Z","name_a2s":"Uncletopia | Chicago | 1 | All Maps","protocol":17,"map":"pl_snowycoast","folder":"tf","game":"Team Fortress","app_id":440,"player_count":24,"max_players":24,"Bots":0,"server_type":"Dedicated","server_os":"Linux","password":true,"vac":true,"version":"7961495","steam_id":85568392924469984,"keywords":["nocrits","nodmgspread","payload","uncletopia"],"game_id":440,"stv_port":27016,"stv_name":"Uncletopia | Chicago | 1 | All Maps | STV","players":[{"user_id":1006,"name":"subdromeda","steam_id":76561198884351860,"connected_time":7815000000000,"state":"active","ping":62},{"user_id":1085,"name":"badboy6996","steam_id":76561197969386201,"connected_time":2401000000000,"state":"active","ping":47},{"user_id":1100,"name":"amberenix","steam_id":76561198805110908,"connected_time":1454000000000,"state":"active","ping":76},{"user_id":1077,"name":"cheesebro","steam_id":76561198002072852,"connected_time":3300000000000,"state":"active","ping":99},{"user_id":1058,"name":"Halfy","steam_id":76561198086809084,"connected_time":4285000000000,"state":"active","ping":72},{"user_id":1064,"name":"hamletespacial","steam_id":76561199084414649,"connected_time":3975000000000,"state":"active","ping":54},{"user_id":1108,"name":"Havi","steam_id":76561198197832829,"connected_time":702000000000,"state":"active","ping":108},{"user_id":1065,"name":"the master of cats","steam_id":76561198819255576,"connected_time":3974000000000,"state":"active","ping":104},{"user_id":1094,"name":"Rambly Dambly","steam_id":76561198844496567,"connected_time":1613000000000,"state":"active","ping":53},{"user_id":1073,"name":"NjoKuAni","steam_id":76561199061380038,"connected_time":3377000000000,"state":"active","ping":75},{"user_id":1093,"name":"Raccoon Wizard","steam_id":76561198072562591,"connected_time":1745000000000,"state":"active","ping":84},{"user_id":1112,"name":"pnut","steam_id":76561198043862737,"connected_time":658000000000,"state":"active","ping":57},{"user_id":1106,"name":"Oswald/Pookie","steam_id":76561198136642793,"connected_time":989000000000,"state":"active","ping":78},{"user_id":1115,"name":"charm quark","steam_id":76561198098770777,"connected_time":227000000000,"state":"active","ping":96},{"user_id":1113,"name":"bruce lee","steam_id":76561198227912876,"connected_time":535000000000,"state":"active","ping":111},{"user_id":1092,"name":"cotton candy ghooost","steam_id":76561198058998371,"connected_time":1750000000000,"state":"active","ping":68},{"user_id":1091,"name":"B4NNY UNIVERSITY GRADUATE","steam_id":76561198144766439,"connected_time":1775000000000,"state":"active","ping":47},{"user_id":1116,"name":"Zuuzul","steam_id":76561198272671267,"connected_time":144000000000,"state":"active","ping":86},{"user_id":1110,"name":"smooth brain","steam_id":76561198049253541,"connected_time":692000000000,"state":"active","ping":61},{"user_id":1069,"name":"Octto","steam_id":76561198070124921,"connected_time":3619000000000,"state":"active","ping":58},{"user_id":1114,"name":"mr.edderkopper","steam_id":76561198152614478,"connected_time":473000000000,"state":"active","ping":55},{"user_id":1102,"name":"radiantlight123","steam_id":76561198161638571,"connected_time":1185000000000,"state":"active","ping":83},{"user_id":1117,"name":"void","steam_id":76561198107501413,"connected_time":32000000000,"state":"active","ping":45},{"user_id":1089,"name":"dunk","steam_id":76561198132476501,"connected_time":2343000000000,"state":"active","ping":50}]},{"server_id":106,"name":"Uncletopia | Chicago | 2 | All Maps","name_short":"chi-2","host":"chi-1.us.uncletopia.com","port":27025,"enabled":true,"region":"us-central","cc":"us","latitude":41.881832,"longitude":-87.62318,"reserved":0,"last_update":"0001-01-01T00:00:00Z","name_a2s":"Uncletopia | Chicago | 2 | All Maps","protocol":17,"map":"koth_viaduct","folder":"tf","game":"Team Fortress","app_id":440,"player_count":0,"max_players":24,"Bots":0,"server_type":"Dedicated","server_os":"Linux","password":true,"vac":true,"version":"7961495","steam_id":85568392924469985,"keywords":["cp","nocrits","nodmgspread","uncletopia"],"game_id":440,"stv_port":27026,"stv_name":"Uncletopia | Chicago | 2 | All Maps | STV","players":null},{"server_id":402,"name":"Uncletopia | Chicago | 3 | All Maps","name_short":"chi-3","host":"chi-1.us.uncletopia.com","port":27035,"enabled":true,"region":"us-central","cc":"us","latitude":41.881832,"longitude":-87.62318,"reserved":0,"last_update":"0001-01-01T00:00:00Z","name_a2s":"Uncletopia | Chicago | 3 | All Maps","protocol":17,"map":"cp_process_final","folder":"tf","game":"Team Fortress","app_id":440,"player_count":0,"max_players":24,"Bots":0,"server_type":"Dedicated","server_os":"Linux","password":true,"vac":true,"version":"7961495","steam_id":85568392924515191,"keywords":["cp","nocrits","nodmgspread","uncletopia"],"game_id":440,"stv_port":27036,"stv_name":"Uncletopia | Chicago | 3 | All Maps | STV","players":null},{"server_id":403,"name":"Uncletopia | Chicago | 4 | All Maps","name_short":"chi-4","host":"chi-1.us.uncletopia.com","port":27045,"enabled":true,"region":"us-central","cc":"us","latitude":41.881832,"longitude":-87.62318,"reserved":0,"last_update":"0001-01-01T00:00:00Z","name_a2s":"Uncletopia | Chicago | 4 | All Maps","protocol":17,"map":"pl_badwater","folder":"tf","game":"Team Fortress","app_id":440,"player_count":24,"max_players":24,"Bots":0,"server_type":"Dedicated","server_os":"Linux","password":true,"vac":true,"version":"7961495","steam_id":85568392924515193,"keywords":["nocrits","nodmgspread","payload","uncletopia"],"game_id":440,"stv_port":27046,"stv_name":"Uncletopia | Chicago | 4 | All Maps | STV","players":[{"user_id":374,"name":"SteveC","steam_id":76561197994786195,"connected_time":1992000000000,"state":"active","ping":61},{"user_id":390,"name":"BigNugs","steam_id":76561198056402610,"connected_time":294000000000,"state":"active","ping":62},{"user_id":339,"name":"Bryguy","steam_id":76561198092096120,"connected_time":3507000000000,"state":"active","ping":45},{"user_id":393,"name":"Truck-kun2107","steam_id":76561199161417910,"connected_time":69000000000,"state":"spawning","ping":81},{"user_id":371,"name":"exten-z","steam_id":76561198004359190,"connected_time":2312000000000,"state":"active","ping":46},{"user_id":391,"name":"Smoke Stacks","steam_id":76561197999478769,"connected_time":235000000000,"state":"active","ping":62},{"user_id":392,"name":"Mikebill","steam_id":76561198197462225,"connected_time":109000000000,"state":"active","ping":93},{"user_id":388,"name":"Spiderfight1","steam_id":76561199189991528,"connected_time":427000000000,"state":"active","ping":99},{"user_id":367,"name":"*:･ﾟ✧smolgols*:･ﾟ✧","steam_id":76561198356567673,"connected_time":2350000000000,"state":"active","ping":64},{"user_id":358,"name":"Shotaway's Kitten","steam_id":76561198284226688,"connected_time":2793000000000,"state":"active","ping":60},{"user_id":324,"name":"The Rock","steam_id":76561198433328517,"connected_time":4569000000000,"state":"active","ping":72},{"user_id":381,"name":"Joebobio","steam_id":76561198024442760,"connected_time":1924000000000,"state":"active","ping":71},{"user_id":299,"name":"alN","steam_id":76561198329171346,"connected_time":6083000000000,"state":"active","ping":46},{"user_id":348,"name":"✪ dSaner -iwnl-","steam_id":76561198082291174,"connected_time":2950000000000,"state":"active","ping":67},{"user_id":375,"name":"merlin","steam_id":76561198334511480,"connected_time":1989000000000,"state":"active","ping":76},{"user_id":389,"name":"Ludens","steam_id":76561198044423822,"connected_time":425000000000,"state":"active","ping":82},{"user_id":352,"name":"Bearegard","steam_id":76561198061926542,"connected_time":2912000000000,"state":"active","ping":54},{"user_id":353,"name":"realCptJack","steam_id":76561198021082168,"connected_time":2911000000000,"state":"active","ping":64},{"user_id":376,"name":"Big Chad","steam_id":76561198015304658,"connected_time":1981000000000,"state":"active","ping":51},{"user_id":384,"name":"SpiceFox","steam_id":76561198049567786,"connected_time":1296000000000,"state":"active","ping":60},{"user_id":385,"name":"phantom","steam_id":76561197963860777,"connected_time":908000000000,"state":"active","ping":52},{"user_id":354,"name":"sherlock gnomes","steam_id":76561198050681704,"connected_time":2910000000000,"state":"active","ping":60},{"user_id":355,"name":"\u003c3","steam_id":76561198065872641,"connected_time":2904000000000,"state":"active","ping":114},{"user_id":370,"name":"Suck Her Dick Sunday","steam_id":76561198029274581,"connected_time":2317000000000,"state":"active","ping":61}]},{"server_id":36,"name":"Uncletopia | Chicago | 5 | All Maps","name_short":"chi-5","host":"chi-2.us.uncletopia.com","port":27015,"enabled":true,"region":"us-central","cc":"us","latitude":41.881832,"longitude":-87.62318,"reserved":0,"last_update":"0001-01-01T00:00:00Z","name_a2s":"Uncletopia | Chicago | 5 | All Maps","protocol":17,"map":"cp_mountainlab","folder":"tf","game":"Team Fortress","app_id":440,"player_count":0,"max_players":24,"Bots":0,"server_type":"Dedicated","server_os":"Linux","password":true,"vac":true,"version":"7961495","steam_id":85568392924866362,"keywords":["cp","nocrits","nodmgspread","uncletopia"],"game_id":440,"stv_port":27016,"stv_name":"Uncletopia | Chicago | 5 | All Maps | STV","players":null},{"server_id":37,"name":"Uncletopia | Chicago | 6 | All Maps","name_short":"chi-6","host":"chi-2.us.uncletopia.com","port":27025,"enabled":true,"region":"us-central","cc":"us","latitude":41.881832,"longitude":-87.62318,"reserved":0,"last_update":"0001-01-01T00:00:00Z","name_a2s":"Uncletopia | Chicago | 6 | All Maps","protocol":17,"map":"pl_snowycoast","folder":"tf","game":"Team Fortress","app_id":440,"player_count":0,"max_players":24,"Bots":0,"server_type":"Dedicated","server_os":"Linux","password":true,"vac":true,"version":"7961495","steam_id":85568392924866363,"keywords":["nocrits","nodmgspread","payload","uncletopia"],"game_id":440,"stv_port":27026,"stv_name":"Uncletopia | Chicago | 6 | All Maps | STV","players":null},{"server_id":38,"name":"Uncletopia | Chicago | 7 | Stopwatch","name_short":"chi-7","host":"chi-2.us.uncletopia.com","port":27035,"enabled":true,"region":"us-central","cc":"us","latitude":41.881832,"longitude":-87.62318,"reserved":0,"last_update":"0001-01-01T00:00:00Z","name_a2s":"Uncletopia | Chicago | 7 | Stopwatch","protocol":17,"map":"cp_metalworks","folder":"tf","game":"Team Fortress","app_id":440,"player_count":0,"max_players":24,"Bots":0,"server_type":"Dedicated","server_os":"Linux","password":true,"vac":true,"version":"7961495","steam_id":85568392924866364,"keywords":["cp","nocrits","nodmgspread","uncletopia"],"game_id":440,"stv_port":27036,"stv_name":"Uncletopia | Chicago | 7 | Stopwatch | STV","players":null},{"server_id":39,"name":"Uncletopia | Chicago | 8 | Community","name_short":"chi-8","host":"chi-2.us.uncletopia.com","port":27045,"enabled":true,"region":"us-central","cc":"us","latitude":41.881832,"longitude":-87.62318,"reserved":0,"last_update":"0001-01-01T00:00:00Z","name_a2s":"Uncletopia | Chicago | 8 | Community","protocol":17,"map":"workshop/koth_slaughter_rc1.ugc1712845210","folder":"tf","game":"Team Fortress","app_id":440,"player_count":0,"max_players":24,"Bots":0,"server_type":"Dedicated","server_os":"Linux","password":true,"vac":true,"version":"7961495","steam_id":85568392924866365,"keywords":["cp","nocrits","nodmgspread","uncletopia"],"game_id":440,"stv_port":27046,"stv_name":"Uncletopia | Chicago | 8 | Community | STV","players":null},{"server_id":8,"name":"Uncletopia | Dallas | 1 | All Maps","name_short":"dal-1","host":"dal-1.us.uncletopia.com","port":27015,"enabled":true,"region":"us-central","cc":"us","latitude":32.779167,"longitude":-96.80889,"reserved":0,"last_update":"0001-01-01T00:00:00Z","name_a2s":"Uncletopia | Dallas | 1 | All Maps","protocol":17,"map":"cp_steel","folder":"tf","game":"Team Fortress","app_id":440,"player_count":20,"max_players":24,"Bots":0,"server_type":"Dedicated","server_os":"Linux","password":true,"vac":true,"version":"7961495","steam_id":85568392924469986,"keywords":["cp","nocrits","nodmgspread","uncletopia"],"game_id":440,"stv_port":27016,"stv_name":"Uncletopia | Dallas | 1 | All Maps | STV","players":[{"user_id":553,"name":"Jackilyn Kiljester","steam_id":76561198259650356,"connected_time":131000000000,"state":"active","ping":96},{"user_id":555,"name":"Rock Kickass","steam_id":76561198450510841,"connected_time":94000000000,"state":"active","ping":96},{"user_id":458,"name":"HUESO","steam_id":76561198276383681,"connected_time":8692000000000,"state":"active","ping":85},{"user_id":530,"name":"weed lesbian","steam_id":76561198042263805,"connected_time":1883000000000,"state":"active","ping":93},{"user_id":548,"name":"Flow of Consciousness gaming","steam_id":76561198069735882,"connected_time":947000000000,"state":"active","ping":87},{"user_id":529,"name":"floofy","steam_id":76561198389769098,"connected_time":2327000000000,"state":"active","ping":75},{"user_id":511,"name":"Moffein","steam_id":76561198016739296,"connected_time":4474000000000,"state":"active","ping":77},{"user_id":556,"name":"bobbymcbobington","steam_id":76561199089411172,"connected_time":68000000000,"state":"active","ping":120},{"user_id":554,"name":"baguette","steam_id":76561198209813328,"connected_time":123000000000,"state":"active","ping":55},{"user_id":445,"name":"ghor","steam_id":76561197994547132,"connected_time":9551000000000,"state":"active","ping":95},{"user_id":543,"name":"Cairna ♥","steam_id":76561198035418464,"connected_time":1247000000000,"state":"active","ping":67},{"user_id":544,"name":"DaFlynHyn","steam_id":76561197998492675,"connected_time":1192000000000,"state":"active","ping":135},{"user_id":482,"name":"Username","steam_id":76561198198918781,"connected_time":6498000000000,"state":"active","ping":101},{"user_id":537,"name":"✡yuri✡joint✡","steam_id":76561198799337306,"connected_time":1408000000000,"state":"active","ping":44},{"user_id":370,"name":"BADWOLF42","steam_id":76561198055447523,"connected_time":14102000000000,"state":"active","ping":50},{"user_id":522,"name":"Charles","steam_id":76561198155322277,"connected_time":3401000000000,"state":"active","ping":90},{"user_id":538,"name":"małię","steam_id":76561198337705174,"connected_time":1382000000000,"state":"active","ping":60},{"user_id":539,"name":"Cunt Force Trauma","steam_id":76561198086121413,"connected_time":1357000000000,"state":"active","ping":88},{"user_id":550,"name":"Sexual Villain","steam_id":76561198106217716,"connected_time":813000000000,"state":"active","ping":69},{"user_id":552,"name":"Alkahest","steam_id":76561199112346658,"connected_time":421000000000,"state":"active","ping":93}]},{"server_id":108,"name":"Uncletopia | Dallas | 2 | All Maps","name_short":"dal-2","host":"dal-1.us.uncletopia.com","port":27025,"enabled":true,"region":"us-central","cc":"us","latitude":32.779167,"longitude":-96.80889,"reserved":0,"last_update":"0001-01-01T00:00:00Z","name_a2s":"Uncletopia | Dallas | 2 | All Maps","protocol":17,"map":"cp_dustbowl","folder":"tf","game":"Team Fortress","app_id":440,"player_count":4,"max_players":24,"Bots":0,"server_type":"Dedicated","server_os":"Linux","password":true,"vac":true,"version":"7961495","steam_id":85568392924469988,"keywords":["cp","nocrits","nodmgspread","uncletopia"],"game_id":440,"stv_port":27026,"stv_name":"Uncletopia | Dallas | 2 | All Maps | STV","players":[{"user_id":420,"name":"The Barrel General","steam_id":76561198133684687,"connected_time":486000000000,"state":"active","ping":72},{"user_id":421,"name":"Brad.EXE","steam_id":76561198048351190,"connected_time":470000000000,"state":"active","ping":85},{"user_id":422,"name":"Sgt Ruffles","steam_id":76561198060103292,"connected_time":432000000000,"state":"active","ping":43},{"user_id":423,"name":"Bone_Yoinker","steam_id":76561198052376335,"connected_time":257000000000,"state":"active","ping":85}]},{"server_id":404,"name":"Uncletopia | Dallas | 3 | All Maps","name_short":"dal-3","host":"dal-1.us.uncletopia.com","port":27035,"enabled":true,"region":"us-central","cc":"us","latitude":32.779167,"longitude":-96.80889,"reserved":0,"last_update":"0001-01-01T00:00:00Z","name_a2s":"Uncletopia | Dallas | 3 | All Maps","protocol":17,"map":"cp_altitude","folder":"tf","game":"Team Fortress","app_id":440,"player_count":0,"max_players":24,"Bots":0,"server_type":"Dedicated","server_os":"Linux","password":true,"vac":true,"version":"7961495","steam_id":85568392924515219,"keywords":["cp","nocrits","nodmgspread","uncletopia"],"game_id":440,"stv_port":27036,"stv_name":"Uncletopia | Dallas | 3 | All Maps | STV","players":null},{"server_id":405,"name":"Uncletopia | Dallas | 4 | Community","name_short":"dal-4","host":"dal-1.us.uncletopia.com","port":27045,"enabled":true,"region":"us-central","cc":"us","latitude":32.779167,"longitude":-96.80889,"reserved":0,"last_update":"0001-01-01T00:00:00Z","name_a2s":"Uncletopia | Dallas | 4 | Community","protocol":17,"map":"workshop/rd_asteroid_redux_b1.ugc2154902912","folder":"tf","game":"Team Fortress","app_id":440,"player_count":0,"max_players":24,"Bots":0,"server_type":"Dedicated","server_os":"Linux","password":true,"vac":true,"version":"7961495","steam_id":85568392924515220,"keywords":["beta","nocrits","nodmgspread","rd","uncletopia"],"game_id":440,"stv_port":27046,"stv_name":"Uncletopia | Dallas | 4 | Community | STV","players":null},{"server_id":5,"name":"Uncletopia | Frankfurt | 1 | All Maps","name_short":"frk-1","host":"frk-1.de.uncletopia.com","port":27015,"enabled":true,"region":"eu","cc":"de","latitude":50.110924,"longitude":8.682127,"reserved":0,"last_update":"0001-01-01T00:00:00Z","name_a2s":"Uncletopia | Frankfurt | 1 | All Maps","protocol":17,"map":"koth_highpass","folder":"tf","game":"Team Fortress","app_id":440,"player_count":0,"max_players":24,"Bots":0,"server_type":"Dedicated","server_os":"Linux","password":true,"vac":true,"version":"7961495","steam_id":85568392924469989,"keywords":["cp","nocrits","nodmgspread","uncletopia"],"game_id":440,"stv_port":27016,"stv_name":"Uncletopia | Frankfurt | 1 | All Maps | STV","players":null},{"server_id":110,"name":"Uncletopia | Frankfurt | 2 | All Maps","name_short":"frk-2","host":"frk-1.de.uncletopia.com","port":27025,"enabled":true,"region":"eu","cc":"de","latitude":50.110924,"longitude":8.682127,"reserved":0,"last_update":"0001-01-01T00:00:00Z","name_a2s":"Uncletopia | Frankfurt | 2 | All Maps","protocol":17,"map":"cp_dustbowl","folder":"tf","game":"Team Fortress","app_id":440,"player_count":0,"max_players":24,"Bots":0,"server_type":"Dedicated","server_os":"Linux","password":true,"vac":true,"version":"7961495","steam_id":85568392924469990,"keywords":["cp","nocrits","nodmgspread","uncletopia"],"game_id":440,"stv_port":27026,"stv_name":"Uncletopia | Frankfurt | 2 | All Maps | STV","players":null},{"server_id":308,"name":"Uncletopia | Frankfurt | 3 | All Maps","name_short":"frk-3","host":"frk-1.de.uncletopia.com","port":27035,"enabled":true,"region":"eu","cc":"de","latitude":50.110924,"longitude":8.682127,"reserved":0,"last_update":"0001-01-01T00:00:00Z","name_a2s":"Uncletopia | Frankfurt | 3 | All Maps","protocol":17,"map":"pl_barnblitz","folder":"tf","game":"Team Fortress","app_id":440,"player_count":0,"max_players":24,"Bots":0,"server_type":"Dedicated","server_os":"Linux","password":true,"vac":true,"version":"7961495","steam_id":85568392924504274,"keywords":["nocrits","nodmgspread","payload","uncletopia"],"game_id":440,"stv_port":27036,"stv_name":"Uncletopia | Frankfurt | 3 | All Maps | STV","players":null},{"server_id":309,"name":"Uncletopia | Frankfurt | 4 | All Maps","name_short":"frk-4","host":"frk-1.de.uncletopia.com","port":27045,"enabled":true,"region":"eu","cc":"de","latitude":50.110924,"longitude":8.682127,"reserved":0,"last_update":"0001-01-01T00:00:00Z","name_a2s":"Uncletopia | Frankfurt | 4 | All Maps","protocol":17,"map":"koth_highpass","folder":"tf","game":"Team Fortress","app_id":440,"player_count":0,"max_players":24,"Bots":0,"server_type":"Dedicated","server_os":"Linux","password":true,"vac":true,"version":"7961495","steam_id":85568392924504275,"keywords":["cp","nocrits","nodmgspread","uncletopia"],"game_id":440,"stv_port":27046,"stv_name":"Uncletopia | Frankfurt | 4 | All Maps | STV","players":null},{"server_id":310,"name":"Uncletopia | Frankfurt | 5 | All Maps","name_short":"frk-5","host":"frk-1.de.uncletopia.com","port":27055,"enabled":true,"region":"eu","cc":"de","latitude":50.110924,"longitude":8.682127,"reserved":0,"last_update":"0001-01-01T00:00:00Z","name_a2s":"Uncletopia | Frankfurt | 5 | All Maps","protocol":17,"map":"pl_badwater","folder":"tf","game":"Team Fortress","app_id":440,"player_count":0,"max_players":24,"Bots":0,"server_type":"Dedicated","server_os":"Linux","password":true,"vac":true,"version":"7961495","steam_id":85568392924504277,"keywords":["nocrits","nodmgspread","payload","uncletopia"],"game_id":440,"stv_port":27056,"stv_name":"Uncletopia | Frankfurt | 5 | All Maps | STV","players":null},{"server_id":311,"name":"Uncletopia | Frankfurt | 6 | All Maps","name_short":"frk-6","host":"frk-1.de.uncletopia.com","port":27065,"enabled":true,"region":"eu","cc":"de","latitude":50.110924,"longitude":8.682127,"reserved":0,"last_update":"0001-01-01T00:00:00Z","name_a2s":"Uncletopia | Frankfurt | 6 | All Maps","protocol":17,"map":"cp_altitude","folder":"tf","game":"Team Fortress","app_id":440,"player_count":0,"max_players":24,"Bots":0,"server_type":"Dedicated","server_os":"Linux","password":true,"vac":true,"version":"7961495","steam_id":85568392924504278,"keywords":["cp","nocrits","nodmgspread","uncletopia"],"game_id":440,"stv_port":27066,"stv_name":"Uncletopia | Frankfurt | 6 | All Maps | STV","players":null},{"server_id":23,"name":"Uncletopia | Frankfurt | 7 | Stopwatch","name_short":"frk-7","host":"frk-1.de.uncletopia.com","port":27075,"enabled":true,"region":"eu","cc":"de","latitude":50.110924,"longitude":8.682127,"reserved":0,"last_update":"0001-01-01T00:00:00Z","name_a2s":"Uncletopia | Frankfurt | 7 | Stopwatch","protocol":17,"map":"pl_frontier_final","folder":"tf","game":"Team Fortress","app_id":440,"player_count":0,"max_players":24,"Bots":0,"server_type":"Dedicated","server_os":"Linux","password":true,"vac":true,"version":"7961495","steam_id":85568392924742827,"keywords":["nocrits","nodmgspread","payload","uncletopia"],"game_id":440,"stv_port":27076,"stv_name":"Uncletopia | Frankfurt | 7 | Stopwatch | STV","players":null},{"server_id":24,"name":"Uncletopia | Frankfurt | 8 | Community","name_short":"frk-8","host":"frk-1.de.uncletopia.com","port":27085,"enabled":true,"region":"eu","cc":"de","latitude":50.110924,"longitude":8.682127,"reserved":0,"last_update":"0001-01-01T00:00:00Z","name_a2s":"Uncletopia | Frankfurt | 8 | Community","protocol":17,"map":"cp_mountainlab","folder":"tf","game":"Team Fortress","app_id":440,"player_count":0,"max_players":24,"Bots":0,"server_type":"Dedicated","server_os":"Linux","password":true,"vac":true,"version":"7961495","steam_id":85568392924742828,"keywords":["cp","nocrits","nodmgspread","uncletopia"],"game_id":440,"stv_port":27086,"stv_name":"Uncletopia | Frankfurt | 8 | Community | STV","players":null},{"server_id":202,"name":"Uncletopia | Hong Kong | 1 | All Maps","name_short":"hgk-1","host":"hgk-1.hk.uncletopia.com","port":27015,"enabled":true,"region":"asia","cc":"hk","latitude":22.302711,"longitude":114.177216,"reserved":0,"last_update":"0001-01-01T00:00:00Z","name_a2s":"Uncletopia | Hong Kong | 1 | All Maps","protocol":17,"map":"pl_swiftwater_final1","folder":"tf","game":"Team Fortress","app_id":440,"player_count":23,"max_players":24,"Bots":0,"server_type":"Dedicated","server_os":"Linux","password":true,"vac":true,"version":"7961495","steam_id":85568392924494504,"keywords":["nocrits","nodmgspread","payload","uncletopia"],"game_id":440,"stv_port":27016,"stv_name":"Uncletopia | Hong Kong | 1 | All Maps | STV","players":[{"user_id":169,"name":"sugar rush","steam_id":76561199221278400,"connected_time":1454000000000,"state":"active","ping":60},{"user_id":192,"name":"hazel","steam_id":76561198037292232,"connected_time":335000000000,"state":"active","ping":106},{"user_id":188,"name":"strongest takodachi","steam_id":76561199120168685,"connected_time":442000000000,"state":"active","ping":54},{"user_id":152,"name":"im_0ff","steam_id":76561198339346695,"connected_time":3635000000000,"state":"active","ping":121},{"user_id":129,"name":"ArcticDolphin","steam_id":76561198203626319,"connected_time":5566000000000,"state":"active","ping":164},{"user_id":179,"name":"BrianD","steam_id":76561198059064973,"connected_time":693000000000,"state":"active","ping":81},{"user_id":178,"name":"im choking on point","steam_id":76561198944322758,"connected_time":823000000000,"state":"active","ping":164},{"user_id":180,"name":"Submarine","steam_id":76561198415207497,"connected_time":580000000000,"state":"active","ping":78},{"user_id":105,"name":"Goldy","steam_id":76561199008543001,"connected_time":7387000000000,"state":"active","ping":58},{"user_id":182,"name":"Da Boss","steam_id":76561198104268922,"connected_time":530000000000,"state":"active","ping":70},{"user_id":183,"name":"tris","steam_id":76561198337296919,"connected_time":530000000000,"state":"active","ping":70},{"user_id":133,"name":"MANCO FETT","steam_id":76561198107128889,"connected_time":5216000000000,"state":"active","ping":88},{"user_id":184,"name":"Doormann","steam_id":76561199219230108,"connected_time":497000000000,"state":"active","ping":85},{"user_id":185,"name":"Legosi","steam_id":76561199077502676,"connected_time":492000000000,"state":"active","ping":148},{"user_id":193,"name":"corpse_cadaver","steam_id":76561199225360457,"connected_time":284000000000,"state":"active","ping":72},{"user_id":138,"name":"villy","steam_id":76561198169263597,"connected_time":4954000000000,"state":"active","ping":40},{"user_id":187,"name":"Scrotie McBoogerballs ❤","steam_id":76561198008473821,"connected_time":451000000000,"state":"active","ping":57},{"user_id":189,"name":"twitch.tv/vision515","steam_id":76561198065293729,"connected_time":436000000000,"state":"active","ping":163},{"user_id":194,"name":"screaming sniper","steam_id":76561199085568674,"connected_time":256000000000,"state":"active","ping":61},{"user_id":200,"name":"Archimedes","steam_id":76561198080578051,"connected_time":42000000000,"state":"active","ping":47},{"user_id":197,"name":"Sloweel","steam_id":76561199471411469,"connected_time":118000000000,"state":"active","ping":55},{"user_id":198,"name":"hakos balls","steam_id":76561198074339034,"connected_time":113000000000,"state":"active","ping":78},{"user_id":199,"name":"14","steam_id":76561198113401862,"connected_time":95000000000,"state":"active","ping":92}]},{"server_id":1,"name":"Uncletopia | Los Angeles | 1 | All Maps","name_short":"lax-1","host":"lax-1.us.uncletopia.com","port":27015,"enabled":true,"region":"us-west","cc":"us","latitude":33.94279,"longitude":-118.41004,"reserved":0,"last_update":"0001-01-01T00:00:00Z","name_a2s":"Uncletopia | Los Angeles | 1 | All Maps","protocol":17,"map":"pl_badwater","folder":"tf","game":"Team Fortress","app_id":440,"player_count":20,"max_players":24,"Bots":0,"server_type":"Dedicated","server_os":"Linux","password":true,"vac":true,"version":"7961495","steam_id":85568392924469991,"keywords":["nocrits","nodmgspread","payload","uncletopia"],"game_id":440,"stv_port":27016,"stv_name":"Uncletopia | Los Angeles | 1 | All Maps | STV","players":[{"user_id":465,"name":"FI LO","steam_id":76561198976530881,"connected_time":467000000000,"state":"active","ping":35},{"user_id":464,"name":"Boston","steam_id":76561198061078236,"connected_time":728000000000,"state":"active","ping":73},{"user_id":466,"name":"PirateJet","steam_id":76561198050858744,"connected_time":441000000000,"state":"active","ping":45},{"user_id":473,"name":"Rat_king","steam_id":76561199465689129,"connected_time":72000000000,"state":"active","ping":76},{"user_id":340,"name":"Lambchop","steam_id":76561198043900363,"connected_time":9697000000000,"state":"active","ping":60},{"user_id":429,"name":"cringy","steam_id":76561198323000455,"connected_time":2348000000000,"state":"active","ping":59},{"user_id":450,"name":"HeroOfTime","steam_id":76561199096218001,"connected_time":1720000000000,"state":"active","ping":49},{"user_id":406,"name":"roach","steam_id":76561198354811369,"connected_time":4927000000000,"state":"active","ping":50},{"user_id":474,"name":"MR MODE","steam_id":76561198046775352,"connected_time":38000000000,"state":"active","ping":58},{"user_id":428,"name":"♥♡∞iMaCH∞♡♥","steam_id":76561198820527565,"connected_time":2450000000000,"state":"active","ping":78},{"user_id":472,"name":"she's 12","steam_id":76561198295034584,"connected_time":88000000000,"state":"active","ping":106},{"user_id":454,"name":"Gardenof_onion","steam_id":76561198182087497,"connected_time":1670000000000,"state":"active","ping":83},{"user_id":459,"name":"Eric4bz","steam_id":76561198054439606,"connected_time":1206000000000,"state":"active","ping":102},{"user_id":437,"name":"zpalmtree","steam_id":76561198134307620,"connected_time":1993000000000,"state":"active","ping":108},{"user_id":475,"name":"Juul Room","steam_id":76561198132867238,"connected_time":34000000000,"state":"active","ping":79},{"user_id":469,"name":"Paradon","steam_id":76561198242214772,"connected_time":392000000000,"state":"active","ping":44},{"user_id":451,"name":"Claybae","steam_id":76561198064290179,"connected_time":1720000000000,"state":"active","ping":85},{"user_id":446,"name":"binka bonk","steam_id":76561198174751517,"connected_time":1788000000000,"state":"active","ping":73},{"user_id":448,"name":"Alf Creepypasta","steam_id":76561198841844093,"connected_time":1768000000000,"state":"active","ping":40},{"user_id":460,"name":"snezhnaya","steam_id":76561198076395081,"connected_time":1195000000000,"state":"active","ping":49}]},{"server_id":112,"name":"Uncletopia | Los Angeles | 2 | All Maps","name_short":"lax-2","host":"lax-1.us.uncletopia.com","port":27025,"enabled":true,"region":"us-west","cc":"us","latitude":33.94279,"longitude":-118.41004,"reserved":0,"last_update":"0001-01-01T00:00:00Z","name_a2s":"Uncletopia | Los Angeles | 2 | All Maps","protocol":17,"map":"koth_lakeside_final","folder":"tf","game":"Team Fortress","app_id":440,"player_count":0,"max_players":24,"Bots":0,"server_type":"Dedicated","server_os":"Linux","password":true,"vac":true,"version":"7961495","steam_id":85568392924469992,"keywords":["cp","nocrits","nodmgspread","uncletopia"],"game_id":440,"stv_port":27026,"stv_name":"Uncletopia | Los Angeles | 2 | All Maps | STV","players":null},{"server_id":324,"name":"Uncletopia | Los Angeles | 3 | All Maps","name_short":"lax-3","host":"lax-1.us.uncletopia.com","port":27035,"enabled":true,"region":"us-west","cc":"us","latitude":33.94279,"longitude":-118.41004,"reserved":0,"last_update":"0001-01-01T00:00:00Z","name_a2s":"Uncletopia | Los Angeles | 3 | All Maps","protocol":17,"map":"cp_process_final","folder":"tf","game":"Team Fortress","app_id":440,"player_count":24,"max_players":24,"Bots":0,"server_type":"Dedicated","server_os":"Linux","password":true,"vac":true,"version":"7961495","steam_id":85568392924510198,"keywords":["cp","nocrits","nodmgspread","uncletopia"],"game_id":440,"stv_port":27036,"stv_name":"Uncletopia | Los Angeles | 3 | All Maps | STV","players":[{"user_id":250,"name":"Spokkovith","steam_id":76561198091188431,"connected_time":415000000000,"state":"active","ping":102},{"user_id":230,"name":"Alltrex","steam_id":76561198202254225,"connected_time":2532000000000,"state":"active","ping":62},{"user_id":247,"name":"1000 Ping","steam_id":76561198098330939,"connected_time":1123000000000,"state":"active","ping":69},{"user_id":257,"name":"Godzylian","steam_id":76561198084832040,"connected_time":58000000000,"state":"active","ping":57},{"user_id":252,"name":"The Caretaker","steam_id":76561198125241411,"connected_time":380000000000,"state":"active","ping":68},{"user_id":116,"name":"vvitch","steam_id":76561198279661941,"connected_time":11592000000000,"state":"active","ping":46},{"user_id":253,"name":"tkeati","steam_id":76561198056356574,"connected_time":286000000000,"state":"active","ping":65},{"user_id":255,"name":"Aviastur","steam_id":76561198066776250,"connected_time":202000000000,"state":"active","ping":100},{"user_id":246,"name":"koko","steam_id":76561198881665250,"connected_time":1167000000000,"state":"active","ping":67},{"user_id":248,"name":"Nediah101","steam_id":76561198129458849,"connected_time":425000000000,"state":"active","ping":68},{"user_id":227,"name":"smetc","steam_id":76561198240696986,"connected_time":2784000000000,"state":"active","ping":114},{"user_id":208,"name":"Madeline (She/Her)","steam_id":76561198336551859,"connected_time":3693000000000,"state":"active","ping":53},{"user_id":215,"name":"Hernandez$","steam_id":76561198019324588,"connected_time":3260000000000,"state":"active","ping":48},{"user_id":224,"name":"Gerbias","steam_id":76561198001002427,"connected_time":2860000000000,"state":"active","ping":60},{"user_id":243,"name":"Nova Academy of Salmon Action","steam_id":76561198021842526,"connected_time":1927000000000,"state":"active","ping":68},{"user_id":239,"name":"Whisper!","steam_id":76561198119609795,"connected_time":2239000000000,"state":"active","ping":55},{"user_id":225,"name":"rmbl (fork eater)","steam_id":76561198150137369,"connected_time":2842000000000,"state":"active","ping":56},{"user_id":242,"name":"NormanVillage","steam_id":76561198330337371,"connected_time":2069000000000,"state":"active","ping":63},{"user_id":245,"name":"rocketspires","steam_id":76561198800386026,"connected_time":1249000000000,"state":"active","ping":79},{"user_id":212,"name":"Anon","steam_id":76561198109740776,"connected_time":3361000000000,"state":"active","ping":64},{"user_id":256,"name":"{te-op] captain nemo212","steam_id":76561197996902240,"connected_time":167000000000,"state":"active","ping":120},{"user_id":222,"name":"Randle of John","steam_id":76561198328210524,"connected_time":2993000000000,"state":"active","ping":55},{"user_id":232,"name":"SpecialForce19","steam_id":76561198120974644,"connected_time":2399000000000,"state":"active","ping":123},{"user_id":233,"name":"Hindmost","steam_id":76561199081837220,"connected_time":2356000000000,"state":"active","ping":102}]},{"server_id":25,"name":"Uncletopia | Los Angeles | 4 | Stopwatch","name_short":"lax-4","host":"lax-1.us.uncletopia.com","port":27045,"enabled":true,"region":"us-west","cc":"us","latitude":33.94279,"longitude":-118.41004,"reserved":0,"last_update":"0001-01-01T00:00:00Z","name_a2s":"Uncletopia | Los Angeles | 4 | Stopwatch","protocol":17,"map":"workshop/pl_barnblitz_pro7.ugc582280235","folder":"tf","game":"Team Fortress","app_id":440,"player_count":0,"max_players":24,"Bots":0,"server_type":"Dedicated","server_os":"Linux","password":true,"vac":true,"version":"7961495","steam_id":85568392924510199,"keywords":["nocrits","nodmgspread","payload","uncletopia"],"game_id":440,"stv_port":27046,"stv_name":"Uncletopia | Los Angeles | 4 | Stopwatch | STV","players":null},{"server_id":11,"name":"Uncletopia | London | 1 | All Maps","name_short":"lon-1","host":"lon-1.uk.uncletopia.com","port":27015,"enabled":true,"region":"eu","cc":"gb","latitude":51.509865,"longitude":-0.118092,"reserved":0,"last_update":"0001-01-01T00:00:00Z","name_a2s":"Uncletopia | London | 1 | All Maps","protocol":17,"map":"koth_highpass","folder":"tf","game":"Team Fortress","app_id":440,"player_count":0,"max_players":24,"Bots":0,"server_type":"Dedicated","server_os":"Linux","password":true,"vac":true,"version":"7961495","steam_id":85568392924367362,"keywords":["cp","nocrits","nodmgspread","uncletopia"],"game_id":440,"stv_port":27016,"stv_name":"Uncletopia | London | 1 | All Maps | STV","players":null},{"server_id":114,"name":"Uncletopia | London | 2 | All Maps","name_short":"lon-2","host":"lon-1.uk.uncletopia.com","port":27025,"enabled":true,"region":"eu","cc":"gb","latitude":51.509865,"longitude":-0.118092,"reserved":0,"last_update":"0001-01-01T00:00:00Z","name_a2s":"Uncletopia | London | 2 | All Maps","protocol":17,"map":"koth_lakeside_final","folder":"tf","game":"Team Fortress","app_id":440,"player_count":0,"max_players":24,"Bots":0,"server_type":"Dedicated","server_os":"Linux","password":true,"vac":true,"version":"7961495","steam_id":85568392924470941,"keywords":["cp","nocrits","nodmgspread","uncletopia"],"game_id":440,"stv_port":27026,"stv_name":"Uncletopia | London | 2 | All Maps | STV","players":null},{"server_id":320,"name":"Uncletopia | London | 3 | All Maps","name_short":"lon-3","host":"lon-1.uk.uncletopia.com","port":27035,"enabled":true,"region":"eu","cc":"gb","latitude":51.509865,"longitude":-0.118092,"reserved":0,"last_update":"0001-01-01T00:00:00Z","name_a2s":"Uncletopia | London | 3 | All Maps","protocol":17,"map":"cp_process_final","folder":"tf","game":"Team Fortress","app_id":440,"player_count":0,"max_players":24,"Bots":0,"server_type":"Dedicated","server_os":"Linux","password":true,"vac":true,"version":"7961495","steam_id":85568392924510192,"keywords":["cp","nocrits","nodmgspread","uncletopia"],"game_id":440,"stv_port":27036,"stv_name":"Uncletopia | London | 3 | All Maps | STV","players":null},{"server_id":321,"name":"Uncletopia | London | 4 | All Maps","name_short":"lon-4","host":"lon-1.uk.uncletopia.com","port":27045,"enabled":true,"region":"eu","cc":"gb","latitude":51.509865,"longitude":-0.118092,"reserved":0,"last_update":"0001-01-01T00:00:00Z","name_a2s":"Uncletopia | London | 4 | All Maps","protocol":17,"map":"koth_cascade","folder":"tf","game":"Team Fortress","app_id":440,"player_count":0,"max_players":24,"Bots":0,"server_type":"Dedicated","server_os":"Linux","password":true,"vac":true,"version":"7961495","steam_id":85568392924510193,"keywords":["cp","nocrits","nodmgspread","uncletopia"],"game_id":440,"stv_port":27046,"stv_name":"Uncletopia | London | 4 | All Maps | STV","players":null},{"server_id":21,"name":"Uncletopia | London | 5 | All Maps","name_short":"lon-5","host":"lon-1.uk.uncletopia.com","port":27055,"enabled":true,"region":"eu","cc":"gb","latitude":51.509865,"longitude":-0.118092,"reserved":0,"last_update":"0001-01-01T00:00:00Z","name_a2s":"Uncletopia | London | 5 | All Maps","protocol":17,"map":"koth_lakeside_final","folder":"tf","game":"Team Fortress","app_id":440,"player_count":0,"max_players":24,"Bots":0,"server_type":"Dedicated","server_os":"Linux","password":true,"vac":true,"version":"7961495","steam_id":85568392924742829,"keywords":["cp","nocrits","nodmgspread","uncletopia"],"game_id":440,"stv_port":27056,"stv_name":"Uncletopia | London | 5 | All Maps | STV","players":null},{"server_id":22,"name":"Uncletopia | London | 6 | All Maps","name_short":"lon-6","host":"lon-1.uk.uncletopia.com","port":27065,"enabled":true,"region":"eu","cc":"gb","latitude":51.509865,"longitude":-0.118092,"reserved":0,"last_update":"0001-01-01T00:00:00Z","name_a2s":"Uncletopia | London | 6 | All Maps","protocol":17,"map":"cp_dustbowl","folder":"tf","game":"Team Fortress","app_id":440,"player_count":0,"max_players":24,"Bots":0,"server_type":"Dedicated","server_os":"Linux","password":true,"vac":true,"version":"7961495","steam_id":85568392924742830,"keywords":["cp","nocrits","nodmgspread","uncletopia"],"game_id":440,"stv_port":27066,"stv_name":"Uncletopia | London | 6 | All Maps | STV","players":null},{"server_id":40,"name":"Uncletopia | London | 7 | Stopwatch","name_short":"lon-7","host":"lon-1.uk.uncletopia.com","port":27075,"enabled":true,"region":"eu","cc":"gb","latitude":51.509865,"longitude":-0.118092,"reserved":0,"last_update":"0001-01-01T00:00:00Z","name_a2s":"Uncletopia | London | 7 | Stopwatch","protocol":17,"map":"koth_lakeside_final","folder":"tf","game":"Team Fortress","app_id":440,"player_count":0,"max_players":24,"Bots":0,"server_type":"Dedicated","server_os":"Linux","password":true,"vac":true,"version":"7961495","steam_id":85568392924964314,"keywords":["cp","nocrits","nodmgspread","uncletopia"],"game_id":440,"stv_port":27076,"stv_name":"Uncletopia | London | 7 | Stopwatch | STV","players":null},{"server_id":41,"name":"Uncletopia | London | 8 | Community","name_short":"lon-8","host":"lon-1.uk.uncletopia.com","port":27085,"enabled":true,"region":"eu","cc":"gb","latitude":51.509865,"longitude":-0.118092,"reserved":0,"last_update":"0001-01-01T00:00:00Z","name_a2s":"Uncletopia | London | 8 | Community","protocol":17,"map":"cp_snakewater_final1","folder":"tf","game":"Team Fortress","app_id":440,"player_count":0,"max_players":24,"Bots":0,"server_type":"Dedicated","server_os":"Linux","password":true,"vac":true,"version":"7961495","steam_id":85568392924964315,"keywords":["cp","nocrits","nodmgspread","uncletopia"],"game_id":440,"stv_port":27086,"stv_name":"Uncletopia | London | 8 | Community | STV","players":null},{"server_id":300,"name":"Uncletopia | Montréal | 1 | One Thousand Uncles","name_short":"mtl-1","host":"mtl-1.ca.uncletopia.com","port":27015,"enabled":true,"region":"us-east","cc":"ca","latitude":45.50889,"longitude":-73.56167,"reserved":0,"last_update":"0001-01-01T00:00:00Z","name_a2s":"","protocol":0,"map":"","folder":"","game":"","app_id":0,"player_count":0,"max_players":0,"Bots":0,"server_type":"","server_os":"","password":false,"vac":false,"version":"","steam_id":0,"keywords":null,"game_id":0,"stv_port":0,"stv_name":"","players":null},{"server_id":301,"name":"Uncletopia | Montréal | 2 | One Thousand Uncles","name_short":"mtl-2","host":"mtl-1.ca.uncletopia.com","port":27025,"enabled":true,"region":"us-east","cc":"ca","latitude":45.50889,"longitude":-73.56167,"reserved":0,"last_update":"0001-01-01T00:00:00Z","name_a2s":"","protocol":0,"map":"","folder":"","game":"","app_id":0,"player_count":10,"max_players":0,"Bots":0,"server_type":"","server_os":"","password":false,"vac":false,"version":"","steam_id":0,"keywords":null,"game_id":0,"stv_port":0,"stv_name":"","players":[{"user_id":246,"name":"space paranoids","steam_id":76561198085010959,"connected_time":802000000000,"state":"active","ping":69},{"user_id":197,"name":"Word To Your Mothership","steam_id":76561198034329138,"connected_time":2939000000000,"state":"active","ping":111},{"user_id":199,"name":"Krabby","steam_id":76561198038002264,"connected_time":2819000000000,"state":"active","ping":66},{"user_id":171,"name":"Anthid","steam_id":76561198074493797,"connected_time":5986000000000,"state":"active","ping":89},{"user_id":175,"name":"cheetaz","steam_id":76561198224614084,"connected_time":5153000000000,"state":"active","ping":75},{"user_id":248,"name":"Spike","steam_id":76561198141356571,"connected_time":689000000000,"state":"active","ping":75},{"user_id":224,"name":"blunder","steam_id":76561198838223023,"connected_time":1768000000000,"state":"active","ping":48},{"user_id":202,"name":"NotAfraidOfSpiders","steam_id":76561199043160196,"connected_time":2426000000000,"state":"active","ping":105},{"user_id":203,"name":"9221669701","steam_id":76561199221669701,"connected_time":2379000000000,"state":"active","ping":95},{"user_id":225,"name":"SharkGuillotine","steam_id":76561198109028172,"connected_time":1763000000000,"state":"active","ping":56}]},{"server_id":302,"name":"Uncletopia | Montréal | 3 | One Thousand Uncles","name_short":"mtl-3","host":"mtl-1.ca.uncletopia.com","port":27035,"enabled":true,"region":"us-east","cc":"ca","latitude":45.50889,"longitude":-73.56167,"reserved":0,"last_update":"0001-01-01T00:00:00Z","name_a2s":"","protocol":0,"map":"","folder":"","game":"","app_id":0,"player_count":0,"max_players":0,"Bots":0,"server_type":"","server_os":"","password":false,"vac":false,"version":"","steam_id":0,"keywords":null,"game_id":0,"stv_port":0,"stv_name":"","players":null},{"server_id":13,"name":"Uncletopia | New York City | 1 | All Maps","name_short":"nyc-1","host":"nyc-1.us.uncletopia.com","port":27015,"enabled":true,"region":"us-east","cc":"us","latitude":40.73061,"longitude":-73.93524,"reserved":0,"last_update":"0001-01-01T00:00:00Z","name_a2s":"Uncletopia | New York City | 1 | All Maps","protocol":17,"map":"pl_swiftwater_final1","folder":"tf","game":"Team Fortress","app_id":440,"player_count":23,"max_players":24,"Bots":0,"server_type":"Dedicated","server_os":"Linux","password":true,"vac":true,"version":"7961495","steam_id":85568392924469993,"keywords":["nocrits","nodmgspread","payload","uncletopia"],"game_id":440,"stv_port":27016,"stv_name":"Uncletopia | New York City | 1 | All Maps | STV","players":[{"user_id":636,"name":"Bimbonito","steam_id":76561198069676563,"connected_time":2581000000000,"state":"active","ping":70},{"user_id":557,"name":"Dot.","steam_id":76561198149463984,"connected_time":7691000000000,"state":"active","ping":58},{"user_id":654,"name":"avotoast","steam_id":76561198339644583,"connected_time":1125000000000,"state":"active","ping":73},{"user_id":664,"name":"Strassboom","steam_id":76561198044159580,"connected_time":415000000000,"state":"active","ping":64},{"user_id":560,"name":"MISSINGNO9 (She/Her)","steam_id":76561198322494579,"connected_time":7658000000000,"state":"active","ping":67},{"user_id":616,"name":"ℇ:","steam_id":76561198111403028,"connected_time":4142000000000,"state":"active","ping":60},{"user_id":586,"name":"Two-Teste Tommy","steam_id":76561198064308936,"connected_time":6668000000000,"state":"active","ping":57},{"user_id":666,"name":"GTO- TheRealWeiner[isn't-real]","steam_id":76561198083975056,"connected_time":150000000000,"state":"active","ping":84},{"user_id":603,"name":"Bee_Pirate","steam_id":76561199000599111,"connected_time":4664000000000,"state":"active","ping":63},{"user_id":665,"name":"E.V.I.L","steam_id":76561198069909083,"connected_time":360000000000,"state":"active","ping":60},{"user_id":563,"name":"Bombsgamer","steam_id":76561198350009050,"connected_time":7607000000000,"state":"active","ping":83},{"user_id":663,"name":"Rudy","steam_id":76561198013456828,"connected_time":783000000000,"state":"active","ping":60},{"user_id":649,"name":"Sovereign","steam_id":76561198018841787,"connected_time":1214000000000,"state":"active","ping":106},{"user_id":648,"name":"rach9411","steam_id":76561198256535721,"connected_time":1386000000000,"state":"active","ping":144},{"user_id":655,"name":"nastya","steam_id":76561197994492154,"connected_time":1098000000000,"state":"active","ping":139},{"user_id":653,"name":"Foxer57","steam_id":76561197998108860,"connected_time":1152000000000,"state":"active","ping":91},{"user_id":645,"name":"Pablo Johnson","steam_id":76561199009805208,"connected_time":1643000000000,"state":"active","ping":186},{"user_id":643,"name":"Gram Tokers Count Doinkula","steam_id":76561198112811565,"connected_time":1896000000000,"state":"active","ping":58},{"user_id":584,"name":"Tea Enthusiast","steam_id":76561198185583925,"connected_time":6948000000000,"state":"active","ping":37},{"user_id":638,"name":"fucked-up electronic punk.","steam_id":76561198294013916,"connected_time":2490000000000,"state":"active","ping":45},{"user_id":658,"name":"Je","steam_id":76561198060626838,"connected_time":1062000000000,"state":"active","ping":97},{"user_id":657,"name":"rice white","steam_id":76561198320732910,"connected_time":1081000000000,"state":"active","ping":63},{"user_id":550,"name":"Bert.","steam_id":76561198140666346,"connected_time":8896000000000,"state":"active","ping":49}]},{"server_id":14,"name":"Uncletopia | New York City | 2 | All Maps","name_short":"nyc-2","host":"nyc-1.us.uncletopia.com","port":27025,"enabled":true,"region":"us-east","cc":"us","latitude":40.73061,"longitude":-73.93524,"reserved":0,"last_update":"0001-01-01T00:00:00Z","name_a2s":"Uncletopia | New York City | 2 | All Maps","protocol":17,"map":"pl_snowycoast","folder":"tf","game":"Team Fortress","app_id":440,"player_count":4,"max_players":24,"Bots":0,"server_type":"Dedicated","server_os":"Linux","password":true,"vac":true,"version":"7961495","steam_id":85568392924469994,"keywords":["nocrits","nodmgspread","payload","uncletopia"],"game_id":440,"stv_port":27026,"stv_name":"Uncletopia | New York City | 2 | All Maps | STV","players":[{"user_id":854,"name":"Lichey","steam_id":76561198345670004,"connected_time":122000000000,"state":"active","ping":186},{"user_id":853,"name":"Raizen","steam_id":76561199092445367,"connected_time":170000000000,"state":"active","ping":51},{"user_id":842,"name":"chesterwnimitz","steam_id":76561198062664377,"connected_time":2320000000000,"state":"active","ping":113},{"user_id":846,"name":"Fireboy1-UP","steam_id":76561199073267048,"connected_time":1733000000000,"state":"active","ping":117}]},{"server_id":15,"name":"Uncletopia | New York City | 3 | Stopwatch","name_short":"nyc-3","host":"nyc-1.us.uncletopia.com","port":27035,"enabled":true,"region":"us-east","cc":"us","latitude":40.73061,"longitude":-73.93524,"reserved":0,"last_update":"0001-01-01T00:00:00Z","name_a2s":"Uncletopia | New York City | 3 | Stopwatch","protocol":17,"map":"koth_lakeside_final","folder":"tf","game":"Team Fortress","app_id":440,"player_count":0,"max_players":24,"Bots":0,"server_type":"Dedicated","server_os":"Linux","password":true,"vac":true,"version":"7961495","steam_id":85568392924742820,"keywords":["cp","nocrits","nodmgspread","uncletopia"],"game_id":440,"stv_port":27036,"stv_name":"Uncletopia | New York City | 3 | Stopwatch | STV","players":null},{"server_id":16,"name":"Uncletopia | New York City | 4 | Community","name_short":"nyc-4","host":"nyc-1.us.uncletopia.com","port":27045,"enabled":true,"region":"us-east","cc":"us","latitude":40.73061,"longitude":-73.93524,"reserved":0,"last_update":"0001-01-01T00:00:00Z","name_a2s":"Uncletopia | New York City | 4 | Community","protocol":17,"map":"workshop/cp_sulfur_rc2.ugc619869471","folder":"tf","game":"Team Fortress","app_id":440,"player_count":0,"max_players":24,"Bots":0,"server_type":"Dedicated","server_os":"Linux","password":true,"vac":true,"version":"7961495","steam_id":85568392924742821,"keywords":["cp","nocrits","nodmgspread","uncletopia"],"game_id":440,"stv_port":27046,"stv_name":"Uncletopia | New York City | 4 | Community | STV","players":null},{"server_id":142,"name":"Uncletopia | São Paulo | 1 | All Maps","name_short":"sao-1","host":"sao-1.br.uncletopia.com","port":27015,"enabled":true,"region":"sa","cc":"br","latitude":-23.533773,"longitude":-46.62529,"reserved":0,"last_update":"0001-01-01T00:00:00Z","name_a2s":"Uncletopia | São Paulo | 1 | All Maps","protocol":17,"map":"koth_harvest_final","folder":"tf","game":"Team Fortress","app_id":440,"player_count":0,"max_players":24,"Bots":0,"server_type":"Dedicated","server_os":"Linux","password":true,"vac":true,"version":"7961495","steam_id":85568392924469996,"keywords":["cp","nocrits","nodmgspread","uncletopia"],"game_id":440,"stv_port":27016,"stv_name":"Uncletopia | São Paulo | 1 | All Maps | STV","players":null},{"server_id":143,"name":"Uncletopia | São Paulo | 2 | Community","name_short":"sao-2","host":"sao-2.br.uncletopia.com","port":27015,"enabled":true,"region":"sa","cc":"br","latitude":-23.533773,"longitude":-46.62529,"reserved":0,"last_update":"0001-01-01T00:00:00Z","name_a2s":"Uncletopia | São Paulo | 2 | Community","protocol":17,"map":"workshop/pl_highwood_b13.ugc1769496557","folder":"tf","game":"Team Fortress","app_id":440,"player_count":0,"max_players":24,"Bots":0,"server_type":"Dedicated","server_os":"Linux","password":true,"vac":true,"version":"7961495","steam_id":85568392924485349,"keywords":["nocrits","nodmgspread","payload","uncletopia"],"game_id":440,"stv_port":27016,"stv_name":"Uncletopia | São Paulo | 2 | Community | STV","players":null},{"server_id":7,"name":"Uncletopia | Seattle | 1 | All Maps","name_short":"sea-1","host":"sea-1.us.uncletopia.com","port":27015,"enabled":true,"region":"us-west","cc":"us","latitude":47.608013,"longitude":-122.33517,"reserved":0,"last_update":"0001-01-01T00:00:00Z","name_a2s":"Uncletopia | Seattle | 1 | All Maps","protocol":17,"map":"pl_badwater","folder":"tf","game":"Team Fortress","app_id":440,"player_count":24,"max_players":24,"Bots":0,"server_type":"Dedicated","server_os":"Linux","password":true,"vac":true,"version":"7961495","steam_id":85568392924469997,"keywords":["nocrits","nodmgspread","payload","uncletopia"],"game_id":440,"stv_port":27016,"stv_name":"Uncletopia | Seattle | 1 | All Maps | STV","players":[{"user_id":450,"name":"Spicy Chicken","steam_id":76561198074209737,"connected_time":2675000000000,"state":"active","ping":91},{"user_id":403,"name":"Mr8bittripper","steam_id":76561198133894229,"connected_time":7032000000000,"state":"active","ping":47},{"user_id":454,"name":"noellehound (she/her)","steam_id":76561198108844158,"connected_time":2333000000000,"state":"active","ping":89},{"user_id":445,"name":"Tom Skirrett","steam_id":76561198014600788,"connected_time":3124000000000,"state":"active","ping":60},{"user_id":427,"name":"Shazzy","steam_id":76561198145460523,"connected_time":4418000000000,"state":"active","ping":40},{"user_id":464,"name":"pickle","steam_id":76561198244762022,"connected_time":1169000000000,"state":"active","ping":68},{"user_id":461,"name":"Teriyaki Dick","steam_id":76561198067917216,"connected_time":1294000000000,"state":"active","ping":120},{"user_id":452,"name":"DroidFreak36","steam_id":76561198028681032,"connected_time":2587000000000,"state":"active","ping":92},{"user_id":453,"name":"Templar Senpai","steam_id":76561198105659850,"connected_time":2460000000000,"state":"active","ping":46},{"user_id":457,"name":"Arsonist Goose","steam_id":76561198147441830,"connected_time":1987000000000,"state":"active","ping":69},{"user_id":430,"name":"Lord Hater","steam_id":76561199158148782,"connected_time":4357000000000,"state":"active","ping":76},{"user_id":451,"name":"mub","steam_id":76561197961943948,"connected_time":2644000000000,"state":"active","ping":46},{"user_id":459,"name":"Sweets(?)","steam_id":76561198998446307,"connected_time":1862000000000,"state":"active","ping":63},{"user_id":401,"name":"The King of Piss World","steam_id":76561198082806956,"connected_time":7052000000000,"state":"active","ping":133},{"user_id":418,"name":"Hawksgamer","steam_id":76561198152405941,"connected_time":5470000000000,"state":"active","ping":34},{"user_id":425,"name":"rat who can kickflip","steam_id":76561198073620027,"connected_time":4656000000000,"state":"active","ping":39},{"user_id":465,"name":"Mitchell","steam_id":76561197972922328,"connected_time":68000000000,"state":"active","ping":46},{"user_id":438,"name":"SadFapping","steam_id":76561198076651049,"connected_time":3720000000000,"state":"active","ping":47},{"user_id":466,"name":"Epifiny","steam_id":76561198027958086,"connected_time":50000000000,"state":"spawning","ping":108},{"user_id":420,"name":"Daz","steam_id":76561198041431938,"connected_time":5467000000000,"state":"active","ping":50},{"user_id":442,"name":"TROY","steam_id":76561197983852176,"connected_time":3155000000000,"state":"active","ping":73},{"user_id":446,"name":"Leidon","steam_id":76561198078386945,"connected_time":3113000000000,"state":"active","ping":54},{"user_id":448,"name":"banjobun","steam_id":76561198116814525,"connected_time":2739000000000,"state":"active","ping":44},{"user_id":402,"name":"rat gets the cheese","steam_id":76561198031234032,"connected_time":7049000000000,"state":"active","ping":102}]},{"server_id":119,"name":"Uncletopia | Seattle | 2 | All Maps","name_short":"sea-2","host":"sea-1.us.uncletopia.com","port":27025,"enabled":true,"region":"us-west","cc":"us","latitude":47.608013,"longitude":-122.33517,"reserved":0,"last_update":"0001-01-01T00:00:00Z","name_a2s":"Uncletopia | Seattle | 2 | All Maps","protocol":17,"map":"koth_cascade","folder":"tf","game":"Team Fortress","app_id":440,"player_count":0,"max_players":24,"Bots":0,"server_type":"Dedicated","server_os":"Linux","password":true,"vac":true,"version":"7961495","steam_id":85568392924469998,"keywords":["cp","nocrits","nodmgspread","uncletopia"],"game_id":440,"stv_port":27026,"stv_name":"Uncletopia | Seattle | 2 | All Maps | STV","players":null},{"server_id":406,"name":"Uncletopia | Seattle | 3 | Stopwatch","name_short":"sea-3","host":"sea-1.us.uncletopia.com","port":27035,"enabled":true,"region":"us-west","cc":"us","latitude":47.608013,"longitude":-122.33517,"reserved":0,"last_update":"0001-01-01T00:00:00Z","name_a2s":"Uncletopia | Seattle | 3 | Stopwatch","protocol":17,"map":"workshop/koth_product_final.ugc454272353","folder":"tf","game":"Team Fortress","app_id":440,"player_count":0,"max_players":24,"Bots":0,"server_type":"Dedicated","server_os":"Linux","password":true,"vac":true,"version":"7961495","steam_id":85568392924515217,"keywords":["cp","nocrits","nodmgspread","uncletopia"],"game_id":440,"stv_port":27036,"stv_name":"Uncletopia | Seattle | 3 | Stopwatch | STV","players":null},{"server_id":17,"name":"Uncletopia | San Francisco | 1 | All Maps","name_short":"sfo-1","host":"sfo-1.us.uncletopia.com","port":27015,"enabled":true,"region":"us-west","cc":"us","latitude":37.77397,"longitude":-122.4313,"reserved":0,"last_update":"0001-01-01T00:00:00Z","name_a2s":"Uncletopia | San Francisco | 1 | All Maps","protocol":17,"map":"pl_badwater","folder":"tf","game":"Team Fortress","app_id":440,"player_count":16,"max_players":24,"Bots":0,"server_type":"Dedicated","server_os":"Linux","password":true,"vac":true,"version":"7961495","steam_id":85568392924469999,"keywords":["nocrits","nodmgspread","payload","uncletopia"],"game_id":440,"stv_port":27016,"stv_name":"Uncletopia | San Francisco | 1 | All Maps | STV","players":[{"user_id":210,"name":"Invisible Teammate","steam_id":76561197986477544,"connected_time":10000000000,"state":"spawning","ping":151},{"user_id":209,"name":"glizzy gladiator","steam_id":76561199028538939,"connected_time":55000000000,"state":"active","ping":58},{"user_id":196,"name":"AlaskanBullWorm","steam_id":76561198144665195,"connected_time":706000000000,"state":"active","ping":51},{"user_id":197,"name":"Festive Bastard","steam_id":76561198094512904,"connected_time":665000000000,"state":"active","ping":73},{"user_id":198,"name":"El Gato Paranoico","steam_id":76561198116567116,"connected_time":626000000000,"state":"active","ping":101},{"user_id":204,"name":"011sra","steam_id":76561199489542125,"connected_time":450000000000,"state":"active","ping":71},{"user_id":199,"name":"Frank Accardi","steam_id":76561198017275707,"connected_time":583000000000,"state":"active","ping":64},{"user_id":205,"name":"blue duck the 2nd","steam_id":76561198263142765,"connected_time":448000000000,"state":"active","ping":102},{"user_id":182,"name":"Thequirka","steam_id":76561198968058652,"connected_time":1579000000000,"state":"active","ping":63},{"user_id":206,"name":"rose","steam_id":76561197995200743,"connected_time":434000000000,"state":"active","ping":39},{"user_id":195,"name":"Redlux","steam_id":76561199467334502,"connected_time":778000000000,"state":"active","ping":48},{"user_id":201,"name":"Antzen","steam_id":76561198041343470,"connected_time":538000000000,"state":"active","ping":53},{"user_id":183,"name":"Phoenix","steam_id":76561199465534945,"connected_time":1524000000000,"state":"active","ping":78},{"user_id":193,"name":"Finally fixed my mic","steam_id":76561198056075147,"connected_time":829000000000,"state":"active","ping":164},{"user_id":202,"name":"Paulista menos gay","steam_id":76561198297959622,"connected_time":535000000000,"state":"active","ping":68},{"user_id":177,"name":"Chronic Bad At Game Disease","steam_id":76561198179387139,"connected_time":1838000000000,"state":"active","ping":49}]},{"server_id":18,"name":"Uncletopia | San Francisco | 2 | All Maps","name_short":"sfo-2","host":"sfo-1.us.uncletopia.com","port":27025,"enabled":true,"region":"us-west","cc":"us","latitude":37.77397,"longitude":-122.4313,"reserved":0,"last_update":"0001-01-01T00:00:00Z","name_a2s":"Uncletopia | San Francisco | 2 | All Maps","protocol":17,"map":"cp_mountainlab","folder":"tf","game":"Team Fortress","app_id":440,"player_count":24,"max_players":24,"Bots":0,"server_type":"Dedicated","server_os":"Linux","password":true,"vac":true,"version":"7961495","steam_id":85568392924470000,"keywords":["cp","nocrits","nodmgspread","uncletopia"],"game_id":440,"stv_port":27026,"stv_name":"Uncletopia | San Francisco | 2 | All Maps | STV","players":[{"user_id":259,"name":"Henway","steam_id":76561198998561104,"connected_time":5153000000000,"state":"active","ping":61},{"user_id":282,"name":"oil","steam_id":76561198099980149,"connected_time":3814000000000,"state":"active","ping":60},{"user_id":268,"name":"MiksStuff","steam_id":76561198114092485,"connected_time":4858000000000,"state":"active","ping":119},{"user_id":307,"name":"Cebula33","steam_id":76561197984964095,"connected_time":1757000000000,"state":"active","ping":58},{"user_id":308,"name":"jorts (zoot)","steam_id":76561199041179985,"connected_time":1693000000000,"state":"active","ping":67},{"user_id":328,"name":"Conclusion E²","steam_id":76561198100017156,"connected_time":194000000000,"state":"active","ping":105},{"user_id":301,"name":"rushy :))","steam_id":76561198065825165,"connected_time":2361000000000,"state":"active","ping":91},{"user_id":185,"name":"mwee machine","steam_id":76561198047126327,"connected_time":9292000000000,"state":"active","ping":92},{"user_id":275,"name":"airy","steam_id":76561198174632198,"connected_time":4474000000000,"state":"active","ping":86},{"user_id":306,"name":"LivingRaccoon","steam_id":76561198035425632,"connected_time":1777000000000,"state":"active","ping":62},{"user_id":319,"name":"Uluyo","steam_id":76561198065857148,"connected_time":689000000000,"state":"active","ping":83},{"user_id":310,"name":"mega","steam_id":76561198089520959,"connected_time":1682000000000,"state":"active","ping":124},{"user_id":320,"name":"FrodobagginsTNT","steam_id":76561198224940688,"connected_time":531000000000,"state":"active","ping":143},{"user_id":287,"name":"puffer","steam_id":76561199049164456,"connected_time":3508000000000,"state":"active","ping":59},{"user_id":312,"name":"Laventhey","steam_id":76561198977523626,"connected_time":1656000000000,"state":"active","ping":78},{"user_id":325,"name":"UV","steam_id":76561198083936918,"connected_time":433000000000,"state":"active","ping":69},{"user_id":314,"name":"SHADOW","steam_id":76561198207768148,"connected_time":1656000000000,"state":"active","ping":54},{"user_id":323,"name":"SupermanBritt","steam_id":76561198195533697,"connected_time":510000000000,"state":"active","ping":125},{"user_id":292,"name":"fungi bowie.gg","steam_id":76561198169755734,"connected_time":3079000000000,"state":"active","ping":45},{"user_id":324,"name":"Vitzenhauzer","steam_id":76561198116449787,"connected_time":497000000000,"state":"active","ping":126},{"user_id":326,"name":"motion","steam_id":76561198935158462,"connected_time":300000000000,"state":"active","ping":59},{"user_id":329,"name":"BuddyYoda","steam_id":76561198231837152,"connected_time":164000000000,"state":"active","ping":122},{"user_id":318,"name":"here2he1p","steam_id":76561199216977630,"connected_time":1097000000000,"state":"active","ping":89},{"user_id":303,"name":"Mr. Carfox","steam_id":76561198041664428,"connected_time":2153000000000,"state":"active","ping":56}]},{"server_id":19,"name":"Uncletopia | San Francisco | 3 | Stopwatch","name_short":"sfo-3","host":"sfo-1.us.uncletopia.com","port":27035,"enabled":true,"region":"us-west","cc":"us","latitude":37.77397,"longitude":-122.4313,"reserved":0,"last_update":"0001-01-01T00:00:00Z","name_a2s":"Uncletopia | San Francisco | 3 | Stopwatch","protocol":17,"map":"workshop/pl_vigil_rc10.ugc1266210012","folder":"tf","game":"Team Fortress","app_id":440,"player_count":0,"max_players":24,"Bots":0,"server_type":"Dedicated","server_os":"Linux","password":true,"vac":true,"version":"7961495","steam_id":85568392924742824,"keywords":["nocrits","nodmgspread","payload","uncletopia"],"game_id":440,"stv_port":27036,"stv_name":"Uncletopia | San Francisco | 3 | Stopwatch | STV","players":null},{"server_id":20,"name":"Uncletopia | San Francisco | 4 | Community","name_short":"sfo-4","host":"sfo-1.us.uncletopia.com","port":27045,"enabled":true,"region":"us-west","cc":"us","latitude":37.77397,"longitude":-122.4313,"reserved":0,"last_update":"0001-01-01T00:00:00Z","name_a2s":"Uncletopia | San Francisco | 4 | Community","protocol":17,"map":"workshop/cp_reckoner_rc6.ugc674719999","folder":"tf","game":"Team Fortress","app_id":440,"player_count":0,"max_players":24,"Bots":0,"server_type":"Dedicated","server_os":"Linux","password":true,"vac":true,"version":"7961495","steam_id":85568392924742826,"keywords":["cp","nocrits","nodmgspread","uncletopia"],"game_id":440,"stv_port":27046,"stv_name":"Uncletopia | San Francisco | 4 | Community | STV","players":null},{"server_id":141,"name":"Uncletopia | Sydney | 1 | All Maps","name_short":"syd-1","host":"syd-1.au.uncletopia.com","port":27015,"enabled":true,"region":"au","cc":"au","latitude":-33.865143,"longitude":151.2099,"reserved":0,"last_update":"0001-01-01T00:00:00Z","name_a2s":"Uncletopia | Sydney | 1 | All Maps","protocol":17,"map":"koth_viaduct","folder":"tf","game":"Team Fortress","app_id":440,"player_count":18,"max_players":24,"Bots":0,"server_type":"Dedicated","server_os":"Linux","password":true,"vac":true,"version":"7961495","steam_id":85568392924470001,"keywords":["cp","nocrits","nodmgspread","uncletopia"],"game_id":440,"stv_port":27016,"stv_name":"Uncletopia | Sydney | 1 | All Maps | STV","players":[{"user_id":99,"name":"CypressFluff (she/her)","steam_id":76561198174667818,"connected_time":1111000000000,"state":"active","ping":56},{"user_id":91,"name":"whitebronco32","steam_id":76561197990814265,"connected_time":1518000000000,"state":"active","ping":43},{"user_id":36,"name":"snowy steel [HF]","steam_id":76561199024624434,"connected_time":4750000000000,"state":"active","ping":45},{"user_id":74,"name":"Lobarté","steam_id":76561198090116136,"connected_time":2730000000000,"state":"active","ping":60},{"user_id":103,"name":"mada","steam_id":76561199436707447,"connected_time":630000000000,"state":"active","ping":56},{"user_id":84,"name":"Muon","steam_id":76561198031870803,"connected_time":2278000000000,"state":"active","ping":70},{"user_id":72,"name":"lau","steam_id":76561198045451991,"connected_time":2800000000000,"state":"active","ping":49},{"user_id":69,"name":"soupy","steam_id":76561198073734936,"connected_time":3177000000000,"state":"active","ping":87},{"user_id":46,"name":"Sover blw.tf","steam_id":76561198136347837,"connected_time":4038000000000,"state":"active","ping":128},{"user_id":108,"name":"sillysam12212","steam_id":76561199046481213,"connected_time":288000000000,"state":"active","ping":69},{"user_id":86,"name":"Mr Doctor","steam_id":76561198081415999,"connected_time":2053000000000,"state":"active","ping":64},{"user_id":51,"name":"cakey","steam_id":76561198173746761,"connected_time":3791000000000,"state":"active","ping":48},{"user_id":53,"name":"hhhh","steam_id":76561198019740135,"connected_time":3767000000000,"state":"active","ping":56},{"user_id":54,"name":"reClyde beans","steam_id":76561198301282416,"connected_time":3763000000000,"state":"active","ping":59},{"user_id":105,"name":"BobTheHuminoid","steam_id":76561199241312725,"connected_time":487000000000,"state":"active","ping":60},{"user_id":100,"name":"trash","steam_id":76561198110764631,"connected_time":874000000000,"state":"active","ping":47},{"user_id":107,"name":"Killer Beans","steam_id":76561199107069046,"connected_time":313000000000,"state":"active","ping":80},{"user_id":106,"name":"hired goon(er)","steam_id":76561198048064049,"connected_time":426000000000,"state":"active","ping":111}]},{"server_id":123,"name":"Uncletopia | Sydney | 2 | All Maps","name_short":"syd-2","host":"syd-1.au.uncletopia.com","port":27025,"enabled":true,"region":"au","cc":"au","latitude":-33.865143,"longitude":151.2099,"reserved":0,"last_update":"0001-01-01T00:00:00Z","name_a2s":"Uncletopia | Sydney | 2 | All Maps","protocol":17,"map":"koth_lakeside_final","folder":"tf","game":"Team Fortress","app_id":440,"player_count":3,"max_players":24,"Bots":0,"server_type":"Dedicated","server_os":"Linux","password":true,"vac":true,"version":"7961495","steam_id":85568392924470002,"keywords":["cp","nocrits","nodmgspread","uncletopia"],"game_id":440,"stv_port":27026,"stv_name":"Uncletopia | Sydney | 2 | All Maps | STV","players":[{"user_id":6,"name":"YeahJJ","steam_id":76561198838332365,"connected_time":668000000000,"state":"active","ping":58},{"user_id":7,"name":"OofImDuck","steam_id":76561198806600517,"connected_time":649000000000,"state":"active","ping":56},{"user_id":8,"name":"jckyman","steam_id":76561199117113163,"connected_time":470000000000,"state":"active","ping":71}]},{"server_id":395,"name":"Uncletopia | Sydney | 3 | All Maps","name_short":"syd-3","host":"syd-1.au.uncletopia.com","port":27035,"enabled":true,"region":"au","cc":"au","latitude":-33.865143,"longitude":151.2099,"reserved":0,"last_update":"0001-01-01T00:00:00Z","name_a2s":"Uncletopia | Sydney | 3 | All Maps","protocol":17,"map":"koth_cascade","folder":"tf","game":"Team Fortress","app_id":440,"player_count":2,"max_players":24,"Bots":0,"server_type":"Dedicated","server_os":"Linux","password":true,"vac":true,"version":"7961495","steam_id":85568392925194467,"keywords":["cp","nocrits","nodmgspread","uncletopia"],"game_id":440,"stv_port":27036,"stv_name":"Uncletopia | Sydney | 3 | All Maps | STV","players":[{"user_id":4,"name":"McCrab","steam_id":76561199088821963,"connected_time":66000000000,"state":"active","ping":66},{"user_id":5,"name":"Johngamer2418","steam_id":76561198377832282,"connected_time":25000000000,"state":"spawning","ping":44}]},{"server_id":396,"name":"Uncletopia | Sydney | 4 | All Maps","name_short":"syd-4","host":"syd-1.au.uncletopia.com","port":27045,"enabled":true,"region":"au","cc":"au","latitude":-33.865143,"longitude":151.2099,"reserved":0,"last_update":"0001-01-01T00:00:00Z","name_a2s":"Uncletopia | Sydney | 4 | All Maps","protocol":17,"map":"koth_lakeside_final","folder":"tf","game":"Team Fortress","app_id":440,"player_count":6,"max_players":24,"Bots":0,"server_type":"Dedicated","server_os":"Linux","password":true,"vac":true,"version":"7961495","steam_id":85568392925397958,"keywords":["cp","nocrits","nodmgspread","uncletopia"],"game_id":440,"stv_port":27046,"stv_name":"Uncletopia | Sydney | 4 | All Maps | STV","players":[{"user_id":4,"name":"fat obama","steam_id":76561199128395555,"connected_time":6421000000000,"state":"active","ping":71},{"user_id":28,"name":"Luckycharm","steam_id":76561199073672243,"connected_time":3028000000000,"state":"active","ping":98},{"user_id":6,"name":"Very Wealthy Business man Gamin","steam_id":76561199018063750,"connected_time":6403000000000,"state":"active","ping":60},{"user_id":32,"name":"Hikoirangi","steam_id":76561199394424656,"connected_time":1706000000000,"state":"active","ping":90},{"user_id":8,"name":"French China","steam_id":76561199435850354,"connected_time":6180000000000,"state":"active","ping":84},{"user_id":45,"name":"oh noe","steam_id":76561199468787595,"connected_time":23000000000,"state":"spawning","ping":35}]},{"server_id":58,"name":"Uncletopia | Sydney | 5 | Stopwatch","name_short":"syd-5","host":"syd-1.au.uncletopia.com","port":27055,"enabled":true,"region":"au","cc":"au","latitude":-33.865143,"longitude":151.2099,"reserved":0,"last_update":"0001-01-01T00:00:00Z","name_a2s":"Uncletopia | Sydney | 5 | Stopwatch","protocol":17,"map":"pl_frontier_final","folder":"tf","game":"Team Fortress","app_id":440,"player_count":0,"max_players":24,"Bots":0,"server_type":"Dedicated","server_os":"Linux","password":true,"vac":true,"version":"7961495","steam_id":85568392925397959,"keywords":["nocrits","nodmgspread","payload","uncletopia"],"game_id":440,"stv_port":27056,"stv_name":"Uncletopia | Sydney | 5 | Stopwatch | STV","players":null},{"server_id":59,"name":"Uncletopia | Sydney | 6 | Community","name_short":"syd-6","host":"syd-1.au.uncletopia.com","port":27065,"enabled":true,"region":"au","cc":"au","latitude":-33.865143,"longitude":151.2099,"reserved":0,"last_update":"0001-01-01T00:00:00Z","name_a2s":"Uncletopia | Sydney | 6 | Community","protocol":17,"map":"cp_sunshine","folder":"tf","game":"Team Fortress","app_id":440,"player_count":0,"max_players":24,"Bots":0,"server_type":"Dedicated","server_os":"Linux","password":true,"vac":true,"version":"7961495","steam_id":85568392925397960,"keywords":["cp","nocrits","nodmgspread","uncletopia"],"game_id":440,"stv_port":27066,"stv_name":"Uncletopia | Sydney | 6 | Community | STV","players":null},{"server_id":49,"name":"Uncletopia | Warsaw | 1 | One Thousand Uncles","name_short":"waw-1","host":"waw-1.pl.uncletopia.com","port":27015,"enabled":true,"region":"eu","cc":"pl","latitude":52.2297,"longitude":21.017532,"reserved":0,"last_update":"0001-01-01T00:00:00Z","name_a2s":"Uncletopia | Warsaw | 1 | One Thousand Uncles","protocol":17,"map":"koth_highpass","folder":"tf","game":"Team Fortress","app_id":440,"player_count":0,"max_players":32,"Bots":0,"server_type":"Dedicated","server_os":"Linux","password":true,"vac":true,"version":"7961495","steam_id":85568392925397850,"keywords":["alltalk","cp","danepve","increased_maxplayers","nocrits","norespawntime","uncletopia"],"game_id":440,"stv_port":0,"stv_name":"","players":null},{"server_id":50,"name":"Uncletopia | Warsaw | 2 | One Thousand Uncles","name_short":"waw-2","host":"waw-1.pl.uncletopia.com","port":27025,"enabled":true,"region":"eu","cc":"pl","latitude":52.2297,"longitude":21.017532,"reserved":0,"last_update":"0001-01-01T00:00:00Z","name_a2s":"Uncletopia | Warsaw | 2 | One Thousand Uncles","protocol":17,"map":"cp_mercenarypark","folder":"tf","game":"Team Fortress","app_id":440,"player_count":22,"max_players":32,"Bots":16,"server_type":"Dedicated","server_os":"Linux","password":true,"vac":true,"version":"7961495","steam_id":85568392925397851,"keywords":["alltalk","bots","cp","danepve","increased_maxplayers","nocrits","norespawntime","uncletopia"],"game_id":440,"stv_port":0,"stv_name":"","players":[{"user_id":41,"name":"Truegr","steam_id":76561198811912339,"connected_time":2357000000000,"state":"active","ping":64},{"user_id":74,"name":"Amandus","steam_id":76561198036281079,"connected_time":1114000000000,"state":"active","ping":62},{"user_id":76,"name":"Yuzu","steam_id":76561198121694613,"connected_time":961000000000,"state":"active","ping":67},{"user_id":77,"name":"JVLIVS","steam_id":76561198366167099,"connected_time":954000000000,"state":"active","ping":60},{"user_id":78,"name":"Makzer","steam_id":76561198204637997,"connected_time":548000000000,"state":"active","ping":51},{"user_id":79,"name":"TypicalGeorge","steam_id":76561198890447526,"connected_time":50000000000,"state":"active","ping":97}]},{"server_id":51,"name":"Uncletopia | Warsaw | 3 | All Maps","name_short":"waw-3","host":"waw-1.pl.uncletopia.com","port":27035,"enabled":true,"region":"eu","cc":"pl","latitude":52.2297,"longitude":21.017532,"reserved":0,"last_update":"0001-01-01T00:00:00Z","name_a2s":"Uncletopia | Warsaw | 3 | All Maps","protocol":17,"map":"plr_pipeline","folder":"tf","game":"Team Fortress","app_id":440,"player_count":0,"max_players":24,"Bots":0,"server_type":"Dedicated","server_os":"Linux","password":true,"vac":true,"version":"7961495","steam_id":85568392925397852,"keywords":["nocrits","nodmgspread","payload","uncletopia"],"game_id":440,"stv_port":27036,"stv_name":"Uncletopia | Warsaw | 3 | All Maps | STV","players":null},{"server_id":52,"name":"Uncletopia | Warsaw | 4 | All Maps","name_short":"waw-4","host":"waw-1.pl.uncletopia.com","port":27045,"enabled":true,"region":"eu","cc":"pl","latitude":52.2297,"longitude":21.017532,"reserved":0,"last_update":"0001-01-01T00:00:00Z","name_a2s":"Uncletopia | Warsaw | 4 | All Maps","protocol":17,"map":"cp_coldfront","folder":"tf","game":"Team Fortress","app_id":440,"player_count":0,"max_players":24,"Bots":0,"server_type":"Dedicated","server_os":"Linux","password":true,"vac":true,"version":"7961495","steam_id":85568392925397853,"keywords":["cp","nocrits","nodmgspread","uncletopia"],"game_id":440,"stv_port":27046,"stv_name":"Uncletopia | Warsaw | 4 | All Maps | STV","players":null},{"server_id":53,"name":"Uncletopia | Warsaw | 5 | Stopwatch","name_short":"waw-5","host":"waw-1.pl.uncletopia.com","port":27055,"enabled":true,"region":"eu","cc":"pl","latitude":52.2297,"longitude":21.017532,"reserved":0,"last_update":"0001-01-01T00:00:00Z","name_a2s":"Uncletopia | Warsaw | 5 | Stopwatch","protocol":17,"map":"workshop/koth_bagel_rc6.ugc2514036946","folder":"tf","game":"Team Fortress","app_id":440,"player_count":0,"max_players":24,"Bots":0,"server_type":"Dedicated","server_os":"Linux","password":true,"vac":true,"version":"7961495","steam_id":85568392925397854,"keywords":["cp","nocrits","nodmgspread","uncletopia"],"game_id":440,"stv_port":27056,"stv_name":"Uncletopia | Warsaw | 5 | Stopwatch | STV","players":null},{"server_id":54,"name":"Uncletopia | Warsaw | 6 | Community","name_short":"waw-6","host":"waw-1.pl.uncletopia.com","port":27065,"enabled":true,"region":"eu","cc":"pl","latitude":52.2297,"longitude":21.017532,"reserved":0,"last_update":"0001-01-01T00:00:00Z","name_a2s":"Uncletopia | Warsaw | 6 | Community","protocol":17,"map":"workshop/pl_badwater_pro_v12.ugc2142942074","folder":"tf","game":"Team Fortress","app_id":440,"player_count":0,"max_players":24,"Bots":0,"server_type":"Dedicated","server_os":"Linux","password":true,"vac":true,"version":"7961495","steam_id":85568392925397856,"keywords":["nocrits","nodmgspread","payload","uncletopia"],"game_id":440,"stv_port":27066,"stv_name":"Uncletopia | Warsaw | 6 | Community | STV","players":null}]}