{"status":true,"message":"","result":[{"server_id":9,"name":"Uncletopia | Atlanta | 1 | All Maps","name_short":"atl-1","host":"atl-1.us.uncletopia.com","port":27015,"enabled":true,"region":"us-east","cc":"us","latitude":33.753746,"longitude":-84.38633,"reserved":0,"last_update":"0001-01-01T00:00:00Z","name_a2s":"Uncletopia | Atlanta | 1 | All Maps","protocol":17,"map":"pl_upward","folder":"tf","game":"Team Fortress","app_id":440,"player_count":24,"max_players":24,"Bots":0,"server_type":"Dedicated","server_os":"Linux","password":true,"vac":true,"version":"7757534","steam_id":85568392924469982,"keywords":["nocrits","nodmgspread","payload","uncletopia"],"game_id":440,"stv_port":27016,"stv_name":"Uncletopia | Atlanta | 1 | All Maps | STV","players":[{"user_id":152,"name":"bonk","steam_id":76561198115269587,"connected_time":5579000000000,"state":"active","ping":52},{"user_id":180,"name":"one orange braincell","steam_id":76561198319442494,"connected_time":2621000000000,"state":"active","ping":91},{"user_id":157,"name":"DFR Le4n!!!","steam_id":76561198045522596,"connected_time":4860000000000,"state":"active","ping":74},{"user_id":184,"name":"ATL1 | SparkStorm","steam_id":76561198095817025,"connected_time":1566000000000,"state":"active","ping":36},{"user_id":148,"name":"ATL1 | ma0re","steam_id":76561199231971506,"connected_time":5879000000000,"state":"active","ping":64},{"user_id":163,"name":"Quingle","steam_id":76561199336679585,"connected_time":4401000000000,"state":"active","ping":194},{"user_id":191,"name":"ffffffffff","steam_id":76561198102182937,"connected_time":615000000000,"state":"active","ping":50},{"user_id":89,"name":"Mad Cow※","steam_id":76561198132498594,"connected_time":11163000000000,"state":"active","ping":68},{"user_id":192,"name":"Oddball","steam_id":76561198040440984,"connected_time":450000000000,"state":"active","ping":82},{"user_id":181,"name":"ATL1 | Vee (very cool)","steam_id":76561198330432889,"connected_time":2585000000000,"state":"active","ping":61},{"user_id":176,"name":"Decolour","steam_id":76561199045608372,"connected_time":2819000000000,"state":"active","ping":74},{"user_id":151,"name":"Veilos","steam_id":76561198071897172,"connected_time":5583000000000,"state":"active","ping":78},{"user_id":177,"name":"ATL1 | BeastRyder","steam_id":76561198330281584,"connected_time":2812000000000,"state":"active","ping":77},{"user_id":190,"name":"Motreir","steam_id":76561198151717946,"connected_time":620000000000,"state":"active","ping":75},{"user_id":188,"name":"ATL1 | Lancer Fan Club","steam_id":76561198355495948,"connected_time":634000000000,"state":"active","ping":75},{"user_id":178,"name":"Luucyf3r","steam_id":76561198141820085,"connected_time":2805000000000,"state":"active","ping":57},{"user_id":82,"name":"Miramar","steam_id":76561198022057653,"connected_time":11934000000000,"state":"active","ping":84},{"user_id":160,"name":"Ashes!","steam_id":76561197998475441,"connected_time":4570000000000,"state":"active","ping":93},{"user_id":183,"name":"vid_","steam_id":76561198065159053,"connected_time":1974000000000,"state":"active","ping":46},{"user_id":168,"name":"Stuart Little 2","steam_id":76561198097272509,"connected_time":3916000000000,"state":"active","ping":41},{"user_id":166,"name":"Big Phony","steam_id":76561199092395311,"connected_time":3931000000000,"state":"active","ping":85},{"user_id":185,"name":"Ferguson","steam_id":76561198121349387,"connected_time":1266000000000,"state":"active","ping":70},{"user_id":187,"name":"Tay1Qr","steam_id":76561198082809935,"connected_time":652000000000,"state":"active","ping":71},{"user_id":146,"name":"Dark-Warden","steam_id":76561198838757422,"connected_time":6260000000000,"state":"active","ping":79}]},{"server_id":400,"name":"Uncletopia | Atlanta | 3 | Stopwatch Beta","name_short":"atl-3","host":"atl-1.us.uncletopia.com","port":27035,"enabled":true,"region":"us-east","cc":"us","latitude":33.753746,"longitude":-84.38633,"reserved":0,"last_update":"0001-01-01T00:00:00Z","name_a2s":"Uncletopia | Atlanta | 3 | Stopwatch Beta","protocol":17,"map":"pl_upward","folder":"tf","game":"Team Fortress","app_id":440,"player_count":0,"max_players":24,"Bots":0,"server_type":"Dedicated","server_os":"Linux","password":true,"vac":true,"version":"7757534","steam_id":85568392924515187,"keywords":["nocrits","nodmgspread","payload","uncletopia"],"game_id":440,"stv_port":27036,"stv_name":"Uncletopia | Atlanta | 3 | Stopwatch Beta | STV","players":null},{"server_id":401,"name":"Uncletopia | Atlanta | 4 | No Payload","name_short":"atl-4","host":"atl-1.us.uncletopia.com","port":27045,"enabled":true,"region":"us-east","cc":"us","latitude":33.753746,"longitude":-84.38633,"reserved":0,"last_update":"0001-01-01T00:00:00Z","name_a2s":"Uncletopia | Atlanta | 4 | No Payload","protocol":17,"map":"pl_pier","folder":"tf","game":"Team Fortress","app_id":440,"player_count":0,"max_players":24,"Bots":0,"server_type":"Dedicated","server_os":"Linux","password":true,"vac":true,"version":"7723704","steam_id":85568392924515188,"keywords":["nocrits","nodmgspread","payload","uncletopia"],"game_id":440,"stv_port":27046,"stv_name":"Uncletopia | Atlanta | 4 | No Payload | STV","players":null},{"server_id":2,"name":"Uncletopia | Chicago | 1 | All Maps","name_short":"chi-1","host":"chi-1.us.uncletopia.com","port":27015,"enabled":true,"region":"us-central","cc":"us","latitude":41.881832,"longitude":-87.62318,"reserved":0,"last_update":"0001-01-01T00:00:00Z","name_a2s":"Uncletopia | Chicago | 1 | All Maps","protocol":17,"map":"pl_borneo","folder":"tf","game":"Team Fortress","app_id":440,"player_count":24,"max_players":24,"Bots":0,"server_type":"Dedicated","server_os":"Linux","password":true,"vac":true,"version":"7757534","steam_id":85568392924469984,"keywords":["nocrits","nodmgspread","payload","uncletopia"],"game_id":440,"stv_port":27016,"stv_name":"Uncletopia | Chicago | 1 | All Maps | STV","players":[{"user_id":327,"name":"snail","steam_id":76561198312155722,"connected_time":884000000000,"state":"active","ping":191},{"user_id":335,"name":"al-jazair","steam_id":76561198072179483,"connected_time":619000000000,"state":"active","ping":88},{"user_id":349,"name":"mammoth!?","steam_id":76561198066881911,"connected_time":48000000000,"state":"active","ping":75},{"user_id":347,"name":"slenderman cristiano ronaldo","steam_id":76561198855935442,"connected_time":208000000000,"state":"active","ping":67},{"user_id":285,"name":"Kapitan Bomba","steam_id":76561199102087660,"connected_time":4433000000000,"state":"active","ping":62},{"user_id":330,"name":"usedhandle","steam_id":76561199095035476,"connected_time":810000000000,"state":"active","ping":70},{"user_id":348,"name":"Tyrone","steam_id":76561198189429665,"connected_time":75000000000,"state":"active","ping":70},{"user_id":303,"name":"IZISOO","steam_id":76561198970380577,"connected_time":3035000000000,"state":"active","ping":64},{"user_id":316,"name":"[El Fail] MR.BadassMCLee","steam_id":76561198043787818,"connected_time":1418000000000,"state":"active","ping":121},{"user_id":291,"name":"trash beast","steam_id":76561198015792736,"connected_time":4018000000000,"state":"active","ping":68},{"user_id":317,"name":"Ras","steam_id":76561198123546775,"connected_time":1182000000000,"state":"active","ping":85},{"user_id":350,"name":"im thinkin arby's","steam_id":76561198083271257,"connected_time":5000000000,"state":"spawning","ping":68},{"user_id":311,"name":"Mirari","steam_id":76561198126889358,"connected_time":2296000000000,"state":"active","ping":91},{"user_id":320,"name":"Evil rat","steam_id":76561198117181511,"connected_time":1032000000000,"state":"active","ping":68},{"user_id":274,"name":"♥ Femboy♥Ventily ♥","steam_id":76561198157260335,"connected_time":5702000000000,"state":"active","ping":45},{"user_id":331,"name":"DuckKey","steam_id":76561198904477889,"connected_time":715000000000,"state":"active","ping":57},{"user_id":254,"name":"Pancreas Enjoyer","steam_id":76561199438598904,"connected_time":6833000000000,"state":"active","ping":98},{"user_id":328,"name":"yourfbiagnent","steam_id":76561199171973045,"connected_time":876000000000,"state":"active","ping":157},{"user_id":307,"name":"ZofoJackson","steam_id":76561197998366861,"connected_time":2519000000000,"state":"active","ping":59},{"user_id":170,"name":"the deadliest pyroshark","steam_id":76561198374227766,"connected_time":12969000000000,"state":"active","ping":71},{"user_id":315,"name":"PKBEAST_7","steam_id":76561198177136537,"connected_time":1499000000000,"state":"active","ping":87},{"user_id":325,"name":"EGGOG","steam_id":76561198061430457,"connected_time":903000000000,"state":"active","ping":72},{"user_id":324,"name":"kho","steam_id":76561198195764728,"connected_time":939000000000,"state":"active","ping":78},{"user_id":343,"name":"Dokkibai","steam_id":76561198355935693,"connected_time":406000000000,"state":"active","ping":46}]},{"server_id":106,"name":"Uncletopia | Chicago | 2 | All Maps","name_short":"chi-2","host":"chi-1.us.uncletopia.com","port":27025,"enabled":true,"region":"us-central","cc":"us","latitude":41.881832,"longitude":-87.62318,"reserved":0,"last_update":"0001-01-01T00:00:00Z","name_a2s":"Uncletopia | Chicago | 2 | All Maps","protocol":17,"map":"plr_hightower","folder":"tf","game":"Team Fortress","app_id":440,"player_count":17,"max_players":24,"Bots":0,"server_type":"Dedicated","server_os":"Linux","password":true,"vac":true,"version":"7757534","steam_id":85568392924469985,"keywords":["nocrits","nodmgspread","payload","uncletopia"],"game_id":440,"stv_port":27026,"stv_name":"Uncletopia | Chicago | 2 | All Maps | STV","players":[{"user_id":399,"name":"ඞ","steam_id":76561198027779564,"connected_time":736000000000,"state":"active","ping":56},{"user_id":388,"name":"Flankster177","steam_id":76561198093129252,"connected_time":1288000000000,"state":"active","ping":71},{"user_id":410,"name":"dingus","steam_id":76561198190077399,"connected_time":95000000000,"state":"active","ping":52},{"user_id":384,"name":"Iron Argus","steam_id":76561198181088245,"connected_time":1420000000000,"state":"active","ping":78},{"user_id":411,"name":"Wildfire005","steam_id":76561198428025829,"connected_time":94000000000,"state":"active","ping":88},{"user_id":386,"name":"Pixeled","steam_id":76561198088917077,"connected_time":1330000000000,"state":"active","ping":85},{"user_id":405,"name":"robinhood","steam_id":76561198090995027,"connected_time":585000000000,"state":"active","ping":57},{"user_id":387,"name":"Blue","steam_id":76561199093604072,"connected_time":1324000000000,"state":"active","ping":75},{"user_id":370,"name":"WarpdriveEngineer","steam_id":76561198073530973,"connected_time":2193000000000,"state":"active","ping":56},{"user_id":397,"name":"emmett","steam_id":76561198096016270,"connected_time":1088000000000,"state":"active","ping":55},{"user_id":390,"name":"daemon","steam_id":76561198001541433,"connected_time":1261000000000,"state":"active","ping":46},{"user_id":407,"name":"rxcha","steam_id":76561198809392400,"connected_time":472000000000,"state":"active","ping":77},{"user_id":394,"name":"Cuttle's Fish","steam_id":76561198280483257,"connected_time":1221000000000,"state":"active","ping":56},{"user_id":364,"name":"VixianUwU","steam_id":76561198948815060,"connected_time":2431000000000,"state":"active","ping":82},{"user_id":406,"name":"Banes","steam_id":76561198083485876,"connected_time":575000000000,"state":"active","ping":83},{"user_id":409,"name":"Kitt(eh) ∑:3","steam_id":76561198110858518,"connected_time":344000000000,"state":"active","ping":56},{"user_id":408,"name":"AjProductions","steam_id":76561198217950125,"connected_time":467000000000,"state":"active","ping":121}]},{"server_id":402,"name":"Uncletopia | Chicago | 3 | All Maps","name_short":"chi-3","host":"chi-1.us.uncletopia.com","port":27035,"enabled":true,"region":"us-central","cc":"us","latitude":41.881832,"longitude":-87.62318,"reserved":0,"last_update":"0001-01-01T00:00:00Z","name_a2s":"Uncletopia | Chicago | 3 | All Maps","protocol":17,"map":"cp_process_final","folder":"tf","game":"Team Fortress","app_id":440,"player_count":24,"max_players":24,"Bots":0,"server_type":"Dedicated","server_os":"Linux","password":true,"vac":true,"version":"7757534","steam_id":85568392924515191,"keywords":["cp","nocrits","nodmgspread","uncletopia"],"game_id":440,"stv_port":27036,"stv_name":"Uncletopia | Chicago | 3 | All Maps | STV","players":[{"user_id":189,"name":"iwakvra","steam_id":76561198128164970,"connected_time":1927000000000,"state":"active","ping":113},{"user_id":220,"name":"Patton","steam_id":76561198087871688,"connected_time":589000000000,"state":"active","ping":54},{"user_id":190,"name":"Giddy","steam_id":76561198103183739,"connected_time":1785000000000,"state":"active","ping":60},{"user_id":211,"name":"xenolith","steam_id":76561198041496496,"connected_time":994000000000,"state":"active","ping":72},{"user_id":197,"name":"vdub63","steam_id":76561198093443689,"connected_time":1480000000000,"state":"active","ping":67},{"user_id":222,"name":"kablong","steam_id":76561199094392047,"connected_time":566000000000,"state":"active","ping":86},{"user_id":199,"name":"pelt","steam_id":76561197993593754,"connected_time":1471000000000,"state":"active","ping":48},{"user_id":228,"name":"potato hiroifan96","steam_id":76561198025489194,"connected_time":158000000000,"state":"active","ping":77},{"user_id":217,"name":"Jfrvl Gvl","steam_id":76561199013465852,"connected_time":688000000000,"state":"active","ping":64},{"user_id":209,"name":"jmdrzj","steam_id":76561198391590310,"connected_time":1005000000000,"state":"active","ping":153},{"user_id":166,"name":"Liam","steam_id":76561198129451678,"connected_time":2989000000000,"state":"active","ping":72},{"user_id":230,"name":"edwinbrood","steam_id":76561198044848769,"connected_time":75000000000,"state":"active","ping":61},{"user_id":225,"name":"ThatOneKnight","steam_id":76561198388583650,"connected_time":365000000000,"state":"active","ping":50},{"user_id":219,"name":"Rugbmilk","steam_id":76561199389283507,"connected_time":617000000000,"state":"active","ping":84},{"user_id":202,"name":"Lucille_Bluth","steam_id":76561198206133916,"connected_time":1401000000000,"state":"active","ping":72},{"user_id":203,"name":"Intro Bonito","steam_id":76561198119478838,"connected_time":1386000000000,"state":"active","ping":73},{"user_id":224,"name":"Marcel","steam_id":76561199079200901,"connected_time":445000000000,"state":"active","ping":82},{"user_id":216,"name":"2STAR","steam_id":76561198126709382,"connected_time":746000000000,"state":"active","ping":76},{"user_id":226,"name":"Samwise565","steam_id":76561197996819083,"connected_time":247000000000,"state":"active","ping":57},{"user_id":223,"name":"Wengatang","steam_id":76561198021747059,"connected_time":517000000000,"state":"active","ping":48},{"user_id":188,"name":"Platino","steam_id":76561198410957728,"connected_time":1943000000000,"state":"active","ping":45},{"user_id":215,"name":"D-Class 1278","steam_id":76561198121316353,"connected_time":959000000000,"state":"active","ping":81},{"user_id":106,"name":"Lost","steam_id":76561198025933206,"connected_time":6800000000000,"state":"active","ping":60},{"user_id":179,"name":"clavin_","steam_id":76561198046398447,"connected_time":2644000000000,"state":"active","ping":59}]},{"server_id":403,"name":"Uncletopia | Chicago | 4 | All Maps","name_short":"chi-4","host":"chi-1.us.uncletopia.com","port":27045,"enabled":true,"region":"us-central","cc":"us","latitude":41.881832,"longitude":-87.62318,"reserved":0,"last_update":"0001-01-01T00:00:00Z","name_a2s":"Uncletopia | Chicago | 4 | All Maps","protocol":17,"map":"pl_barnblitz","folder":"tf","game":"Team Fortress","app_id":440,"player_count":0,"max_players":24,"Bots":0,"server_type":"Dedicated","server_os":"Linux","password":true,"vac":true,"version":"7757534","steam_id":85568392924515193,"keywords":["nocrits","nodmgspread","payload","uncletopia"],"game_id":440,"stv_port":27046,"stv_name":"Uncletopia | Chicago | 4 | All Maps | STV","players":null},{"server_id":36,"name":"Uncletopia | Chicago | 5 | All Maps","name_short":"chi-5","host":"chi-2.us.uncletopia.com","port":27015,"enabled":true,"region":"us-central","cc":"us","latitude":41.881832,"longitude":-87.62318,"reserved":0,"last_update":"0001-01-01T00:00:00Z","name_a2s":"Uncletopia | Chicago | 5 | All Maps","protocol":17,"map":"cp_sunshine","folder":"tf","game":"Team Fortress","app_id":440,"player_count":22,"max_players":24,"Bots":0,"server_type":"Dedicated","server_os":"Linux","password":true,"vac":true,"version":"7757534","steam_id":85568392924866362,"keywords":["cp","nocrits","nodmgspread","uncletopia"],"game_id":440,"stv_port":27016,"stv_name":"Uncletopia | Chicago | 5 | All Maps | STV","players":[{"user_id":410,"name":"puffleman577","steam_id":76561198120638093,"connected_time":167000000000,"state":"active","ping":87},{"user_id":367,"name":"DedGuysRule","steam_id":76561198194089591,"connected_time":2523000000000,"state":"active","ping":78},{"user_id":395,"name":"Khaki","steam_id":76561197991523078,"connected_time":1324000000000,"state":"active","ping":77},{"user_id":308,"name":"Yayifications","steam_id":76561198066227208,"connected_time":6703000000000,"state":"active","ping":62},{"user_id":353,"name":"corygaming","steam_id":76561198035669409,"connected_time":3433000000000,"state":"active","ping":108},{"user_id":397,"name":"Salt","steam_id":76561199137060333,"connected_time":1185000000000,"state":"active","ping":69},{"user_id":411,"name":"motherfucker 2.0","steam_id":76561198141189209,"connected_time":107000000000,"state":"active","ping":61},{"user_id":412,"name":"SCATTER [CTF2 DEV]","steam_id":76561198405168492,"connected_time":44000000000,"state":"active","ping":77},{"user_id":405,"name":"Owl Pacino","steam_id":76561197979970666,"connected_time":575000000000,"state":"active","ping":57},{"user_id":401,"name":"Gryphon","steam_id":76561198021269203,"connected_time":873000000000,"state":"active","ping":53},{"user_id":413,"name":"chad","steam_id":76561198216109017,"connected_time":33000000000,"state":"active","ping":62},{"user_id":414,"name":"MasterAqua","steam_id":76561198044807380,"connected_time":32000000000,"state":"active","ping":77},{"user_id":415,"name":"FiddyFoMike","steam_id":76561198057072581,"connected_time":4000000000,"state":"spawning","ping":89},{"user_id":399,"name":"Kapreesi","steam_id":76561198163361200,"connected_time":1121000000000,"state":"active","ping":63},{"user_id":389,"name":"des","steam_id":76561198079226634,"connected_time":1642000000000,"state":"active","ping":74},{"user_id":404,"name":"Tommy Pickles (Very Cool)","steam_id":76561198391261463,"connected_time":687000000000,"state":"active","ping":64},{"user_id":391,"name":"MountainDerBoss","steam_id":76561199147205485,"connected_time":1626000000000,"state":"active","ping":87},{"user_id":392,"name":"The Juice","steam_id":76561198065307144,"connected_time":1620000000000,"state":"active","ping":70},{"user_id":409,"name":"Zicky Nee","steam_id":76561198042601111,"connected_time":302000000000,"state":"active","ping":68},{"user_id":393,"name":"akirajimbo","steam_id":76561197979960008,"connected_time":1596000000000,"state":"active","ping":49},{"user_id":371,"name":"ButterDrippinOffAHotBiscuit","steam_id":76561198090378590,"connected_time":2466000000000,"state":"active","ping":69},{"user_id":343,"name":"chicken banker","steam_id":76561199195196632,"connected_time":3812000000000,"state":"active","ping":76}]},{"server_id":37,"name":"Uncletopia | Chicago | 6 | All Maps","name_short":"chi-6","host":"chi-2.us.uncletopia.com","port":27025,"enabled":true,"region":"us-central","cc":"us","latitude":41.881832,"longitude":-87.62318,"reserved":0,"last_update":"0001-01-01T00:00:00Z","name_a2s":"Uncletopia | Chicago | 6 | All Maps","protocol":17,"map":"pl_snowycoast","folder":"tf","game":"Team Fortress","app_id":440,"player_count":25,"max_players":24,"Bots":0,"server_type":"Dedicated","server_os":"Linux","password":true,"vac":true,"version":"7757534","steam_id":85568392924866363,"keywords":["nocrits","nodmgspread","payload","uncletopia"],"game_id":440,"stv_port":27026,"stv_name":"Uncletopia | Chicago | 6 | All Maps | STV","players":[{"user_id":235,"name":"Mr. May","steam_id":76561198132112804,"connected_time":4001000000000,"state":"active","ping":95},{"user_id":310,"name":"Moarry","steam_id":76561198043924650,"connected_time":114000000000,"state":"active","ping":165},{"user_id":295,"name":"innisfree","steam_id":76561198109065124,"connected_time":456000000000,"state":"active","ping":75},{"user_id":296,"name":"Brain in a vat gaming","steam_id":76561199216756079,"connected_time":438000000000,"state":"active","ping":112},{"user_id":297,"name":"Lawrence Pemberton","steam_id":76561198180863090,"connected_time":410000000000,"state":"active","ping":82},{"user_id":298,"name":"neet","steam_id":76561197968115168,"connected_time":381000000000,"state":"active","ping":57},{"user_id":301,"name":"evan_is_sauce","steam_id":76561199086802383,"connected_time":320000000000,"state":"active","ping":107},{"user_id":267,"name":"｡✧Phencyclidine✧*｡","steam_id":76561199200969139,"connected_time":2037000000000,"state":"active","ping":126},{"user_id":254,"name":"Psychosis","steam_id":76561198078659070,"connected_time":2645000000000,"state":"active","ping":81},{"user_id":288,"name":"bikerkid207","steam_id":76561198390782783,"connected_time":1099000000000,"state":"active","ping":74},{"user_id":172,"name":"Bri","steam_id":76561198089908485,"connected_time":8985000000000,"state":"active","ping":93},{"user_id":289,"name":"Pooryoungfrog","steam_id":76561199174779667,"connected_time":1040000000000,"state":"active","ping":80},{"user_id":300,"name":"jelkmaster34","steam_id":76561198298772825,"connected_time":335000000000,"state":"active","ping":46},{"user_id":302,"name":"Avg. Santa Believer (Nice list)","steam_id":76561198040444697,"connected_time":301000000000,"state":"active","ping":71},{"user_id":303,"name":"She's giving you a WUTVILLE??","steam_id":76561198172792271,"connected_time":289000000000,"state":"active","ping":87},{"user_id":244,"name":"Joey","steam_id":76561198211826573,"connected_time":3820000000000,"state":"active","ping":66},{"user_id":304,"name":"Felix Argyle","steam_id":76561199224775207,"connected_time":281000000000,"state":"active","ping":76},{"user_id":305,"name":"Cloamker","steam_id":76561199135621544,"connected_time":217000000000,"state":"active","ping":48},{"user_id":271,"name":"neffam3","steam_id":76561198074256803,"connected_time":2009000000000,"state":"active","ping":116},{"user_id":269,"name":"xXx1337ChimkinNugGaymer420xXx","steam_id":76561198149063013,"connected_time":2028000000000,"state":"active","ping":63},{"user_id":306,"name":"YellowFellow","steam_id":76561199037026624,"connected_time":184000000000,"state":"active","ping":85},{"user_id":308,"name":"Dusk","steam_id":76561199093333752,"connected_time":128000000000,"state":"active","ping":73},{"user_id":309,"name":"VibingVicinity","steam_id":76561198208211285,"connected_time":126000000000,"state":"active","ping":59},{"user_id":316,"name":"woohah","steam_id":76561199453123772,"connected_time":49000000000,"state":"active","ping":78},{"user_id":318,"name":"Butter Beyond The Binary","steam_id":76561198128408544,"connected_time":18000000000,"state":"spawning","ping":52}]},{"server_id":38,"name":"Uncletopia | Chicago | 7 | Stopwatch Beta","name_short":"chi-7","host":"chi-2.us.uncletopia.com","port":27035,"enabled":true,"region":"us-central","cc":"us","latitude":41.881832,"longitude":-87.62318,"reserved":0,"last_update":"0001-01-01T00:00:00Z","name_a2s":"Uncletopia | Chicago | 7 | Stopwatch Beta","protocol":17,"map":"workshop/koth_bagel_rc5.ugc2514036946","folder":"tf","game":"Team Fortress","app_id":440,"player_count":22,"max_players":24,"Bots":0,"server_type":"Dedicated","server_os":"Linux","password":true,"vac":true,"version":"7757534","steam_id":85568392924866364,"keywords":["cp","nocrits","nodmgspread","uncletopia"],"game_id":440,"stv_port":27036,"stv_name":"Uncletopia | Chicago | 7 | Stopwatch Beta | STV","players":[{"user_id":16,"name":"Inevitable","steam_id":76561198210050169,"connected_time":5325000000000,"state":"active","ping":60},{"user_id":6,"name":"Zububu","steam_id":76561198024293060,"connected_time":6880000000000,"state":"active","ping":72},{"user_id":78,"name":"TheParanoidAndroid","steam_id":76561198024940715,"connected_time":908000000000,"state":"active","ping":72},{"user_id":8,"name":"Ineffable","steam_id":76561198968869068,"connected_time":6867000000000,"state":"active","ping":88},{"user_id":29,"name":"6 million bees","steam_id":76561198400438007,"connected_time":3667000000000,"state":"active","ping":60},{"user_id":94,"name":"Johnny Lawrence #JohnnyMaxxing","steam_id":76561199367141671,"connected_time":125000000000,"state":"active","ping":60},{"user_id":45,"name":"The PriceMaster","steam_id":76561198034552198,"connected_time":2759000000000,"state":"active","ping":60},{"user_id":18,"name":"Porytal","steam_id":76561198306101889,"connected_time":4957000000000,"state":"active","ping":99},{"user_id":20,"name":"girr","steam_id":76561198995114110,"connected_time":4919000000000,"state":"active","ping":119},{"user_id":81,"name":"Your Uncle named  Rick","steam_id":76561199396787833,"connected_time":790000000000,"state":"active","ping":93},{"user_id":33,"name":"Ze_Über_Nerd","steam_id":76561198091148675,"connected_time":3480000000000,"state":"active","ping":74},{"user_id":92,"name":"Slowingbranch90","steam_id":76561199445875508,"connected_time":202000000000,"state":"active","ping":89},{"user_id":97,"name":"kris736","steam_id":76561198038208255,"connected_time":12000000000,"state":"spawning","ping":106},{"user_id":93,"name":"Donk","steam_id":76561198803472441,"connected_time":186000000000,"state":"active","ping":62},{"user_id":95,"name":"Turk Turkleton","steam_id":76561198073265101,"connected_time":82000000000,"state":"active","ping":78},{"user_id":77,"name":"void","steam_id":76561198107501413,"connected_time":917000000000,"state":"active","ping":40},{"user_id":71,"name":"memelad","steam_id":76561198031374975,"connected_time":1164000000000,"state":"active","ping":62},{"user_id":52,"name":"Juanelo","steam_id":76561199096390505,"connected_time":2236000000000,"state":"active","ping":81},{"user_id":59,"name":"poogoblin49","steam_id":76561198124866303,"connected_time":1869000000000,"state":"active","ping":95},{"user_id":79,"name":"rubb3r","steam_id":76561198096874230,"connected_time":883000000000,"state":"active","ping":64},{"user_id":60,"name":"Megadesk","steam_id":76561198078219641,"connected_time":1861000000000,"state":"active","ping":84},{"user_id":89,"name":"drwwby","steam_id":76561198067741339,"connected_time":524000000000,"state":"active","ping":57}]},{"server_id":39,"name":"Uncletopia | Chicago | 8 | Community","name_short":"chi-8","host":"chi-2.us.uncletopia.com","port":27045,"enabled":true,"region":"us-central","cc":"us","latitude":41.881832,"longitude":-87.62318,"reserved":0,"last_update":"0001-01-01T00:00:00Z","name_a2s":"Uncletopia | Chicago | 8 | Community","protocol":17,"map":"workshop/koth_slaughter_rc1.ugc1712845210","folder":"tf","game":"Team Fortress","app_id":440,"player_count":0,"max_players":24,"Bots":0,"server_type":"Dedicated","server_os":"Linux","password":true,"vac":true,"version":"7757534","steam_id":85568392924866365,"keywords":["cp","nocrits","nodmgspread","uncletopia"],"game_id":440,"stv_port":27046,"stv_name":"Uncletopia | Chicago | 8 | Community | STV","players":null},{"server_id":8,"name":"Uncletopia | Dallas | 1 | All Maps","name_short":"dal-1","host":"dal-1.us.uncletopia.com","port":27015,"enabled":true,"region":"us-central","cc":"us","latitude":32.779167,"longitude":-96.80889,"reserved":0,"last_update":"0001-01-01T00:00:00Z","name_a2s":"Uncletopia | Dallas | 1 | All Maps","protocol":17,"map":"pl_borneo","folder":"tf","game":"Team Fortress","app_id":440,"player_count":24,"max_players":24,"Bots":0,"server_type":"Dedicated","server_os":"Linux","password":true,"vac":true,"version":"7757534","steam_id":85568392924469986,"keywords":["nocrits","nodmgspread","payload","uncletopia"],"game_id":440,"stv_port":27016,"stv_name":"Uncletopia | Dallas | 1 | All Maps | STV","players":[{"user_id":419,"name":"call me qt","steam_id":76561198959379863,"connected_time":1794000000000,"state":"active","ping":121},{"user_id":430,"name":"vastrobotmax","steam_id":76561198417110724,"connected_time":626000000000,"state":"active","ping":100},{"user_id":429,"name":"NecroHash","steam_id":76561198158007618,"connected_time":666000000000,"state":"active","ping":89},{"user_id":424,"name":"Ret","steam_id":76561198272398545,"connected_time":1171000000000,"state":"active","ping":114},{"user_id":435,"name":"Vestuvian","steam_id":76561199007823355,"connected_time":361000000000,"state":"active","ping":67},{"user_id":417,"name":"HATEWORK.","steam_id":76561198286792807,"connected_time":1832000000000,"state":"active","ping":67},{"user_id":425,"name":"HE’S IN THE GODDAMN WALLS","steam_id":76561198363267009,"connected_time":1148000000000,"state":"active","ping":45},{"user_id":432,"name":"Doggo","steam_id":76561198973038585,"connected_time":559000000000,"state":"active","ping":118},{"user_id":355,"name":"Daz","steam_id":76561198041431938,"connected_time":5513000000000,"state":"active","ping":76},{"user_id":400,"name":"bendera","steam_id":76561197965486503,"connected_time":3116000000000,"state":"active","ping":87},{"user_id":403,"name":"Jhonejay","steam_id":76561198071299850,"connected_time":3005000000000,"state":"active","ping":101},{"user_id":439,"name":"kermitcreeper(ZAZA)","steam_id":76561199222829972,"connected_time":134000000000,"state":"active","ping":66},{"user_id":420,"name":"limegrass619","steam_id":76561198167789909,"connected_time":1791000000000,"state":"active","ping":103},{"user_id":423,"name":"Bad Hombre","steam_id":76561198046559176,"connected_time":1334000000000,"state":"active","ping":109},{"user_id":437,"name":"Bub","steam_id":76561198059791574,"connected_time":179000000000,"state":"active","ping":83},{"user_id":428,"name":"FG7","steam_id":76561198381197197,"connected_time":681000000000,"state":"active","ping":105},{"user_id":409,"name":"mr ploobmeister","steam_id":76561198128908529,"connected_time":2727000000000,"state":"active","ping":55},{"user_id":438,"name":"Tribute","steam_id":76561198081594043,"connected_time":178000000000,"state":"active","ping":56},{"user_id":319,"name":"Dictator Noodle","steam_id":76561198277243768,"connected_time":8515000000000,"state":"active","ping":78},{"user_id":436,"name":"kevin supermarket","steam_id":76561198058287022,"connected_time":192000000000,"state":"active","ping":65},{"user_id":434,"name":"$$$","steam_id":76561198161403931,"connected_time":543000000000,"state":"active","ping":30},{"user_id":413,"name":"MEDIC!","steam_id":76561198149344029,"connected_time":1926000000000,"state":"active","ping":90},{"user_id":427,"name":"Kuudere","steam_id":76561198075028016,"connected_time":712000000000,"state":"active","ping":100},{"user_id":416,"name":"Pinetree w/ apples.","steam_id":76561198105411709,"connected_time":1838000000000,"state":"active","ping":111}]},{"server_id":108,"name":"Uncletopia | Dallas | 2 | All Maps","name_short":"dal-2","host":"dal-1.us.uncletopia.com","port":27025,"enabled":true,"region":"us-central","cc":"us","latitude":32.779167,"longitude":-96.80889,"reserved":0,"last_update":"0001-01-01T00:00:00Z","name_a2s":"Uncletopia | Dallas | 2 | All Maps","protocol":17,"map":"pl_pier","folder":"tf","game":"Team Fortress","app_id":440,"player_count":7,"max_players":24,"Bots":0,"server_type":"Dedicated","server_os":"Linux","password":true,"vac":true,"version":"7757534","steam_id":85568392924469988,"keywords":["nocrits","nodmgspread","payload","uncletopia"],"game_id":440,"stv_port":27026,"stv_name":"Uncletopia | Dallas | 2 | All Maps | STV","players":[{"user_id":256,"name":"Johnny","steam_id":76561199031968193,"connected_time":264000000000,"state":"active","ping":169},{"user_id":257,"name":"white woman","steam_id":76561199116679777,"connected_time":86000000000,"state":"active","ping":68},{"user_id":190,"name":"BIGGEST MAC","steam_id":76561198847517098,"connected_time":2958000000000,"state":"active","ping":113},{"user_id":249,"name":"Walta","steam_id":76561198392067473,"connected_time":807000000000,"state":"active","ping":70},{"user_id":243,"name":"Riboflavin","steam_id":76561198077328593,"connected_time":960000000000,"state":"active","ping":58},{"user_id":250,"name":"Anor","steam_id":76561198356139775,"connected_time":801000000000,"state":"active","ping":71},{"user_id":140,"name":"Tophu","steam_id":76561198380229671,"connected_time":6984000000000,"state":"active","ping":89}]},{"server_id":5,"name":"Uncletopia | Frankfurt | 1 | All Maps","name_short":"frk-1","host":"frk-1.de.uncletopia.com","port":27015,"enabled":true,"region":"eu","cc":"de","latitude":50.110924,"longitude":8.682127,"reserved":0,"last_update":"0001-01-01T00:00:00Z","name_a2s":"Uncletopia | Frankfurt | 1 | All Maps","protocol":17,"map":"cp_snakewater_final1","folder":"tf","game":"Team Fortress","app_id":440,"player_count":0,"max_players":24,"Bots":0,"server_type":"Dedicated","server_os":"Linux","password":true,"vac":true,"version":"7757534","steam_id":85568392924469989,"keywords":["cp","nocrits","nodmgspread","uncletopia"],"game_id":440,"stv_port":27016,"stv_name":"Uncletopia | Frankfurt | 1 | All Maps | STV","players":null},{"server_id":110,"name":"Uncletopia | Frankfurt | 2 | All Maps","name_short":"frk-2","host":"frk-1.de.uncletopia.com","port":27025,"enabled":true,"region":"eu","cc":"de","latitude":50.110924,"longitude":8.682127,"reserved":0,"last_update":"0001-01-01T00:00:00Z","name_a2s":"Uncletopia | Frankfurt | 2 | All Maps","protocol":17,"map":"pl_swiftwater_final1","folder":"tf","game":"Team Fortress","app_id":440,"player_count":0,"max_players":24,"Bots":0,"server_type":"Dedicated","server_os":"Linux","password":true,"vac":true,"version":"7757534","steam_id":85568392924469990,"keywords":["nocrits","nodmgspread","payload","uncletopia"],"game_id":440,"stv_port":27026,"stv_name":"Uncletopia | Frankfurt | 2 | All Maps | STV","players":null},{"server_id":308,"name":"Uncletopia | Frankfurt | 3 | All Maps","name_short":"frk-3","host":"frk-1.de.uncletopia.com","port":27035,"enabled":true,"region":"eu","cc":"de","latitude":50.110924,"longitude":8.682127,"reserved":0,"last_update":"0001-01-01T00:00:00Z","name_a2s":"Uncletopia | Frankfurt | 3 | All Maps","protocol":17,"map":"pl_borneo","folder":"tf","game":"Team Fortress","app_id":440,"player_count":25,"max_players":24,"Bots":0,"server_type":"Dedicated","server_os":"Linux","password":true,"vac":true,"version":"7757534","steam_id":85568392924504274,"keywords":["nocrits","nodmgspread","payload","uncletopia"],"game_id":440,"stv_port":27036,"stv_name":"Uncletopia | Frankfurt | 3 | All Maps | STV","players":[{"user_id":697,"name":"Мур Мур Мяу:3","steam_id":76561197995124764,"connected_time":2757000000000,"state":"active","ping":86},{"user_id":761,"name":"brique","steam_id":76561199103944229,"connected_time":515000000000,"state":"active","ping":66},{"user_id":682,"name":"Bumblebee","steam_id":76561198033551105,"connected_time":2988000000000,"state":"active","ping":60},{"user_id":694,"name":"New","steam_id":76561198402195911,"connected_time":2839000000000,"state":"active","ping":118},{"user_id":701,"name":"Refurbished Boy","steam_id":76561197995834697,"connected_time":2449000000000,"state":"active","ping":85},{"user_id":764,"name":"Chimera","steam_id":76561198079575986,"connected_time":204000000000,"state":"active","ping":60},{"user_id":766,"name":"Mr.O #deletesniper","steam_id":76561198039567498,"connected_time":159000000000,"state":"active","ping":57},{"user_id":721,"name":"miracle man","steam_id":76561199170488594,"connected_time":1642000000000,"state":"active","ping":80},{"user_id":767,"name":"lil_loggy03","steam_id":76561198383155448,"connected_time":142000000000,"state":"active","ping":167},{"user_id":724,"name":"Mike Kerman","steam_id":76561198038257570,"connected_time":1575000000000,"state":"active","ping":70},{"user_id":698,"name":"doghem","steam_id":76561199218416052,"connected_time":2741000000000,"state":"active","ping":123},{"user_id":768,"name":"Pvt. Grichmann","steam_id":76561197977589522,"connected_time":142000000000,"state":"active","ping":75},{"user_id":722,"name":"SIR MEPHEDRONE","steam_id":76561198302623594,"connected_time":1641000000000,"state":"active","ping":92},{"user_id":769,"name":"Dee","steam_id":76561198257836694,"connected_time":113000000000,"state":"active","ping":45},{"user_id":770,"name":"joachym","steam_id":76561198428579761,"connected_time":106000000000,"state":"active","ping":66},{"user_id":771,"name":"Aesthetic Alcoholism","steam_id":76561198044418968,"connected_time":66000000000,"state":"active","ping":45},{"user_id":772,"name":"cinny","steam_id":76561198832112629,"connected_time":30000000000,"state":"active","ping":79},{"user_id":762,"name":"thomas","steam_id":76561198355097756,"connected_time":501000000000,"state":"active","ping":68},{"user_id":763,"name":"adam","steam_id":76561198042980135,"connected_time":332000000000,"state":"active","ping":85},{"user_id":738,"name":"stickyspaghetti45","steam_id":76561199418489332,"connected_time":1375000000000,"state":"active","ping":60},{"user_id":760,"name":"ignatowski","steam_id":76561197960881723,"connected_time":560000000000,"state":"active","ping":70},{"user_id":689,"name":"Yeet ;)","steam_id":76561199376340789,"connected_time":2942000000000,"state":"active","ping":103},{"user_id":773,"name":"yung stuffynose","steam_id":76561198068221848,"connected_time":3000000000,"state":"spawning","ping":103},{"user_id":745,"name":"XavierSweet","steam_id":76561198091781913,"connected_time":1302000000000,"state":"active","ping":67},{"user_id":749,"name":"Zogg","steam_id":76561198352683491,"connected_time":1165000000000,"state":"active","ping":56}]},{"server_id":309,"name":"Uncletopia | Frankfurt | 4 | All Maps","name_short":"frk-4","host":"frk-1.de.uncletopia.com","port":27045,"enabled":true,"region":"eu","cc":"de","latitude":50.110924,"longitude":8.682127,"reserved":0,"last_update":"0001-01-01T00:00:00Z","name_a2s":"Uncletopia | Frankfurt | 4 | All Maps","protocol":17,"map":"pl_barnblitz","folder":"tf","game":"Team Fortress","app_id":440,"player_count":0,"max_players":24,"Bots":0,"server_type":"Dedicated","server_os":"Linux","password":true,"vac":true,"version":"7757534","steam_id":85568392924504275,"keywords":["nocrits","nodmgspread","payload","uncletopia"],"game_id":440,"stv_port":27046,"stv_name":"Uncletopia | Frankfurt | 4 | All Maps | STV","players":null},{"server_id":310,"name":"Uncletopia | Frankfurt | 5 | All Maps","name_short":"frk-5","host":"frk-1.de.uncletopia.com","port":27055,"enabled":true,"region":"eu","cc":"de","latitude":50.110924,"longitude":8.682127,"reserved":0,"last_update":"0001-01-01T00:00:00Z","name_a2s":"Uncletopia | Frankfurt | 5 | All Maps","protocol":17,"map":"pl_frontier_final","folder":"tf","game":"Team Fortress","app_id":440,"player_count":24,"max_players":24,"Bots":0,"server_type":"Dedicated","server_os":"Linux","password":true,"vac":true,"version":"7757534","steam_id":85568392924504277,"keywords":["nocrits","nodmgspread","payload","uncletopia"],"game_id":440,"stv_port":27056,"stv_name":"Uncletopia | Frankfurt | 5 | All Maps | STV","players":[{"user_id":669,"name":"Videogamer","steam_id":76561198106012909,"connected_time":489000000000,"state":"active","ping":68},{"user_id":582,"name":"gOnzaLOXX2005","steam_id":76561198056744152,"connected_time":8113000000000,"state":"active","ping":66},{"user_id":634,"name":"Rave Robber","steam_id":76561199414716848,"connected_time":4282000000000,"state":"active","ping":71},{"user_id":645,"name":"Kenzup","steam_id":76561198317587920,"connected_time":3511000000000,"state":"active","ping":82},{"user_id":632,"name":"minn","steam_id":76561198099101232,"connected_time":4379000000000,"state":"active","ping":68},{"user_id":651,"name":"ambatukam","steam_id":76561198175433731,"connected_time":2927000000000,"state":"active","ping":75},{"user_id":529,"name":"Lolihunter","steam_id":76561198285406228,"connected_time":12250000000000,"state":"active","ping":65},{"user_id":637,"name":"Vosteria","steam_id":76561198290253884,"connected_time":4127000000000,"state":"active","ping":88},{"user_id":670,"name":"Aras","steam_id":76561198160394046,"connected_time":470000000000,"state":"active","ping":110},{"user_id":653,"name":"AghiTron","steam_id":76561198089846176,"connected_time":1973000000000,"state":"active","ping":62},{"user_id":646,"name":"BonBon","steam_id":76561198351080588,"connected_time":3381000000000,"state":"active","ping":60},{"user_id":668,"name":"joona","steam_id":76561198156305446,"connected_time":754000000000,"state":"active","ping":112},{"user_id":660,"name":"s a i","steam_id":76561197970379754,"connected_time":1578000000000,"state":"active","ping":53},{"user_id":665,"name":"timon.ua gaming","steam_id":76561198916306059,"connected_time":999000000000,"state":"active","ping":61},{"user_id":598,"name":"im just clicking mouse","steam_id":76561198164723910,"connected_time":6497000000000,"state":"active","ping":74},{"user_id":606,"name":"Pico","steam_id":76561198063552545,"connected_time":5997000000000,"state":"active","ping":96},{"user_id":663,"name":"Val23","steam_id":76561198099480715,"connected_time":1243000000000,"state":"active","ping":58},{"user_id":671,"name":"boy","steam_id":76561198162462063,"connected_time":323000000000,"state":"active","ping":62},{"user_id":639,"name":"Krocon","steam_id":76561198084906316,"connected_time":4065000000000,"state":"active","ping":85},{"user_id":525,"name":"GoodCombine","steam_id":76561198014057015,"connected_time":12570000000000,"state":"active","ping":86},{"user_id":658,"name":"cagi","steam_id":76561198059806422,"connected_time":1688000000000,"state":"active","ping":59},{"user_id":617,"name":"Mr_Pulse_","steam_id":76561198095001602,"connected_time":5084000000000,"state":"active","ping":94},{"user_id":624,"name":"mohemmedmokhter2005","steam_id":76561199197650506,"connected_time":4827000000000,"state":"active","ping":110},{"user_id":661,"name":"Mishaswy","steam_id":76561198156848144,"connected_time":1574000000000,"state":"active","ping":110}]},{"server_id":311,"name":"Uncletopia | Frankfurt | 6 | All Maps","name_short":"frk-6","host":"frk-1.de.uncletopia.com","port":27065,"enabled":true,"region":"eu","cc":"de","latitude":50.110924,"longitude":8.682127,"reserved":0,"last_update":"0001-01-01T00:00:00Z","name_a2s":"Uncletopia | Frankfurt | 6 | All Maps","protocol":17,"map":"cp_dustbowl","folder":"tf","game":"Team Fortress","app_id":440,"player_count":0,"max_players":24,"Bots":0,"server_type":"Dedicated","server_os":"Linux","password":true,"vac":true,"version":"7757534","steam_id":85568392924504278,"keywords":["cp","nocrits","nodmgspread","uncletopia"],"game_id":440,"stv_port":27066,"stv_name":"Uncletopia | Frankfurt | 6 | All Maps | STV","players":null},{"server_id":23,"name":"Uncletopia | Frankfurt | 7 | Stopwatch Beta","name_short":"frk-7","host":"frk-1.de.uncletopia.com","port":27075,"enabled":true,"region":"eu","cc":"de","latitude":50.110924,"longitude":8.682127,"reserved":0,"last_update":"0001-01-01T00:00:00Z","name_a2s":"Uncletopia | Frankfurt | 7 | Stopwatch Beta","protocol":17,"map":"koth_lakeside_final","folder":"tf","game":"Team Fortress","app_id":440,"player_count":0,"max_players":24,"Bots":0,"server_type":"Dedicated","server_os":"Linux","password":true,"vac":true,"version":"7757534","steam_id":85568392924742827,"keywords":["cp","nocrits","nodmgspread","uncletopia"],"game_id":440,"stv_port":27076,"stv_name":"Uncletopia | Frankfurt | 7 | Stopwatch Beta | STV","players":null},{"server_id":24,"name":"Uncletopia | Frankfurt | 8 | Community","name_short":"frk-8","host":"frk-1.de.uncletopia.com","port":27085,"enabled":true,"region":"eu","cc":"de","latitude":50.110924,"longitude":8.682127,"reserved":0,"last_update":"0001-01-01T00:00:00Z","name_a2s":"Uncletopia | Frankfurt | 8 | Community","protocol":17,"map":"workshop/koth_synthetic_rc6a.ugc1549817316","folder":"tf","game":"Team Fortress","app_id":440,"player_count":0,"max_players":24,"Bots":0,"server_type":"Dedicated","server_os":"Linux","password":true,"vac":true,"version":"7757534","steam_id":85568392924742828,"keywords":["cp","nocrits","nodmgspread","uncletopia"],"game_id":440,"stv_port":27086,"stv_name":"Uncletopia | Frankfurt | 8 | Community | STV","players":null},{"server_id":202,"name":"Uncletopia | Hong Kong | 1 | All Maps","name_short":"hgk-1","host":"hgk-1.hk.uncletopia.com","port":27015,"enabled":true,"region":"asia","cc":"hk","latitude":22.302711,"longitude":114.177216,"reserved":0,"last_update":"0001-01-01T00:00:00Z","name_a2s":"Uncletopia | Hong Kong | 1 | All Maps","protocol":17,"map":"pl_frontier_final","folder":"tf","game":"Team Fortress","app_id":440,"player_count":0,"max_players":24,"Bots":0,"server_type":"Dedicated","server_os":"Linux","password":true,"vac":true,"version":"7757534","steam_id":85568392924494504,"keywords":["nocrits","nodmgspread","payload","uncletopia"],"game_id":440,"stv_port":27016,"stv_name":"Uncletopia | Hong Kong | 1 | All Maps | STV","players":null},{"server_id":1,"name":"Uncletopia | Los Angeles | 1 | All Maps","name_short":"lax-1","host":"lax-1.us.uncletopia.com","port":27015,"enabled":true,"region":"us-west","cc":"us","latitude":33.94279,"longitude":-118.41004,"reserved":0,"last_update":"0001-01-01T00:00:00Z","name_a2s":"Uncletopia | Los Angeles | 1 | All Maps","protocol":17,"map":"pl_barnblitz","folder":"tf","game":"Team Fortress","app_id":440,"player_count":24,"max_players":24,"Bots":0,"server_type":"Dedicated","server_os":"Linux","password":true,"vac":true,"version":"7757534","steam_id":85568392924469991,"keywords":["nocrits","nodmgspread","payload","uncletopia"],"game_id":440,"stv_port":27016,"stv_name":"Uncletopia | Los Angeles | 1 | All Maps | STV","players":[{"user_id":240,"name":"closet weeb","steam_id":76561198405434083,"connected_time":2648000000000,"state":"active","ping":44},{"user_id":242,"name":"Feel the bern","steam_id":76561198078824519,"connected_time":2521000000000,"state":"active","ping":73},{"user_id":267,"name":"240p shoota","steam_id":76561198081681647,"connected_time":318000000000,"state":"active","ping":77},{"user_id":255,"name":"Chad the Sex Haver","steam_id":76561198058236528,"connected_time":1359000000000,"state":"active","ping":53},{"user_id":266,"name":"corbenis","steam_id":76561199012442511,"connected_time":326000000000,"state":"active","ping":47},{"user_id":246,"name":"Crazy Mini Latina","steam_id":76561198132373031,"connected_time":2333000000000,"state":"active","ping":114},{"user_id":231,"name":"Strawburrr","steam_id":76561199208694620,"connected_time":2857000000000,"state":"active","ping":116},{"user_id":258,"name":"Popedesu","steam_id":76561198064206331,"connected_time":1283000000000,"state":"active","ping":56},{"user_id":262,"name":"legalizme223","steam_id":76561198051698391,"connected_time":1122000000000,"state":"active","ping":99},{"user_id":270,"name":"ape (real)","steam_id":76561198379444671,"connected_time":187000000000,"state":"active","ping":107},{"user_id":265,"name":"Melon Doge","steam_id":76561199006526991,"connected_time":554000000000,"state":"active","ping":48},{"user_id":236,"name":"chango","steam_id":76561199164365863,"connected_time":2756000000000,"state":"active","ping":58},{"user_id":253,"name":"I_amgeneric","steam_id":76561198058605649,"connected_time":1908000000000,"state":"active","ping":74},{"user_id":260,"name":"Honeybunch","steam_id":76561198014850580,"connected_time":1148000000000,"state":"active","ping":68},{"user_id":180,"name":"Mina's Ninas","steam_id":76561198046502179,"connected_time":7419000000000,"state":"active","ping":58},{"user_id":216,"name":"Grungus","steam_id":76561198047700230,"connected_time":4017000000000,"state":"active","ping":58},{"user_id":204,"name":"Dimple","steam_id":76561198980324190,"connected_time":5355000000000,"state":"active","ping":80},{"user_id":256,"name":"Okter","steam_id":76561198035908873,"connected_time":1356000000000,"state":"active","ping":102},{"user_id":264,"name":"AKKAWI","steam_id":76561198203159952,"connected_time":578000000000,"state":"active","ping":57},{"user_id":237,"name":"Moshi Man","steam_id":76561198038249762,"connected_time":2745000000000,"state":"active","ping":111},{"user_id":217,"name":"Coolbeans4Evah","steam_id":76561198840823486,"connected_time":3944000000000,"state":"active","ping":114},{"user_id":271,"name":"Jonatello","steam_id":76561198045699189,"connected_time":2000000000,"state":"spawning","ping":52},{"user_id":261,"name":"Santa Carl","steam_id":76561198058349172,"connected_time":1127000000000,"state":"active","ping":56},{"user_id":263,"name":"Ayyyy","steam_id":76561198121729211,"connected_time":766000000000,"state":"active","ping":56}]},{"server_id":112,"name":"Uncletopia | Los Angeles | 2 | All Maps","name_short":"lax-2","host":"lax-1.us.uncletopia.com","port":27025,"enabled":true,"region":"us-west","cc":"us","latitude":33.94279,"longitude":-118.41004,"reserved":0,"last_update":"0001-01-01T00:00:00Z","name_a2s":"Uncletopia | Los Angeles | 2 | All Maps","protocol":17,"map":"cp_mountainlab","folder":"tf","game":"Team Fortress","app_id":440,"player_count":0,"max_players":24,"Bots":0,"server_type":"Dedicated","server_os":"Linux","password":true,"vac":true,"version":"7757534","steam_id":85568392924469992,"keywords":["cp","nocrits","nodmgspread","uncletopia"],"game_id":440,"stv_port":27026,"stv_name":"Uncletopia | Los Angeles | 2 | All Maps | STV","players":null},{"server_id":324,"name":"Uncletopia | Los Angeles | 3 | All Maps","name_short":"lax-3","host":"lax-1.us.uncletopia.com","port":27035,"enabled":true,"region":"us-west","cc":"us","latitude":33.94279,"longitude":-118.41004,"reserved":0,"last_update":"0001-01-01T00:00:00Z","name_a2s":"Uncletopia | Los Angeles | 3 | All Maps","protocol":17,"map":"koth_highpass","folder":"tf","game":"Team Fortress","app_id":440,"player_count":0,"max_players":24,"Bots":0,"server_type":"Dedicated","server_os":"Linux","password":true,"vac":true,"version":"7757534","steam_id":85568392924510198,"keywords":["cp","nocrits","nodmgspread","uncletopia"],"game_id":440,"stv_port":27036,"stv_name":"Uncletopia | Los Angeles | 3 | All Maps | STV","players":null},{"server_id":25,"name":"Uncletopia | Los Angeles | 4 | Stopwatch Beta","name_short":"lax-4","host":"lax-1.us.uncletopia.com","port":27045,"enabled":true,"region":"us-west","cc":"us","latitude":33.94279,"longitude":-118.41004,"reserved":0,"last_update":"0001-01-01T00:00:00Z","name_a2s":"Uncletopia | Los Angeles | 4 | Stopwatch Beta","protocol":17,"map":"koth_viaduct","folder":"tf","game":"Team Fortress","app_id":440,"player_count":0,"max_players":24,"Bots":0,"server_type":"Dedicated","server_os":"Linux","password":true,"vac":true,"version":"7757534","steam_id":85568392924510199,"keywords":["cp","nocrits","nodmgspread","uncletopia"],"game_id":440,"stv_port":27046,"stv_name":"Uncletopia | Los Angeles | 4 | Stopwatch Beta | STV","players":null},{"server_id":11,"name":"Uncletopia | London | 1 | All Maps","name_short":"lon-1","host":"lon-1.uk.uncletopia.com","port":27015,"enabled":true,"region":"eu","cc":"gb","latitude":51.509865,"longitude":-0.118092,"reserved":0,"last_update":"0001-01-01T00:00:00Z","name_a2s":"Uncletopia | London | 1 | All Maps","protocol":17,"map":"pl_swiftwater_final1","folder":"tf","game":"Team Fortress","app_id":440,"player_count":24,"max_players":24,"Bots":0,"server_type":"Dedicated","server_os":"Linux","password":true,"vac":true,"version":"7757534","steam_id":85568392924367362,"keywords":["nocrits","nodmgspread","payload","uncletopia"],"game_id":440,"stv_port":27016,"stv_name":"Uncletopia | London | 1 | All Maps | STV","players":[{"user_id":845,"name":"Insain Bolt!","steam_id":76561198025687726,"connected_time":2142000000000,"state":"active","ping":71},{"user_id":846,"name":"ªKirukato04","steam_id":76561199059960968,"connected_time":2117000000000,"state":"active","ping":97},{"user_id":848,"name":"사과","steam_id":76561198268144086,"connected_time":2099000000000,"state":"active","ping":74},{"user_id":847,"name":"Cabbch","steam_id":76561198045955679,"connected_time":2112000000000,"state":"active","ping":57},{"user_id":873,"name":"deli","steam_id":76561198016511460,"connected_time":1053000000000,"state":"active","ping":52},{"user_id":876,"name":"alf","steam_id":76561198060249715,"connected_time":310000000000,"state":"active","ping":45},{"user_id":823,"name":"Koko","steam_id":76561198160358848,"connected_time":3989000000000,"state":"active","ping":75},{"user_id":793,"name":"André","steam_id":76561198848885591,"connected_time":7090000000000,"state":"active","ping":101},{"user_id":850,"name":"DelaNo","steam_id":76561199125086655,"connected_time":2067000000000,"state":"active","ping":51},{"user_id":816,"name":"Tigas","steam_id":76561198930230191,"connected_time":4802000000000,"state":"active","ping":97},{"user_id":824,"name":"Senior","steam_id":76561198065014164,"connected_time":3975000000000,"state":"active","ping":48},{"user_id":865,"name":"sora","steam_id":76561198096547662,"connected_time":1401000000000,"state":"active","ping":52},{"user_id":854,"name":"StreetYouster","steam_id":76561198150204821,"connected_time":1942000000000,"state":"active","ping":69},{"user_id":862,"name":"zigg","steam_id":76561198149501776,"connected_time":1496000000000,"state":"active","ping":56},{"user_id":875,"name":"Ouch","steam_id":76561198193054327,"connected_time":540000000000,"state":"active","ping":69},{"user_id":819,"name":"EdSuedi","steam_id":76561199387956486,"connected_time":4320000000000,"state":"active","ping":60},{"user_id":877,"name":"Eco","steam_id":76561199201938256,"connected_time":141000000000,"state":"active","ping":86},{"user_id":864,"name":"kadma","steam_id":76561198190600121,"connected_time":1474000000000,"state":"active","ping":45},{"user_id":852,"name":"snki","steam_id":76561198324048855,"connected_time":2044000000000,"state":"active","ping":51},{"user_id":874,"name":"Uncle Owen","steam_id":76561198157999291,"connected_time":848000000000,"state":"active","ping":88},{"user_id":853,"name":"Penis Contortionist","steam_id":76561198073663784,"connected_time":2028000000000,"state":"active","ping":41},{"user_id":856,"name":"Aaron","steam_id":76561197990046953,"connected_time":1890000000000,"state":"active","ping":70},{"user_id":818,"name":"Windows Vista Cruiser","steam_id":76561198064102233,"connected_time":4609000000000,"state":"active","ping":60},{"user_id":867,"name":"Vezage","steam_id":76561198064916164,"connected_time":1187000000000,"state":"active","ping":74}]},{"server_id":114,"name":"Uncletopia | London | 2 | All Maps","name_short":"lon-2","host":"lon-1.uk.uncletopia.com","port":27025,"enabled":true,"region":"eu","cc":"gb","latitude":51.509865,"longitude":-0.118092,"reserved":0,"last_update":"0001-01-01T00:00:00Z","name_a2s":"Uncletopia | London | 2 | All Maps","protocol":17,"map":"pl_swiftwater_final1","folder":"tf","game":"Team Fortress","app_id":440,"player_count":24,"max_players":24,"Bots":0,"server_type":"Dedicated","server_os":"Linux","password":true,"vac":true,"version":"7757534","steam_id":85568392924470941,"keywords":["nocrits","nodmgspread","payload","uncletopia"],"game_id":440,"stv_port":27026,"stv_name":"Uncletopia | London | 2 | All Maps | STV","players":[{"user_id":767,"name":"Bentley","steam_id":76561197978252169,"connected_time":2639000000000,"state":"active","ping":56},{"user_id":757,"name":"Innocent Bystander","steam_id":76561198259885007,"connected_time":3595000000000,"state":"active","ping":46},{"user_id":785,"name":"LV. 90 BOSS","steam_id":76561198248574732,"connected_time":860000000000,"state":"active","ping":77},{"user_id":743,"name":"E","steam_id":76561198166340115,"connected_time":4169000000000,"state":"active","ping":52},{"user_id":786,"name":"rummy","steam_id":76561197997573379,"connected_time":841000000000,"state":"active","ping":48},{"user_id":771,"name":"Phalcon","steam_id":76561197987051394,"connected_time":2550000000000,"state":"active","ping":82},{"user_id":787,"name":"Fox","steam_id":76561198052541711,"connected_time":832000000000,"state":"active","ping":74},{"user_id":782,"name":"Element-118","steam_id":76561198303170872,"connected_time":926000000000,"state":"active","ping":61},{"user_id":795,"name":"dems","steam_id":76561198122546674,"connected_time":232000000000,"state":"active","ping":59},{"user_id":776,"name":"DarthMurloc_OW","steam_id":76561198075577711,"connected_time":1937000000000,"state":"active","ping":90},{"user_id":755,"name":"Mr Prince","steam_id":76561199006591691,"connected_time":3607000000000,"state":"active","ping":83},{"user_id":793,"name":"Ghomera","steam_id":76561198077853308,"connected_time":444000000000,"state":"active","ping":64},{"user_id":784,"name":"Tomex999","steam_id":76561198049587675,"connected_time":895000000000,"state":"active","ping":90},{"user_id":773,"name":"Jarl SwagDog","steam_id":76561198097553711,"connected_time":2477000000000,"state":"active","ping":122},{"user_id":769,"name":"Silent Person","steam_id":76561198107763537,"connected_time":2574000000000,"state":"active","ping":69},{"user_id":774,"name":"Benedictus9","steam_id":76561198097260672,"connected_time":2473000000000,"state":"active","ping":75},{"user_id":760,"name":"SuntanPikachu","steam_id":76561198121242476,"connected_time":3557000000000,"state":"active","ping":59},{"user_id":796,"name":"foolproof","steam_id":76561198115801132,"connected_time":228000000000,"state":"active","ping":59},{"user_id":797,"name":"scuM--","steam_id":76561198273679047,"connected_time":76000000000,"state":"active","ping":45},{"user_id":789,"name":"homeinvasion$","steam_id":76561199111905021,"connected_time":797000000000,"state":"active","ping":107},{"user_id":790,"name":"Scottish Fox","steam_id":76561198052990270,"connected_time":786000000000,"state":"active","ping":59},{"user_id":766,"name":"Noodle","steam_id":76561198306486695,"connected_time":2790000000000,"state":"active","ping":72},{"user_id":736,"name":"Sniffz_2","steam_id":76561199433459491,"connected_time":4882000000000,"state":"active","ping":80},{"user_id":791,"name":"roygbiv","steam_id":76561198344281978,"connected_time":749000000000,"state":"active","ping":62}]},{"server_id":320,"name":"Uncletopia | London | 3 | All Maps","name_short":"lon-3","host":"lon-1.uk.uncletopia.com","port":27035,"enabled":true,"region":"eu","cc":"gb","latitude":51.509865,"longitude":-0.118092,"reserved":0,"last_update":"0001-01-01T00:00:00Z","name_a2s":"Uncletopia | London | 3 | All Maps","protocol":17,"map":"pl_borneo","folder":"tf","game":"Team Fortress","app_id":440,"player_count":22,"max_players":24,"Bots":0,"server_type":"Dedicated","server_os":"Linux","password":true,"vac":true,"version":"7757534","steam_id":85568392924510192,"keywords":["nocrits","nodmgspread","payload","uncletopia"],"game_id":440,"stv_port":27036,"stv_name":"Uncletopia | London | 3 | All Maps | STV","players":[{"user_id":1233,"name":"travis","steam_id":76561198138119811,"connected_time":41000000000,"state":"active","ping":44},{"user_id":1219,"name":"good to be back","steam_id":76561199391850406,"connected_time":737000000000,"state":"active","ping":99},{"user_id":1216,"name":"Never Über Me","steam_id":76561198140522687,"connected_time":881000000000,"state":"active","ping":88},{"user_id":1196,"name":"Wedgeridoo","steam_id":76561198082813907,"connected_time":2090000000000,"state":"active","ping":100},{"user_id":1215,"name":"ArmedWithWings","steam_id":76561198154615474,"connected_time":1049000000000,"state":"active","ping":100},{"user_id":1220,"name":"Kupusari d.o.o.","steam_id":76561198320880046,"connected_time":681000000000,"state":"active","ping":81},{"user_id":1194,"name":"Trash","steam_id":76561198079081990,"connected_time":2157000000000,"state":"active","ping":59},{"user_id":1202,"name":"sam-","steam_id":76561198013770973,"connected_time":1590000000000,"state":"active","ping":74},{"user_id":1227,"name":"siental","steam_id":76561198275457864,"connected_time":428000000000,"state":"active","ping":65},{"user_id":1206,"name":"Swedde","steam_id":76561198297296440,"connected_time":1540000000000,"state":"active","ping":73},{"user_id":1217,"name":"git bash -er","steam_id":76561198072586494,"connected_time":878000000000,"state":"active","ping":44},{"user_id":1211,"name":"MG TF 2004!","steam_id":76561198042975907,"connected_time":1370000000000,"state":"active","ping":58},{"user_id":1231,"name":"Control Panel","steam_id":76561198154677956,"connected_time":227000000000,"state":"active","ping":76},{"user_id":1167,"name":"Gempooh","steam_id":76561198098463950,"connected_time":3543000000000,"state":"active","ping":75},{"user_id":1221,"name":"professional badass monkey","steam_id":76561198326249290,"connected_time":645000000000,"state":"active","ping":60},{"user_id":1232,"name":"Benn0","steam_id":76561198301763622,"connected_time":138000000000,"state":"active","ping":57},{"user_id":1197,"name":"proph","steam_id":76561197998803950,"connected_time":1853000000000,"state":"active","ping":60},{"user_id":1230,"name":"snowii","steam_id":76561198836246326,"connected_time":256000000000,"state":"active","ping":46},{"user_id":1213,"name":"Jiant","steam_id":76561198374998274,"connected_time":1359000000000,"state":"active","ping":70},{"user_id":1123,"name":"luma","steam_id":76561198081649669,"connected_time":6134000000000,"state":"active","ping":75},{"user_id":1193,"name":"LionKing","steam_id":76561198023399545,"connected_time":2286000000000,"state":"active","ping":60},{"user_id":1225,"name":"[\u003e\u003c] OTP Uncle Sam","steam_id":76561198186666399,"connected_time":555000000000,"state":"active","ping":60}]},{"server_id":321,"name":"Uncletopia | London | 4 | All Maps","name_short":"lon-4","host":"lon-1.uk.uncletopia.com","port":27045,"enabled":true,"region":"eu","cc":"gb","latitude":51.509865,"longitude":-0.118092,"reserved":0,"last_update":"0001-01-01T00:00:00Z","name_a2s":"Uncletopia | London | 4 | All Maps","protocol":17,"map":"cp_process_final","folder":"tf","game":"Team Fortress","app_id":440,"player_count":24,"max_players":24,"Bots":0,"server_type":"Dedicated","server_os":"Linux","password":true,"vac":true,"version":"7757534","steam_id":85568392924510193,"keywords":["cp","nocrits","nodmgspread","uncletopia"],"game_id":440,"stv_port":27046,"stv_name":"Uncletopia | London | 4 | All Maps | STV","players":[{"user_id":577,"name":"bloo","steam_id":76561198071803379,"connected_time":351000000000,"state":"active","ping":53},{"user_id":574,"name":"ahhhhhhhhhh","steam_id":76561198271867664,"connected_time":621000000000,"state":"active","ping":54},{"user_id":578,"name":"Cosmetic brain","steam_id":76561198055936410,"connected_time":347000000000,"state":"active","ping":80},{"user_id":562,"name":"Kvicha Kvaratskhelia","steam_id":76561198179339326,"connected_time":1233000000000,"state":"active","ping":82},{"user_id":568,"name":"Shinobu Oshino ♠","steam_id":76561198105207050,"connected_time":958000000000,"state":"active","ping":55},{"user_id":528,"name":"nedilya","steam_id":76561198039692077,"connected_time":3361000000000,"state":"active","ping":63},{"user_id":571,"name":"Shynii","steam_id":76561198194682105,"connected_time":833000000000,"state":"active","ping":62},{"user_id":563,"name":"Fraz #savetf2","steam_id":76561198067764552,"connected_time":1167000000000,"state":"active","ping":61},{"user_id":548,"name":"Suspicious Cabin","steam_id":76561198083261198,"connected_time":2665000000000,"state":"active","ping":54},{"user_id":583,"name":"glyph","steam_id":76561197980736364,"connected_time":61000000000,"state":"active","ping":79},{"user_id":575,"name":"The Sunnyshot","steam_id":76561198086787499,"connected_time":485000000000,"state":"active","ping":60},{"user_id":558,"name":"rmz.ssj","steam_id":76561198329613930,"connected_time":1520000000000,"state":"active","ping":50},{"user_id":552,"name":"Spetse","steam_id":76561197990649972,"connected_time":2501000000000,"state":"active","ping":90},{"user_id":513,"name":"Agard (ated a lot dinner)","steam_id":76561198001688604,"connected_time":4677000000000,"state":"active","ping":66},{"user_id":546,"name":"\"Charles\" + \"Charles\"","steam_id":76561197977122134,"connected_time":2816000000000,"state":"active","ping":62},{"user_id":532,"name":"Laxslow","steam_id":76561198065361846,"connected_time":3135000000000,"state":"active","ping":68},{"user_id":573,"name":"Gen","steam_id":76561198021775885,"connected_time":654000000000,"state":"active","ping":46},{"user_id":582,"name":"ErakTheBrave","steam_id":76561198041198994,"connected_time":211000000000,"state":"active","ping":69},{"user_id":580,"name":"Yangus","steam_id":76561198147796010,"connected_time":286000000000,"state":"active","ping":60},{"user_id":567,"name":"Qyiu","steam_id":76561198003846273,"connected_time":1000000000000,"state":"active","ping":85},{"user_id":515,"name":"Wubero œy","steam_id":76561198066012839,"connected_time":4622000000000,"state":"active","ping":50},{"user_id":570,"name":"Hamst123","steam_id":76561198957312452,"connected_time":875000000000,"state":"active","ping":72},{"user_id":581,"name":"quick scopin cat","steam_id":76561198834897089,"connected_time":282000000000,"state":"active","ping":74},{"user_id":536,"name":"Carol Olston","steam_id":76561198080257273,"connected_time":3093000000000,"state":"active","ping":43}]},{"server_id":21,"name":"Uncletopia | London | 5 | All Maps","name_short":"lon-5","host":"lon-1.uk.uncletopia.com","port":27055,"enabled":true,"region":"eu","cc":"gb","latitude":51.509865,"longitude":-0.118092,"reserved":0,"last_update":"0001-01-01T00:00:00Z","name_a2s":"Uncletopia | London | 5 | All Maps","protocol":17,"map":"cp_dustbowl","folder":"tf","game":"Team Fortress","app_id":440,"player_count":24,"max_players":24,"Bots":0,"server_type":"Dedicated","server_os":"Linux","password":true,"vac":true,"version":"7757534","steam_id":85568392924742829,"keywords":["cp","nocrits","nodmgspread","uncletopia"],"game_id":440,"stv_port":27056,"stv_name":"Uncletopia | London | 5 | All Maps | STV","players":[{"user_id":498,"name":"Myh","steam_id":76561198152265316,"connected_time":1499000000000,"state":"active","ping":45},{"user_id":468,"name":"Popbob (notorious griefer)","steam_id":76561198100730234,"connected_time":4324000000000,"state":"active","ping":75},{"user_id":517,"name":"Wind God Girl","steam_id":76561199435854673,"connected_time":1251000000000,"state":"active","ping":45},{"user_id":499,"name":"2Dguy","steam_id":76561198272319067,"connected_time":1496000000000,"state":"active","ping":85},{"user_id":494,"name":"Accelerated Rat","steam_id":76561198056790920,"connected_time":2241000000000,"state":"active","ping":55},{"user_id":492,"name":"silves","steam_id":76561198106407598,"connected_time":2676000000000,"state":"active","ping":63},{"user_id":528,"name":"walking sentry","steam_id":76561199225363633,"connected_time":537000000000,"state":"active","ping":51},{"user_id":529,"name":"I\u003c3Gridlock","steam_id":76561198094192855,"connected_time":306000000000,"state":"active","ping":62},{"user_id":527,"name":"Jörn","steam_id":76561198242871054,"connected_time":724000000000,"state":"active","ping":83},{"user_id":496,"name":"K.V. #RemoveRandomCrits","steam_id":76561197994832993,"connected_time":1762000000000,"state":"active","ping":77},{"user_id":434,"name":"you crashed my plane","steam_id":76561198049312442,"connected_time":6530000000000,"state":"active","ping":45},{"user_id":519,"name":"FROYO racist","steam_id":76561198179461907,"connected_time":1240000000000,"state":"active","ping":73},{"user_id":488,"name":"Gnarville","steam_id":76561198006373329,"connected_time":3234000000000,"state":"active","ping":50},{"user_id":513,"name":"Circuent","steam_id":76561198107214694,"connected_time":1324000000000,"state":"active","ping":56},{"user_id":491,"name":"bugpov","steam_id":76561198104896547,"connected_time":2758000000000,"state":"active","ping":80},{"user_id":514,"name":"kaelan!","steam_id":76561198001425310,"connected_time":1321000000000,"state":"active","ping":71},{"user_id":441,"name":"aph","steam_id":76561198057722639,"connected_time":6375000000000,"state":"active","ping":75},{"user_id":525,"name":"Drekin","steam_id":76561198193616809,"connected_time":792000000000,"state":"active","ping":53},{"user_id":475,"name":"GROOOAAAaaaWWW","steam_id":76561198253531365,"connected_time":3798000000000,"state":"active","ping":63},{"user_id":474,"name":"Rohnus","steam_id":76561198074049934,"connected_time":3823000000000,"state":"active","ping":63},{"user_id":520,"name":"Djingis Khan","steam_id":76561197967864460,"connected_time":1238000000000,"state":"active","ping":53},{"user_id":526,"name":"JUSTIN BIEBER","steam_id":76561198113616823,"connected_time":786000000000,"state":"active","ping":73},{"user_id":530,"name":"Doughy","steam_id":76561198044084210,"connected_time":69000000000,"state":"active","ping":67},{"user_id":436,"name":"jack healish","steam_id":76561198117247903,"connected_time":6525000000000,"state":"active","ping":45}]},{"server_id":22,"name":"Uncletopia | London | 6 | All Maps","name_short":"lon-6","host":"lon-1.uk.uncletopia.com","port":27065,"enabled":true,"region":"eu","cc":"gb","latitude":51.509865,"longitude":-0.118092,"reserved":0,"last_update":"0001-01-01T00:00:00Z","name_a2s":"Uncletopia | London | 6 | All Maps","protocol":17,"map":"koth_lakeside_final","folder":"tf","game":"Team Fortress","app_id":440,"player_count":0,"max_players":24,"Bots":0,"server_type":"Dedicated","server_os":"Linux","password":true,"vac":true,"version":"7757534","steam_id":85568392924742830,"keywords":["cp","nocrits","nodmgspread","uncletopia"],"game_id":440,"stv_port":27066,"stv_name":"Uncletopia | London | 6 | All Maps | STV","players":null},{"server_id":40,"name":"Uncletopia | London | 7 | No Payload","name_short":"lon-7","host":"lon-1.uk.uncletopia.com","port":27075,"enabled":true,"region":"eu","cc":"gb","latitude":51.509865,"longitude":-0.118092,"reserved":0,"last_update":"0001-01-01T00:00:00Z","name_a2s":"Uncletopia | London | 7 | No Payload","protocol":17,"map":"koth_harvest_final","folder":"tf","game":"Team Fortress","app_id":440,"player_count":2,"max_players":24,"Bots":0,"server_type":"Dedicated","server_os":"Linux","password":true,"vac":true,"version":"7757534","steam_id":85568392924964314,"keywords":["cp","nocrits","nodmgspread","uncletopia"],"game_id":440,"stv_port":27076,"stv_name":"Uncletopia | London | 7 | No Payload | STV","players":[{"user_id":276,"name":"Minimi","steam_id":76561198873850443,"connected_time":2397000000000,"state":"active","ping":40},{"user_id":277,"name":"Pinkchup","steam_id":76561198106802803,"connected_time":2371000000000,"state":"active","ping":78}]},{"server_id":41,"name":"Uncletopia | London | 8 | Community","name_short":"lon-8","host":"lon-1.uk.uncletopia.com","port":27085,"enabled":true,"region":"eu","cc":"gb","latitude":51.509865,"longitude":-0.118092,"reserved":0,"last_update":"0001-01-01T00:00:00Z","name_a2s":"Uncletopia | London | 8 | Community","protocol":17,"map":"workshop/koth_ramjam_rc1.ugc459778887","folder":"tf","game":"Team Fortress","app_id":440,"player_count":0,"max_players":24,"Bots":0,"server_type":"Dedicated","server_os":"Linux","password":true,"vac":true,"version":"7757534","steam_id":85568392924964315,"keywords":["cp","nocrits","nodmgspread","uncletopia"],"game_id":440,"stv_port":27086,"stv_name":"Uncletopia | London | 8 | Community | STV","players":null},{"server_id":300,"name":"Uncletopia | Montréal | 1 | All Maps","name_short":"mtl-1","host":"mtl-1.ca.uncletopia.com","port":27015,"enabled":true,"region":"us-east","cc":"ca","latitude":45.50889,"longitude":-73.56167,"reserved":0,"last_update":"0001-01-01T00:00:00Z","name_a2s":"Uncletopia | Montréal | 1 | All Maps","protocol":17,"map":"koth_viaduct","folder":"tf","game":"Team Fortress","app_id":440,"player_count":0,"max_players":24,"Bots":0,"server_type":"Dedicated","server_os":"Linux","password":true,"vac":true,"version":"7757534","steam_id":85568392924500087,"keywords":["cp","nocrits","nodmgspread","uncletopia"],"game_id":440,"stv_port":27016,"stv_name":"Uncletopia | Montréal | 1 | All Maps | STV","players":null},{"server_id":301,"name":"Uncletopia | Montréal | 2 | All Maps","name_short":"mtl-2","host":"mtl-1.ca.uncletopia.com","port":27025,"enabled":true,"region":"us-east","cc":"ca","latitude":45.50889,"longitude":-73.56167,"reserved":0,"last_update":"0001-01-01T00:00:00Z","name_a2s":"Uncletopia | Montréal | 2 | All Maps","protocol":17,"map":"koth_highpass","folder":"tf","game":"Team Fortress","app_id":440,"player_count":0,"max_players":24,"Bots":0,"server_type":"Dedicated","server_os":"Linux","password":true,"vac":true,"version":"7757534","steam_id":85568392924500088,"keywords":["cp","nocrits","nodmgspread","uncletopia"],"game_id":440,"stv_port":27026,"stv_name":"Uncletopia | Montréal | 2 | All Maps | STV","players":null},{"server_id":302,"name":"Uncletopia | Montréal | 3 | All Maps","name_short":"mtl-3","host":"mtl-1.ca.uncletopia.com","port":27035,"enabled":true,"region":"us-east","cc":"ca","latitude":45.50889,"longitude":-73.56167,"reserved":0,"last_update":"0001-01-01T00:00:00Z","name_a2s":"Uncletopia | Montréal | 3 | All Maps","protocol":17,"map":"pl_swiftwater_final1","folder":"tf","game":"Team Fortress","app_id":440,"player_count":4,"max_players":24,"Bots":0,"server_type":"Dedicated","server_os":"Linux","password":true,"vac":true,"version":"7757534","steam_id":85568392924500089,"keywords":["nocrits","nodmgspread","payload","uncletopia"],"game_id":440,"stv_port":27036,"stv_name":"Uncletopia | Montréal | 3 | All Maps | STV","players":[{"user_id":8,"name":"Po","steam_id":76561198256939202,"connected_time":2818000000000,"state":"active","ping":141},{"user_id":9,"name":"Daft","steam_id":76561198077174609,"connected_time":2704000000000,"state":"active","ping":46},{"user_id":10,"name":"xXx_3m0_Pr1nC3sS_xXx","steam_id":76561198417481800,"connected_time":1817000000000,"state":"active","ping":60},{"user_id":11,"name":"the_Wong","steam_id":76561199435837292,"connected_time":1421000000000,"state":"active","ping":66}]},{"server_id":303,"name":"Uncletopia | Montréal | 4 | No Payload","name_short":"mtl-4","host":"mtl-1.ca.uncletopia.com","port":27045,"enabled":true,"region":"us-east","cc":"ca","latitude":45.50889,"longitude":-73.56167,"reserved":0,"last_update":"0001-01-01T00:00:00Z","name_a2s":"Uncletopia | Montréal | 4 | No Payload","protocol":17,"map":"koth_lakeside_final","folder":"tf","game":"Team Fortress","app_id":440,"player_count":0,"max_players":24,"Bots":0,"server_type":"Dedicated","server_os":"Linux","password":true,"vac":true,"version":"7757534","steam_id":85568392924500090,"keywords":["cp","nocrits","nodmgspread","uncletopia"],"game_id":440,"stv_port":27046,"stv_name":"Uncletopia | Montréal | 4 | No Payload | STV","players":null},{"server_id":13,"name":"Uncletopia | New York City | 1 | All Maps","name_short":"nyc-1","host":"nyc-1.us.uncletopia.com","port":27015,"enabled":true,"region":"us-east","cc":"us","latitude":40.73061,"longitude":-73.93524,"reserved":0,"last_update":"0001-01-01T00:00:00Z","name_a2s":"Uncletopia | New York City | 1 | All Maps","protocol":17,"map":"cp_process_final","folder":"tf","game":"Team Fortress","app_id":440,"player_count":24,"max_players":24,"Bots":0,"server_type":"Dedicated","server_os":"Linux","password":true,"vac":true,"version":"7757534","steam_id":85568392924469993,"keywords":["cp","nocrits","nodmgspread","uncletopia"],"game_id":440,"stv_port":27016,"stv_name":"Uncletopia | New York City | 1 | All Maps | STV","players":[{"user_id":277,"name":"theancientnut","steam_id":76561199396708880,"connected_time":1352000000000,"state":"active","ping":71},{"user_id":299,"name":"Penis but it rhymes with Venice","steam_id":76561197986420836,"connected_time":304000000000,"state":"active","ping":52},{"user_id":301,"name":"with no fear","steam_id":76561198045725613,"connected_time":226000000000,"state":"active","ping":75},{"user_id":302,"name":"Sergeant Joker #savetf2","steam_id":76561198854616604,"connected_time":198000000000,"state":"active","ping":52},{"user_id":286,"name":"Jeremy Donclurbis","steam_id":76561198062964879,"connected_time":901000000000,"state":"active","ping":59},{"user_id":251,"name":"֎ViddeR","steam_id":76561198038403376,"connected_time":2412000000000,"state":"active","ping":71},{"user_id":280,"name":"plaiddd","steam_id":76561198353053169,"connected_time":1157000000000,"state":"active","ping":67},{"user_id":287,"name":"white ray","steam_id":76561198026664629,"connected_time":883000000000,"state":"active","ping":45},{"user_id":282,"name":"TheConchinator","steam_id":76561199388149092,"connected_time":1105000000000,"state":"active","ping":72},{"user_id":295,"name":"Thurricane","steam_id":76561198410724666,"connected_time":642000000000,"state":"active","ping":49},{"user_id":245,"name":"wanwan","steam_id":76561198033351858,"connected_time":2476000000000,"state":"active","ping":57},{"user_id":303,"name":"Michaelpc1","steam_id":76561198088365519,"connected_time":180000000000,"state":"active","ping":68},{"user_id":288,"name":"lil-timmy","steam_id":76561198294307703,"connected_time":873000000000,"state":"active","ping":76},{"user_id":293,"name":"gremlin (real)","steam_id":76561199062414681,"connected_time":791000000000,"state":"active","ping":87},{"user_id":235,"name":"Moody","steam_id":76561199013442105,"connected_time":3555000000000,"state":"active","ping":43},{"user_id":253,"name":"David Debergerack","steam_id":76561198067067348,"connected_time":2334000000000,"state":"active","ping":84},{"user_id":304,"name":"The Hoagie Hero","steam_id":76561198057569298,"connected_time":173000000000,"state":"active","ping":79},{"user_id":305,"name":"crippling fumo addiction","steam_id":76561198115874625,"connected_time":162000000000,"state":"active","ping":51},{"user_id":290,"name":"SENTIENT_DEHUMIDIFIER","steam_id":76561198041017977,"connected_time":859000000000,"state":"active","ping":90},{"user_id":229,"name":"Mr.ToasterOven","steam_id":76561199120586450,"connected_time":3827000000000,"state":"active","ping":71},{"user_id":297,"name":"Insidiousy #ShaveTF2","steam_id":76561199018015150,"connected_time":392000000000,"state":"active","ping":86},{"user_id":292,"name":"MLG BOOTMAN","steam_id":76561198234179320,"connected_time":836000000000,"state":"active","ping":83},{"user_id":256,"name":"Potato_Patrick","steam_id":76561198126408165,"connected_time":2250000000000,"state":"active","ping":70},{"user_id":294,"name":"Rock Kickass","steam_id":76561198450510841,"connected_time":774000000000,"state":"active","ping":127}]},{"server_id":14,"name":"Uncletopia | New York City | 2 | All Maps","name_short":"nyc-2","host":"nyc-1.us.uncletopia.com","port":27025,"enabled":true,"region":"us-east","cc":"us","latitude":40.73061,"longitude":-73.93524,"reserved":0,"last_update":"0001-01-01T00:00:00Z","name_a2s":"Uncletopia | New York City | 2 | All Maps","protocol":17,"map":"pl_borneo","folder":"tf","game":"Team Fortress","app_id":440,"player_count":23,"max_players":24,"Bots":0,"server_type":"Dedicated","server_os":"Linux","password":true,"vac":true,"version":"7757534","steam_id":85568392924469994,"keywords":["nocrits","nodmgspread","payload","uncletopia"],"game_id":440,"stv_port":27026,"stv_name":"Uncletopia | New York City | 2 | All Maps | STV","players":[{"user_id":663,"name":"walrus","steam_id":76561198057853319,"connected_time":390000000000,"state":"active","ping":54},{"user_id":664,"name":"ansoonii","steam_id":76561198092494136,"connected_time":387000000000,"state":"active","ping":75},{"user_id":660,"name":"the real babytron","steam_id":76561197989627918,"connected_time":741000000000,"state":"active","ping":72},{"user_id":645,"name":"Bulk","steam_id":76561199009814535,"connected_time":1622000000000,"state":"active","ping":45},{"user_id":644,"name":"LiamQuantum","steam_id":76561198801785638,"connected_time":1667000000000,"state":"active","ping":59},{"user_id":646,"name":"Matt","steam_id":76561198008108521,"connected_time":1606000000000,"state":"active","ping":60},{"user_id":647,"name":"Kevin McCarthy","steam_id":76561198014574925,"connected_time":1591000000000,"state":"active","ping":73},{"user_id":665,"name":"Toaster889","steam_id":76561199020601573,"connected_time":384000000000,"state":"active","ping":88},{"user_id":661,"name":"♥Phocae♥ (She/Her)","steam_id":76561199317584594,"connected_time":727000000000,"state":"active","ping":67},{"user_id":656,"name":"stakehater11","steam_id":76561198079501615,"connected_time":1366000000000,"state":"active","ping":80},{"user_id":639,"name":"CashPrizes","steam_id":76561198004780367,"connected_time":1999000000000,"state":"active","ping":62},{"user_id":666,"name":"MasterDoge17","steam_id":76561198917443549,"connected_time":380000000000,"state":"active","ping":48},{"user_id":671,"name":"TheJuiceCrew","steam_id":76561198109073254,"connected_time":163000000000,"state":"active","ping":69},{"user_id":635,"name":"thomasdee725","steam_id":76561199189526173,"connected_time":2364000000000,"state":"active","ping":76},{"user_id":667,"name":"Snonepe","steam_id":76561197985776620,"connected_time":368000000000,"state":"active","ping":71},{"user_id":638,"name":"jUHten","steam_id":76561198158526402,"connected_time":2081000000000,"state":"active","ping":56},{"user_id":668,"name":"Dark_Wolf","steam_id":76561199192914992,"connected_time":348000000000,"state":"active","ping":111},{"user_id":594,"name":"Snorty","steam_id":76561198114304454,"connected_time":5573000000000,"state":"active","ping":76},{"user_id":653,"name":"FUSION","steam_id":76561197972659738,"connected_time":1535000000000,"state":"active","ping":39},{"user_id":669,"name":"Pauwfs","steam_id":76561198067946226,"connected_time":329000000000,"state":"active","ping":128},{"user_id":659,"name":"weed dragon of rad","steam_id":76561198064342804,"connected_time":805000000000,"state":"active","ping":156},{"user_id":598,"name":"titular tube","steam_id":76561198057374871,"connected_time":5533000000000,"state":"active","ping":77},{"user_id":655,"name":"Lunchboxx","steam_id":76561198079735916,"connected_time":1509000000000,"state":"active","ping":76}]},{"server_id":15,"name":"Uncletopia | New York City | 3 | Stopwatch Beta","name_short":"nyc-3","host":"nyc-1.us.uncletopia.com","port":27035,"enabled":true,"region":"us-east","cc":"us","latitude":40.73061,"longitude":-73.93524,"reserved":0,"last_update":"0001-01-01T00:00:00Z","name_a2s":"Uncletopia | New York City | 3 | Stopwatch Beta","protocol":17,"map":"workshop/pl_barnblitz_pro7.ugc582280235","folder":"tf","game":"Team Fortress","app_id":440,"player_count":0,"max_players":24,"Bots":0,"server_type":"Dedicated","server_os":"Linux","password":true,"vac":true,"version":"7757534","steam_id":85568392924742820,"keywords":["nocrits","nodmgspread","payload","uncletopia"],"game_id":440,"stv_port":27036,"stv_name":"Uncletopia | New York City | 3 | Stopwatch Beta | STV","players":null},{"server_id":16,"name":"Uncletopia | New York City | 4 | Community","name_short":"nyc-4","host":"nyc-1.us.uncletopia.com","port":27045,"enabled":true,"region":"us-east","cc":"us","latitude":40.73061,"longitude":-73.93524,"reserved":0,"last_update":"0001-01-01T00:00:00Z","name_a2s":"Uncletopia | New York City | 4 | Community","protocol":17,"map":"workshop/koth_bagel_rc5.ugc2514036946","folder":"tf","game":"Team Fortress","app_id":440,"player_count":24,"max_players":24,"Bots":0,"server_type":"Dedicated","server_os":"Linux","password":true,"vac":true,"version":"7757534","steam_id":85568392924742821,"keywords":["cp","nocrits","nodmgspread","uncletopia"],"game_id":440,"stv_port":27046,"stv_name":"Uncletopia | New York City | 4 | Community | STV","players":[{"user_id":316,"name":"Buff McMann","steam_id":76561198050196317,"connected_time":2600000000000,"state":"active","ping":60},{"user_id":355,"name":"[TF2Apples] Intense Green Apple","steam_id":76561198803561622,"connected_time":318000000000,"state":"active","ping":75},{"user_id":328,"name":"Notation","steam_id":76561198119509319,"connected_time":2016000000000,"state":"active","ping":79},{"user_id":334,"name":"Kanye is my Biggest Fan","steam_id":76561198162363747,"connected_time":1857000000000,"state":"active","ping":57},{"user_id":343,"name":"lamp","steam_id":76561198079879544,"connected_time":1518000000000,"state":"active","ping":121},{"user_id":323,"name":"RoRoni","steam_id":76561198856556683,"connected_time":2166000000000,"state":"active","ping":67},{"user_id":345,"name":"pelicAn","steam_id":76561197963422599,"connected_time":1280000000000,"state":"active","ping":46},{"user_id":351,"name":"xeeyuh","steam_id":76561198822313775,"connected_time":923000000000,"state":"active","ping":106},{"user_id":344,"name":"sevanial","steam_id":76561198071532126,"connected_time":1507000000000,"state":"active","ping":95},{"user_id":319,"name":"GardinElla","steam_id":76561198123262799,"connected_time":2446000000000,"state":"active","ping":144},{"user_id":354,"name":"Chemo","steam_id":76561197961308370,"connected_time":388000000000,"state":"active","ping":55},{"user_id":312,"name":"Bweef","steam_id":76561198069819927,"connected_time":2629000000000,"state":"active","ping":125},{"user_id":338,"name":"Ben","steam_id":76561198129254533,"connected_time":1760000000000,"state":"active","ping":99},{"user_id":356,"name":"Funny Skeleton Man","steam_id":76561198264262564,"connected_time":284000000000,"state":"active","ping":72},{"user_id":357,"name":"Fb// Sue Sakamoto","steam_id":76561199212567431,"connected_time":260000000000,"state":"active","ping":91},{"user_id":314,"name":"Samoclese","steam_id":76561198055515027,"connected_time":2616000000000,"state":"active","ping":148},{"user_id":353,"name":"WastefulTrash","steam_id":76561198119003597,"connected_time":857000000000,"state":"active","ping":85},{"user_id":320,"name":"Astrozombeez","steam_id":76561198113754079,"connected_time":2356000000000,"state":"active","ping":84},{"user_id":347,"name":"b4rry","steam_id":76561198365887154,"connected_time":1238000000000,"state":"active","ping":57},{"user_id":339,"name":"MelonLikeAFelon","steam_id":76561198060170336,"connected_time":1759000000000,"state":"active","ping":84},{"user_id":348,"name":"gamer dilbert","steam_id":76561197984752473,"connected_time":1201000000000,"state":"active","ping":44},{"user_id":335,"name":"Joe","steam_id":76561198284468330,"connected_time":1844000000000,"state":"active","ping":97},{"user_id":349,"name":"Mr. Morrow","steam_id":76561198011333701,"connected_time":1191000000000,"state":"active","ping":116},{"user_id":350,"name":"you forgot the sauce","steam_id":76561198387016713,"connected_time":1152000000000,"state":"active","ping":58}]},{"server_id":142,"name":"Uncletopia | São Paulo | 1 | All Maps","name_short":"sao-1","host":"sao-1.br.uncletopia.com","port":27015,"enabled":true,"region":"sa","cc":"br","latitude":-23.533773,"longitude":-46.62529,"reserved":0,"last_update":"0001-01-01T00:00:00Z","name_a2s":"Uncletopia | São Paulo | 1 | All Maps","protocol":17,"map":"koth_lakeside_final","folder":"tf","game":"Team Fortress","app_id":440,"player_count":0,"max_players":24,"Bots":0,"server_type":"Dedicated","server_os":"Linux","password":true,"vac":true,"version":"7757534","steam_id":85568392924469996,"keywords":["cp","nocrits","nodmgspread","uncletopia"],"game_id":440,"stv_port":27016,"stv_name":"Uncletopia | São Paulo | 1 | All Maps | STV","players":null},{"server_id":143,"name":"Uncletopia | São Paulo | 2 | All Maps","name_short":"sao-2","host":"sao-2.br.uncletopia.com","port":27015,"enabled":true,"region":"sa","cc":"br","latitude":-23.533773,"longitude":-46.62529,"reserved":0,"last_update":"0001-01-01T00:00:00Z","name_a2s":"Uncletopia | São Paulo | 2 | All Maps","protocol":17,"map":"cp_process_final","folder":"tf","game":"Team Fortress","app_id":440,"player_count":3,"max_players":24,"Bots":0,"server_type":"Dedicated","server_os":"Linux","password":true,"vac":true,"version":"7757534","steam_id":85568392924485349,"keywords":["cp","nocrits","nodmgspread","uncletopia"],"game_id":440,"stv_port":27016,"stv_name":"Uncletopia | São Paulo | 2 | All Maps | STV","players":[{"user_id":234,"name":"Vi-create","steam_id":76561198277032656,"connected_time":285000000000,"state":"active","ping":53},{"user_id":229,"name":"Captain Dane","steam_id":76561199273735517,"connected_time":655000000000,"state":"active","ping":48},{"user_id":232,"name":"DaviMiguel","steam_id":76561198261309073,"connected_time":457000000000,"state":"active","ping":75}]},{"server_id":7,"name":"Uncletopia | Seattle | 1 | All Maps","name_short":"sea-1","host":"sea-1.us.uncletopia.com","port":27015,"enabled":true,"region":"us-west","cc":"us","latitude":47.608013,"longitude":-122.33517,"reserved":0,"last_update":"0001-01-01T00:00:00Z","name_a2s":"Uncletopia | Seattle | 1 | All Maps","protocol":17,"map":"pl_frontier_final","folder":"tf","game":"Team Fortress","app_id":440,"player_count":24,"max_players":24,"Bots":0,"server_type":"Dedicated","server_os":"Linux","password":true,"vac":true,"version":"7757534","steam_id":85568392924469997,"keywords":["nocrits","nodmgspread","payload","uncletopia"],"game_id":440,"stv_port":27016,"stv_name":"Uncletopia | Seattle | 1 | All Maps | STV","players":[{"user_id":383,"name":"you look like how my ex smelled","steam_id":76561198986534519,"connected_time":3407000000000,"state":"active","ping":48},{"user_id":416,"name":"❤ Ashley ❤","steam_id":76561198056428303,"connected_time":686000000000,"state":"active","ping":69},{"user_id":420,"name":"i hate video games","steam_id":76561198143030852,"connected_time":211000000000,"state":"active","ping":58},{"user_id":398,"name":"trackpad gaming | f2p","steam_id":76561198840414371,"connected_time":2023000000000,"state":"active","ping":46},{"user_id":399,"name":"KingTinkerer","steam_id":76561198226856548,"connected_time":2006000000000,"state":"active","ping":71},{"user_id":404,"name":"Hassium","steam_id":76561198162541373,"connected_time":1507000000000,"state":"active","ping":58},{"user_id":421,"name":"ice cream (冰淇淋)","steam_id":76561198976530881,"connected_time":0,"state":"spawning","ping":19},{"user_id":407,"name":"Bendidy","steam_id":76561198041964300,"connected_time":1188000000000,"state":"active","ping":71},{"user_id":413,"name":"resting neutral face","steam_id":76561197999259502,"connected_time":801000000000,"state":"active","ping":60},{"user_id":402,"name":"Mouth Tea","steam_id":76561198285054047,"connected_time":1773000000000,"state":"active","ping":77},{"user_id":339,"name":"Optimore","steam_id":76561198047662990,"connected_time":6758000000000,"state":"active","ping":76},{"user_id":394,"name":"giant_dork","steam_id":76561199105606956,"connected_time":2362000000000,"state":"active","ping":120},{"user_id":411,"name":"Peppy","steam_id":76561198866629645,"connected_time":826000000000,"state":"active","ping":105},{"user_id":412,"name":"LARGE","steam_id":76561198124583948,"connected_time":807000000000,"state":"active","ping":133},{"user_id":418,"name":"Snoogs","steam_id":76561198444880931,"connected_time":430000000000,"state":"active","ping":133},{"user_id":331,"name":"Ullapool Caber","steam_id":76561198349311667,"connected_time":7323000000000,"state":"active","ping":92},{"user_id":386,"name":"Pyrotek⁴","steam_id":76561198072747672,"connected_time":3372000000000,"state":"active","ping":71},{"user_id":405,"name":"Big ol' Willy Gaming","steam_id":76561198048545731,"connected_time":1455000000000,"state":"active","ping":82},{"user_id":397,"name":"Local","steam_id":76561198170915102,"connected_time":2167000000000,"state":"active","ping":50},{"user_id":388,"name":"discord kitten","steam_id":76561198210322871,"connected_time":3353000000000,"state":"active","ping":77},{"user_id":408,"name":"Qas","steam_id":76561198067564482,"connected_time":990000000000,"state":"active","ping":112},{"user_id":377,"name":"shane","steam_id":76561198060491451,"connected_time":3796000000000,"state":"active","ping":73},{"user_id":417,"name":"Hurtgeta","steam_id":76561198208381812,"connected_time":579000000000,"state":"active","ping":47},{"user_id":415,"name":"Squid121","steam_id":76561198038832034,"connected_time":771000000000,"state":"active","ping":49}]},{"server_id":119,"name":"Uncletopia | Seattle | 2 | All Maps","name_short":"sea-2","host":"sea-1.us.uncletopia.com","port":27025,"enabled":true,"region":"us-west","cc":"us","latitude":47.608013,"longitude":-122.33517,"reserved":0,"last_update":"0001-01-01T00:00:00Z","name_a2s":"Uncletopia | Seattle | 2 | All Maps","protocol":17,"map":"cp_sunshine","folder":"tf","game":"Team Fortress","app_id":440,"player_count":24,"max_players":24,"Bots":0,"server_type":"Dedicated","server_os":"Linux","password":true,"vac":true,"version":"7757534","steam_id":85568392924469998,"keywords":["cp","nocrits","nodmgspread","uncletopia"],"game_id":440,"stv_port":27026,"stv_name":"Uncletopia | Seattle | 2 | All Maps | STV","players":[{"user_id":245,"name":"Dauntless Duelist","steam_id":76561198025056018,"connected_time":2550000000000,"state":"active","ping":53},{"user_id":219,"name":"EEBIGAA","steam_id":76561198056535988,"connected_time":4816000000000,"state":"active","ping":71},{"user_id":272,"name":"Whapper","steam_id":76561198044029606,"connected_time":530000000000,"state":"active","ping":76},{"user_id":262,"name":"Morse","steam_id":76561198039944542,"connected_time":1386000000000,"state":"active","ping":49},{"user_id":270,"name":"young thug weaponry","steam_id":76561198363821364,"connected_time":728000000000,"state":"active","ping":60},{"user_id":269,"name":"󠀡󠀡","steam_id":76561198202704364,"connected_time":780000000000,"state":"active","ping":80},{"user_id":163,"name":"Themasterman75","steam_id":76561199385573293,"connected_time":7920000000000,"state":"active","ping":72},{"user_id":274,"name":"skaj","steam_id":76561198082278586,"connected_time":184000000000,"state":"active","ping":134},{"user_id":250,"name":"sara","steam_id":76561198283462369,"connected_time":1970000000000,"state":"active","ping":74},{"user_id":275,"name":"Hakuyer","steam_id":76561198098618247,"connected_time":58000000000,"state":"active","ping":48},{"user_id":225,"name":"Battle Pope","steam_id":76561198059627663,"connected_time":3857000000000,"state":"active","ping":77},{"user_id":179,"name":"The Pepsi® Superbowl®!","steam_id":76561198080828981,"connected_time":7259000000000,"state":"active","ping":74},{"user_id":258,"name":"Amogous Supreme","steam_id":76561198025476774,"connected_time":1445000000000,"state":"active","ping":79},{"user_id":271,"name":"smeasly","steam_id":76561198028718812,"connected_time":618000000000,"state":"active","ping":41},{"user_id":221,"name":"Thordude","steam_id":76561199087162916,"connected_time":4519000000000,"state":"active","ping":57},{"user_id":251,"name":"Sir Severus","steam_id":76561198061295188,"connected_time":1964000000000,"state":"active","ping":53},{"user_id":253,"name":"Drive-By-Fish-Guy","steam_id":76561198105513652,"connected_time":1594000000000,"state":"active","ping":93},{"user_id":240,"name":"SanitysEdge","steam_id":76561198130732813,"connected_time":3099000000000,"state":"active","ping":75},{"user_id":254,"name":"ZRMicrowave","steam_id":76561198288574525,"connected_time":1590000000000,"state":"active","ping":111},{"user_id":265,"name":"Kol","steam_id":76561198123204944,"connected_time":1194000000000,"state":"active","ping":83},{"user_id":244,"name":"dougrocks421","steam_id":76561198165063918,"connected_time":2689000000000,"state":"active","ping":38},{"user_id":259,"name":"Sticky","steam_id":76561198031581547,"connected_time":1437000000000,"state":"active","ping":75},{"user_id":248,"name":"Satori Komeiji","steam_id":76561198158211423,"connected_time":2422000000000,"state":"active","ping":72},{"user_id":216,"name":"well i'll be","steam_id":76561198272092906,"connected_time":5059000000000,"state":"active","ping":91}]},{"server_id":406,"name":"Uncletopia | Seattle | 3 | Stopwatch Beta","name_short":"sea-3","host":"sea-1.us.uncletopia.com","port":27035,"enabled":true,"region":"us-west","cc":"us","latitude":47.608013,"longitude":-122.33517,"reserved":0,"last_update":"0001-01-01T00:00:00Z","name_a2s":"Uncletopia | Seattle | 3 | Stopwatch Beta","protocol":17,"map":"pl_swiftwater_final1","folder":"tf","game":"Team Fortress","app_id":440,"player_count":0,"max_players":24,"Bots":0,"server_type":"Dedicated","server_os":"Linux","password":true,"vac":true,"version":"7757534","steam_id":85568392924515217,"keywords":["nocrits","nodmgspread","payload","uncletopia"],"game_id":440,"stv_port":27036,"stv_name":"Uncletopia | Seattle | 3 | Stopwatch Beta | STV","players":null},{"server_id":17,"name":"Uncletopia | San Francisco | 1 | All Maps","name_short":"sfo-1","host":"sfo-1.us.uncletopia.com","port":27015,"enabled":true,"region":"us-west","cc":"us","latitude":37.77397,"longitude":-122.4313,"reserved":0,"last_update":"0001-01-01T00:00:00Z","name_a2s":"Uncletopia | San Francisco | 1 | All Maps","protocol":17,"map":"cp_sunshine","folder":"tf","game":"Team Fortress","app_id":440,"player_count":2,"max_players":24,"Bots":0,"server_type":"Dedicated","server_os":"Linux","password":true,"vac":true,"version":"7757534","steam_id":85568392924469999,"keywords":["cp","nocrits","nodmgspread","uncletopia"],"game_id":440,"stv_port":27016,"stv_name":"Uncletopia | San Francisco | 1 | All Maps | STV","players":[{"user_id":14,"name":"mge_me","steam_id":76561199194587482,"connected_time":61000000000,"state":"active","ping":136},{"user_id":15,"name":":)","steam_id":76561198103947893,"connected_time":58000000000,"state":"active","ping":46}]},{"server_id":18,"name":"Uncletopia | San Francisco | 2 | All Maps","name_short":"sfo-2","host":"sfo-1.us.uncletopia.com","port":27025,"enabled":true,"region":"us-west","cc":"us","latitude":37.77397,"longitude":-122.4313,"reserved":0,"last_update":"0001-01-01T00:00:00Z","name_a2s":"Uncletopia | San Francisco | 2 | All Maps","protocol":17,"map":"cp_mountainlab","folder":"tf","game":"Team Fortress","app_id":440,"player_count":0,"max_players":24,"Bots":0,"server_type":"Dedicated","server_os":"Linux","password":true,"vac":true,"version":"7757534","steam_id":85568392924470000,"keywords":["cp","nocrits","nodmgspread","uncletopia"],"game_id":440,"stv_port":27026,"stv_name":"Uncletopia | San Francisco | 2 | All Maps | STV","players":null},{"server_id":19,"name":"Uncletopia | San Francisco | 3 | Stopwatch Beta","name_short":"sfo-3","host":"sfo-1.us.uncletopia.com","port":27035,"enabled":true,"region":"us-west","cc":"us","latitude":37.77397,"longitude":-122.4313,"reserved":0,"last_update":"0001-01-01T00:00:00Z","name_a2s":"Uncletopia | San Francisco | 3 | Stopwatch Beta","protocol":17,"map":"koth_viaduct","folder":"tf","game":"Team Fortress","app_id":440,"player_count":0,"max_players":24,"Bots":0,"server_type":"Dedicated","server_os":"Linux","password":true,"vac":true,"version":"7757534","steam_id":85568392924742824,"keywords":["cp","nocrits","nodmgspread","uncletopia"],"game_id":440,"stv_port":27036,"stv_name":"Uncletopia | San Francisco | 3 | Stopwatch Beta | STV","players":null},{"server_id":20,"name":"Uncletopia | San Francisco | 4 | Community","name_short":"sfo-4","host":"sfo-1.us.uncletopia.com","port":27045,"enabled":true,"region":"us-west","cc":"us","latitude":37.77397,"longitude":-122.4313,"reserved":0,"last_update":"0001-01-01T00:00:00Z","name_a2s":"Uncletopia | San Francisco | 4 | Community","protocol":17,"map":"pl_borneo","folder":"tf","game":"Team Fortress","app_id":440,"player_count":0,"max_players":24,"Bots":0,"server_type":"Dedicated","server_os":"Linux","password":true,"vac":true,"version":"7757534","steam_id":85568392924742826,"keywords":["nocrits","nodmgspread","payload","uncletopia"],"game_id":440,"stv_port":27046,"stv_name":"Uncletopia | San Francisco | 4 | Community | STV","players":null},{"server_id":141,"name":"Uncletopia | Sydney | 1 | All Maps","name_short":"syd-1","host":"syd-1.au.uncletopia.com","port":27015,"enabled":true,"region":"au","cc":"au","latitude":-33.865143,"longitude":151.2099,"reserved":0,"last_update":"0001-01-01T00:00:00Z","name_a2s":"Uncletopia | Sydney | 1 | All Maps","protocol":17,"map":"koth_lakeside_final","folder":"tf","game":"Team Fortress","app_id":440,"player_count":0,"max_players":24,"Bots":0,"server_type":"Dedicated","server_os":"Linux","password":true,"vac":true,"version":"7757534","steam_id":85568392924470001,"keywords":["cp","nocrits","nodmgspread","uncletopia"],"game_id":440,"stv_port":27016,"stv_name":"Uncletopia | Sydney | 1 | All Maps | STV","players":null},{"server_id":123,"name":"Uncletopia | Sydney | 2 | All Maps","name_short":"syd-2","host":"syd-1.au.uncletopia.com","port":27025,"enabled":true,"region":"au","cc":"au","latitude":-33.865143,"longitude":151.2099,"reserved":0,"last_update":"0001-01-01T00:00:00Z","name_a2s":"Uncletopia | Sydney | 2 | All Maps","protocol":17,"map":"koth_viaduct","folder":"tf","game":"Team Fortress","app_id":440,"player_count":0,"max_players":24,"Bots":0,"server_type":"Dedicated","server_os":"Linux","password":true,"vac":true,"version":"7757534","steam_id":85568392924470002,"keywords":["cp","nocrits","nodmgspread","uncletopia"],"game_id":440,"stv_port":27026,"stv_name":"Uncletopia | Sydney | 2 | All Maps | STV","players":null},{"server_id":395,"name":"Uncletopia | Sydney | 3 | All Maps","name_short":"syd-3","host":"syd-1.au.uncletopia.com","port":27035,"enabled":true,"region":"au","cc":"au","latitude":-33.865143,"longitude":151.2099,"reserved":0,"last_update":"0001-01-01T00:00:00Z","name_a2s":"Uncletopia | Sydney | 3 | All Maps","protocol":17,"map":"cp_dustbowl","folder":"tf","game":"Team Fortress","app_id":440,"player_count":0,"max_players":24,"Bots":0,"server_type":"Dedicated","server_os":"Linux","password":true,"vac":true,"version":"7757534","steam_id":85568392925194467,"keywords":["cp","nocrits","nodmgspread","uncletopia"],"game_id":440,"stv_port":27036,"stv_name":"Uncletopia | Sydney | 3 | All Maps | STV","players":null},{"server_id":396,"name":"Uncletopia | Sydney | 4 | All Maps","name_short":"syd-4","host":"syd-1.au.uncletopia.com","port":27045,"enabled":true,"region":"au","cc":"au","latitude":-33.865143,"longitude":151.2099,"reserved":0,"last_update":"0001-01-01T00:00:00Z","name_a2s":"Uncletopia | Sydney | 4 | All Maps","protocol":17,"map":"cp_snakewater_final1","folder":"tf","game":"Team Fortress","app_id":440,"player_count":0,"max_players":24,"Bots":0,"server_type":"Dedicated","server_os":"Linux","password":true,"vac":true,"version":"7757534","steam_id":85568392925397958,"keywords":["cp","nocrits","nodmgspread","uncletopia"],"game_id":440,"stv_port":27046,"stv_name":"Uncletopia | Sydney | 4 | All Maps | STV","players":null},{"server_id":58,"name":"Uncletopia | Sydney | 5 | Stopwatch Beta","name_short":"syd-5","host":"syd-1.au.uncletopia.com","port":27055,"enabled":true,"region":"au","cc":"au","latitude":-33.865143,"longitude":151.2099,"reserved":0,"last_update":"0001-01-01T00:00:00Z","name_a2s":"Uncletopia | Sydney | 5 | Stopwatch Beta","protocol":17,"map":"pl_barnblitz","folder":"tf","game":"Team Fortress","app_id":440,"player_count":0,"max_players":24,"Bots":0,"server_type":"Dedicated","server_os":"Linux","password":true,"vac":true,"version":"7757534","steam_id":85568392925397959,"keywords":["nocrits","nodmgspread","payload","uncletopia"],"game_id":440,"stv_port":27056,"stv_name":"Uncletopia | Sydney | 5 | Stopwatch Beta | STV","players":null},{"server_id":59,"name":"Uncletopia | Sydney | 6 | Community","name_short":"syd-6","host":"syd-1.au.uncletopia.com","port":27065,"enabled":true,"region":"au","cc":"au","latitude":-33.865143,"longitude":151.2099,"reserved":0,"last_update":"0001-01-01T00:00:00Z","name_a2s":"Uncletopia | Sydney | 6 | Community","protocol":17,"map":"workshop/cp_caldera_rc2.ugc2834196889","folder":"tf","game":"Team Fortress","app_id":440,"player_count":0,"max_players":24,"Bots":0,"server_type":"Dedicated","server_os":"Linux","password":true,"vac":true,"version":"7757534","steam_id":85568392925397960,"keywords":["cp","nocrits","nodmgspread","uncletopia"],"game_id":440,"stv_port":27066,"stv_name":"Uncletopia | Sydney | 6 | Community | STV","players":null},{"server_id":49,"name":"Uncletopia | Warsaw | 1 | All Maps","name_short":"waw-1","host":"waw-1.pl.uncletopia.com","port":27015,"enabled":true,"region":"eu","cc":"pl","latitude":52.2297,"longitude":21.017532,"reserved":0,"last_update":"0001-01-01T00:00:00Z","name_a2s":"","protocol":0,"map":"","folder":"","game":"","app_id":0,"player_count":0,"max_players":0,"Bots":0,"server_type":"","server_os":"","password":false,"vac":false,"version":"","steam_id":0,"keywords":null,"game_id":0,"stv_port":0,"stv_name":"","players":null},{"server_id":50,"name":"Uncletopia | Warsaw | 2 | All Maps","name_short":"waw-2","host":"waw-1.pl.uncletopia.com","port":27025,"enabled":true,"region":"eu","cc":"pl","latitude":52.2297,"longitude":21.017532,"reserved":0,"last_update":"0001-01-01T00:00:00Z","name_a2s":"Uncletopia | Warsaw | 2 | All Maps","protocol":17,"map":"pl_frontier_final","folder":"tf","game":"Team Fortress","app_id":440,"player_count":0,"max_players":24,"Bots":0,"server_type":"Dedicated","server_os":"Linux","password":true,"vac":true,"version":"7757534","steam_id":85568392925397851,"keywords":["nocrits","nodmgspread","payload","uncletopia"],"game_id":440,"stv_port":27026,"stv_name":"Uncletopia | Warsaw | 2 | All Maps | STV","players":null},{"server_id":51,"name":"Uncletopia | Warsaw | 3 | All Maps","name_short":"waw-3","host":"waw-1.pl.uncletopia.com","port":27035,"enabled":true,"region":"eu","cc":"pl","latitude":52.2297,"longitude":21.017532,"reserved":0,"last_update":"0001-01-01T00:00:00Z","name_a2s":"Uncletopia | Warsaw | 3 | All Maps","protocol":17,"map":"koth_suijin","folder":"tf","game":"Team Fortress","app_id":440,"player_count":0,"max_players":24,"Bots":0,"server_type":"Dedicated","server_os":"Linux","password":true,"vac":true,"version":"7757534","steam_id":85568392925397852,"keywords":["cp","nocrits","nodmgspread","uncletopia"],"game_id":440,"stv_port":27036,"stv_name":"Uncletopia | Warsaw | 3 | All Maps | STV","players":null},{"server_id":52,"name":"Uncletopia | Warsaw | 4 | All Maps","name_short":"waw-4","host":"waw-1.pl.uncletopia.com","port":27045,"enabled":true,"region":"eu","cc":"pl","latitude":52.2297,"longitude":21.017532,"reserved":0,"last_update":"0001-01-01T00:00:00Z","name_a2s":"Uncletopia | Warsaw | 4 | All Maps","protocol":17,"map":"pl_swiftwater_final1","folder":"tf","game":"Team Fortress","app_id":440,"player_count":0,"max_players":24,"Bots":0,"server_type":"Dedicated","server_os":"Linux","password":true,"vac":true,"version":"7757534","steam_id":85568392925397853,"keywords":["nocrits","nodmgspread","payload","uncletopia"],"game_id":440,"stv_port":27046,"stv_name":"Uncletopia | Warsaw | 4 | All Maps | STV","players":null},{"server_id":53,"name":"Uncletopia | Warsaw | 5 | Stopwatch Beta","name_short":"waw-5","host":"waw-1.pl.uncletopia.com","port":27055,"enabled":true,"region":"eu","cc":"pl","latitude":52.2297,"longitude":21.017532,"reserved":0,"last_update":"0001-01-01T00:00:00Z","name_a2s":"Uncletopia | Warsaw | 5 | Stopwatch Beta","protocol":17,"map":"workshop/koth_product_final.ugc454272353","folder":"tf","game":"Team Fortress","app_id":440,"player_count":0,"max_players":24,"Bots":0,"server_type":"Dedicated","server_os":"Linux","password":true,"vac":true,"version":"7757534","steam_id":85568392925397854,"keywords":["cp","nocrits","nodmgspread","uncletopia"],"game_id":440,"stv_port":27056,"stv_name":"Uncletopia | Warsaw | 5 | Stopwatch Beta | STV","players":null},{"server_id":54,"name":"Uncletopia | Warsaw | 6 | Community","name_short":"waw-6","host":"waw-1.pl.uncletopia.com","port":27065,"enabled":true,"region":"eu","cc":"pl","latitude":52.2297,"longitude":21.017532,"reserved":0,"last_update":"0001-01-01T00:00:00Z","name_a2s":"Uncletopia | Warsaw | 6 | Community","protocol":17,"map":"workshop/cp_villa_b19.ugc2113052569","folder":"tf","game":"Team Fortress","app_id":440,"player_count":0,"max_players":24,"Bots":0,"server_type":"Dedicated","server_os":"Linux","password":true,"vac":true,"version":"7757534","steam_id":85568392925397856,"keywords":["cp","nocrits","nodmgspread","uncletopia"],"game_id":440,"stv_port":27066,"stv_name":"Uncletopia | Warsaw | 6 | Community | STV","players":null}]}