{"status":true,"message":"","result":[{"server_id":9,"name":"Uncletopia | Atlanta | 1 | All Maps","name_short":"atl-1","host":"atl-1.us.uncletopia.com","port":27015,"enabled":true,"region":"us-east","cc":"us","latitude":33.753746,"longitude":-84.38633,"reserved":0,"last_update":"0001-01-01T00:00:00Z","name_a2s":"Uncletopia | Atlanta | 1 | All Maps","protocol":17,"map":"cp_snakewater_final1","folder":"tf","game":"Team Fortress","app_id":440,"player_count":12,"max_players":24,"Bots":0,"server_type":"Dedicated","server_os":"Linux","password":true,"vac":true,"version":"7708610","steam_id":85568392924469982,"keywords":["cp","nocrits","nodmgspread","uncletopia"],"game_id":440,"stv_port":27016,"stv_name":"Uncletopia | Atlanta | 1 | All Maps | STV","players":[{"user_id":42,"name":"Kine²","steam_id":76561198061505962,"connected_time":1821000000000,"state":"active","ping":45},{"user_id":43,"name":"Quiggles","steam_id":76561199177247655,"connected_time":1794000000000,"state":"active","ping":57},{"user_id":44,"name":"tf2 fire extengiusher hater","steam_id":76561199091978264,"connected_time":1076000000000,"state":"active","ping":80},{"user_id":49,"name":"quackz","steam_id":76561199256981432,"connected_time":657000000000,"state":"active","ping":112},{"user_id":52,"name":"ATL1 | a very merry ma0re","steam_id":76561199231971506,"connected_time":264000000000,"state":"active","ping":62},{"user_id":48,"name":"Chosen_Undeadd","steam_id":76561198346681796,"connected_time":878000000000,"state":"active","ping":45},{"user_id":50,"name":"Skeedie","steam_id":76561198268591634,"connected_time":652000000000,"state":"active","ping":66},{"user_id":53,"name":"Doki","steam_id":76561199058926716,"connected_time":253000000000,"state":"active","ping":163},{"user_id":55,"name":"Atlas","steam_id":76561198127975050,"connected_time":192000000000,"state":"active","ping":38},{"user_id":56,"name":"ATL1 | Crystron","steam_id":76561198880437428,"connected_time":118000000000,"state":"active","ping":78},{"user_id":57,"name":"Koishi","steam_id":76561198054541054,"connected_time":81000000000,"state":"active","ping":56},{"user_id":58,"name":"disrupted_thoughts","steam_id":76561198067367009,"connected_time":19000000000,"state":"spawning","ping":103}]},{"server_id":400,"name":"Uncletopia | Atlanta | 3 | All Maps","name_short":"atl-3","host":"atl-1.us.uncletopia.com","port":27035,"enabled":true,"region":"us-east","cc":"us","latitude":33.753746,"longitude":-84.38633,"reserved":0,"last_update":"0001-01-01T00:00:00Z","name_a2s":"Uncletopia | Atlanta | 3 | All Maps","protocol":17,"map":"plr_bananabay","folder":"tf","game":"Team Fortress","app_id":440,"player_count":0,"max_players":24,"Bots":0,"server_type":"Dedicated","server_os":"Linux","password":true,"vac":true,"version":"7708610","steam_id":85568392924515187,"keywords":["nocrits","nodmgspread","payload","uncletopia"],"game_id":440,"stv_port":27036,"stv_name":"Uncletopia | Atlanta | 3 | All Maps | STV","players":null},{"server_id":401,"name":"Uncletopia | Atlanta | 4 | No Payload","name_short":"atl-4","host":"atl-1.us.uncletopia.com","port":27045,"enabled":true,"region":"us-east","cc":"us","latitude":33.753746,"longitude":-84.38633,"reserved":0,"last_update":"0001-01-01T00:00:00Z","name_a2s":"Uncletopia | Atlanta | 4 | No Payload","protocol":17,"map":"plr_bananabay","folder":"tf","game":"Team Fortress","app_id":440,"player_count":0,"max_players":24,"Bots":0,"server_type":"Dedicated","server_os":"Linux","password":true,"vac":true,"version":"7708610","steam_id":85568392924515188,"keywords":["nocrits","nodmgspread","payload","uncletopia"],"game_id":440,"stv_port":27046,"stv_name":"Uncletopia | Atlanta | 4 | No Payload | STV","players":null},{"server_id":2,"name":"Uncletopia | Chicago | 1 | All Maps","name_short":"chi-1","host":"chi-1.us.uncletopia.com","port":27015,"enabled":true,"region":"us-central","cc":"us","latitude":41.881832,"longitude":-87.62318,"reserved":0,"last_update":"0001-01-01T00:00:00Z","name_a2s":"Uncletopia | Chicago | 1 | All Maps","protocol":17,"map":"pl_borneo","folder":"tf","game":"Team Fortress","app_id":440,"player_count":24,"max_players":24,"Bots":0,"server_type":"Dedicated","server_os":"Linux","password":true,"vac":true,"version":"7708610","steam_id":85568392924469984,"keywords":["nocrits","nodmgspread","payload","uncletopia"],"game_id":440,"stv_port":27016,"stv_name":"Uncletopia | Chicago | 1 | All Maps | STV","players":[{"user_id":77,"name":"stop","steam_id":76561198268686419,"connected_time":1717000000000,"state":"active","ping":49},{"user_id":88,"name":"ChickenManPhil","steam_id":76561199139508332,"connected_time":1052000000000,"state":"active","ping":76},{"user_id":91,"name":"The Big","steam_id":76561198078572184,"connected_time":984000000000,"state":"active","ping":79},{"user_id":71,"name":"BlueZombieBlood","steam_id":76561198123590661,"connected_time":2198000000000,"state":"active","ping":114},{"user_id":80,"name":"Average Reagan Youth Fan","steam_id":76561198355754259,"connected_time":1225000000000,"state":"active","ping":72},{"user_id":73,"name":"The Animated Gamer","steam_id":76561198120639995,"connected_time":2109000000000,"state":"active","ping":91},{"user_id":96,"name":"Floattube","steam_id":76561198005720144,"connected_time":247000000000,"state":"active","ping":62},{"user_id":68,"name":"rat gets the cheese","steam_id":76561198031234032,"connected_time":2496000000000,"state":"active","ping":56},{"user_id":20,"name":"McSpazatron","steam_id":76561198955942148,"connected_time":5351000000000,"state":"active","ping":80},{"user_id":66,"name":"Motreir","steam_id":76561198151717946,"connected_time":2821000000000,"state":"active","ping":77},{"user_id":75,"name":"reis","steam_id":76561199232952016,"connected_time":1988000000000,"state":"active","ping":191},{"user_id":23,"name":"family guy im peter","steam_id":76561199229169396,"connected_time":5251000000000,"state":"active","ping":70},{"user_id":81,"name":"Pixler544","steam_id":76561198240575132,"connected_time":1203000000000,"state":"active","ping":76},{"user_id":82,"name":"mkl","steam_id":76561197986401685,"connected_time":1190000000000,"state":"active","ping":83},{"user_id":95,"name":"Squatchamo","steam_id":76561198012968239,"connected_time":366000000000,"state":"active","ping":112},{"user_id":94,"name":"Schuka5","steam_id":76561197995254714,"connected_time":749000000000,"state":"active","ping":81},{"user_id":97,"name":"TATARA","steam_id":76561199098759517,"connected_time":240000000000,"state":"active","ping":136},{"user_id":83,"name":"ATL1 | J O V A","steam_id":76561198090333536,"connected_time":1184000000000,"state":"active","ping":72},{"user_id":84,"name":"scouty","steam_id":76561198288491241,"connected_time":1180000000000,"state":"active","ping":72},{"user_id":93,"name":"firetamer2","steam_id":76561198040886980,"connected_time":922000000000,"state":"active","ping":65},{"user_id":74,"name":"Enderneer","steam_id":76561198012136653,"connected_time":2109000000000,"state":"active","ping":58},{"user_id":90,"name":"HellRaiser","steam_id":76561199051660033,"connected_time":1006000000000,"state":"active","ping":78},{"user_id":99,"name":"Gordan Timlothle","steam_id":76561198272013678,"connected_time":43000000000,"state":"active","ping":67},{"user_id":58,"name":"poey","steam_id":76561198865346767,"connected_time":2928000000000,"state":"active","ping":91}]},{"server_id":106,"name":"Uncletopia | Chicago | 2 | All Maps","name_short":"chi-2","host":"chi-1.us.uncletopia.com","port":27025,"enabled":true,"region":"us-central","cc":"us","latitude":41.881832,"longitude":-87.62318,"reserved":0,"last_update":"0001-01-01T00:00:00Z","name_a2s":"Uncletopia | Chicago | 2 | All Maps","protocol":17,"map":"koth_cascade","folder":"tf","game":"Team Fortress","app_id":440,"player_count":24,"max_players":24,"Bots":0,"server_type":"Dedicated","server_os":"Linux","password":true,"vac":true,"version":"7708610","steam_id":85568392924469985,"keywords":["cp","nocrits","nodmgspread","uncletopia"],"game_id":440,"stv_port":27026,"stv_name":"Uncletopia | Chicago | 2 | All Maps | STV","players":[{"user_id":32,"name":"Nachos from 7/11","steam_id":76561198011603359,"connected_time":2809000000000,"state":"active","ping":81},{"user_id":19,"name":"Devinish","steam_id":76561198024927243,"connected_time":3225000000000,"state":"active","ping":82},{"user_id":65,"name":"Camoturtle","steam_id":76561198197038253,"connected_time":344000000000,"state":"active","ping":80},{"user_id":66,"name":"Vanilla Gorilla","steam_id":76561198212762499,"connected_time":321000000000,"state":"active","ping":83},{"user_id":67,"name":"Burf","steam_id":76561198019341161,"connected_time":289000000000,"state":"active","ping":62},{"user_id":63,"name":"BoomieMcBoomPants","steam_id":76561198144516828,"connected_time":848000000000,"state":"active","ping":101},{"user_id":56,"name":"Riandox","steam_id":76561198130577326,"connected_time":1526000000000,"state":"active","ping":62},{"user_id":68,"name":"Rhutebeer","steam_id":76561198018302761,"connected_time":287000000000,"state":"active","ping":98},{"user_id":71,"name":"He made graduation","steam_id":76561198968945333,"connected_time":134000000000,"state":"active","ping":70},{"user_id":62,"name":"Reindeer Poacher","steam_id":76561198867626964,"connected_time":983000000000,"state":"active","ping":97},{"user_id":64,"name":"gravid baby","steam_id":76561198318646867,"connected_time":707000000000,"state":"active","ping":64},{"user_id":69,"name":"Fishstall","steam_id":76561198038126034,"connected_time":282000000000,"state":"active","ping":85},{"user_id":74,"name":"Mcfighter2","steam_id":76561198168073956,"connected_time":36000000000,"state":"active","ping":49},{"user_id":28,"name":"Bigtimefan5","steam_id":76561199047490167,"connected_time":2884000000000,"state":"active","ping":78},{"user_id":29,"name":"static","steam_id":76561199093261935,"connected_time":2876000000000,"state":"active","ping":75},{"user_id":30,"name":"azzy","steam_id":76561198825918211,"connected_time":2871000000000,"state":"active","ping":194},{"user_id":54,"name":"CraftKitty","steam_id":76561198080775103,"connected_time":1767000000000,"state":"active","ping":76},{"user_id":50,"name":"Bart simpson","steam_id":76561198380666998,"connected_time":1991000000000,"state":"active","ping":94},{"user_id":45,"name":"uzi","steam_id":76561198156799627,"connected_time":2502000000000,"state":"active","ping":68},{"user_id":46,"name":"Misclick","steam_id":76561198050855911,"connected_time":2334000000000,"state":"active","ping":117},{"user_id":70,"name":"Duo34","steam_id":76561198000464258,"connected_time":279000000000,"state":"active","ping":84},{"user_id":72,"name":"tame","steam_id":76561198925005855,"connected_time":123000000000,"state":"active","ping":176},{"user_id":75,"name":"Hursty1418","steam_id":76561199045425105,"connected_time":25000000000,"state":"spawning","ping":82},{"user_id":61,"name":"gnome","steam_id":76561198262275475,"connected_time":1103000000000,"state":"active","ping":79}]},{"server_id":402,"name":"Uncletopia | Chicago | 3 | All Maps","name_short":"chi-3","host":"chi-1.us.uncletopia.com","port":27035,"enabled":true,"region":"us-central","cc":"us","latitude":41.881832,"longitude":-87.62318,"reserved":0,"last_update":"0001-01-01T00:00:00Z","name_a2s":"Uncletopia | Chicago | 3 | All Maps","protocol":17,"map":"cp_metalworks","folder":"tf","game":"Team Fortress","app_id":440,"player_count":24,"max_players":24,"Bots":0,"server_type":"Dedicated","server_os":"Linux","password":true,"vac":true,"version":"7708610","steam_id":85568392924515191,"keywords":["cp","nocrits","nodmgspread","uncletopia"],"game_id":440,"stv_port":27036,"stv_name":"Uncletopia | Chicago | 3 | All Maps | STV","players":[{"user_id":172,"name":"Loggybears#4651","steam_id":76561198366828434,"connected_time":259000000000,"state":"active","ping":92},{"user_id":173,"name":"ParkerTheCuber","steam_id":76561199207264629,"connected_time":255000000000,"state":"active","ping":56},{"user_id":169,"name":"Banana","steam_id":76561198199217834,"connected_time":427000000000,"state":"active","ping":94},{"user_id":168,"name":"Quansen","steam_id":76561198151594550,"connected_time":457000000000,"state":"active","ping":55},{"user_id":174,"name":"zac","steam_id":76561199108994878,"connected_time":50000000000,"state":"active","ping":60},{"user_id":158,"name":"Bard The Dragon","steam_id":76561199121320640,"connected_time":631000000000,"state":"active","ping":61},{"user_id":88,"name":"zonemaster95","steam_id":76561198072572032,"connected_time":5249000000000,"state":"active","ping":115},{"user_id":159,"name":"GRONT","steam_id":76561198040464533,"connected_time":534000000000,"state":"active","ping":72},{"user_id":162,"name":"ASadTeddyBear","steam_id":76561198968206673,"connected_time":516000000000,"state":"active","ping":63},{"user_id":164,"name":"Beans","steam_id":76561198409681530,"connected_time":492000000000,"state":"active","ping":74},{"user_id":170,"name":"DualiTea","steam_id":76561198081733870,"connected_time":390000000000,"state":"active","ping":45},{"user_id":142,"name":"Anxious Nerd Bird","steam_id":76561198112178602,"connected_time":1537000000000,"state":"active","ping":107},{"user_id":146,"name":"SquirrelAway™","steam_id":76561197998828619,"connected_time":1337000000000,"state":"active","ping":71},{"user_id":160,"name":"rlty","steam_id":76561198009395055,"connected_time":533000000000,"state":"active","ping":61},{"user_id":144,"name":"The Great Eagle Scourge of 1822","steam_id":76561198325086209,"connected_time":1505000000000,"state":"active","ping":107},{"user_id":165,"name":"Peanut Butter Enthusiast","steam_id":76561198260351932,"connected_time":477000000000,"state":"active","ping":64},{"user_id":166,"name":"Monke Gaming","steam_id":76561199122133427,"connected_time":476000000000,"state":"active","ping":79},{"user_id":171,"name":"The Great Mighty Poo","steam_id":76561199158397833,"connected_time":370000000000,"state":"active","ping":73},{"user_id":136,"name":"Aspxts","steam_id":76561199125254746,"connected_time":2071000000000,"state":"active","ping":59},{"user_id":130,"name":"demolondon the thrice","steam_id":76561198936116083,"connected_time":2784000000000,"state":"active","ping":113},{"user_id":167,"name":"Yoyo","steam_id":76561199122577289,"connected_time":463000000000,"state":"active","ping":64},{"user_id":77,"name":"Kitsu ♥","steam_id":76561198091741658,"connected_time":7022000000000,"state":"active","ping":72},{"user_id":152,"name":"Just Another Stoned Eevee","steam_id":76561198262852705,"connected_time":1101000000000,"state":"active","ping":84},{"user_id":157,"name":"therizzmaster7421","steam_id":76561197989592141,"connected_time":652000000000,"state":"active","ping":60}]},{"server_id":403,"name":"Uncletopia | Chicago | 4 | All Maps","name_short":"chi-4","host":"chi-1.us.uncletopia.com","port":27045,"enabled":true,"region":"us-central","cc":"us","latitude":41.881832,"longitude":-87.62318,"reserved":0,"last_update":"0001-01-01T00:00:00Z","name_a2s":"Uncletopia | Chicago | 4 | All Maps","protocol":17,"map":"koth_viaduct","folder":"tf","game":"Team Fortress","app_id":440,"player_count":0,"max_players":24,"Bots":0,"server_type":"Dedicated","server_os":"Linux","password":true,"vac":true,"version":"7708610","steam_id":85568392924515193,"keywords":["cp","nocrits","nodmgspread","uncletopia"],"game_id":440,"stv_port":27046,"stv_name":"Uncletopia | Chicago | 4 | All Maps | STV","players":null},{"server_id":36,"name":"Uncletopia | Chicago | 5 | All Maps","name_short":"chi-5","host":"chi-2.us.uncletopia.com","port":27015,"enabled":true,"region":"us-central","cc":"us","latitude":41.881832,"longitude":-87.62318,"reserved":0,"last_update":"0001-01-01T00:00:00Z","name_a2s":"Uncletopia | Chicago | 5 | All Maps","protocol":17,"map":"pl_swiftwater_final1","folder":"tf","game":"Team Fortress","app_id":440,"player_count":0,"max_players":24,"Bots":0,"server_type":"Dedicated","server_os":"Linux","password":true,"vac":true,"version":"7708610","steam_id":85568392924866362,"keywords":["nocrits","nodmgspread","payload","uncletopia"],"game_id":440,"stv_port":27016,"stv_name":"Uncletopia | Chicago | 5 | All Maps | STV","players":null},{"server_id":37,"name":"Uncletopia | Chicago | 6 | All Maps","name_short":"chi-6","host":"chi-2.us.uncletopia.com","port":27025,"enabled":true,"region":"us-central","cc":"us","latitude":41.881832,"longitude":-87.62318,"reserved":0,"last_update":"0001-01-01T00:00:00Z","name_a2s":"Uncletopia | Chicago | 6 | All Maps","protocol":17,"map":"pl_swiftwater_final1","folder":"tf","game":"Team Fortress","app_id":440,"player_count":0,"max_players":24,"Bots":0,"server_type":"Dedicated","server_os":"Linux","password":true,"vac":true,"version":"7708610","steam_id":85568392924866363,"keywords":["nocrits","nodmgspread","payload","uncletopia"],"game_id":440,"stv_port":27026,"stv_name":"Uncletopia | Chicago | 6 | All Maps | STV","players":null},{"server_id":38,"name":"Uncletopia | Chicago | 7 | No Payload","name_short":"chi-7","host":"chi-2.us.uncletopia.com","port":27035,"enabled":true,"region":"us-central","cc":"us","latitude":41.881832,"longitude":-87.62318,"reserved":0,"last_update":"0001-01-01T00:00:00Z","name_a2s":"Uncletopia | Chicago | 7 | No Payload","protocol":17,"map":"koth_highpass","folder":"tf","game":"Team Fortress","app_id":440,"player_count":0,"max_players":24,"Bots":0,"server_type":"Dedicated","server_os":"Linux","password":true,"vac":true,"version":"7708610","steam_id":85568392924866364,"keywords":["cp","nocrits","nodmgspread","uncletopia"],"game_id":440,"stv_port":27036,"stv_name":"Uncletopia | Chicago | 7 | No Payload | STV","players":null},{"server_id":39,"name":"Uncletopia | Chicago | 8 | Community","name_short":"chi-8","host":"chi-2.us.uncletopia.com","port":27045,"enabled":true,"region":"us-central","cc":"us","latitude":41.881832,"longitude":-87.62318,"reserved":0,"last_update":"0001-01-01T00:00:00Z","name_a2s":"Uncletopia | Chicago | 8 | Community","protocol":17,"map":"workshop/pl_fifthcurve_rc1.ugc648227046","folder":"tf","game":"Team Fortress","app_id":440,"player_count":0,"max_players":24,"Bots":0,"server_type":"Dedicated","server_os":"Linux","password":true,"vac":true,"version":"7708610","steam_id":85568392924866365,"keywords":["nocrits","nodmgspread","payload","uncletopia"],"game_id":440,"stv_port":27046,"stv_name":"Uncletopia | Chicago | 8 | Community | STV","players":null},{"server_id":8,"name":"Uncletopia | Dallas | 1 | All Maps","name_short":"dal-1","host":"dal-1.us.uncletopia.com","port":27015,"enabled":true,"region":"us-central","cc":"us","latitude":32.779167,"longitude":-96.80889,"reserved":0,"last_update":"0001-01-01T00:00:00Z","name_a2s":"Uncletopia | Dallas | 1 | All Maps","protocol":17,"map":"pl_frontier_final","folder":"tf","game":"Team Fortress","app_id":440,"player_count":19,"max_players":24,"Bots":0,"server_type":"Dedicated","server_os":"Linux","password":true,"vac":true,"version":"7708610","steam_id":85568392924469986,"keywords":["nocrits","nodmgspread","payload","uncletopia"],"game_id":440,"stv_port":27016,"stv_name":"Uncletopia | Dallas | 1 | All Maps | STV","players":[{"user_id":43,"name":"motherfucker 2.0","steam_id":76561198141189209,"connected_time":4627000000000,"state":"active","ping":29},{"user_id":75,"name":"Raian","steam_id":76561199138048671,"connected_time":2817000000000,"state":"active","ping":70},{"user_id":102,"name":"Sad Man","steam_id":76561197960857993,"connected_time":1276000000000,"state":"active","ping":51},{"user_id":87,"name":"Dealyo","steam_id":76561198282395338,"connected_time":2186000000000,"state":"active","ping":97},{"user_id":106,"name":"OwlOddity","steam_id":76561198389068053,"connected_time":775000000000,"state":"active","ping":48},{"user_id":66,"name":"Zeetch","steam_id":76561198110579765,"connected_time":2953000000000,"state":"active","ping":85},{"user_id":116,"name":"spacetoven","steam_id":76561198115821131,"connected_time":148000000000,"state":"active","ping":83},{"user_id":91,"name":"*something in russian*","steam_id":76561198964471859,"connected_time":1925000000000,"state":"active","ping":80},{"user_id":90,"name":"intoxication gaming","steam_id":76561198308290507,"connected_time":2102000000000,"state":"active","ping":46},{"user_id":114,"name":"young thug weaponry","steam_id":76561198363821364,"connected_time":297000000000,"state":"active","ping":74},{"user_id":111,"name":"my mom","steam_id":76561199225201569,"connected_time":364000000000,"state":"active","ping":86},{"user_id":97,"name":"Jeffenthropus","steam_id":76561198134204248,"connected_time":1466000000000,"state":"active","ping":85},{"user_id":62,"name":"Sarbanes-Oxley","steam_id":76561197975898479,"connected_time":3178000000000,"state":"active","ping":46},{"user_id":59,"name":"Steiner","steam_id":76561198030457066,"connected_time":3272000000000,"state":"active","ping":61},{"user_id":103,"name":"Hot Boy","steam_id":76561198235994316,"connected_time":1272000000000,"state":"active","ping":75},{"user_id":34,"name":"Maranata","steam_id":76561198830158092,"connected_time":4961000000000,"state":"active","ping":71},{"user_id":93,"name":"Trussellfish","steam_id":76561198290496425,"connected_time":1848000000000,"state":"active","ping":70},{"user_id":92,"name":"Nodspine","steam_id":76561198253579994,"connected_time":1902000000000,"state":"active","ping":135},{"user_id":115,"name":"Pink","steam_id":76561198042140694,"connected_time":295000000000,"state":"active","ping":55}]},{"server_id":108,"name":"Uncletopia | Dallas | 2 | All Maps","name_short":"dal-2","host":"dal-1.us.uncletopia.com","port":27025,"enabled":true,"region":"us-central","cc":"us","latitude":32.779167,"longitude":-96.80889,"reserved":0,"last_update":"0001-01-01T00:00:00Z","name_a2s":"Uncletopia | Dallas | 2 | All Maps","protocol":17,"map":"pl_frontier_final","folder":"tf","game":"Team Fortress","app_id":440,"player_count":0,"max_players":24,"Bots":0,"server_type":"Dedicated","server_os":"Linux","password":true,"vac":true,"version":"7708610","steam_id":85568392924469988,"keywords":["nocrits","nodmgspread","payload","uncletopia"],"game_id":440,"stv_port":27026,"stv_name":"Uncletopia | Dallas | 2 | All Maps | STV","players":null},{"server_id":5,"name":"Uncletopia | Frankfurt | 1 | All Maps","name_short":"frk-1","host":"frk-1.de.uncletopia.com","port":27015,"enabled":true,"region":"eu","cc":"de","latitude":50.110924,"longitude":8.682127,"reserved":0,"last_update":"0001-01-01T00:00:00Z","name_a2s":"Uncletopia | Frankfurt | 1 | All Maps","protocol":17,"map":"pl_badwater","folder":"tf","game":"Team Fortress","app_id":440,"player_count":24,"max_players":24,"Bots":0,"server_type":"Dedicated","server_os":"Linux","password":true,"vac":true,"version":"7708610","steam_id":85568392924469989,"keywords":["nocrits","nodmgspread","payload","uncletopia"],"game_id":440,"stv_port":27016,"stv_name":"Uncletopia | Frankfurt | 1 | All Maps | STV","players":[{"user_id":410,"name":"ywnn","steam_id":76561198088624259,"connected_time":321000000000,"state":"active","ping":61},{"user_id":388,"name":"промокашка","steam_id":76561199064297073,"connected_time":1741000000000,"state":"active","ping":135},{"user_id":384,"name":"Koli","steam_id":76561197992428783,"connected_time":2228000000000,"state":"active","ping":59},{"user_id":414,"name":"Hardway","steam_id":76561198272529254,"connected_time":9000000000,"state":"spawning","ping":59},{"user_id":413,"name":"LarsInABox","steam_id":76561198028329262,"connected_time":12000000000,"state":"active","ping":120},{"user_id":402,"name":"toothpaste vaper","steam_id":76561198078458780,"connected_time":689000000000,"state":"active","ping":45},{"user_id":365,"name":"ghost","steam_id":76561198189940229,"connected_time":2891000000000,"state":"active","ping":59},{"user_id":351,"name":"Mr. Mundy","steam_id":76561198132008918,"connected_time":4111000000000,"state":"active","ping":72},{"user_id":403,"name":"small tony","steam_id":76561199141010349,"connected_time":678000000000,"state":"active","ping":90},{"user_id":377,"name":"Tibbs","steam_id":76561197987980406,"connected_time":2518000000000,"state":"active","ping":78},{"user_id":391,"name":"Tea guy","steam_id":76561198797847641,"connected_time":1647000000000,"state":"active","ping":70},{"user_id":366,"name":"bigwish | bmod.tf","steam_id":76561197997859723,"connected_time":2890000000000,"state":"active","ping":68},{"user_id":349,"name":"kbbq","steam_id":76561198346638308,"connected_time":4243000000000,"state":"active","ping":60},{"user_id":322,"name":"Nick","steam_id":76561198036109469,"connected_time":5495000000000,"state":"active","ping":86},{"user_id":415,"name":"Rudebwoyyy","steam_id":76561199387956486,"connected_time":9000000000,"state":"spawning","ping":59},{"user_id":395,"name":"The Original Aboriginal","steam_id":76561198341886313,"connected_time":1324000000000,"state":"active","ping":74},{"user_id":412,"name":"Serton♝","steam_id":76561198011061126,"connected_time":18000000000,"state":"active","ping":98},{"user_id":404,"name":"i heal gay people","steam_id":76561198032167311,"connected_time":675000000000,"state":"active","ping":71},{"user_id":382,"name":"Devil hater","steam_id":76561198110470565,"connected_time":2354000000000,"state":"active","ping":109},{"user_id":397,"name":"ducks","steam_id":76561198166148685,"connected_time":1047000000000,"state":"active","ping":35},{"user_id":408,"name":"Dolcelatte","steam_id":76561198038501770,"connected_time":378000000000,"state":"active","ping":60},{"user_id":411,"name":"TaroPlant","steam_id":76561198122927374,"connected_time":182000000000,"state":"active","ping":93},{"user_id":409,"name":"Sloppyspider","steam_id":76561198178869441,"connected_time":338000000000,"state":"active","ping":56},{"user_id":399,"name":"CocoGamer42","steam_id":76561199040061263,"connected_time":773000000000,"state":"active","ping":60}]},{"server_id":110,"name":"Uncletopia | Frankfurt | 2 | All Maps","name_short":"frk-2","host":"frk-1.de.uncletopia.com","port":27025,"enabled":true,"region":"eu","cc":"de","latitude":50.110924,"longitude":8.682127,"reserved":0,"last_update":"0001-01-01T00:00:00Z","name_a2s":"Uncletopia | Frankfurt | 2 | All Maps","protocol":17,"map":"cp_mercenarypark","folder":"tf","game":"Team Fortress","app_id":440,"player_count":17,"max_players":24,"Bots":0,"server_type":"Dedicated","server_os":"Linux","password":true,"vac":true,"version":"7708610","steam_id":85568392924469990,"keywords":["cp","nocrits","nodmgspread","uncletopia"],"game_id":440,"stv_port":27026,"stv_name":"Uncletopia | Frankfurt | 2 | All Maps | STV","players":[{"user_id":393,"name":"sudo rm rf /*","steam_id":76561198995673730,"connected_time":583000000000,"state":"active","ping":113},{"user_id":400,"name":"mat","steam_id":76561198824697295,"connected_time":11000000000,"state":"spawning","ping":80},{"user_id":378,"name":"Hooggers","steam_id":76561198120447741,"connected_time":1296000000000,"state":"spawning","ping":122},{"user_id":353,"name":"FaceShackle","steam_id":76561198038371397,"connected_time":3155000000000,"state":"active","ping":59},{"user_id":377,"name":"esteebangus","steam_id":76561198203962355,"connected_time":1437000000000,"state":"active","ping":87},{"user_id":379,"name":"cat (they/them)","steam_id":76561198416657815,"connected_time":1272000000000,"state":"spawning","ping":81},{"user_id":398,"name":"The Bayrisch Brezel","steam_id":76561198061912743,"connected_time":53000000000,"state":"spawning","ping":182},{"user_id":355,"name":"Jokudami","steam_id":76561198346604154,"connected_time":3118000000000,"state":"active","ping":49},{"user_id":373,"name":"ampekk`","steam_id":76561198299893189,"connected_time":1955000000000,"state":"active","ping":117},{"user_id":382,"name":"Slooshie","steam_id":76561198008749909,"connected_time":1193000000000,"state":"spawning","ping":109},{"user_id":345,"name":"syndenz","steam_id":76561198176063813,"connected_time":3684000000000,"state":"spawning","ping":58},{"user_id":396,"name":"MaybeTurtleS","steam_id":76561198337350860,"connected_time":155000000000,"state":"active","ping":57},{"user_id":385,"name":"damage","steam_id":76561198091656119,"connected_time":1130000000000,"state":"spawning","ping":63},{"user_id":388,"name":"Vasko Жабата","steam_id":76561198205475839,"connected_time":840000000000,"state":"active","ping":98},{"user_id":386,"name":"Klifton","steam_id":76561198803743443,"connected_time":1047000000000,"state":"active","ping":96},{"user_id":391,"name":"Rob Rotten","steam_id":76561198170543542,"connected_time":807000000000,"state":"active","ping":146},{"user_id":397,"name":"Smissmin","steam_id":76561198005342133,"connected_time":135000000000,"state":"active","ping":58}]},{"server_id":308,"name":"Uncletopia | Frankfurt | 3 | All Maps","name_short":"frk-3","host":"frk-1.de.uncletopia.com","port":27035,"enabled":true,"region":"eu","cc":"de","latitude":50.110924,"longitude":8.682127,"reserved":0,"last_update":"0001-01-01T00:00:00Z","name_a2s":"Uncletopia | Frankfurt | 3 | All Maps","protocol":17,"map":"pl_frontier_final","folder":"tf","game":"Team Fortress","app_id":440,"player_count":24,"max_players":24,"Bots":0,"server_type":"Dedicated","server_os":"Linux","password":true,"vac":true,"version":"7708610","steam_id":85568392924504274,"keywords":["nocrits","nodmgspread","payload","uncletopia"],"game_id":440,"stv_port":27036,"stv_name":"Uncletopia | Frankfurt | 3 | All Maps | STV","players":[{"user_id":238,"name":"panakid","steam_id":76561198364121077,"connected_time":101000000000,"state":"active","ping":96},{"user_id":221,"name":"Bumblebee","steam_id":76561198033551105,"connected_time":840000000000,"state":"active","ping":65},{"user_id":157,"name":"Alain de l'ombre","steam_id":76561198037938833,"connected_time":5215000000000,"state":"active","ping":60},{"user_id":219,"name":"quadratura do círculo","steam_id":76561198063512694,"connected_time":919000000000,"state":"active","ping":80},{"user_id":206,"name":"toe eater","steam_id":76561199272782484,"connected_time":1533000000000,"state":"active","ping":74},{"user_id":205,"name":"Realist 40","steam_id":76561198052476979,"connected_time":1794000000000,"state":"active","ping":76},{"user_id":234,"name":"Poor Fucking Infantry","steam_id":76561198055978522,"connected_time":315000000000,"state":"active","ping":63},{"user_id":236,"name":"Zelmor","steam_id":76561197997708311,"connected_time":218000000000,"state":"active","ping":46},{"user_id":237,"name":"para","steam_id":76561197989877167,"connected_time":150000000000,"state":"active","ping":56},{"user_id":122,"name":"walpurgis","steam_id":76561199117720299,"connected_time":7723000000000,"state":"active","ping":53},{"user_id":215,"name":"?","steam_id":76561199114927025,"connected_time":1238000000000,"state":"active","ping":106},{"user_id":229,"name":"Zateske","steam_id":76561198047446276,"connected_time":553000000000,"state":"active","ping":60},{"user_id":223,"name":"wieto","steam_id":76561198050626427,"connected_time":731000000000,"state":"active","ping":71},{"user_id":194,"name":"Pabs :D","steam_id":76561198000016962,"connected_time":2424000000000,"state":"active","ping":60},{"user_id":246,"name":"crolee","steam_id":76561198865817316,"connected_time":58000000000,"state":"active","ping":54},{"user_id":243,"name":"rizz diff","steam_id":76561198051497921,"connected_time":82000000000,"state":"active","ping":69},{"user_id":210,"name":"Dr. Cox","steam_id":76561198246629218,"connected_time":1496000000000,"state":"active","ping":89},{"user_id":232,"name":"Нечуй-Левицький","steam_id":76561198870926865,"connected_time":444000000000,"state":"active","ping":53},{"user_id":244,"name":"Layton","steam_id":76561198087221314,"connected_time":80000000000,"state":"active","ping":49},{"user_id":201,"name":"Pickl","steam_id":76561198322399414,"connected_time":1983000000000,"state":"active","ping":59},{"user_id":212,"name":"๖乡Ðe·SexyLion乡","steam_id":76561198123539320,"connected_time":1469000000000,"state":"active","ping":104},{"user_id":132,"name":"Optimist 50","steam_id":76561198039631442,"connected_time":6679000000000,"state":"active","ping":77},{"user_id":190,"name":"Table","steam_id":76561198091145295,"connected_time":2648000000000,"state":"active","ping":92},{"user_id":245,"name":"lun4tic","steam_id":76561198850496647,"connected_time":80000000000,"state":"active","ping":60}]},{"server_id":309,"name":"Uncletopia | Frankfurt | 4 | All Maps","name_short":"frk-4","host":"frk-1.de.uncletopia.com","port":27045,"enabled":true,"region":"eu","cc":"de","latitude":50.110924,"longitude":8.682127,"reserved":0,"last_update":"0001-01-01T00:00:00Z","name_a2s":"Uncletopia | Frankfurt | 4 | All Maps","protocol":17,"map":"pl_upward","folder":"tf","game":"Team Fortress","app_id":440,"player_count":24,"max_players":24,"Bots":0,"server_type":"Dedicated","server_os":"Linux","password":true,"vac":true,"version":"7708610","steam_id":85568392924504275,"keywords":["nocrits","nodmgspread","payload","uncletopia"],"game_id":440,"stv_port":27046,"stv_name":"Uncletopia | Frankfurt | 4 | All Maps | STV","players":[{"user_id":322,"name":"-={o.W.n}=- Joker","steam_id":76561198856450372,"connected_time":364000000000,"state":"active","ping":58},{"user_id":307,"name":"mimi","steam_id":76561198060648946,"connected_time":1293000000000,"state":"active","ping":54},{"user_id":320,"name":"Mr. Huntsman","steam_id":76561197981910397,"connected_time":793000000000,"state":"active","ping":62},{"user_id":276,"name":"Kuickfire","steam_id":76561198066476639,"connected_time":2847000000000,"state":"active","ping":102},{"user_id":294,"name":"Dendyluz13","steam_id":76561199102688675,"connected_time":2193000000000,"state":"active","ping":106},{"user_id":243,"name":"Whoopi Goldberg","steam_id":76561199378865926,"connected_time":4674000000000,"state":"active","ping":134},{"user_id":287,"name":"Welder","steam_id":76561198355300561,"connected_time":2580000000000,"state":"active","ping":61},{"user_id":321,"name":"tshirt","steam_id":76561198040757844,"connected_time":629000000000,"state":"active","ping":75},{"user_id":326,"name":"AdgaroS","steam_id":76561198969373800,"connected_time":35000000000,"state":"active","ping":60},{"user_id":289,"name":"Sensei Emu","steam_id":76561198959919147,"connected_time":2431000000000,"state":"active","ping":61},{"user_id":303,"name":"Nin","steam_id":76561198227246584,"connected_time":1807000000000,"state":"active","ping":59},{"user_id":272,"name":"Duda","steam_id":76561198306177608,"connected_time":2866000000000,"state":"active","ping":88},{"user_id":325,"name":"DirtyFred","steam_id":76561198031814950,"connected_time":53000000000,"state":"active","ping":65},{"user_id":281,"name":"KarlRanzeier","steam_id":76561198066281337,"connected_time":2799000000000,"state":"active","ping":49},{"user_id":313,"name":"Corpse","steam_id":76561199211688728,"connected_time":1086000000000,"state":"active","ping":92},{"user_id":314,"name":"Economic crisis","steam_id":76561198063562843,"connected_time":1085000000000,"state":"active","ping":54},{"user_id":300,"name":"elyas","steam_id":76561198964639269,"connected_time":2134000000000,"state":"active","ping":168},{"user_id":324,"name":"The Funny Cat 面白い猫","steam_id":76561198439978112,"connected_time":326000000000,"state":"active","ping":111},{"user_id":265,"name":"tallen","steam_id":76561198061708595,"connected_time":3179000000000,"state":"active","ping":94},{"user_id":315,"name":"ALARM","steam_id":76561198120686521,"connected_time":1085000000000,"state":"active","ping":50},{"user_id":318,"name":"Shlyk","steam_id":76561198333387103,"connected_time":967000000000,"state":"active","ping":91},{"user_id":247,"name":"dotdotdot","steam_id":76561198057628751,"connected_time":4649000000000,"state":"active","ping":60},{"user_id":248,"name":"concussion gaming","steam_id":76561198425494530,"connected_time":4645000000000,"state":"active","ping":107},{"user_id":286,"name":"Yoshikage Kira","steam_id":76561199051752886,"connected_time":2658000000000,"state":"active","ping":53}]},{"server_id":310,"name":"Uncletopia | Frankfurt | 5 | All Maps","name_short":"frk-5","host":"frk-1.de.uncletopia.com","port":27055,"enabled":true,"region":"eu","cc":"de","latitude":50.110924,"longitude":8.682127,"reserved":0,"last_update":"0001-01-01T00:00:00Z","name_a2s":"Uncletopia | Frankfurt | 5 | All Maps","protocol":17,"map":"pl_frontier_final","folder":"tf","game":"Team Fortress","app_id":440,"player_count":24,"max_players":24,"Bots":0,"server_type":"Dedicated","server_os":"Linux","password":true,"vac":true,"version":"7708610","steam_id":85568392924504277,"keywords":["nocrits","nodmgspread","payload","uncletopia"],"game_id":440,"stv_port":27056,"stv_name":"Uncletopia | Frankfurt | 5 | All Maps | STV","players":[{"user_id":171,"name":"squikkel3","steam_id":76561198286393699,"connected_time":1592000000000,"state":"active","ping":63},{"user_id":159,"name":"Fräulein Flauschig","steam_id":76561197991269023,"connected_time":2689000000000,"state":"active","ping":51},{"user_id":205,"name":"Plop_","steam_id":76561198112567921,"connected_time":621000000000,"state":"active","ping":46},{"user_id":218,"name":"bruh.","steam_id":76561198144593115,"connected_time":218000000000,"state":"active","ping":74},{"user_id":174,"name":"gart","steam_id":76561198203394358,"connected_time":1388000000000,"state":"active","ping":104},{"user_id":177,"name":"Kruthal","steam_id":76561198245726582,"connected_time":1270000000000,"state":"active","ping":73},{"user_id":206,"name":"Osmo","steam_id":76561199286764992,"connected_time":548000000000,"state":"active","ping":81},{"user_id":207,"name":"yummy_treat_for_mr_beast","steam_id":76561198010251613,"connected_time":514000000000,"state":"active","ping":79},{"user_id":98,"name":"Chris","steam_id":76561199443600515,"connected_time":6835000000000,"state":"active","ping":72},{"user_id":172,"name":"Chat","steam_id":76561198351286949,"connected_time":1425000000000,"state":"active","ping":59},{"user_id":182,"name":"Pastoss","steam_id":76561198379098260,"connected_time":1093000000000,"state":"active","ping":43},{"user_id":226,"name":"Bucket","steam_id":76561198814907468,"connected_time":4000000000,"state":"spawning","ping":62},{"user_id":168,"name":"Old Beavis","steam_id":76561198065951617,"connected_time":2068000000000,"state":"active","ping":67},{"user_id":101,"name":"Ross from F.R.I.E.N.D.S.","steam_id":76561198008511665,"connected_time":6790000000000,"state":"active","ping":62},{"user_id":189,"name":"DayRocketZero","steam_id":76561198331999006,"connected_time":949000000000,"state":"active","ping":67},{"user_id":144,"name":"Wujek Cacek","steam_id":76561198010267943,"connected_time":4200000000000,"state":"active","ping":73},{"user_id":191,"name":"Professor Heavy","steam_id":76561198042174452,"connected_time":926000000000,"state":"active","ping":58},{"user_id":121,"name":"Kurage","steam_id":76561198021221288,"connected_time":5524000000000,"state":"active","ping":60},{"user_id":188,"name":"luma","steam_id":76561198081649669,"connected_time":995000000000,"state":"active","ping":63},{"user_id":219,"name":"eMcP!","steam_id":76561198382509396,"connected_time":206000000000,"state":"active","ping":71},{"user_id":209,"name":"Тучето","steam_id":76561198073528369,"connected_time":416000000000,"state":"active","ping":72},{"user_id":195,"name":"stormy-chan","steam_id":76561198905911729,"connected_time":844000000000,"state":"active","ping":64},{"user_id":211,"name":"Vikud","steam_id":76561199110575856,"connected_time":395000000000,"state":"active","ping":138},{"user_id":200,"name":"yeldad","steam_id":76561198447264153,"connected_time":781000000000,"state":"active","ping":123}]},{"server_id":311,"name":"Uncletopia | Frankfurt | 6 | All Maps","name_short":"frk-6","host":"frk-1.de.uncletopia.com","port":27065,"enabled":true,"region":"eu","cc":"de","latitude":50.110924,"longitude":8.682127,"reserved":0,"last_update":"0001-01-01T00:00:00Z","name_a2s":"Uncletopia | Frankfurt | 6 | All Maps","protocol":17,"map":"koth_viaduct","folder":"tf","game":"Team Fortress","app_id":440,"player_count":0,"max_players":24,"Bots":0,"server_type":"Dedicated","server_os":"Linux","password":true,"vac":true,"version":"7708610","steam_id":85568392924504278,"keywords":["cp","nocrits","nodmgspread","uncletopia"],"game_id":440,"stv_port":27066,"stv_name":"Uncletopia | Frankfurt | 6 | All Maps | STV","players":null},{"server_id":23,"name":"Uncletopia | Frankfurt | 7 | No Payload","name_short":"frk-7","host":"frk-1.de.uncletopia.com","port":27075,"enabled":true,"region":"eu","cc":"de","latitude":50.110924,"longitude":8.682127,"reserved":0,"last_update":"0001-01-01T00:00:00Z","name_a2s":"Uncletopia | Frankfurt | 7 | No Payload","protocol":17,"map":"koth_viaduct","folder":"tf","game":"Team Fortress","app_id":440,"player_count":0,"max_players":24,"Bots":0,"server_type":"Dedicated","server_os":"Linux","password":true,"vac":true,"version":"7708610","steam_id":85568392924742827,"keywords":["cp","nocrits","nodmgspread","uncletopia"],"game_id":440,"stv_port":27076,"stv_name":"Uncletopia | Frankfurt | 7 | No Payload | STV","players":null},{"server_id":24,"name":"Uncletopia | Frankfurt | 8 | Community","name_short":"frk-8","host":"frk-1.de.uncletopia.com","port":27085,"enabled":true,"region":"eu","cc":"de","latitude":50.110924,"longitude":8.682127,"reserved":0,"last_update":"0001-01-01T00:00:00Z","name_a2s":"Uncletopia | Frankfurt | 8 | Community","protocol":17,"map":"workshop/koth_bagel_rc5.ugc2514036946","folder":"tf","game":"Team Fortress","app_id":440,"player_count":21,"max_players":24,"Bots":0,"server_type":"Dedicated","server_os":"Linux","password":true,"vac":true,"version":"7708610","steam_id":85568392924742828,"keywords":["cp","nocrits","nodmgspread","uncletopia"],"game_id":440,"stv_port":27086,"stv_name":"Uncletopia | Frankfurt | 8 | Community | STV","players":[{"user_id":463,"name":"htraB","steam_id":76561198043122677,"connected_time":87000000000,"state":"active","ping":60},{"user_id":455,"name":"arcticcu the croc","steam_id":76561198002435882,"connected_time":703000000000,"state":"active","ping":102},{"user_id":447,"name":"Quaker Yotes","steam_id":76561198083068263,"connected_time":1008000000000,"state":"active","ping":85},{"user_id":454,"name":"Venus⚢","steam_id":76561198018602969,"connected_time":743000000000,"state":"active","ping":70},{"user_id":437,"name":"Заднепроходец","steam_id":76561198059741978,"connected_time":1520000000000,"state":"active","ping":79},{"user_id":440,"name":"DemoPanMan69","steam_id":76561199030759504,"connected_time":1417000000000,"state":"active","ping":66},{"user_id":421,"name":"Hydro","steam_id":76561199081791855,"connected_time":2021000000000,"state":"active","ping":89},{"user_id":462,"name":"Browlin","steam_id":76561198860807512,"connected_time":138000000000,"state":"active","ping":75},{"user_id":457,"name":"Fat Pigeon","steam_id":76561198817940142,"connected_time":646000000000,"state":"active","ping":49},{"user_id":442,"name":"owl_mairon","steam_id":76561198875528629,"connected_time":1399000000000,"state":"active","ping":78},{"user_id":458,"name":"JC","steam_id":76561198029213352,"connected_time":620000000000,"state":"active","ping":60},{"user_id":459,"name":"Nix (they/them)","steam_id":76561198150006573,"connected_time":461000000000,"state":"active","ping":57},{"user_id":460,"name":"Baklava Enjoyer","steam_id":76561198990679631,"connected_time":320000000000,"state":"active","ping":144},{"user_id":461,"name":"Spectre","steam_id":76561199111353794,"connected_time":302000000000,"state":"active","ping":95},{"user_id":428,"name":"Nyreen Nebula","steam_id":76561199437842841,"connected_time":1844000000000,"state":"active","ping":132},{"user_id":464,"name":"Pan W","steam_id":76561198384111099,"connected_time":75000000000,"state":"active","ping":67},{"user_id":432,"name":"pospolityczłowiek","steam_id":76561198818465340,"connected_time":1790000000000,"state":"active","ping":174},{"user_id":465,"name":"AL-90","steam_id":76561198027033926,"connected_time":58000000000,"state":"active","ping":61},{"user_id":466,"name":"Texas Pete","steam_id":76561197984163701,"connected_time":43000000000,"state":"active","ping":84},{"user_id":468,"name":"kotamine","steam_id":76561198068907991,"connected_time":18000000000,"state":"active","ping":69},{"user_id":382,"name":"...","steam_id":76561198969234594,"connected_time":4944000000000,"state":"active","ping":70}]},{"server_id":202,"name":"Uncletopia | Hong Kong | 1 | All Maps","name_short":"hgk-1","host":"hgk-1.hk.uncletopia.com","port":27015,"enabled":true,"region":"asia","cc":"hk","latitude":22.302711,"longitude":114.177216,"reserved":0,"last_update":"0001-01-01T00:00:00Z","name_a2s":"Uncletopia | Hong Kong | 1 | All Maps","protocol":17,"map":"pl_pier","folder":"tf","game":"Team Fortress","app_id":440,"player_count":24,"max_players":24,"Bots":0,"server_type":"Dedicated","server_os":"Linux","password":true,"vac":true,"version":"7708610","steam_id":85568392924494504,"keywords":["nocrits","nodmgspread","payload","uncletopia"],"game_id":440,"stv_port":27016,"stv_name":"Uncletopia | Hong Kong | 1 | All Maps | STV","players":[{"user_id":427,"name":"mr cool sunglasses","steam_id":76561198045252069,"connected_time":725000000000,"state":"active","ping":82},{"user_id":391,"name":"NOMNOM","steam_id":76561199228203619,"connected_time":4614000000000,"state":"active","ping":68},{"user_id":332,"name":"tiden2000","steam_id":76561198092969425,"connected_time":8654000000000,"state":"active","ping":69},{"user_id":408,"name":"T.","steam_id":76561198337887896,"connected_time":2469000000000,"state":"active","ping":79},{"user_id":371,"name":"instant karma","steam_id":76561198027307933,"connected_time":6130000000000,"state":"active","ping":51},{"user_id":409,"name":"Banana Milk","steam_id":76561198005156257,"connected_time":2107000000000,"state":"active","ping":127},{"user_id":428,"name":"fuck it we balls","steam_id":76561199086487373,"connected_time":471000000000,"state":"active","ping":66},{"user_id":397,"name":"skypot","steam_id":76561198073840014,"connected_time":4269000000000,"state":"active","ping":84},{"user_id":418,"name":"Rebecca, EdgeRunner","steam_id":76561199023086791,"connected_time":1302000000000,"state":"active","ping":66},{"user_id":398,"name":"domjni","steam_id":76561198287931508,"connected_time":4206000000000,"state":"active","ping":61},{"user_id":422,"name":"Male Detected!","steam_id":76561199082459598,"connected_time":1051000000000,"state":"active","ping":107},{"user_id":429,"name":"AIvy","steam_id":76561198144336956,"connected_time":182000000000,"state":"active","ping":120},{"user_id":430,"name":"Nettlebane.","steam_id":76561198113837247,"connected_time":66000000000,"state":"active","ping":105},{"user_id":308,"name":"NathellaBoi","steam_id":76561198093299560,"connected_time":9893000000000,"state":"active","ping":76},{"user_id":424,"name":"juwita malam","steam_id":76561198821151341,"connected_time":978000000000,"state":"active","ping":92},{"user_id":426,"name":"PocoLoco","steam_id":76561198834044246,"connected_time":896000000000,"state":"active","ping":101},{"user_id":431,"name":"dry water","steam_id":76561198167358745,"connected_time":63000000000,"state":"active","ping":76},{"user_id":414,"name":"cucumber","steam_id":76561198157549908,"connected_time":1847000000000,"state":"active","ping":103},{"user_id":415,"name":"Pilot Light","steam_id":76561198046131904,"connected_time":1803000000000,"state":"active","ping":110},{"user_id":404,"name":"brizzard","steam_id":76561198048438653,"connected_time":3629000000000,"state":"active","ping":48},{"user_id":405,"name":"Caelum","steam_id":76561198094074693,"connected_time":3579000000000,"state":"active","ping":87},{"user_id":363,"name":"lk❆","steam_id":76561199077602424,"connected_time":6692000000000,"state":"active","ping":57},{"user_id":433,"name":"etea ★","steam_id":76561198070169587,"connected_time":29000000000,"state":"active","ping":77},{"user_id":434,"name":"kippitlolz","steam_id":76561198160780899,"connected_time":17000000000,"state":"active","ping":110}]},{"server_id":1,"name":"Uncletopia | Los Angeles | 1 | All Maps","name_short":"lax-1","host":"lax-1.us.uncletopia.com","port":27015,"enabled":true,"region":"us-west","cc":"us","latitude":33.94279,"longitude":-118.41004,"reserved":0,"last_update":"0001-01-01T00:00:00Z","name_a2s":"Uncletopia | Los Angeles | 1 | All Maps","protocol":17,"map":"pl_pier","folder":"tf","game":"Team Fortress","app_id":440,"player_count":1,"max_players":24,"Bots":0,"server_type":"Dedicated","server_os":"Linux","password":true,"vac":true,"version":"7708610","steam_id":85568392924469991,"keywords":["nocrits","nodmgspread","payload","uncletopia"],"game_id":440,"stv_port":27016,"stv_name":"Uncletopia | Los Angeles | 1 | All Maps | STV","players":[{"user_id":3,"name":"Dr.Blunt","steam_id":76561198096333958,"connected_time":553000000000,"state":"active","ping":88}]},{"server_id":112,"name":"Uncletopia | Los Angeles | 2 | All Maps","name_short":"lax-2","host":"lax-1.us.uncletopia.com","port":27025,"enabled":true,"region":"us-west","cc":"us","latitude":33.94279,"longitude":-118.41004,"reserved":0,"last_update":"0001-01-01T00:00:00Z","name_a2s":"Uncletopia | Los Angeles | 2 | All Maps","protocol":17,"map":"cp_snakewater_final1","folder":"tf","game":"Team Fortress","app_id":440,"player_count":0,"max_players":24,"Bots":0,"server_type":"Dedicated","server_os":"Linux","password":true,"vac":true,"version":"7708610","steam_id":85568392924469992,"keywords":["cp","nocrits","nodmgspread","uncletopia"],"game_id":440,"stv_port":27026,"stv_name":"Uncletopia | Los Angeles | 2 | All Maps | STV","players":null},{"server_id":324,"name":"Uncletopia | Los Angeles | 3 | All Maps","name_short":"lax-3","host":"lax-1.us.uncletopia.com","port":27035,"enabled":true,"region":"us-west","cc":"us","latitude":33.94279,"longitude":-118.41004,"reserved":0,"last_update":"0001-01-01T00:00:00Z","name_a2s":"Uncletopia | Los Angeles | 3 | All Maps","protocol":17,"map":"cp_mountainlab","folder":"tf","game":"Team Fortress","app_id":440,"player_count":0,"max_players":24,"Bots":0,"server_type":"Dedicated","server_os":"Linux","password":true,"vac":true,"version":"7708610","steam_id":85568392924510198,"keywords":["cp","nocrits","nodmgspread","uncletopia"],"game_id":440,"stv_port":27036,"stv_name":"Uncletopia | Los Angeles | 3 | All Maps | STV","players":null},{"server_id":25,"name":"Uncletopia | Los Angeles | 4 | No Payload","name_short":"lax-4","host":"lax-1.us.uncletopia.com","port":27045,"enabled":true,"region":"us-west","cc":"us","latitude":33.94279,"longitude":-118.41004,"reserved":0,"last_update":"0001-01-01T00:00:00Z","name_a2s":"Uncletopia | Los Angeles | 4 | No Payload","protocol":17,"map":"pl_swiftwater_final1","folder":"tf","game":"Team Fortress","app_id":440,"player_count":0,"max_players":24,"Bots":0,"server_type":"Dedicated","server_os":"Linux","password":true,"vac":true,"version":"7708610","steam_id":85568392924510199,"keywords":["nocrits","nodmgspread","payload","uncletopia"],"game_id":440,"stv_port":27046,"stv_name":"Uncletopia | Los Angeles | 4 | No Payload | STV","players":null},{"server_id":11,"name":"Uncletopia | London | 1 | All Maps","name_short":"lon-1","host":"lon-1.uk.uncletopia.com","port":27015,"enabled":true,"region":"eu","cc":"gb","latitude":51.509865,"longitude":-0.118092,"reserved":0,"last_update":"0001-01-01T00:00:00Z","name_a2s":"Uncletopia | London | 1 | All Maps","protocol":17,"map":"pl_swiftwater_final1","folder":"tf","game":"Team Fortress","app_id":440,"player_count":24,"max_players":24,"Bots":0,"server_type":"Dedicated","server_os":"Linux","password":true,"vac":true,"version":"7708610","steam_id":85568392924367362,"keywords":["nocrits","nodmgspread","payload","uncletopia"],"game_id":440,"stv_port":27016,"stv_name":"Uncletopia | London | 1 | All Maps | STV","players":[{"user_id":426,"name":"JOHN GAMING (based)","steam_id":76561199085822219,"connected_time":2515000000000,"state":"active","ping":88},{"user_id":447,"name":"SubWOOFA","steam_id":76561198025869967,"connected_time":502000000000,"state":"active","ping":63},{"user_id":435,"name":"Jon","steam_id":76561198148858397,"connected_time":1571000000000,"state":"active","ping":56},{"user_id":427,"name":"MrXtr","steam_id":76561198966247397,"connected_time":2350000000000,"state":"active","ping":55},{"user_id":400,"name":"pizza pasta (the boxer)","steam_id":76561198106455841,"connected_time":4086000000000,"state":"active","ping":68},{"user_id":433,"name":"most sane mentalist","steam_id":76561198310095220,"connected_time":1658000000000,"state":"active","ping":35},{"user_id":401,"name":"Kareem","steam_id":76561198364462049,"connected_time":4076000000000,"state":"active","ping":98},{"user_id":439,"name":"Torches! Torches!","steam_id":76561199176835169,"connected_time":1156000000000,"state":"active","ping":52},{"user_id":445,"name":"Shift","steam_id":76561198028296732,"connected_time":781000000000,"state":"active","ping":52},{"user_id":408,"name":"Dlaf'rferg (she/her)","steam_id":76561198284744735,"connected_time":3307000000000,"state":"active","ping":47},{"user_id":383,"name":"KPhii","steam_id":76561198970587061,"connected_time":5104000000000,"state":"active","ping":59},{"user_id":417,"name":"Hönse","steam_id":76561198287810139,"connected_time":3019000000000,"state":"active","ping":71},{"user_id":441,"name":".viki","steam_id":76561198119607160,"connected_time":1001000000000,"state":"active","ping":78},{"user_id":418,"name":"UltimateSlayer","steam_id":76561198384109309,"connected_time":3015000000000,"state":"active","ping":60},{"user_id":448,"name":"Litsuw","steam_id":76561198081785898,"connected_time":168000000000,"state":"active","ping":69},{"user_id":404,"name":"AWP Bodyshot :) ❤","steam_id":76561198029928533,"connected_time":3577000000000,"state":"active","ping":59},{"user_id":409,"name":"TheBeardedM1G","steam_id":76561198040208946,"connected_time":3299000000000,"state":"active","ping":50},{"user_id":442,"name":"bonehead","steam_id":76561198261870384,"connected_time":876000000000,"state":"active","ping":50},{"user_id":425,"name":"Kahvi","steam_id":76561198723244199,"connected_time":2524000000000,"state":"active","ping":89},{"user_id":431,"name":"Tort","steam_id":76561198329646769,"connected_time":2195000000000,"state":"active","ping":47},{"user_id":446,"name":"PlasticVoid","steam_id":76561197997870306,"connected_time":648000000000,"state":"active","ping":56},{"user_id":443,"name":"MaTTy","steam_id":76561198154318571,"connected_time":852000000000,"state":"active","ping":70},{"user_id":444,"name":"zaleek69","steam_id":76561198058877595,"connected_time":802000000000,"state":"active","ping":69},{"user_id":434,"name":"Thorley","steam_id":76561199053031344,"connected_time":1657000000000,"state":"active","ping":38}]},{"server_id":114,"name":"","name_short":"lon-2","host":"lon-1.uk.uncletopia.com","port":27025,"enabled":true,"region":"eu","cc":"gb","latitude":51.509865,"longitude":-0.118092,"reserved":0,"last_update":"0001-01-01T00:00:00Z","name_a2s":"Uncletopia | London | 2 | All Maps","protocol":17,"map":"","folder":"tf","game":"Team Fortress","app_id":440,"player_count":24,"max_players":24,"Bots":0,"server_type":"Dedicated","server_os":"Linux","password":true,"vac":true,"version":"7708610","steam_id":85568392924470941,"keywords":["nocrits","nodmgspread","payload","uncletopia"],"game_id":440,"stv_port":27026,"stv_name":"Uncletopia | London | 2 | All Maps | STV","players":null},{"server_id":320,"name":"Uncletopia | London | 3 | All Maps","name_short":"lon-3","host":"lon-1.uk.uncletopia.com","port":27035,"enabled":true,"region":"eu","cc":"gb","latitude":51.509865,"longitude":-0.118092,"reserved":0,"last_update":"0001-01-01T00:00:00Z","name_a2s":"Uncletopia | London | 3 | All Maps","protocol":17,"map":"cp_steel","folder":"tf","game":"Team Fortress","app_id":440,"player_count":23,"max_players":24,"Bots":0,"server_type":"Dedicated","server_os":"Linux","password":true,"vac":true,"version":"7708610","steam_id":85568392924510192,"keywords":["cp","nocrits","nodmgspread","uncletopia"],"game_id":440,"stv_port":27036,"stv_name":"Uncletopia | London | 3 | All Maps | STV","players":[{"user_id":403,"name":"Mika","steam_id":76561199183780280,"connected_time":1948000000000,"state":"active","ping":51},{"user_id":431,"name":"SCooler27","steam_id":76561199200454579,"connected_time":470000000000,"state":"active","ping":68},{"user_id":436,"name":"GGabesz","steam_id":76561198117199068,"connected_time":56000000000,"state":"active","ping":74},{"user_id":420,"name":"hev i","steam_id":76561198077827849,"connected_time":771000000000,"state":"active","ping":76},{"user_id":415,"name":"rat performance","steam_id":76561198065854668,"connected_time":877000000000,"state":"active","ping":45},{"user_id":423,"name":"gvd2002","steam_id":76561198346318605,"connected_time":717000000000,"state":"active","ping":134},{"user_id":409,"name":"Blacksheep","steam_id":76561198019621063,"connected_time":1342000000000,"state":"active","ping":48},{"user_id":424,"name":"Fido","steam_id":76561198019826483,"connected_time":711000000000,"state":"active","ping":59},{"user_id":417,"name":"Mari Christmas","steam_id":76561197997020707,"connected_time":854000000000,"state":"active","ping":48},{"user_id":355,"name":"Tsunaris (i play kazoo)","steam_id":76561198357653870,"connected_time":4702000000000,"state":"active","ping":95},{"user_id":434,"name":"LegoKatt","steam_id":76561198064536870,"connected_time":179000000000,"state":"active","ping":87},{"user_id":359,"name":"meatsoupcube","steam_id":76561198276802249,"connected_time":4522000000000,"state":"active","ping":103},{"user_id":437,"name":"Dr. WAH","steam_id":76561198297778149,"connected_time":50000000000,"state":"active","ping":71},{"user_id":405,"name":"ribs","steam_id":76561198354735240,"connected_time":1627000000000,"state":"active","ping":53},{"user_id":432,"name":"$Why So Serious","steam_id":76561198243125192,"connected_time":464000000000,"state":"active","ping":66},{"user_id":390,"name":"ralph62x","steam_id":76561198865294231,"connected_time":2396000000000,"state":"active","ping":42},{"user_id":369,"name":"LOBZIK","steam_id":76561198114830120,"connected_time":4070000000000,"state":"active","ping":79},{"user_id":402,"name":"Gety0","steam_id":76561198044387185,"connected_time":2008000000000,"state":"active","ping":75},{"user_id":427,"name":"Boby","steam_id":76561198296309695,"connected_time":647000000000,"state":"active","ping":71},{"user_id":439,"name":"g","steam_id":76561198033524151,"connected_time":22000000000,"state":"active","ping":63},{"user_id":428,"name":"deva uor","steam_id":76561198168251125,"connected_time":637000000000,"state":"active","ping":80},{"user_id":438,"name":"zinzyk","steam_id":76561198128011822,"connected_time":40000000000,"state":"active","ping":68},{"user_id":395,"name":"lulu","steam_id":76561199147764133,"connected_time":2274000000000,"state":"active","ping":77}]},{"server_id":321,"name":"Uncletopia | London | 4 | All Maps","name_short":"lon-4","host":"lon-1.uk.uncletopia.com","port":27045,"enabled":true,"region":"eu","cc":"gb","latitude":51.509865,"longitude":-0.118092,"reserved":0,"last_update":"0001-01-01T00:00:00Z","name_a2s":"Uncletopia | London | 4 | All Maps","protocol":17,"map":"pl_barnblitz","folder":"tf","game":"Team Fortress","app_id":440,"player_count":15,"max_players":24,"Bots":0,"server_type":"Dedicated","server_os":"Linux","password":true,"vac":true,"version":"7708610","steam_id":85568392924510193,"keywords":["nocrits","nodmgspread","payload","uncletopia"],"game_id":440,"stv_port":27046,"stv_name":"Uncletopia | London | 4 | All Maps | STV","players":[{"user_id":131,"name":"Swim","steam_id":76561198147350118,"connected_time":112000000000,"state":"active","ping":56},{"user_id":123,"name":"M_double_P","steam_id":76561199067569646,"connected_time":404000000000,"state":"active","ping":65},{"user_id":133,"name":"Th3Celestial","steam_id":76561198353312252,"connected_time":12000000000,"state":"spawning","ping":59},{"user_id":122,"name":"jaMie","steam_id":76561198170148783,"connected_time":464000000000,"state":"active","ping":43},{"user_id":119,"name":"TwOne","steam_id":76561198042918856,"connected_time":496000000000,"state":"active","ping":44},{"user_id":102,"name":"Cheshireycat","steam_id":76561198067204908,"connected_time":1082000000000,"state":"active","ping":54},{"user_id":103,"name":"Scob","steam_id":76561199130861607,"connected_time":1065000000000,"state":"active","ping":41},{"user_id":120,"name":"Dr. Oetker","steam_id":76561198202668788,"connected_time":475000000000,"state":"active","ping":69},{"user_id":113,"name":"edmund","steam_id":76561198378470149,"connected_time":782000000000,"state":"active","ping":46},{"user_id":106,"name":"DEMURE","steam_id":76561198263299590,"connected_time":1017000000000,"state":"active","ping":120},{"user_id":128,"name":"ricky dicky doo dah grimes","steam_id":76561198027307745,"connected_time":219000000000,"state":"active","ping":48},{"user_id":132,"name":"Peggle Extreme","steam_id":76561198101451654,"connected_time":99000000000,"state":"active","ping":47},{"user_id":109,"name":"Revettah","steam_id":76561198040442214,"connected_time":978000000000,"state":"active","ping":32},{"user_id":129,"name":"Ozzie","steam_id":76561197992915315,"connected_time":203000000000,"state":"active","ping":89},{"user_id":112,"name":"Boot Scootin Boogie","steam_id":76561198059171120,"connected_time":887000000000,"state":"active","ping":123}]},{"server_id":21,"name":"Uncletopia | London | 5 | All Maps","name_short":"lon-5","host":"lon-1.uk.uncletopia.com","port":27055,"enabled":true,"region":"eu","cc":"gb","latitude":51.509865,"longitude":-0.118092,"reserved":0,"last_update":"0001-01-01T00:00:00Z","name_a2s":"Uncletopia | London | 5 | All Maps","protocol":17,"map":"pl_frontier_final","folder":"tf","game":"Team Fortress","app_id":440,"player_count":0,"max_players":24,"Bots":0,"server_type":"Dedicated","server_os":"Linux","password":true,"vac":true,"version":"7708610","steam_id":85568392924742829,"keywords":["nocrits","nodmgspread","payload","uncletopia"],"game_id":440,"stv_port":27056,"stv_name":"Uncletopia | London | 5 | All Maps | STV","players":null},{"server_id":22,"name":"Uncletopia | London | 6 | All Maps","name_short":"lon-6","host":"lon-1.uk.uncletopia.com","port":27065,"enabled":true,"region":"eu","cc":"gb","latitude":51.509865,"longitude":-0.118092,"reserved":0,"last_update":"0001-01-01T00:00:00Z","name_a2s":"Uncletopia | London | 6 | All Maps","protocol":17,"map":"koth_suijin","folder":"tf","game":"Team Fortress","app_id":440,"player_count":5,"max_players":24,"Bots":0,"server_type":"Dedicated","server_os":"Linux","password":true,"vac":true,"version":"7708610","steam_id":85568392924742830,"keywords":["cp","nocrits","nodmgspread","uncletopia"],"game_id":440,"stv_port":27066,"stv_name":"Uncletopia | London | 6 | All Maps | STV","players":[{"user_id":44,"name":"PerskuleBenener","steam_id":76561198156899375,"connected_time":1149000000000,"state":"active","ping":86},{"user_id":45,"name":"garbage mikuknight","steam_id":76561198361819054,"connected_time":977000000000,"state":"active","ping":93},{"user_id":43,"name":"W.J","steam_id":76561198390535689,"connected_time":1428000000000,"state":"active","ping":87},{"user_id":38,"name":"venomew2","steam_id":76561198327081077,"connected_time":1550000000000,"state":"active","ping":165},{"user_id":42,"name":"Lawliet","steam_id":76561199222526598,"connected_time":1454000000000,"state":"active","ping":70}]},{"server_id":40,"name":"Uncletopia | London | 7 | No Payload","name_short":"lon-7","host":"lon-1.uk.uncletopia.com","port":27075,"enabled":true,"region":"eu","cc":"gb","latitude":51.509865,"longitude":-0.118092,"reserved":0,"last_update":"0001-01-01T00:00:00Z","name_a2s":"Uncletopia | London | 7 | No Payload","protocol":17,"map":"koth_lakeside_final","folder":"tf","game":"Team Fortress","app_id":440,"player_count":5,"max_players":24,"Bots":0,"server_type":"Dedicated","server_os":"Linux","password":true,"vac":true,"version":"7708610","steam_id":85568392924964314,"keywords":["cp","nocrits","nodmgspread","uncletopia"],"game_id":440,"stv_port":27076,"stv_name":"Uncletopia | London | 7 | No Payload | STV","players":[{"user_id":18,"name":"presidentialAIDS","steam_id":76561199257284077,"connected_time":1691000000000,"state":"active","ping":128},{"user_id":17,"name":"SaSSolino","steam_id":76561198011308018,"connected_time":2327000000000,"state":"active","ping":60},{"user_id":16,"name":"Rotveyler450","steam_id":76561199234038958,"connected_time":2530000000000,"state":"active","ping":171},{"user_id":19,"name":"henta1","steam_id":76561199439994238,"connected_time":681000000000,"state":"active","ping":110},{"user_id":20,"name":"shiny fatneck","steam_id":76561198923646746,"connected_time":180000000000,"state":"active","ping":61}]},{"server_id":41,"name":"Uncletopia | London | 8 | Community","name_short":"lon-8","host":"lon-1.uk.uncletopia.com","port":27085,"enabled":true,"region":"eu","cc":"gb","latitude":51.509865,"longitude":-0.118092,"reserved":0,"last_update":"0001-01-01T00:00:00Z","name_a2s":"Uncletopia | London | 8 | Community","protocol":17,"map":"koth_highpass","folder":"tf","game":"Team Fortress","app_id":440,"player_count":0,"max_players":24,"Bots":0,"server_type":"Dedicated","server_os":"Linux","password":true,"vac":true,"version":"7708610","steam_id":85568392924964315,"keywords":["cp","nocrits","nodmgspread","uncletopia"],"game_id":440,"stv_port":27086,"stv_name":"Uncletopia | London | 8 | Community | STV","players":null},{"server_id":300,"name":"Uncletopia | Montréal | 1 | All Maps","name_short":"mtl-1","host":"mtl-1.ca.uncletopia.com","port":27015,"enabled":true,"region":"us-east","cc":"ca","latitude":45.50889,"longitude":-73.56167,"reserved":0,"last_update":"0001-01-01T00:00:00Z","name_a2s":"Uncletopia | Montréal | 1 | All Maps","protocol":17,"map":"pl_barnblitz","folder":"tf","game":"Team Fortress","app_id":440,"player_count":0,"max_players":24,"Bots":0,"server_type":"Dedicated","server_os":"Linux","password":true,"vac":true,"version":"7708610","steam_id":85568392924500087,"keywords":["nocrits","nodmgspread","payload","uncletopia"],"game_id":440,"stv_port":0,"stv_name":"","players":null},{"server_id":301,"name":"Uncletopia | Montréal | 2 | All Maps","name_short":"mtl-2","host":"mtl-1.ca.uncletopia.com","port":27025,"enabled":true,"region":"us-east","cc":"ca","latitude":45.50889,"longitude":-73.56167,"reserved":0,"last_update":"0001-01-01T00:00:00Z","name_a2s":"Uncletopia | Montréal | 2 | All Maps","protocol":17,"map":"pl_frontier_final","folder":"tf","game":"Team Fortress","app_id":440,"player_count":0,"max_players":24,"Bots":0,"server_type":"Dedicated","server_os":"Linux","password":true,"vac":true,"version":"7708610","steam_id":85568392924500088,"keywords":["nocrits","nodmgspread","payload","uncletopia"],"game_id":440,"stv_port":0,"stv_name":"","players":null},{"server_id":302,"name":"Uncletopia | Montréal | 3 | All Maps","name_short":"mtl-3","host":"mtl-1.ca.uncletopia.com","port":27035,"enabled":true,"region":"us-east","cc":"ca","latitude":45.50889,"longitude":-73.56167,"reserved":0,"last_update":"0001-01-01T00:00:00Z","name_a2s":"Uncletopia | Montréal | 3 | All Maps","protocol":17,"map":"pl_snowycoast","folder":"tf","game":"Team Fortress","app_id":440,"player_count":0,"max_players":24,"Bots":0,"server_type":"Dedicated","server_os":"Linux","password":true,"vac":true,"version":"7708610","steam_id":85568392924500089,"keywords":["nocrits","nodmgspread","payload","uncletopia"],"game_id":440,"stv_port":0,"stv_name":"","players":null},{"server_id":303,"name":"Uncletopia | Montréal | 4 | No Payload","name_short":"mtl-4","host":"mtl-1.ca.uncletopia.com","port":27045,"enabled":true,"region":"us-east","cc":"ca","latitude":45.50889,"longitude":-73.56167,"reserved":0,"last_update":"0001-01-01T00:00:00Z","name_a2s":"Uncletopia | Montréal | 4 | No Payload","protocol":17,"map":"pl_frontier_final","folder":"tf","game":"Team Fortress","app_id":440,"player_count":0,"max_players":24,"Bots":0,"server_type":"Dedicated","server_os":"Linux","password":true,"vac":true,"version":"7708610","steam_id":85568392924500090,"keywords":["nocrits","nodmgspread","payload","uncletopia"],"game_id":440,"stv_port":0,"stv_name":"","players":null},{"server_id":13,"name":"Uncletopia | New York City | 1 | All Maps","name_short":"nyc-1","host":"nyc-1.us.uncletopia.com","port":27015,"enabled":true,"region":"us-east","cc":"us","latitude":40.73061,"longitude":-73.93524,"reserved":0,"last_update":"0001-01-01T00:00:00Z","name_a2s":"Uncletopia | New York City | 1 | All Maps","protocol":17,"map":"koth_highpass","folder":"tf","game":"Team Fortress","app_id":440,"player_count":0,"max_players":24,"Bots":0,"server_type":"Dedicated","server_os":"Linux","password":true,"vac":true,"version":"7708610","steam_id":85568392924469993,"keywords":["cp","nocrits","nodmgspread","uncletopia"],"game_id":440,"stv_port":27016,"stv_name":"Uncletopia | New York City | 1 | All Maps | STV","players":null},{"server_id":14,"name":"Uncletopia | New York City | 2 | All Maps","name_short":"nyc-2","host":"nyc-1.us.uncletopia.com","port":27025,"enabled":true,"region":"us-east","cc":"us","latitude":40.73061,"longitude":-73.93524,"reserved":0,"last_update":"0001-01-01T00:00:00Z","name_a2s":"Uncletopia | New York City | 2 | All Maps","protocol":17,"map":"pl_barnblitz","folder":"tf","game":"Team Fortress","app_id":440,"player_count":24,"max_players":24,"Bots":0,"server_type":"Dedicated","server_os":"Linux","password":true,"vac":true,"version":"7708610","steam_id":85568392924469994,"keywords":["nocrits","nodmgspread","payload","uncletopia"],"game_id":440,"stv_port":27026,"stv_name":"Uncletopia | New York City | 2 | All Maps | STV","players":[{"user_id":90,"name":"Ghost of pl_frontier","steam_id":76561198040444697,"connected_time":366000000000,"state":"active","ping":52},{"user_id":88,"name":"Xavibite","steam_id":76561198209380493,"connected_time":400000000000,"state":"active","ping":41},{"user_id":84,"name":"Minuano","steam_id":76561198108374034,"connected_time":604000000000,"state":"active","ping":71},{"user_id":101,"name":"tree","steam_id":76561198159339442,"connected_time":109000000000,"state":"active","ping":71},{"user_id":82,"name":"GoatzAreFluffy","steam_id":76561198954843477,"connected_time":800000000000,"state":"active","ping":99},{"user_id":104,"name":"minchengchen","steam_id":76561198217611603,"connected_time":17000000000,"state":"active","ping":55},{"user_id":87,"name":"carter","steam_id":76561198285295764,"connected_time":517000000000,"state":"active","ping":68},{"user_id":68,"name":"egghead","steam_id":76561198137201289,"connected_time":1997000000000,"state":"active","ping":80},{"user_id":83,"name":"The_Epic_Conclusion","steam_id":76561198084250179,"connected_time":750000000000,"state":"active","ping":56},{"user_id":105,"name":"badspyplayer300","steam_id":76561198964306655,"connected_time":5000000000,"state":"spawning","ping":68},{"user_id":102,"name":"avengedsevenfold.fan_2012","steam_id":76561198210364561,"connected_time":85000000000,"state":"active","ping":53},{"user_id":50,"name":"A_Malebolgia","steam_id":76561198097722818,"connected_time":2391000000000,"state":"active","ping":78},{"user_id":92,"name":"novu","steam_id":76561198886997024,"connected_time":301000000000,"state":"active","ping":73},{"user_id":89,"name":"milkmelike1ofyourfrenchgirls","steam_id":76561199122375408,"connected_time":396000000000,"state":"active","ping":60},{"user_id":103,"name":"Alexthegreat","steam_id":76561197996796222,"connected_time":75000000000,"state":"active","ping":50},{"user_id":46,"name":"Mury","steam_id":76561198069743049,"connected_time":2868000000000,"state":"active","ping":67},{"user_id":76,"name":"Zane1788 / DEMO DEMO PAN","steam_id":76561198282987330,"connected_time":1187000000000,"state":"active","ping":90},{"user_id":79,"name":"hierodule","steam_id":76561198023229665,"connected_time":920000000000,"state":"active","ping":60},{"user_id":106,"name":"rat gaming","steam_id":76561199238923581,"connected_time":2000000000,"state":"spawning","ping":202},{"user_id":27,"name":"WHO","steam_id":76561198380484033,"connected_time":3938000000000,"state":"active","ping":122},{"user_id":28,"name":"Something Spooky","steam_id":76561198115040209,"connected_time":3890000000000,"state":"active","ping":80},{"user_id":29,"name":"Fake Checkmate","steam_id":76561199164847195,"connected_time":3882000000000,"state":"active","ping":73},{"user_id":81,"name":"Average Holiday Enjoyer","steam_id":76561199031172409,"connected_time":859000000000,"state":"active","ping":76},{"user_id":94,"name":"dr peppah chug!","steam_id":76561198068835693,"connected_time":294000000000,"state":"active","ping":84}]},{"server_id":15,"name":"Uncletopia | New York City | 3 | All Maps","name_short":"nyc-3","host":"nyc-1.us.uncletopia.com","port":27035,"enabled":true,"region":"us-east","cc":"us","latitude":40.73061,"longitude":-73.93524,"reserved":0,"last_update":"0001-01-01T00:00:00Z","name_a2s":"Uncletopia | New York City | 3 | All Maps","protocol":17,"map":"pl_frontier_final","folder":"tf","game":"Team Fortress","app_id":440,"player_count":5,"max_players":24,"Bots":0,"server_type":"Dedicated","server_os":"Linux","password":true,"vac":true,"version":"7708610","steam_id":85568392924742820,"keywords":["nocrits","nodmgspread","payload","uncletopia"],"game_id":440,"stv_port":27036,"stv_name":"Uncletopia | New York City | 3 | All Maps | STV","players":[{"user_id":4,"name":"TheWallaby","steam_id":76561198948037546,"connected_time":2265000000000,"state":"active","ping":59},{"user_id":10,"name":"sentient soup","steam_id":76561198887503216,"connected_time":1427000000000,"state":"active","ping":66},{"user_id":11,"name":"Ghost Lord","steam_id":76561198088956723,"connected_time":469000000000,"state":"active","ping":105},{"user_id":8,"name":"Rugbmilk","steam_id":76561199389283507,"connected_time":1628000000000,"state":"active","ping":45},{"user_id":9,"name":"Funny Skeleton Man","steam_id":76561198264262564,"connected_time":1611000000000,"state":"active","ping":62}]},{"server_id":16,"name":"Uncletopia | New York City | 4 | Community","name_short":"nyc-4","host":"nyc-1.us.uncletopia.com","port":27045,"enabled":true,"region":"us-east","cc":"us","latitude":40.73061,"longitude":-73.93524,"reserved":0,"last_update":"0001-01-01T00:00:00Z","name_a2s":"Uncletopia | New York City | 4 | Community","protocol":17,"map":"pl_upward","folder":"tf","game":"Team Fortress","app_id":440,"player_count":0,"max_players":24,"Bots":0,"server_type":"Dedicated","server_os":"Linux","password":true,"vac":true,"version":"7708610","steam_id":85568392924742821,"keywords":["nocrits","nodmgspread","payload","uncletopia"],"game_id":440,"stv_port":27046,"stv_name":"Uncletopia | New York City | 4 | Community | STV","players":null},{"server_id":142,"name":"Uncletopia | São Paulo | 1 | All Maps","name_short":"sao-1","host":"sao-1.br.uncletopia.com","port":27015,"enabled":true,"region":"sa","cc":"br","latitude":-23.533773,"longitude":-46.62529,"reserved":0,"last_update":"0001-01-01T00:00:00Z","name_a2s":"Uncletopia | São Paulo | 1 | All Maps","protocol":17,"map":"koth_viaduct","folder":"tf","game":"Team Fortress","app_id":440,"player_count":0,"max_players":24,"Bots":0,"server_type":"Dedicated","server_os":"Linux","password":true,"vac":true,"version":"7708610","steam_id":85568392924469996,"keywords":["cp","nocrits","nodmgspread","uncletopia"],"game_id":440,"stv_port":27016,"stv_name":"Uncletopia | São Paulo | 1 | All Maps | STV","players":null},{"server_id":143,"name":"Uncletopia | São Paulo | 2 | All Maps","name_short":"sao-2","host":"sao-2.br.uncletopia.com","port":27015,"enabled":true,"region":"sa","cc":"br","latitude":-23.533773,"longitude":-46.62529,"reserved":0,"last_update":"0001-01-01T00:00:00Z","name_a2s":"Uncletopia | São Paulo | 2 | All Maps","protocol":17,"map":"pl_badwater","folder":"tf","game":"Team Fortress","app_id":440,"player_count":0,"max_players":24,"Bots":0,"server_type":"Dedicated","server_os":"Linux","password":true,"vac":true,"version":"7708610","steam_id":85568392924485349,"keywords":["nocrits","nodmgspread","payload","uncletopia"],"game_id":440,"stv_port":27016,"stv_name":"Uncletopia | São Paulo | 2 | All Maps | STV","players":null},{"server_id":7,"name":"Uncletopia | Seattle | 1 | All Maps","name_short":"sea-1","host":"sea-1.us.uncletopia.com","port":27015,"enabled":true,"region":"us-west","cc":"us","latitude":47.608013,"longitude":-122.33517,"reserved":0,"last_update":"0001-01-01T00:00:00Z","name_a2s":"Uncletopia | Seattle | 1 | All Maps","protocol":17,"map":"pl_barnblitz","folder":"tf","game":"Team Fortress","app_id":440,"player_count":0,"max_players":24,"Bots":0,"server_type":"Dedicated","server_os":"Linux","password":true,"vac":true,"version":"7708610","steam_id":85568392924469997,"keywords":["nocrits","nodmgspread","payload","uncletopia"],"game_id":440,"stv_port":27016,"stv_name":"Uncletopia | Seattle | 1 | All Maps | STV","players":null},{"server_id":119,"name":"Uncletopia | Seattle | 2 | All Maps","name_short":"sea-2","host":"sea-1.us.uncletopia.com","port":27025,"enabled":true,"region":"us-west","cc":"us","latitude":47.608013,"longitude":-122.33517,"reserved":0,"last_update":"0001-01-01T00:00:00Z","name_a2s":"Uncletopia | Seattle | 2 | All Maps","protocol":17,"map":"pl_frontier_final","folder":"tf","game":"Team Fortress","app_id":440,"player_count":0,"max_players":24,"Bots":0,"server_type":"Dedicated","server_os":"Linux","password":true,"vac":true,"version":"7708610","steam_id":85568392924469998,"keywords":["nocrits","nodmgspread","payload","uncletopia"],"game_id":440,"stv_port":27026,"stv_name":"Uncletopia | Seattle | 2 | All Maps | STV","players":null},{"server_id":17,"name":"Uncletopia | San Francisco | 1 | All Maps","name_short":"sfo-1","host":"sfo-1.us.uncletopia.com","port":27015,"enabled":true,"region":"us-west","cc":"us","latitude":37.77397,"longitude":-122.4313,"reserved":0,"last_update":"0001-01-01T00:00:00Z","name_a2s":"Uncletopia | San Francisco | 1 | All Maps","protocol":17,"map":"koth_lakeside_final","folder":"tf","game":"Team Fortress","app_id":440,"player_count":0,"max_players":24,"Bots":0,"server_type":"Dedicated","server_os":"Linux","password":true,"vac":true,"version":"7708610","steam_id":85568392924469999,"keywords":["cp","nocrits","nodmgspread","uncletopia"],"game_id":440,"stv_port":27016,"stv_name":"Uncletopia | San Francisco | 1 | All Maps | STV","players":null},{"server_id":18,"name":"Uncletopia | San Francisco | 2 | All Maps","name_short":"sfo-2","host":"sfo-1.us.uncletopia.com","port":27025,"enabled":true,"region":"us-west","cc":"us","latitude":37.77397,"longitude":-122.4313,"reserved":0,"last_update":"0001-01-01T00:00:00Z","name_a2s":"Uncletopia | San Francisco | 2 | All Maps","protocol":17,"map":"koth_viaduct","folder":"tf","game":"Team Fortress","app_id":440,"player_count":0,"max_players":24,"Bots":0,"server_type":"Dedicated","server_os":"Linux","password":true,"vac":true,"version":"7708610","steam_id":85568392924470000,"keywords":["cp","nocrits","nodmgspread","uncletopia"],"game_id":440,"stv_port":27026,"stv_name":"Uncletopia | San Francisco | 2 | All Maps | STV","players":null},{"server_id":19,"name":"Uncletopia | San Francisco | 3 | No Payload","name_short":"sfo-3","host":"sfo-1.us.uncletopia.com","port":27035,"enabled":true,"region":"us-west","cc":"us","latitude":37.77397,"longitude":-122.4313,"reserved":0,"last_update":"0001-01-01T00:00:00Z","name_a2s":"Uncletopia | San Francisco | 3 | No Payload","protocol":17,"map":"cp_mountainlab","folder":"tf","game":"Team Fortress","app_id":440,"player_count":0,"max_players":24,"Bots":0,"server_type":"Dedicated","server_os":"Linux","password":true,"vac":true,"version":"7708610","steam_id":85568392924742824,"keywords":["cp","nocrits","nodmgspread","uncletopia"],"game_id":440,"stv_port":27036,"stv_name":"Uncletopia | San Francisco | 3 | No Payload | STV","players":null},{"server_id":20,"name":"Uncletopia | San Francisco | 4 | Community","name_short":"sfo-4","host":"sfo-1.us.uncletopia.com","port":27045,"enabled":true,"region":"us-west","cc":"us","latitude":37.77397,"longitude":-122.4313,"reserved":0,"last_update":"0001-01-01T00:00:00Z","name_a2s":"Uncletopia | San Francisco | 4 | Community","protocol":17,"map":"cp_altitude","folder":"tf","game":"Team Fortress","app_id":440,"player_count":0,"max_players":24,"Bots":0,"server_type":"Dedicated","server_os":"Linux","password":true,"vac":true,"version":"7708610","steam_id":85568392924742826,"keywords":["cp","nocrits","nodmgspread","uncletopia"],"game_id":440,"stv_port":27046,"stv_name":"Uncletopia | San Francisco | 4 | Community | STV","players":null},{"server_id":141,"name":"Uncletopia | Sydney | 1 | All Maps","name_short":"syd-1","host":"syd-1.au.uncletopia.com","port":27015,"enabled":true,"region":"au","cc":"au","latitude":-33.865143,"longitude":151.2099,"reserved":0,"last_update":"0001-01-01T00:00:00Z","name_a2s":"Uncletopia | Sydney | 1 | All Maps","protocol":17,"map":"pl_barnblitz","folder":"tf","game":"Team Fortress","app_id":440,"player_count":0,"max_players":24,"Bots":0,"server_type":"Dedicated","server_os":"Linux","password":true,"vac":true,"version":"7708610","steam_id":85568392924470001,"keywords":["nocrits","nodmgspread","payload","uncletopia"],"game_id":440,"stv_port":27016,"stv_name":"Uncletopia | Sydney | 1 | All Maps | STV","players":null},{"server_id":123,"name":"Uncletopia | Sydney | 2 | All Maps","name_short":"syd-2","host":"syd-1.au.uncletopia.com","port":27025,"enabled":true,"region":"au","cc":"au","latitude":-33.865143,"longitude":151.2099,"reserved":0,"last_update":"0001-01-01T00:00:00Z","name_a2s":"Uncletopia | Sydney | 2 | All Maps","protocol":17,"map":"koth_lakeside_final","folder":"tf","game":"Team Fortress","app_id":440,"player_count":0,"max_players":24,"Bots":0,"server_type":"Dedicated","server_os":"Linux","password":true,"vac":true,"version":"7708610","steam_id":85568392924470002,"keywords":["cp","nocrits","nodmgspread","uncletopia"],"game_id":440,"stv_port":27026,"stv_name":"Uncletopia | Sydney | 2 | All Maps | STV","players":null},{"server_id":395,"name":"Uncletopia | Sydney | 3 | All Maps","name_short":"syd-3","host":"syd-1.au.uncletopia.com","port":27035,"enabled":true,"region":"au","cc":"au","latitude":-33.865143,"longitude":151.2099,"reserved":0,"last_update":"0001-01-01T00:00:00Z","name_a2s":"Uncletopia | Sydney | 3 | All Maps","protocol":17,"map":"cp_altitude","folder":"tf","game":"Team Fortress","app_id":440,"player_count":0,"max_players":24,"Bots":0,"server_type":"Dedicated","server_os":"Linux","password":true,"vac":true,"version":"7708610","steam_id":85568392925194467,"keywords":["cp","nocrits","nodmgspread","uncletopia"],"game_id":440,"stv_port":27036,"stv_name":"Uncletopia | Sydney | 3 | All Maps | STV","players":null},{"server_id":396,"name":"Uncletopia | Sydney | 4 | All Maps","name_short":"syd-4","host":"syd-1.au.uncletopia.com","port":27045,"enabled":true,"region":"au","cc":"au","latitude":-33.865143,"longitude":151.2099,"reserved":0,"last_update":"0001-01-01T00:00:00Z","name_a2s":"Uncletopia | Sydney | 4 | All Maps","protocol":17,"map":"plr_bananabay","folder":"tf","game":"Team Fortress","app_id":440,"player_count":0,"max_players":24,"Bots":0,"server_type":"Dedicated","server_os":"Linux","password":true,"vac":true,"version":"7708610","steam_id":85568392925397958,"keywords":["nocrits","nodmgspread","payload","uncletopia"],"game_id":440,"stv_port":27046,"stv_name":"Uncletopia | Sydney | 4 | All Maps | STV","players":null},{"server_id":58,"name":"Uncletopia | Sydney | 5 | No Payload","name_short":"syd-5","host":"syd-1.au.uncletopia.com","port":27055,"enabled":true,"region":"au","cc":"au","latitude":-33.865143,"longitude":151.2099,"reserved":0,"last_update":"0001-01-01T00:00:00Z","name_a2s":"Uncletopia | Sydney | 5 | No Payload","protocol":17,"map":"plr_bananabay","folder":"tf","game":"Team Fortress","app_id":440,"player_count":0,"max_players":24,"Bots":0,"server_type":"Dedicated","server_os":"Linux","password":true,"vac":true,"version":"7708610","steam_id":85568392925397959,"keywords":["nocrits","nodmgspread","payload","uncletopia"],"game_id":440,"stv_port":27056,"stv_name":"Uncletopia | Sydney | 5 | No Payload | STV","players":null},{"server_id":59,"name":"Uncletopia | Sydney | 6 | Community","name_short":"syd-6","host":"syd-1.au.uncletopia.com","port":27065,"enabled":true,"region":"au","cc":"au","latitude":-33.865143,"longitude":151.2099,"reserved":0,"last_update":"0001-01-01T00:00:00Z","name_a2s":"Uncletopia | Sydney | 6 | Community","protocol":17,"map":"koth_lakeside_final","folder":"tf","game":"Team Fortress","app_id":440,"player_count":0,"max_players":24,"Bots":0,"server_type":"Dedicated","server_os":"Linux","password":true,"vac":true,"version":"7708610","steam_id":85568392925397960,"keywords":["cp","nocrits","nodmgspread","uncletopia"],"game_id":440,"stv_port":27066,"stv_name":"Uncletopia | Sydney | 6 | Community | STV","players":null},{"server_id":49,"name":"Uncletopia | Warsaw | 1 | All Maps","name_short":"waw-1","host":"waw-1.pl.uncletopia.com","port":27015,"enabled":true,"region":"eu","cc":"pl","latitude":52.2297,"longitude":21.017532,"reserved":0,"last_update":"0001-01-01T00:00:00Z","name_a2s":"Uncletopia | Warsaw | 1 | All Maps","protocol":17,"map":"koth_viaduct","folder":"tf","game":"Team Fortress","app_id":440,"player_count":0,"max_players":24,"Bots":0,"server_type":"Dedicated","server_os":"Linux","password":true,"vac":true,"version":"7708610","steam_id":85568392925397850,"keywords":["cp","nocrits","nodmgspread","uncletopia"],"game_id":440,"stv_port":27016,"stv_name":"Uncletopia | Warsaw | 1 | All Maps | STV","players":null},{"server_id":50,"name":"Uncletopia | Warsaw | 2 | All Maps","name_short":"waw-2","host":"waw-1.pl.uncletopia.com","port":27025,"enabled":true,"region":"eu","cc":"pl","latitude":52.2297,"longitude":21.017532,"reserved":0,"last_update":"0001-01-01T00:00:00Z","name_a2s":"Uncletopia | Warsaw | 2 | All Maps","protocol":17,"map":"koth_cascade","folder":"tf","game":"Team Fortress","app_id":440,"player_count":0,"max_players":24,"Bots":0,"server_type":"Dedicated","server_os":"Linux","password":true,"vac":true,"version":"7708610","steam_id":85568392925397851,"keywords":["cp","nocrits","nodmgspread","uncletopia"],"game_id":440,"stv_port":27026,"stv_name":"Uncletopia | Warsaw | 2 | All Maps | STV","players":null},{"server_id":51,"name":"Uncletopia | Warsaw | 3 | All Maps","name_short":"waw-3","host":"waw-1.pl.uncletopia.com","port":27035,"enabled":true,"region":"eu","cc":"pl","latitude":52.2297,"longitude":21.017532,"reserved":0,"last_update":"0001-01-01T00:00:00Z","name_a2s":"Uncletopia | Warsaw | 3 | All Maps","protocol":17,"map":"pl_frontier_final","folder":"tf","game":"Team Fortress","app_id":440,"player_count":0,"max_players":24,"Bots":0,"server_type":"Dedicated","server_os":"Linux","password":true,"vac":true,"version":"7708610","steam_id":85568392925397852,"keywords":["nocrits","nodmgspread","payload","uncletopia"],"game_id":440,"stv_port":27036,"stv_name":"Uncletopia | Warsaw | 3 | All Maps | STV","players":null},{"server_id":52,"name":"Uncletopia | Warsaw | 4 | All Maps","name_short":"waw-4","host":"waw-1.pl.uncletopia.com","port":27045,"enabled":true,"region":"eu","cc":"pl","latitude":52.2297,"longitude":21.017532,"reserved":0,"last_update":"0001-01-01T00:00:00Z","name_a2s":"Uncletopia | Warsaw | 4 | All Maps","protocol":17,"map":"koth_cascade","folder":"tf","game":"Team Fortress","app_id":440,"player_count":0,"max_players":24,"Bots":0,"server_type":"Dedicated","server_os":"Linux","password":true,"vac":true,"version":"7708610","steam_id":85568392925397853,"keywords":["cp","nocrits","nodmgspread","uncletopia"],"game_id":440,"stv_port":27046,"stv_name":"Uncletopia | Warsaw | 4 | All Maps | STV","players":null},{"server_id":53,"name":"Uncletopia | Warsaw | 5 | No Payload","name_short":"waw-5","host":"waw-1.pl.uncletopia.com","port":27055,"enabled":true,"region":"eu","cc":"pl","latitude":52.2297,"longitude":21.017532,"reserved":0,"last_update":"0001-01-01T00:00:00Z","name_a2s":"Uncletopia | Warsaw | 5 | No Payload","protocol":17,"map":"cp_altitude","folder":"tf","game":"Team Fortress","app_id":440,"player_count":0,"max_players":24,"Bots":0,"server_type":"Dedicated","server_os":"Linux","password":true,"vac":true,"version":"7708610","steam_id":85568392925397854,"keywords":["cp","nocrits","nodmgspread","uncletopia"],"game_id":440,"stv_port":27056,"stv_name":"Uncletopia | Warsaw | 5 | No Payload | STV","players":null},{"server_id":54,"name":"Uncletopia | Warsaw | 6 | Community","name_short":"waw-6","host":"waw-1.pl.uncletopia.com","port":27065,"enabled":true,"region":"eu","cc":"pl","latitude":52.2297,"longitude":21.017532,"reserved":0,"last_update":"0001-01-01T00:00:00Z","name_a2s":"Uncletopia | Warsaw | 6 | Community","protocol":17,"map":"workshop/cp_reckoner_rc6.ugc674719999","folder":"tf","game":"Team Fortress","app_id":440,"player_count":0,"max_players":24,"Bots":0,"server_type":"Dedicated","server_os":"Linux","password":true,"vac":true,"version":"7708610","steam_id":85568392925397856,"keywords":["cp","nocrits","nodmgspread","uncletopia"],"game_id":440,"stv_port":27066,"stv_name":"Uncletopia | Warsaw | 6 | Community | STV","players":null}]}