{"status":true,"message":"","result":[{"server_id":2,"name":"Uncletopia | Chicago | 1 | All Maps","name_short":"chi-1","host":"chi-1.us.uncletopia.com","port":27015,"enabled":true,"region":"us-central","cc":"us","latitude":41.881832,"longitude":-87.62318,"reserved":0,"last_update":"0001-01-01T00:00:00Z","name_a2s":"Uncletopia | Chicago | 1 | All Maps","protocol":17,"map":"cp_sunshine","folder":"tf","game":"Team Fortress","app_id":440,"player_count":24,"max_players":24,"Bots":0,"server_type":"Dedicated","server_os":"Linux","password":true,"vac":true,"version":"7932396","steam_id":85568392924469984,"keywords":["cp","nocrits","nodmgspread","uncletopia"],"game_id":440,"stv_port":27016,"stv_name":"Uncletopia | Chicago | 1 | All Maps | STV","players":[{"user_id":534,"name":"Zelith","steam_id":76561198234980480,"connected_time":1939000000000,"state":"active","ping":49},{"user_id":519,"name":"abcdefghijklmnopqrstuvwxyz","steam_id":76561198175741741,"connected_time":3655000000000,"state":"active","ping":74},{"user_id":523,"name":"Touchpad User","steam_id":76561198365780517,"connected_time":3466000000000,"state":"active","ping":89},{"user_id":543,"name":"Thundermonkey (SMOKE)","steam_id":76561198017631728,"connected_time":1262000000000,"state":"active","ping":59},{"user_id":526,"name":"Jomdac","steam_id":76561198150447896,"connected_time":3029000000000,"state":"active","ping":99},{"user_id":544,"name":"triangleman","steam_id":76561198972733542,"connected_time":1112000000000,"state":"active","ping":62},{"user_id":513,"name":"EforEstrogen","steam_id":76561198086787295,"connected_time":3915000000000,"state":"active","ping":97},{"user_id":474,"name":"beyonder","steam_id":76561198045844070,"connected_time":6292000000000,"state":"active","ping":81},{"user_id":471,"name":"what is completely unfappable?","steam_id":76561198032259680,"connected_time":6314000000000,"state":"active","ping":77},{"user_id":535,"name":"K. O. E.","steam_id":76561198025188490,"connected_time":1757000000000,"state":"active","ping":77},{"user_id":545,"name":"Farseer Ulwithy","steam_id":76561197965179245,"connected_time":1111000000000,"state":"active","ping":75},{"user_id":547,"name":"St. Michael","steam_id":76561198037611052,"connected_time":781000000000,"state":"active","ping":62},{"user_id":538,"name":"Apocalypse Rail","steam_id":76561198045754085,"connected_time":1511000000000,"state":"active","ping":73},{"user_id":472,"name":"BreakfastTacos","steam_id":76561198847620442,"connected_time":6312000000000,"state":"active","ping":93},{"user_id":514,"name":"GreekGoat_Coffee","steam_id":76561198129331088,"connected_time":3903000000000,"state":"active","ping":45},{"user_id":525,"name":"Lego Yoda","steam_id":76561199008362890,"connected_time":3060000000000,"state":"active","ping":74},{"user_id":521,"name":"Barbados Slim","steam_id":76561199483183459,"connected_time":3592000000000,"state":"active","ping":94},{"user_id":540,"name":"DIDYMOS Class NHP","steam_id":76561198088986010,"connected_time":1447000000000,"state":"active","ping":103},{"user_id":507,"name":"pp","steam_id":76561198396247454,"connected_time":4073000000000,"state":"active","ping":38},{"user_id":516,"name":"DarkHero","steam_id":76561198197125710,"connected_time":3863000000000,"state":"active","ping":91},{"user_id":549,"name":"Wizard Raccoon","steam_id":76561198072562591,"connected_time":749000000000,"state":"active","ping":75},{"user_id":518,"name":"Snoots!","steam_id":76561198006301420,"connected_time":3736000000000,"state":"active","ping":75},{"user_id":533,"name":"‚ú™ goofbears -iwnl-","steam_id":76561199100831175,"connected_time":2189000000000,"state":"active","ping":74},{"user_id":542,"name":"lagzer","steam_id":76561198029295449,"connected_time":1405000000000,"state":"active","ping":155}]},{"server_id":106,"name":"Uncletopia | Chicago | 2 | All Maps","name_short":"chi-2","host":"chi-1.us.uncletopia.com","port":27025,"enabled":true,"region":"us-central","cc":"us","latitude":41.881832,"longitude":-87.62318,"reserved":0,"last_update":"0001-01-01T00:00:00Z","name_a2s":"Uncletopia | Chicago | 2 | All Maps","protocol":17,"map":"pl_barnblitz","folder":"tf","game":"Team Fortress","app_id":440,"player_count":24,"max_players":24,"Bots":0,"server_type":"Dedicated","server_os":"Linux","password":true,"vac":true,"version":"7932396","steam_id":85568392924469985,"keywords":["nocrits","nodmgspread","payload","uncletopia"],"game_id":440,"stv_port":27026,"stv_name":"Uncletopia | Chicago | 2 | All Maps | STV","players":[{"user_id":879,"name":"rbn","steam_id":76561198057884377,"connected_time":1250000000000,"state":"active","ping":49},{"user_id":773,"name":"Whorse","steam_id":76561198114141445,"connected_time":8828000000000,"state":"active","ping":68},{"user_id":875,"name":"Thy Stupid Rat","steam_id":76561198272075712,"connected_time":1315000000000,"state":"active","ping":72},{"user_id":876,"name":"Fat Kid","steam_id":76561198304180941,"connected_time":1309000000000,"state":"active","ping":85},{"user_id":869,"name":"BigDeac","steam_id":76561198091237274,"connected_time":2522000000000,"state":"active","ping":55},{"user_id":849,"name":"girthmilk","steam_id":76561198054799782,"connected_time":3920000000000,"state":"active","ping":81},{"user_id":888,"name":"Pancakes","steam_id":76561198097983190,"connected_time":115000000000,"state":"active","ping":71},{"user_id":870,"name":"shootnskeet","steam_id":76561198133099582,"connected_time":2374000000000,"state":"active","ping":102},{"user_id":848,"name":"kite","steam_id":76561198346516392,"connected_time":3996000000000,"state":"active","ping":66},{"user_id":834,"name":"pop7585","steam_id":76561198149021193,"connected_time":4724000000000,"state":"active","ping":71},{"user_id":878,"name":"Peppino","steam_id":76561198189176634,"connected_time":1301000000000,"state":"active","ping":87},{"user_id":881,"name":"dissociate","steam_id":76561198867798847,"connected_time":1215000000000,"state":"active","ping":98},{"user_id":868,"name":"loser","steam_id":76561198259380127,"connected_time":2625000000000,"state":"active","ping":48},{"user_id":877,"name":"AlcoholicDad454","steam_id":76561198157414556,"connected_time":1306000000000,"state":"active","ping":77},{"user_id":874,"name":"Alpaca","steam_id":76561198029839079,"connected_time":1487000000000,"state":"active","ping":144},{"user_id":866,"name":"noah","steam_id":76561198173310157,"connected_time":2853000000000,"state":"active","ping":52},{"user_id":864,"name":"DragonFalcon‚Ñ¢","steam_id":76561198044559930,"connected_time":3196000000000,"state":"active","ping":79},{"user_id":885,"name":"Drapph","steam_id":76561199384213314,"connected_time":178000000000,"state":"active","ping":70},{"user_id":867,"name":"shmeenus","steam_id":76561198201086569,"connected_time":2677000000000,"state":"active","ping":50},{"user_id":871,"name":"kiseek","steam_id":76561198075474088,"connected_time":2213000000000,"state":"active","ping":79},{"user_id":886,"name":"Slashes","steam_id":76561197968573499,"connected_time":161000000000,"state":"active","ping":57},{"user_id":872,"name":"Shystie","steam_id":76561198025371440,"connected_time":1969000000000,"state":"active","ping":87},{"user_id":883,"name":"Senna","steam_id":76561198115830949,"connected_time":1189000000000,"state":"active","ping":75},{"user_id":847,"name":"Howell at the Moon","steam_id":76561198060827426,"connected_time":4088000000000,"state":"active","ping":78}]},{"server_id":402,"name":"Uncletopia | Chicago | 3 | All Maps","name_short":"chi-3","host":"chi-1.us.uncletopia.com","port":27035,"enabled":true,"region":"us-central","cc":"us","latitude":41.881832,"longitude":-87.62318,"reserved":0,"last_update":"0001-01-01T00:00:00Z","name_a2s":"Uncletopia | Chicago | 3 | All Maps","protocol":17,"map":"pl_barnblitz","folder":"tf","game":"Team Fortress","app_id":440,"player_count":24,"max_players":24,"Bots":0,"server_type":"Dedicated","server_os":"Linux","password":true,"vac":true,"version":"7932396","steam_id":85568392924515191,"keywords":["nocrits","nodmgspread","payload","uncletopia"],"game_id":440,"stv_port":27036,"stv_name":"Uncletopia | Chicago | 3 | All Maps | STV","players":[{"user_id":360,"name":"DAS SCHNITZELSTIEN","steam_id":76561198051137159,"connected_time":2377000000000,"state":"active","ping":98},{"user_id":368,"name":"Billychicken54","steam_id":76561198022365463,"connected_time":1429000000000,"state":"active","ping":56},{"user_id":388,"name":"gagobears","steam_id":76561198086008437,"connected_time":95000000000,"state":"active","ping":81},{"user_id":352,"name":"the joe rogan experience chimp","steam_id":76561199198633203,"connected_time":2426000000000,"state":"active","ping":89},{"user_id":389,"name":"RootBeerSuccubus","steam_id":76561198145719809,"connected_time":95000000000,"state":"active","ping":68},{"user_id":370,"name":"Polly Geist","steam_id":76561198271964253,"connected_time":1366000000000,"state":"active","ping":76},{"user_id":349,"name":"team foolery 2","steam_id":76561199118049168,"connected_time":2548000000000,"state":"active","ping":96},{"user_id":381,"name":"STEVE","steam_id":76561198063475894,"connected_time":828000000000,"state":"active","ping":66},{"user_id":354,"name":"honk","steam_id":76561198050398028,"connected_time":2415000000000,"state":"active","ping":78},{"user_id":345,"name":"bobby wasabi","steam_id":76561198380018244,"connected_time":2817000000000,"state":"active","ping":80},{"user_id":338,"name":"Falcor","steam_id":76561198088330242,"connected_time":2983000000000,"state":"active","ping":45},{"user_id":380,"name":"Ôº£Ôº®Ôº°Ôº≠Ôº∞Ôº©ÔºØÔºÆ","steam_id":76561198883157736,"connected_time":1128000000000,"state":"active","ping":111},{"user_id":356,"name":"The Real Fempyro.","steam_id":76561199035402139,"connected_time":2405000000000,"state":"active","ping":84},{"user_id":384,"name":"tincant","steam_id":76561198357137800,"connected_time":159000000000,"state":"active","ping":113},{"user_id":373,"name":"Rafl","steam_id":76561198055222756,"connected_time":1322000000000,"state":"active","ping":73},{"user_id":340,"name":"YASAI JUICE","steam_id":76561198131971992,"connected_time":2937000000000,"state":"active","ping":38},{"user_id":375,"name":"J21","steam_id":76561198066590783,"connected_time":1318000000000,"state":"active","ping":73},{"user_id":358,"name":"ntjohn","steam_id":76561198043367011,"connected_time":2400000000000,"state":"active","ping":77},{"user_id":346,"name":"Galactamarx","steam_id":76561198028065755,"connected_time":2814000000000,"state":"active","ping":99},{"user_id":359,"name":"Harold","steam_id":76561198057317770,"connected_time":2391000000000,"state":"active","ping":100},{"user_id":385,"name":"Mitchu The Bidness Man","steam_id":76561198102494381,"connected_time":158000000000,"state":"active","ping":62},{"user_id":386,"name":"LTG face","steam_id":76561198035629877,"connected_time":155000000000,"state":"active","ping":43},{"user_id":387,"name":"krispin' wah","steam_id":76561198027052378,"connected_time":150000000000,"state":"active","ping":75},{"user_id":377,"name":"HanakoToast","steam_id":76561198045233131,"connected_time":1255000000000,"state":"active","ping":109}]},{"server_id":403,"name":"Uncletopia | Chicago | 4 | All Maps","name_short":"chi-4","host":"chi-1.us.uncletopia.com","port":27045,"enabled":true,"region":"us-central","cc":"us","latitude":41.881832,"longitude":-87.62318,"reserved":0,"last_update":"0001-01-01T00:00:00Z","name_a2s":"Uncletopia | Chicago | 4 | All Maps","protocol":17,"map":"cp_powerhouse","folder":"tf","game":"Team Fortress","app_id":440,"player_count":24,"max_players":24,"Bots":0,"server_type":"Dedicated","server_os":"Linux","password":true,"vac":true,"version":"7932396","steam_id":85568392924515193,"keywords":["cp","nocrits","nodmgspread","uncletopia"],"game_id":440,"stv_port":27046,"stv_name":"Uncletopia | Chicago | 4 | All Maps | STV","players":[{"user_id":505,"name":"bkiller","steam_id":76561198029265697,"connected_time":4155000000000,"state":"active","ping":75},{"user_id":544,"name":"Oliver_Berry","steam_id":76561199488138620,"connected_time":1202000000000,"state":"active","ping":121},{"user_id":521,"name":"Antifa Supersoldier","steam_id":76561198141816516,"connected_time":2781000000000,"state":"active","ping":61},{"user_id":536,"name":"peebs","steam_id":76561198261319753,"connected_time":1892000000000,"state":"active","ping":70},{"user_id":524,"name":"god's drunkest driver","steam_id":76561198069407799,"connected_time":2536000000000,"state":"active","ping":74},{"user_id":542,"name":"F. Bomb Fitzgerald","steam_id":76561198031791060,"connected_time":1268000000000,"state":"active","ping":77},{"user_id":555,"name":"thehookerslammer","steam_id":76561198050136796,"connected_time":15000000000,"state":"active","ping":76},{"user_id":525,"name":"Floor chicken nugget","steam_id":76561198840484105,"connected_time":2536000000000,"state":"active","ping":74},{"user_id":530,"name":"Dot.","steam_id":76561198149463984,"connected_time":2333000000000,"state":"active","ping":41},{"user_id":526,"name":"Not Giga Chad","steam_id":76561198059785363,"connected_time":2491000000000,"state":"active","ping":69},{"user_id":522,"name":"Elusion","steam_id":76561197998672043,"connected_time":2605000000000,"state":"active","ping":61},{"user_id":547,"name":"Seshagrantch","steam_id":76561198112033660,"connected_time":670000000000,"state":"active","ping":71},{"user_id":440,"name":"Doofenshmirtz Evil Inc.","steam_id":76561198439793697,"connected_time":6671000000000,"state":"active","ping":74},{"user_id":509,"name":"Tweek Tweak","steam_id":76561198445739792,"connected_time":4016000000000,"state":"active","ping":77},{"user_id":554,"name":"lost in spaaaaace","steam_id":76561199085974120,"connected_time":154000000000,"state":"active","ping":70},{"user_id":511,"name":"FineWine","steam_id":76561199122190694,"connected_time":4009000000000,"state":"active","ping":104},{"user_id":512,"name":"[S]Mr. X [No Monitor]","steam_id":76561197963746035,"connected_time":4006000000000,"state":"active","ping":123},{"user_id":534,"name":"Neo Kojiro","steam_id":76561198000967076,"connected_time":1993000000000,"state":"active","ping":76},{"user_id":528,"name":"Gary","steam_id":76561199246023546,"connected_time":2454000000000,"state":"active","ping":132},{"user_id":552,"name":"kurokami","steam_id":76561198096347625,"connected_time":229000000000,"state":"active","ping":75},{"user_id":513,"name":"IZISOO","steam_id":76561198970380577,"connected_time":4000000000000,"state":"active","ping":62},{"user_id":538,"name":"Rajakz","steam_id":76561198220741160,"connected_time":1859000000000,"state":"active","ping":62},{"user_id":540,"name":"the pest","steam_id":76561198826298849,"connected_time":1341000000000,"state":"active","ping":94},{"user_id":539,"name":"A Deranged Ape","steam_id":76561198060312042,"connected_time":1493000000000,"state":"active","ping":87}]},{"server_id":36,"name":"Uncletopia | Chicago | 5 | All Maps","name_short":"chi-5","host":"chi-2.us.uncletopia.com","port":27015,"enabled":true,"region":"us-central","cc":"us","latitude":41.881832,"longitude":-87.62318,"reserved":0,"last_update":"0001-01-01T00:00:00Z","name_a2s":"Uncletopia | Chicago | 5 | All Maps","protocol":17,"map":"cp_dustbowl","folder":"tf","game":"Team Fortress","app_id":440,"player_count":24,"max_players":24,"Bots":0,"server_type":"Dedicated","server_os":"Linux","password":true,"vac":true,"version":"7932396","steam_id":85568392924866362,"keywords":["cp","nocrits","nodmgspread","uncletopia"],"game_id":440,"stv_port":27016,"stv_name":"Uncletopia | Chicago | 5 | All Maps | STV","players":[{"user_id":815,"name":"Jabs","steam_id":76561198004411240,"connected_time":1590000000000,"state":"active","ping":72},{"user_id":835,"name":"Isles","steam_id":76561198036162511,"connected_time":590000000000,"state":"active","ping":63},{"user_id":838,"name":"Dullahan","steam_id":76561198119668908,"connected_time":204000000000,"state":"active","ping":95},{"user_id":799,"name":"Michaelpc1","steam_id":76561198088365519,"connected_time":3104000000000,"state":"active","ping":76},{"user_id":828,"name":"eish","steam_id":76561198089463603,"connected_time":996000000000,"state":"active","ping":134},{"user_id":832,"name":"Am da Best","steam_id":76561198163825955,"connected_time":801000000000,"state":"active","ping":115},{"user_id":843,"name":"grome","steam_id":76561198080784921,"connected_time":81000000000,"state":"active","ping":58},{"user_id":840,"name":" ï‚Ä¢·¥•‚Ä¢ î the bear","steam_id":76561197989591976,"connected_time":127000000000,"state":"active","ping":77},{"user_id":820,"name":"Matches_","steam_id":76561198048925904,"connected_time":1401000000000,"state":"active","ping":108},{"user_id":807,"name":"honked off the bobo","steam_id":76561198123287268,"connected_time":2611000000000,"state":"active","ping":46},{"user_id":833,"name":"minecraft","steam_id":76561198104345201,"connected_time":762000000000,"state":"active","ping":66},{"user_id":827,"name":"PageBoiSkull","steam_id":76561198237353578,"connected_time":1065000000000,"state":"active","ping":113},{"user_id":829,"name":"Sophie","steam_id":76561198170408057,"connected_time":990000000000,"state":"active","ping":69},{"user_id":841,"name":"[chef] iron","steam_id":76561197970888616,"connected_time":124000000000,"state":"active","ping":45},{"user_id":830,"name":"Toonice","steam_id":76561198402994885,"connected_time":979000000000,"state":"active","ping":79},{"user_id":824,"name":"Ask Nicely For Heals","steam_id":76561198138478907,"connected_time":1328000000000,"state":"active","ping":80},{"user_id":842,"name":"Mega","steam_id":76561198121258379,"connected_time":115000000000,"state":"active","ping":77},{"user_id":837,"name":"MagikarpEX","steam_id":76561198166172279,"connected_time":239000000000,"state":"active","ping":70},{"user_id":758,"name":"(Past Tense)","steam_id":76561197996279335,"connected_time":6011000000000,"state":"active","ping":56},{"user_id":801,"name":"Alfonso Molestro","steam_id":76561197998677099,"connected_time":3083000000000,"state":"active","ping":75},{"user_id":839,"name":"GreenApples","steam_id":76561198120559543,"connected_time":203000000000,"state":"active","ping":102},{"user_id":792,"name":"helen keller","steam_id":76561197979870540,"connected_time":3768000000000,"state":"active","ping":57},{"user_id":836,"name":"HEE HOO DUSTBOWL!","steam_id":76561199389985063,"connected_time":285000000000,"state":"active","ping":96},{"user_id":774,"name":"Len","steam_id":76561198830451722,"connected_time":5207000000000,"state":"active","ping":77}]},{"server_id":37,"name":"Uncletopia | Chicago | 6 | All Maps","name_short":"chi-6","host":"chi-2.us.uncletopia.com","port":27025,"enabled":true,"region":"us-central","cc":"us","latitude":41.881832,"longitude":-87.62318,"reserved":0,"last_update":"0001-01-01T00:00:00Z","name_a2s":"Uncletopia | Chicago | 6 | All Maps","protocol":17,"map":"cp_5gorge","folder":"tf","game":"Team Fortress","app_id":440,"player_count":22,"max_players":24,"Bots":0,"server_type":"Dedicated","server_os":"Linux","password":true,"vac":true,"version":"7932396","steam_id":85568392924866363,"keywords":["cp","nocrits","nodmgspread","uncletopia"],"game_id":440,"stv_port":27026,"stv_name":"Uncletopia | Chicago | 6 | All Maps | STV","players":[{"user_id":287,"name":"gasterstanley","steam_id":76561199062453153,"connected_time":3064000000000,"state":"active","ping":130},{"user_id":321,"name":"Free1337","steam_id":76561198034160133,"connected_time":709000000000,"state":"active","ping":45},{"user_id":328,"name":"Shroomsie","steam_id":76561198047405791,"connected_time":75000000000,"state":"active","ping":86},{"user_id":329,"name":"Shwal","steam_id":76561198138840448,"connected_time":68000000000,"state":"active","ping":77},{"user_id":303,"name":"AXZIOM","steam_id":76561198255074952,"connected_time":1805000000000,"state":"active","ping":83},{"user_id":306,"name":"b ugo n   e","steam_id":76561198126386686,"connected_time":1550000000000,"state":"active","ping":45},{"user_id":330,"name":"skosgo -eg","steam_id":76561197996403345,"connected_time":25000000000,"state":"spawning","ping":88},{"user_id":316,"name":"Phos","steam_id":76561198122339506,"connected_time":1021000000000,"state":"active","ping":70},{"user_id":278,"name":"Acto","steam_id":76561198043025164,"connected_time":3684000000000,"state":"active","ping":104},{"user_id":331,"name":"Team Fortress 3","steam_id":76561198062956313,"connected_time":19000000000,"state":"spawning","ping":70},{"user_id":262,"name":"Szotski_house11","steam_id":76561199217545978,"connected_time":4953000000000,"state":"active","ping":101},{"user_id":275,"name":"T ú·¥á F·¥è·¥è ü.","steam_id":76561198047167199,"connected_time":3788000000000,"state":"active","ping":79},{"user_id":276,"name":"Stoney Goblin","steam_id":76561198141215376,"connected_time":3741000000000,"state":"active","ping":69},{"user_id":310,"name":"Antwan","steam_id":76561198246200638,"connected_time":1135000000000,"state":"active","ping":75},{"user_id":284,"name":"Earl S","steam_id":76561198064273772,"connected_time":3349000000000,"state":"active","ping":75},{"user_id":320,"name":"roo the observer","steam_id":76561198120684348,"connected_time":727000000000,"state":"active","ping":59},{"user_id":319,"name":"Mafia bees","steam_id":76561198967896265,"connected_time":836000000000,"state":"active","ping":114},{"user_id":313,"name":"Alte","steam_id":76561198040299384,"connected_time":1126000000000,"state":"active","ping":90},{"user_id":327,"name":"Phantom","steam_id":76561199200400404,"connected_time":160000000000,"state":"active","ping":118},{"user_id":304,"name":"Rad","steam_id":76561198413125750,"connected_time":1713000000000,"state":"active","ping":61},{"user_id":282,"name":"eat Pant","steam_id":76561197974965536,"connected_time":3559000000000,"state":"active","ping":54},{"user_id":325,"name":"toastman","steam_id":76561198207073088,"connected_time":581000000000,"state":"active","ping":74}]},{"server_id":38,"name":"Uncletopia | Chicago | 7 | Stopwatch Beta","name_short":"chi-7","host":"chi-2.us.uncletopia.com","port":27035,"enabled":true,"region":"us-central","cc":"us","latitude":41.881832,"longitude":-87.62318,"reserved":0,"last_update":"0001-01-01T00:00:00Z","name_a2s":"Uncletopia | Chicago | 7 | Stopwatch Beta","protocol":17,"map":"cp_metalworks","folder":"tf","game":"Team Fortress","app_id":440,"player_count":0,"max_players":24,"Bots":0,"server_type":"Dedicated","server_os":"Linux","password":true,"vac":true,"version":"7932396","steam_id":85568392924866364,"keywords":["cp","nocrits","nodmgspread","uncletopia"],"game_id":440,"stv_port":27036,"stv_name":"Uncletopia | Chicago | 7 | Stopwatch Beta | STV","players":null},{"server_id":39,"name":"Uncletopia | Chicago | 8 | Community","name_short":"chi-8","host":"chi-2.us.uncletopia.com","port":27045,"enabled":true,"region":"us-central","cc":"us","latitude":41.881832,"longitude":-87.62318,"reserved":0,"last_update":"0001-01-01T00:00:00Z","name_a2s":"Uncletopia | Chicago | 8 | Community","protocol":17,"map":"workshop/koth_slaughter_rc1.ugc1712845210","folder":"tf","game":"Team Fortress","app_id":440,"player_count":0,"max_players":24,"Bots":0,"server_type":"Dedicated","server_os":"Linux","password":true,"vac":true,"version":"7932396","steam_id":85568392924866365,"keywords":["cp","nocrits","nodmgspread","uncletopia"],"game_id":440,"stv_port":27046,"stv_name":"Uncletopia | Chicago | 8 | Community | STV","players":null},{"server_id":8,"name":"Uncletopia | Dallas | 1 | All Maps","name_short":"dal-1","host":"dal-1.us.uncletopia.com","port":27015,"enabled":true,"region":"us-central","cc":"us","latitude":32.779167,"longitude":-96.80889,"reserved":0,"last_update":"0001-01-01T00:00:00Z","name_a2s":"Uncletopia | Dallas | 1 | All Maps","protocol":17,"map":"pl_badwater","folder":"tf","game":"Team Fortress","app_id":440,"player_count":24,"max_players":24,"Bots":0,"server_type":"Dedicated","server_os":"Linux","password":true,"vac":true,"version":"7932396","steam_id":85568392924469986,"keywords":["nocrits","nodmgspread","payload","uncletopia"],"game_id":440,"stv_port":27016,"stv_name":"Uncletopia | Dallas | 1 | All Maps | STV","players":[{"user_id":899,"name":"Herdez Hot Salsa","steam_id":76561197991740906,"connected_time":344000000000,"state":"active","ping":84},{"user_id":843,"name":"littlesack","steam_id":76561197960270526,"connected_time":5646000000000,"state":"active","ping":76},{"user_id":886,"name":"Tan_Rat","steam_id":76561198313629344,"connected_time":2030000000000,"state":"active","ping":72},{"user_id":898,"name":"alba","steam_id":76561198053658535,"connected_time":365000000000,"state":"active","ping":97},{"user_id":876,"name":"fleepore (:","steam_id":76561199238295034,"connected_time":2159000000000,"state":"active","ping":71},{"user_id":889,"name":"Quomples","steam_id":76561198140996628,"connected_time":1031000000000,"state":"active","ping":55},{"user_id":881,"name":"Your Alcoholic Dad","steam_id":76561198214494745,"connected_time":2104000000000,"state":"active","ping":76},{"user_id":880,"name":"Chhaam","steam_id":76561198058508132,"connected_time":2114000000000,"state":"active","ping":75},{"user_id":896,"name":"Gason Homoa","steam_id":76561199000180522,"connected_time":417000000000,"state":"active","ping":100},{"user_id":882,"name":"Creature","steam_id":76561198194585781,"connected_time":2086000000000,"state":"active","ping":87},{"user_id":893,"name":"jalapeno handjob","steam_id":76561198123298824,"connected_time":939000000000,"state":"active","ping":60},{"user_id":884,"name":"Weed Dealer","steam_id":76561198418604400,"connected_time":2058000000000,"state":"active","ping":114},{"user_id":822,"name":"Tommy Provolone","steam_id":76561198170062377,"connected_time":7623000000000,"state":"active","ping":71},{"user_id":885,"name":"Richard Nasty","steam_id":76561198076649900,"connected_time":2053000000000,"state":"active","ping":70},{"user_id":875,"name":"carne asada","steam_id":76561198108398751,"connected_time":2518000000000,"state":"active","ping":86},{"user_id":872,"name":"Toasty","steam_id":76561198001136776,"connected_time":3209000000000,"state":"active","ping":61},{"user_id":895,"name":"American Dad","steam_id":76561198059711448,"connected_time":840000000000,"state":"active","ping":98},{"user_id":868,"name":"üê∫-Iwky-ü¶ä","steam_id":76561198185616311,"connected_time":3429000000000,"state":"active","ping":76},{"user_id":856,"name":"errant","steam_id":76561197961758410,"connected_time":4664000000000,"state":"active","ping":45},{"user_id":897,"name":"Bird","steam_id":76561198231624620,"connected_time":399000000000,"state":"active","ping":60},{"user_id":891,"name":"NotSoAvgJoe7","steam_id":76561198056707330,"connected_time":987000000000,"state":"active","ping":86},{"user_id":890,"name":"younggflylyfe","steam_id":76561199477357832,"connected_time":1017000000000,"state":"active","ping":37},{"user_id":900,"name":"Drake from State Farm","steam_id":76561199069029812,"connected_time":322000000000,"state":"active","ping":91},{"user_id":873,"name":"Tue","steam_id":76561198181668501,"connected_time":2857000000000,"state":"active","ping":84}]},{"server_id":108,"name":"Uncletopia | Dallas | 2 | All Maps","name_short":"dal-2","host":"dal-1.us.uncletopia.com","port":27025,"enabled":true,"region":"us-central","cc":"us","latitude":32.779167,"longitude":-96.80889,"reserved":0,"last_update":"0001-01-01T00:00:00Z","name_a2s":"Uncletopia | Dallas | 2 | All Maps","protocol":17,"map":"pl_badwater","folder":"tf","game":"Team Fortress","app_id":440,"player_count":23,"max_players":24,"Bots":0,"server_type":"Dedicated","server_os":"Linux","password":true,"vac":true,"version":"7932396","steam_id":85568392924469988,"keywords":["nocrits","nodmgspread","payload","uncletopia"],"game_id":440,"stv_port":27026,"stv_name":"Uncletopia | Dallas | 2 | All Maps | STV","players":[{"user_id":562,"name":"Chimi","steam_id":76561198067800540,"connected_time":87000000000,"state":"active","ping":46},{"user_id":483,"name":"Henry Hatsworth","steam_id":76561198038071608,"connected_time":3413000000000,"state":"active","ping":61},{"user_id":564,"name":"Big Oil","steam_id":76561199238964574,"connected_time":33000000000,"state":"active","ping":76},{"user_id":472,"name":"Vorpas Jabwak","steam_id":76561198112186064,"connected_time":3825000000000,"state":"active","ping":76},{"user_id":557,"name":"Speedy","steam_id":76561198080761661,"connected_time":626000000000,"state":"active","ping":94},{"user_id":565,"name":"The_Hot_Dog","steam_id":76561198430778361,"connected_time":18000000000,"state":"active","ping":136},{"user_id":537,"name":"DocDankDandy","steam_id":76561197999440195,"connected_time":879000000000,"state":"active","ping":72},{"user_id":535,"name":"Philly","steam_id":76561198085004599,"connected_time":916000000000,"state":"active","ping":85},{"user_id":482,"name":"radical","steam_id":76561197960364912,"connected_time":3446000000000,"state":"active","ping":83},{"user_id":531,"name":"Draven","steam_id":76561198074776388,"connected_time":1058000000000,"state":"active","ping":56},{"user_id":555,"name":"Thermo","steam_id":76561198978967412,"connected_time":672000000000,"state":"active","ping":90},{"user_id":462,"name":"porz","steam_id":76561198195711453,"connected_time":4868000000000,"state":"active","ping":45},{"user_id":542,"name":"TideWTR","steam_id":76561199003526470,"connected_time":784000000000,"state":"active","ping":83},{"user_id":501,"name":"chaffy","steam_id":76561198021754567,"connected_time":2720000000000,"state":"active","ping":60},{"user_id":532,"name":"SIGMA [BS]","steam_id":76561197962604879,"connected_time":1014000000000,"state":"active","ping":78},{"user_id":536,"name":"TreviX","steam_id":76561198271900578,"connected_time":910000000000,"state":"active","ping":92},{"user_id":559,"name":"Agent Q","steam_id":76561198830829003,"connected_time":558000000000,"state":"active","ping":93},{"user_id":538,"name":"Pirate Jesus","steam_id":76561198164614654,"connected_time":872000000000,"state":"active","ping":99},{"user_id":539,"name":"JellyRoll Jerry","steam_id":76561198037149474,"connected_time":862000000000,"state":"active","ping":91},{"user_id":563,"name":"Panig","steam_id":76561198372424311,"connected_time":75000000000,"state":"active","ping":73},{"user_id":488,"name":"Tangeloos","steam_id":76561198019432876,"connected_time":3362000000000,"state":"active","ping":83},{"user_id":550,"name":"üå∏MelWormüå∏","steam_id":76561198084145814,"connected_time":752000000000,"state":"active","ping":64},{"user_id":552,"name":"Motreir","steam_id":76561198151717946,"connected_time":743000000000,"state":"active","ping":83}]},{"server_id":5,"name":"Uncletopia | Frankfurt | 1 | All Maps","name_short":"frk-1","host":"frk-1.de.uncletopia.com","port":27015,"enabled":true,"region":"eu","cc":"de","latitude":50.110924,"longitude":8.682127,"reserved":0,"last_update":"0001-01-01T00:00:00Z","name_a2s":"Uncletopia | Frankfurt | 1 | All Maps","protocol":17,"map":"pl_badwater","folder":"tf","game":"Team Fortress","app_id":440,"player_count":0,"max_players":24,"Bots":0,"server_type":"Dedicated","server_os":"Linux","password":true,"vac":true,"version":"7932396","steam_id":85568392924469989,"keywords":["nocrits","nodmgspread","payload","uncletopia"],"game_id":440,"stv_port":27016,"stv_name":"Uncletopia | Frankfurt | 1 | All Maps | STV","players":null},{"server_id":110,"name":"Uncletopia | Frankfurt | 2 | All Maps","name_short":"frk-2","host":"frk-1.de.uncletopia.com","port":27025,"enabled":true,"region":"eu","cc":"de","latitude":50.110924,"longitude":8.682127,"reserved":0,"last_update":"0001-01-01T00:00:00Z","name_a2s":"Uncletopia | Frankfurt | 2 | All Maps","protocol":17,"map":"pl_borneo","folder":"tf","game":"Team Fortress","app_id":440,"player_count":0,"max_players":24,"Bots":0,"server_type":"Dedicated","server_os":"Linux","password":true,"vac":true,"version":"7932396","steam_id":85568392924469990,"keywords":["nocrits","nodmgspread","payload","uncletopia"],"game_id":440,"stv_port":27026,"stv_name":"Uncletopia | Frankfurt | 2 | All Maps | STV","players":null},{"server_id":308,"name":"Uncletopia | Frankfurt | 3 | All Maps","name_short":"frk-3","host":"frk-1.de.uncletopia.com","port":27035,"enabled":true,"region":"eu","cc":"de","latitude":50.110924,"longitude":8.682127,"reserved":0,"last_update":"0001-01-01T00:00:00Z","name_a2s":"Uncletopia | Frankfurt | 3 | All Maps","protocol":17,"map":"pl_badwater","folder":"tf","game":"Team Fortress","app_id":440,"player_count":0,"max_players":24,"Bots":0,"server_type":"Dedicated","server_os":"Linux","password":true,"vac":true,"version":"7932396","steam_id":85568392924504274,"keywords":["nocrits","nodmgspread","payload","uncletopia"],"game_id":440,"stv_port":27036,"stv_name":"Uncletopia | Frankfurt | 3 | All Maps | STV","players":null},{"server_id":309,"name":"Uncletopia | Frankfurt | 4 | All Maps","name_short":"frk-4","host":"frk-1.de.uncletopia.com","port":27045,"enabled":true,"region":"eu","cc":"de","latitude":50.110924,"longitude":8.682127,"reserved":0,"last_update":"0001-01-01T00:00:00Z","name_a2s":"Uncletopia | Frankfurt | 4 | All Maps","protocol":17,"map":"pl_upward","folder":"tf","game":"Team Fortress","app_id":440,"player_count":0,"max_players":24,"Bots":0,"server_type":"Dedicated","server_os":"Linux","password":true,"vac":true,"version":"7932396","steam_id":85568392924504275,"keywords":["nocrits","nodmgspread","payload","uncletopia"],"game_id":440,"stv_port":27046,"stv_name":"Uncletopia | Frankfurt | 4 | All Maps | STV","players":null},{"server_id":310,"name":"Uncletopia | Frankfurt | 5 | All Maps","name_short":"frk-5","host":"frk-1.de.uncletopia.com","port":27055,"enabled":true,"region":"eu","cc":"de","latitude":50.110924,"longitude":8.682127,"reserved":0,"last_update":"0001-01-01T00:00:00Z","name_a2s":"Uncletopia | Frankfurt | 5 | All Maps","protocol":17,"map":"pl_badwater","folder":"tf","game":"Team Fortress","app_id":440,"player_count":0,"max_players":24,"Bots":0,"server_type":"Dedicated","server_os":"Linux","password":true,"vac":true,"version":"7932396","steam_id":85568392924504277,"keywords":["nocrits","nodmgspread","payload","uncletopia"],"game_id":440,"stv_port":27056,"stv_name":"Uncletopia | Frankfurt | 5 | All Maps | STV","players":null},{"server_id":311,"name":"Uncletopia | Frankfurt | 6 | All Maps","name_short":"frk-6","host":"frk-1.de.uncletopia.com","port":27065,"enabled":true,"region":"eu","cc":"de","latitude":50.110924,"longitude":8.682127,"reserved":0,"last_update":"0001-01-01T00:00:00Z","name_a2s":"Uncletopia | Frankfurt | 6 | All Maps","protocol":17,"map":"koth_viaduct","folder":"tf","game":"Team Fortress","app_id":440,"player_count":0,"max_players":24,"Bots":0,"server_type":"Dedicated","server_os":"Linux","password":true,"vac":true,"version":"7932396","steam_id":85568392924504278,"keywords":["cp","nocrits","nodmgspread","uncletopia"],"game_id":440,"stv_port":27066,"stv_name":"Uncletopia | Frankfurt | 6 | All Maps | STV","players":null},{"server_id":23,"name":"Uncletopia | Frankfurt | 7 | Stopwatch Beta","name_short":"frk-7","host":"frk-1.de.uncletopia.com","port":27075,"enabled":true,"region":"eu","cc":"de","latitude":50.110924,"longitude":8.682127,"reserved":0,"last_update":"0001-01-01T00:00:00Z","name_a2s":"Uncletopia | Frankfurt | 7 | Stopwatch Beta","protocol":17,"map":"pl_snowycoast","folder":"tf","game":"Team Fortress","app_id":440,"player_count":0,"max_players":24,"Bots":0,"server_type":"Dedicated","server_os":"Linux","password":true,"vac":true,"version":"7932396","steam_id":85568392924742827,"keywords":["nocrits","nodmgspread","payload","uncletopia"],"game_id":440,"stv_port":27076,"stv_name":"Uncletopia | Frankfurt | 7 | Stopwatch Beta | STV","players":null},{"server_id":24,"name":"Uncletopia | Frankfurt | 8 | Community","name_short":"frk-8","host":"frk-1.de.uncletopia.com","port":27085,"enabled":true,"region":"eu","cc":"de","latitude":50.110924,"longitude":8.682127,"reserved":0,"last_update":"0001-01-01T00:00:00Z","name_a2s":"Uncletopia | Frankfurt | 8 | Community","protocol":17,"map":"pl_barnblitz","folder":"tf","game":"Team Fortress","app_id":440,"player_count":0,"max_players":24,"Bots":0,"server_type":"Dedicated","server_os":"Linux","password":true,"vac":true,"version":"7932396","steam_id":85568392924742828,"keywords":["nocrits","nodmgspread","payload","uncletopia"],"game_id":440,"stv_port":27086,"stv_name":"Uncletopia | Frankfurt | 8 | Community | STV","players":null},{"server_id":202,"name":"Uncletopia | Hong Kong | 1 | All Maps","name_short":"hgk-1","host":"hgk-1.hk.uncletopia.com","port":27015,"enabled":true,"region":"asia","cc":"hk","latitude":22.302711,"longitude":114.177216,"reserved":0,"last_update":"0001-01-01T00:00:00Z","name_a2s":"Uncletopia | Hong Kong | 1 | All Maps","protocol":17,"map":"plr_hightower","folder":"tf","game":"Team Fortress","app_id":440,"player_count":6,"max_players":24,"Bots":0,"server_type":"Dedicated","server_os":"Linux","password":true,"vac":true,"version":"7932396","steam_id":85568392924494504,"keywords":["nocrits","nodmgspread","payload","uncletopia"],"game_id":440,"stv_port":27016,"stv_name":"Uncletopia | Hong Kong | 1 | All Maps | STV","players":[{"user_id":7,"name":"hotgamerth","steam_id":76561199026418153,"connected_time":850000000000,"state":"active","ping":90},{"user_id":9,"name":"KHMaster","steam_id":76561199198453345,"connected_time":268000000000,"state":"connecting","ping":46},{"user_id":10,"name":"Gordon.Freeman","steam_id":76561198337746852,"connected_time":175000000000,"state":"active","ping":49},{"user_id":11,"name":"Sizrayn","steam_id":76561198438091233,"connected_time":167000000000,"state":"active","ping":64},{"user_id":12,"name":"rezero s3 omg","steam_id":76561199137927625,"connected_time":73000000000,"state":"active","ping":92},{"user_id":13,"name":"smaerdevahot","steam_id":76561198369075257,"connected_time":65000000000,"state":"active","ping":97}]},{"server_id":1,"name":"Uncletopia | Los Angeles | 1 | All Maps","name_short":"lax-1","host":"lax-1.us.uncletopia.com","port":27015,"enabled":true,"region":"us-west","cc":"us","latitude":33.94279,"longitude":-118.41004,"reserved":0,"last_update":"0001-01-01T00:00:00Z","name_a2s":"Uncletopia | Los Angeles | 1 | All Maps","protocol":17,"map":"pl_borneo","folder":"tf","game":"Team Fortress","app_id":440,"player_count":23,"max_players":24,"Bots":0,"server_type":"Dedicated","server_os":"Linux","password":true,"vac":true,"version":"7932396","steam_id":85568392924469991,"keywords":["nocrits","nodmgspread","payload","uncletopia"],"game_id":440,"stv_port":27016,"stv_name":"Uncletopia | Los Angeles | 1 | All Maps | STV","players":[{"user_id":423,"name":"Gerbias","steam_id":76561198001002427,"connected_time":3266000000000,"state":"active","ping":62},{"user_id":434,"name":"kree","steam_id":76561197979960008,"connected_time":2972000000000,"state":"active","ping":105},{"user_id":465,"name":"werolat","steam_id":76561197960544784,"connected_time":439000000000,"state":"active","ping":69},{"user_id":466,"name":"FI LO","steam_id":76561198976530881,"connected_time":378000000000,"state":"active","ping":39},{"user_id":437,"name":"vioxynteris","steam_id":76561198161428666,"connected_time":2746000000000,"state":"active","ping":29},{"user_id":382,"name":"Scrux","steam_id":76561198129763115,"connected_time":6016000000000,"state":"active","ping":55},{"user_id":449,"name":"Craftyjumper","steam_id":76561198126421562,"connected_time":1338000000000,"state":"active","ping":112},{"user_id":440,"name":"HAT-WEARING‚Ñ¢ Maggot Gamer Cat","steam_id":76561197973992705,"connected_time":2020000000000,"state":"active","ping":69},{"user_id":426,"name":"Ian","steam_id":76561198159334435,"connected_time":3157000000000,"state":"active","ping":165},{"user_id":446,"name":"Taco+Taco=Burrito","steam_id":76561198063128663,"connected_time":1615000000000,"state":"active","ping":38},{"user_id":464,"name":"albert jones","steam_id":76561198404271005,"connected_time":555000000000,"state":"active","ping":51},{"user_id":454,"name":"the hype man","steam_id":76561199052875314,"connected_time":788000000000,"state":"active","ping":79},{"user_id":450,"name":"Hindmost","steam_id":76561199081837220,"connected_time":1331000000000,"state":"active","ping":98},{"user_id":439,"name":"checkswing","steam_id":76561198999816132,"connected_time":2513000000000,"state":"active","ping":133},{"user_id":443,"name":"Mocha Josie","steam_id":76561198066452726,"connected_time":1845000000000,"state":"active","ping":49},{"user_id":461,"name":"Ajax","steam_id":76561198071310833,"connected_time":666000000000,"state":"active","ping":85},{"user_id":457,"name":"uheye whuant moy ehmdeevee","steam_id":76561198028981154,"connected_time":741000000000,"state":"active","ping":63},{"user_id":468,"name":"tehp","steam_id":76561198056411914,"connected_time":149000000000,"state":"active","ping":76},{"user_id":460,"name":"yaoi boy party puppy *bark*bark","steam_id":76561197997343746,"connected_time":703000000000,"state":"active","ping":59},{"user_id":462,"name":"NeedsMoreMedics","steam_id":76561198115948775,"connected_time":666000000000,"state":"active","ping":60},{"user_id":442,"name":"Buckethead","steam_id":76561198210181296,"connected_time":1921000000000,"state":"active","ping":70},{"user_id":433,"name":"Bonk Co.","steam_id":76561198009355408,"connected_time":3053000000000,"state":"active","ping":68},{"user_id":354,"name":"Acedia","steam_id":76561199011373463,"connected_time":7937000000000,"state":"active","ping":51}]},{"server_id":112,"name":"Uncletopia | Los Angeles | 2 | All Maps","name_short":"lax-2","host":"lax-1.us.uncletopia.com","port":27025,"enabled":true,"region":"us-west","cc":"us","latitude":33.94279,"longitude":-118.41004,"reserved":0,"last_update":"0001-01-01T00:00:00Z","name_a2s":"Uncletopia | Los Angeles | 2 | All Maps","protocol":17,"map":"pl_pier","folder":"tf","game":"Team Fortress","app_id":440,"player_count":24,"max_players":24,"Bots":0,"server_type":"Dedicated","server_os":"Linux","password":true,"vac":true,"version":"7932396","steam_id":85568392924469992,"keywords":["nocrits","nodmgspread","payload","uncletopia"],"game_id":440,"stv_port":27026,"stv_name":"Uncletopia | Los Angeles | 2 | All Maps | STV","players":[{"user_id":543,"name":"Frank Accardi","steam_id":76561198017275707,"connected_time":6116000000000,"state":"active","ping":66},{"user_id":578,"name":"ball scratcher","steam_id":76561198133963493,"connected_time":4068000000000,"state":"active","ping":57},{"user_id":606,"name":"The Comedian","steam_id":76561198037780226,"connected_time":2180000000000,"state":"active","ping":47},{"user_id":599,"name":"VyruzDed„ÄÇ","steam_id":76561199070671785,"connected_time":3037000000000,"state":"active","ping":62},{"user_id":609,"name":"muffinman12126","steam_id":76561199471924109,"connected_time":2049000000000,"state":"active","ping":56},{"user_id":625,"name":"The Foolish Samurai","steam_id":76561198094494945,"connected_time":174000000000,"state":"active","ping":73},{"user_id":584,"name":"Yoshi the Destoyer","steam_id":76561198102272728,"connected_time":3609000000000,"state":"active","ping":50},{"user_id":597,"name":"sobaka","steam_id":76561198116008934,"connected_time":3379000000000,"state":"active","ping":57},{"user_id":548,"name":"DylanM345","steam_id":76561198174666786,"connected_time":5886000000000,"state":"active","ping":54},{"user_id":567,"name":"selvhat","steam_id":76561198114225509,"connected_time":5152000000000,"state":"active","ping":55},{"user_id":626,"name":"OnCominStorm","steam_id":76561198107224081,"connected_time":171000000000,"state":"active","ping":88},{"user_id":627,"name":"Kewlbeyblader","steam_id":76561199102005597,"connected_time":171000000000,"state":"active","ping":85},{"user_id":610,"name":"De Monki","steam_id":76561198964210411,"connected_time":1991000000000,"state":"active","ping":61},{"user_id":623,"name":"millie","steam_id":76561198008366811,"connected_time":280000000000,"state":"active","ping":107},{"user_id":602,"name":"mytoyo2k2","steam_id":76561199486326945,"connected_time":2943000000000,"state":"active","ping":103},{"user_id":628,"name":"el muchacho","steam_id":76561198282632562,"connected_time":165000000000,"state":"active","ping":100},{"user_id":580,"name":"Zaiah","steam_id":76561198377588247,"connected_time":3879000000000,"state":"active","ping":80},{"user_id":629,"name":"forntight gaming cool","steam_id":76561198823845027,"connected_time":152000000000,"state":"active","ping":88},{"user_id":624,"name":"Forte","steam_id":76561198035896698,"connected_time":232000000000,"state":"active","ping":63},{"user_id":619,"name":"Ken","steam_id":76561198190992453,"connected_time":1453000000000,"state":"active","ping":57},{"user_id":631,"name":"Malevo","steam_id":76561198148606522,"connected_time":146000000000,"state":"active","ping":91},{"user_id":632,"name":"Dark Lord","steam_id":76561198044199150,"connected_time":145000000000,"state":"active","ping":130},{"user_id":633,"name":"Joe ELO From Progressive","steam_id":76561198336597038,"connected_time":145000000000,"state":"active","ping":52},{"user_id":621,"name":"brockstardowns","steam_id":76561199455071219,"connected_time":1311000000000,"state":"active","ping":69}]},{"server_id":324,"name":"Uncletopia | Los Angeles | 3 | All Maps","name_short":"lax-3","host":"lax-1.us.uncletopia.com","port":27035,"enabled":true,"region":"us-west","cc":"us","latitude":33.94279,"longitude":-118.41004,"reserved":0,"last_update":"0001-01-01T00:00:00Z","name_a2s":"Uncletopia | Los Angeles | 3 | All Maps","protocol":17,"map":"pl_borneo","folder":"tf","game":"Team Fortress","app_id":440,"player_count":19,"max_players":24,"Bots":0,"server_type":"Dedicated","server_os":"Linux","password":true,"vac":true,"version":"7932396","steam_id":85568392924510198,"keywords":["nocrits","nodmgspread","payload","uncletopia"],"game_id":440,"stv_port":27036,"stv_name":"Uncletopia | Los Angeles | 3 | All Maps | STV","players":[{"user_id":307,"name":"The Unfriendly Friendly","steam_id":76561199216559937,"connected_time":23000000000,"state":"spawning","ping":110},{"user_id":304,"name":"Nuts","steam_id":76561199258535559,"connected_time":72000000000,"state":"active","ping":69},{"user_id":294,"name":"Ice cream sandwich","steam_id":76561198172748357,"connected_time":906000000000,"state":"active","ping":57},{"user_id":308,"name":"Diablo 4 Memory Leak","steam_id":76561198041329791,"connected_time":1000000000,"state":"spawning","ping":69},{"user_id":299,"name":"Talulah","steam_id":76561198348354629,"connected_time":448000000000,"state":"active","ping":47},{"user_id":306,"name":"OneMisguidedSlyGuy","steam_id":76561198372243261,"connected_time":46000000000,"state":"active","ping":36},{"user_id":273,"name":"BoxCann0n","steam_id":76561199153390130,"connected_time":2556000000000,"state":"active","ping":179},{"user_id":288,"name":"Altruisticailuridae","steam_id":76561198335295596,"connected_time":1689000000000,"state":"active","ping":52},{"user_id":292,"name":"dAiLyGrInD","steam_id":76561198163531915,"connected_time":1286000000000,"state":"active","ping":89},{"user_id":296,"name":"St. Bimmius","steam_id":76561198013595716,"connected_time":872000000000,"state":"active","ping":60},{"user_id":250,"name":"Wacks","steam_id":76561198079476100,"connected_time":3357000000000,"state":"active","ping":53},{"user_id":295,"name":"shakoiwa","steam_id":76561199059441773,"connected_time":890000000000,"state":"active","ping":54},{"user_id":303,"name":"Pukei-Pukei","steam_id":76561197992722546,"connected_time":379000000000,"state":"active","ping":54},{"user_id":255,"name":"Chaptain","steam_id":76561198452725739,"connected_time":3255000000000,"state":"active","ping":62},{"user_id":276,"name":"June","steam_id":76561198141803658,"connected_time":2309000000000,"state":"active","ping":42},{"user_id":278,"name":"Dog","steam_id":76561198450992953,"connected_time":2033000000000,"state":"active","ping":61},{"user_id":272,"name":"Pyrotek‚Å¥","steam_id":76561198072747672,"connected_time":2640000000000,"state":"active","ping":30},{"user_id":291,"name":"zobro","steam_id":76561198110031579,"connected_time":1515000000000,"state":"active","ping":57},{"user_id":290,"name":"christian hansen and the autist","steam_id":76561198207881077,"connected_time":1671000000000,"state":"active","ping":90}]},{"server_id":25,"name":"Uncletopia | Los Angeles | 4 | Stopwatch Beta","name_short":"lax-4","host":"lax-1.us.uncletopia.com","port":27045,"enabled":true,"region":"us-west","cc":"us","latitude":33.94279,"longitude":-118.41004,"reserved":0,"last_update":"0001-01-01T00:00:00Z","name_a2s":"Uncletopia | Los Angeles | 4 | Stopwatch Beta","protocol":17,"map":"workshop/koth_clearcut_b15.ugc2107050255","folder":"tf","game":"Team Fortress","app_id":440,"player_count":0,"max_players":24,"Bots":0,"server_type":"Dedicated","server_os":"Linux","password":true,"vac":true,"version":"7932396","steam_id":85568392924510199,"keywords":["cp","nocrits","nodmgspread","uncletopia"],"game_id":440,"stv_port":27046,"stv_name":"Uncletopia | Los Angeles | 4 | Stopwatch Beta | STV","players":null},{"server_id":11,"name":"Uncletopia | London | 1 | All Maps","name_short":"lon-1","host":"lon-1.uk.uncletopia.com","port":27015,"enabled":true,"region":"eu","cc":"gb","latitude":51.509865,"longitude":-0.118092,"reserved":0,"last_update":"0001-01-01T00:00:00Z","name_a2s":"Uncletopia | London | 1 | All Maps","protocol":17,"map":"cp_snakewater_final1","folder":"tf","game":"Team Fortress","app_id":440,"player_count":0,"max_players":24,"Bots":0,"server_type":"Dedicated","server_os":"Linux","password":true,"vac":true,"version":"7932396","steam_id":85568392924367362,"keywords":["cp","nocrits","nodmgspread","uncletopia"],"game_id":440,"stv_port":27016,"stv_name":"Uncletopia | London | 1 | All Maps | STV","players":null},{"server_id":114,"name":"Uncletopia | London | 2 | All Maps","name_short":"lon-2","host":"lon-1.uk.uncletopia.com","port":27025,"enabled":true,"region":"eu","cc":"gb","latitude":51.509865,"longitude":-0.118092,"reserved":0,"last_update":"0001-01-01T00:00:00Z","name_a2s":"Uncletopia | London | 2 | All Maps","protocol":17,"map":"pl_snowycoast","folder":"tf","game":"Team Fortress","app_id":440,"player_count":0,"max_players":24,"Bots":0,"server_type":"Dedicated","server_os":"Linux","password":true,"vac":true,"version":"7932396","steam_id":85568392924470941,"keywords":["nocrits","nodmgspread","payload","uncletopia"],"game_id":440,"stv_port":27026,"stv_name":"Uncletopia | London | 2 | All Maps | STV","players":null},{"server_id":320,"name":"Uncletopia | London | 3 | All Maps","name_short":"lon-3","host":"lon-1.uk.uncletopia.com","port":27035,"enabled":true,"region":"eu","cc":"gb","latitude":51.509865,"longitude":-0.118092,"reserved":0,"last_update":"0001-01-01T00:00:00Z","name_a2s":"Uncletopia | London | 3 | All Maps","protocol":17,"map":"koth_highpass","folder":"tf","game":"Team Fortress","app_id":440,"player_count":0,"max_players":24,"Bots":0,"server_type":"Dedicated","server_os":"Linux","password":true,"vac":true,"version":"7932396","steam_id":85568392924510192,"keywords":["cp","nocrits","nodmgspread","uncletopia"],"game_id":440,"stv_port":27036,"stv_name":"Uncletopia | London | 3 | All Maps | STV","players":null},{"server_id":321,"name":"Uncletopia | London | 4 | All Maps","name_short":"lon-4","host":"lon-1.uk.uncletopia.com","port":27045,"enabled":true,"region":"eu","cc":"gb","latitude":51.509865,"longitude":-0.118092,"reserved":0,"last_update":"0001-01-01T00:00:00Z","name_a2s":"Uncletopia | London | 4 | All Maps","protocol":17,"map":"koth_lakeside_final","folder":"tf","game":"Team Fortress","app_id":440,"player_count":0,"max_players":24,"Bots":0,"server_type":"Dedicated","server_os":"Linux","password":true,"vac":true,"version":"7932396","steam_id":85568392924510193,"keywords":["cp","nocrits","nodmgspread","uncletopia"],"game_id":440,"stv_port":27046,"stv_name":"Uncletopia | London | 4 | All Maps | STV","players":null},{"server_id":21,"name":"Uncletopia | London | 5 | All Maps","name_short":"lon-5","host":"lon-1.uk.uncletopia.com","port":27055,"enabled":true,"region":"eu","cc":"gb","latitude":51.509865,"longitude":-0.118092,"reserved":0,"last_update":"0001-01-01T00:00:00Z","name_a2s":"Uncletopia | London | 5 | All Maps","protocol":17,"map":"koth_lakeside_final","folder":"tf","game":"Team Fortress","app_id":440,"player_count":0,"max_players":24,"Bots":0,"server_type":"Dedicated","server_os":"Linux","password":true,"vac":true,"version":"7932396","steam_id":85568392924742829,"keywords":["cp","nocrits","nodmgspread","uncletopia"],"game_id":440,"stv_port":27056,"stv_name":"Uncletopia | London | 5 | All Maps | STV","players":null},{"server_id":22,"name":"Uncletopia | London | 6 | All Maps","name_short":"lon-6","host":"lon-1.uk.uncletopia.com","port":27065,"enabled":true,"region":"eu","cc":"gb","latitude":51.509865,"longitude":-0.118092,"reserved":0,"last_update":"0001-01-01T00:00:00Z","name_a2s":"Uncletopia | London | 6 | All Maps","protocol":17,"map":"pl_snowycoast","folder":"tf","game":"Team Fortress","app_id":440,"player_count":13,"max_players":24,"Bots":0,"server_type":"Dedicated","server_os":"Linux","password":true,"vac":true,"version":"7932396","steam_id":85568392924742830,"keywords":["nocrits","nodmgspread","payload","uncletopia"],"game_id":440,"stv_port":27066,"stv_name":"Uncletopia | London | 6 | All Maps | STV","players":[{"user_id":488,"name":"Pan Pan","steam_id":76561199074670515,"connected_time":1603000000000,"state":"active","ping":98},{"user_id":489,"name":"granary","steam_id":76561199085984801,"connected_time":1253000000000,"state":"active","ping":58},{"user_id":490,"name":"Labomarcelo","steam_id":76561198211186473,"connected_time":1168000000000,"state":"active","ping":86},{"user_id":461,"name":"Step back","steam_id":76561198063855616,"connected_time":5337000000000,"state":"active","ping":66},{"user_id":483,"name":"beebo","steam_id":76561199120277007,"connected_time":2808000000000,"state":"active","ping":46},{"user_id":491,"name":"Over","steam_id":76561198180917349,"connected_time":897000000000,"state":"active","ping":71},{"user_id":492,"name":"m909","steam_id":76561198279621400,"connected_time":815000000000,"state":"active","ping":77},{"user_id":493,"name":"collin","steam_id":76561198067030681,"connected_time":794000000000,"state":"active","ping":44},{"user_id":494,"name":"swag overlord","steam_id":76561199074553825,"connected_time":749000000000,"state":"active","ping":53},{"user_id":495,"name":"Rex Z'Beq","steam_id":76561199300590000,"connected_time":223000000000,"state":"active","ping":86},{"user_id":464,"name":"üÉî Katarina","steam_id":76561198065652251,"connected_time":4713000000000,"state":"active","ping":45},{"user_id":496,"name":"Name'sNotAnnabelle","steam_id":76561198253518073,"connected_time":33000000000,"state":"spawning","ping":94},{"user_id":485,"name":"bebeda is tired ok :ddDddD","steam_id":76561198277943630,"connected_time":2736000000000,"state":"active","ping":74}]},{"server_id":40,"name":"Uncletopia | London | 7 | No Payload","name_short":"lon-7","host":"lon-1.uk.uncletopia.com","port":27075,"enabled":true,"region":"eu","cc":"gb","latitude":51.509865,"longitude":-0.118092,"reserved":0,"last_update":"0001-01-01T00:00:00Z","name_a2s":"Uncletopia | London | 7 | No Payload","protocol":17,"map":"koth_nucleus","folder":"tf","game":"Team Fortress","app_id":440,"player_count":0,"max_players":24,"Bots":0,"server_type":"Dedicated","server_os":"Linux","password":true,"vac":true,"version":"7932396","steam_id":85568392924964314,"keywords":["cp","nocrits","nodmgspread","uncletopia"],"game_id":440,"stv_port":27076,"stv_name":"Uncletopia | London | 7 | No Payload | STV","players":null},{"server_id":41,"name":"Uncletopia | London | 8 | Community","name_short":"lon-8","host":"lon-1.uk.uncletopia.com","port":27085,"enabled":true,"region":"eu","cc":"gb","latitude":51.509865,"longitude":-0.118092,"reserved":0,"last_update":"0001-01-01T00:00:00Z","name_a2s":"Uncletopia | London | 8 | Community","protocol":17,"map":"workshop/cp_glassworks_rc6a.ugc454118349","folder":"tf","game":"Team Fortress","app_id":440,"player_count":0,"max_players":24,"Bots":0,"server_type":"Dedicated","server_os":"Linux","password":true,"vac":true,"version":"7932396","steam_id":85568392924964315,"keywords":["cp","nocrits","nodmgspread","uncletopia"],"game_id":440,"stv_port":27086,"stv_name":"Uncletopia | London | 8 | Community | STV","players":null},{"server_id":300,"name":"Uncletopia | Montr√©al | 1 | All Maps","name_short":"mtl-1","host":"mtl-1.ca.uncletopia.com","port":27015,"enabled":true,"region":"us-east","cc":"ca","latitude":45.50889,"longitude":-73.56167,"reserved":0,"last_update":"0001-01-01T00:00:00Z","name_a2s":"Uncletopia | Montr√©al | 1 | All Maps","protocol":17,"map":"cp_altitude","folder":"tf","game":"Team Fortress","app_id":440,"player_count":0,"max_players":24,"Bots":0,"server_type":"Dedicated","server_os":"Linux","password":true,"vac":true,"version":"7932396","steam_id":85568392924500087,"keywords":["cp","nocrits","nodmgspread","uncletopia"],"game_id":440,"stv_port":27016,"stv_name":"Uncletopia | Montr√©al | 1 | All Maps | STV","players":null},{"server_id":301,"name":"Uncletopia | Montr√©al | 2 | All Maps","name_short":"mtl-2","host":"mtl-1.ca.uncletopia.com","port":27025,"enabled":true,"region":"us-east","cc":"ca","latitude":45.50889,"longitude":-73.56167,"reserved":0,"last_update":"0001-01-01T00:00:00Z","name_a2s":"Uncletopia | Montr√©al | 2 | All Maps","protocol":17,"map":"koth_king","folder":"tf","game":"Team Fortress","app_id":440,"player_count":0,"max_players":24,"Bots":0,"server_type":"Dedicated","server_os":"Linux","password":true,"vac":true,"version":"7932396","steam_id":85568392924500088,"keywords":["cp","nocrits","nodmgspread","uncletopia"],"game_id":440,"stv_port":27026,"stv_name":"Uncletopia | Montr√©al | 2 | All Maps | STV","players":null},{"server_id":302,"name":"Uncletopia | Montr√©al | 3 | All Maps","name_short":"mtl-3","host":"mtl-1.ca.uncletopia.com","port":27035,"enabled":true,"region":"us-east","cc":"ca","latitude":45.50889,"longitude":-73.56167,"reserved":0,"last_update":"0001-01-01T00:00:00Z","name_a2s":"Uncletopia | Montr√©al | 3 | All Maps","protocol":17,"map":"pl_frontier_final","folder":"tf","game":"Team Fortress","app_id":440,"player_count":0,"max_players":24,"Bots":0,"server_type":"Dedicated","server_os":"Linux","password":true,"vac":true,"version":"7932396","steam_id":85568392924500089,"keywords":["nocrits","nodmgspread","payload","uncletopia"],"game_id":440,"stv_port":27036,"stv_name":"Uncletopia | Montr√©al | 3 | All Maps | STV","players":null},{"server_id":303,"name":"Uncletopia | Montr√©al | 4 | No Payload","name_short":"mtl-4","host":"mtl-1.ca.uncletopia.com","port":27045,"enabled":true,"region":"us-east","cc":"ca","latitude":45.50889,"longitude":-73.56167,"reserved":0,"last_update":"0001-01-01T00:00:00Z","name_a2s":"Uncletopia | Montr√©al | 4 | No Payload","protocol":17,"map":"koth_king","folder":"tf","game":"Team Fortress","app_id":440,"player_count":0,"max_players":24,"Bots":0,"server_type":"Dedicated","server_os":"Linux","password":true,"vac":true,"version":"7932396","steam_id":85568392924500090,"keywords":["cp","nocrits","nodmgspread","uncletopia"],"game_id":440,"stv_port":27046,"stv_name":"Uncletopia | Montr√©al | 4 | No Payload | STV","players":null},{"server_id":13,"name":"Uncletopia | New York City | 1 | All Maps","name_short":"nyc-1","host":"nyc-1.us.uncletopia.com","port":27015,"enabled":true,"region":"us-east","cc":"us","latitude":40.73061,"longitude":-73.93524,"reserved":0,"last_update":"0001-01-01T00:00:00Z","name_a2s":"Uncletopia | New York City | 1 | All Maps","protocol":17,"map":"pl_swiftwater_final1","folder":"tf","game":"Team Fortress","app_id":440,"player_count":24,"max_players":24,"Bots":0,"server_type":"Dedicated","server_os":"Linux","password":true,"vac":true,"version":"7932396","steam_id":85568392924469993,"keywords":["nocrits","nodmgspread","payload","uncletopia"],"game_id":440,"stv_port":27016,"stv_name":"Uncletopia | New York City | 1 | All Maps | STV","players":[{"user_id":587,"name":"jiim jaam","steam_id":76561198069814977,"connected_time":4766000000000,"state":"active","ping":57},{"user_id":556,"name":"Gentoo Linux Gaming","steam_id":76561197999657118,"connected_time":7039000000000,"state":"active","ping":62},{"user_id":597,"name":"CherriKat","steam_id":76561198821297512,"connected_time":4060000000000,"state":"active","ping":106},{"user_id":651,"name":"Falk","steam_id":76561198117024236,"connected_time":142000000000,"state":"active","ping":69},{"user_id":640,"name":"Ermine","steam_id":76561198072831312,"connected_time":1205000000000,"state":"active","ping":94},{"user_id":639,"name":"Two-Teste Tommy","steam_id":76561198064308936,"connected_time":1235000000000,"state":"active","ping":54},{"user_id":647,"name":"Gaming","steam_id":76561198107080532,"connected_time":520000000000,"state":"active","ping":64},{"user_id":599,"name":"Oopsie Daisy ‚ùã","steam_id":76561198042144492,"connected_time":3998000000000,"state":"active","ping":78},{"user_id":641,"name":"Grand Piano Tuna","steam_id":76561198135137213,"connected_time":1155000000000,"state":"active","ping":77},{"user_id":581,"name":"tsbro40","steam_id":76561199455605580,"connected_time":5165000000000,"state":"active","ping":129},{"user_id":642,"name":"The Knight","steam_id":76561198055320626,"connected_time":1148000000000,"state":"active","ping":163},{"user_id":600,"name":"necrolavigne","steam_id":76561198013004951,"connected_time":3998000000000,"state":"active","ping":72},{"user_id":610,"name":"Pixel","steam_id":76561198129243055,"connected_time":3689000000000,"state":"active","ping":61},{"user_id":626,"name":"cheeser","steam_id":76561198281772700,"connected_time":2560000000000,"state":"active","ping":47},{"user_id":638,"name":"Brown_Dream","steam_id":76561198975766145,"connected_time":1307000000000,"state":"active","ping":69},{"user_id":624,"name":"D00ME","steam_id":76561198383462499,"connected_time":3123000000000,"state":"active","ping":69},{"user_id":643,"name":"BroBama","steam_id":76561198203732587,"connected_time":1144000000000,"state":"active","ping":92},{"user_id":618,"name":"5mech","steam_id":76561198979167520,"connected_time":3338000000000,"state":"active","ping":57},{"user_id":648,"name":"*","steam_id":76561198173047169,"connected_time":372000000000,"state":"active","ping":45},{"user_id":637,"name":"Aegis","steam_id":76561198272052750,"connected_time":1928000000000,"state":"active","ping":62},{"user_id":621,"name":"Phil Collins","steam_id":76561198068868644,"connected_time":3234000000000,"state":"active","ping":117},{"user_id":633,"name":"Ace Attorney","steam_id":76561198133011705,"connected_time":2162000000000,"state":"active","ping":50},{"user_id":644,"name":"Yoshimelon","steam_id":76561198253054325,"connected_time":1062000000000,"state":"active","ping":78},{"user_id":650,"name":"The_RainbowTrout","steam_id":76561199309554436,"connected_time":173000000000,"state":"active","ping":114}]},{"server_id":14,"name":"Uncletopia | New York City | 2 | All Maps","name_short":"nyc-2","host":"nyc-1.us.uncletopia.com","port":27025,"enabled":true,"region":"us-east","cc":"us","latitude":40.73061,"longitude":-73.93524,"reserved":0,"last_update":"0001-01-01T00:00:00Z","name_a2s":"Uncletopia | New York City | 2 | All Maps","protocol":17,"map":"cp_mountainlab","folder":"tf","game":"Team Fortress","app_id":440,"player_count":0,"max_players":24,"Bots":0,"server_type":"Dedicated","server_os":"Linux","password":true,"vac":true,"version":"7932396","steam_id":85568392924469994,"keywords":["cp","nocrits","nodmgspread","uncletopia"],"game_id":440,"stv_port":27026,"stv_name":"Uncletopia | New York City | 2 | All Maps | STV","players":null},{"server_id":15,"name":"Uncletopia | New York City | 3 | Stopwatch Beta","name_short":"nyc-3","host":"nyc-1.us.uncletopia.com","port":27035,"enabled":true,"region":"us-east","cc":"us","latitude":40.73061,"longitude":-73.93524,"reserved":0,"last_update":"0001-01-01T00:00:00Z","name_a2s":"Uncletopia | New York City | 3 | Stopwatch Beta","protocol":17,"map":"koth_lakeside_final","folder":"tf","game":"Team Fortress","app_id":440,"player_count":0,"max_players":24,"Bots":0,"server_type":"Dedicated","server_os":"Linux","password":true,"vac":true,"version":"7932396","steam_id":85568392924742820,"keywords":["cp","nocrits","nodmgspread","uncletopia"],"game_id":440,"stv_port":27036,"stv_name":"Uncletopia | New York City | 3 | Stopwatch Beta | STV","players":null},{"server_id":16,"name":"Uncletopia | New York City | 4 | Community","name_short":"nyc-4","host":"nyc-1.us.uncletopia.com","port":27045,"enabled":true,"region":"us-east","cc":"us","latitude":40.73061,"longitude":-73.93524,"reserved":0,"last_update":"0001-01-01T00:00:00Z","name_a2s":"Uncletopia | New York City | 4 | Community","protocol":17,"map":"workshop/pl_badwater_pro_v12.ugc2142942074","folder":"tf","game":"Team Fortress","app_id":440,"player_count":24,"max_players":24,"Bots":0,"server_type":"Dedicated","server_os":"Linux","password":true,"vac":true,"version":"7932396","steam_id":85568392924742821,"keywords":["nocrits","nodmgspread","payload","uncletopia"],"game_id":440,"stv_port":27046,"stv_name":"Uncletopia | New York City | 4 | Community | STV","players":[{"user_id":731,"name":"simon fischman","steam_id":76561198045622778,"connected_time":1687000000000,"state":"active","ping":88},{"user_id":627,"name":"Dwarfo","steam_id":76561198119220289,"connected_time":10066000000000,"state":"active","ping":78},{"user_id":739,"name":"‚ö£ Horny(er) Femboy ‚ö£","steam_id":76561197998789730,"connected_time":1501000000000,"state":"active","ping":129},{"user_id":742,"name":"cirkuu","steam_id":76561198053465042,"connected_time":1271000000000,"state":"active","ping":90},{"user_id":747,"name":"Grekofun","steam_id":76561198758029808,"connected_time":516000000000,"state":"active","ping":146},{"user_id":722,"name":"Virtual Zorua","steam_id":76561198196180302,"connected_time":2070000000000,"state":"active","ping":60},{"user_id":740,"name":"Yongle","steam_id":76561198068591156,"connected_time":1394000000000,"state":"active","ping":69},{"user_id":748,"name":"Hobo Bobo","steam_id":76561198240537922,"connected_time":490000000000,"state":"active","ping":60},{"user_id":750,"name":"Ruby Splashcarp","steam_id":76561198271397320,"connected_time":176000000000,"state":"active","ping":87},{"user_id":701,"name":"larguu","steam_id":76561197994336210,"connected_time":4206000000000,"state":"active","ping":41},{"user_id":720,"name":"Vibe Check","steam_id":76561198087326826,"connected_time":2140000000000,"state":"active","ping":59},{"user_id":741,"name":"Amber","steam_id":76561198031298701,"connected_time":1351000000000,"state":"active","ping":66},{"user_id":730,"name":"‚ö£ Horny Femboy ‚ö£","steam_id":76561199043463646,"connected_time":1723000000000,"state":"active","ping":128},{"user_id":735,"name":"ChozoChorizo","steam_id":76561198272609196,"connected_time":1598000000000,"state":"active","ping":70},{"user_id":733,"name":"Bottom Trans Cowgirl","steam_id":76561198304239680,"connected_time":1668000000000,"state":"active","ping":119},{"user_id":743,"name":"‚ô¶‚ô£Quadric‚ô•‚ô†","steam_id":76561198061003853,"connected_time":1221000000000,"state":"active","ping":55},{"user_id":744,"name":"Golurk with some bitches","steam_id":76561198085888959,"connected_time":1197000000000,"state":"active","ping":60},{"user_id":713,"name":"drood","steam_id":76561198000300475,"connected_time":2701000000000,"state":"active","ping":70},{"user_id":678,"name":"Marshy","steam_id":76561198421784454,"connected_time":5767000000000,"state":"active","ping":125},{"user_id":704,"name":"XxAngel3ReaperxX","steam_id":76561198874183456,"connected_time":4107000000000,"state":"active","ping":132},{"user_id":746,"name":"Flaffian","steam_id":76561198261614764,"connected_time":999000000000,"state":"active","ping":161},{"user_id":669,"name":"Gram Tokers Count Doinkula","steam_id":76561198112811565,"connected_time":6867000000000,"state":"active","ping":59},{"user_id":745,"name":"Happy Yaoi Friday","steam_id":76561198111290441,"connected_time":1189000000000,"state":"active","ping":44},{"user_id":738,"name":"yanyul","steam_id":76561198032871139,"connected_time":1574000000000,"state":"active","ping":131}]},{"server_id":142,"name":"Uncletopia | S√£o Paulo | 1 | All Maps","name_short":"sao-1","host":"sao-1.br.uncletopia.com","port":27015,"enabled":true,"region":"sa","cc":"br","latitude":-23.533773,"longitude":-46.62529,"reserved":0,"last_update":"0001-01-01T00:00:00Z","name_a2s":"Uncletopia | S√£o Paulo | 1 | All Maps","protocol":17,"map":"pl_barnblitz","folder":"tf","game":"Team Fortress","app_id":440,"player_count":0,"max_players":24,"Bots":0,"server_type":"Dedicated","server_os":"Linux","password":true,"vac":true,"version":"7932396","steam_id":85568392924469996,"keywords":["nocrits","nodmgspread","payload","uncletopia"],"game_id":440,"stv_port":27016,"stv_name":"Uncletopia | S√£o Paulo | 1 | All Maps | STV","players":null},{"server_id":143,"name":"Uncletopia | S√£o Paulo | 2 | All Maps","name_short":"sao-2","host":"sao-2.br.uncletopia.com","port":27015,"enabled":true,"region":"sa","cc":"br","latitude":-23.533773,"longitude":-46.62529,"reserved":0,"last_update":"0001-01-01T00:00:00Z","name_a2s":"Uncletopia | S√£o Paulo | 2 | All Maps","protocol":17,"map":"koth_cascade","folder":"tf","game":"Team Fortress","app_id":440,"player_count":0,"max_players":24,"Bots":0,"server_type":"Dedicated","server_os":"Linux","password":true,"vac":true,"version":"7932396","steam_id":85568392924485349,"keywords":["cp","nocrits","nodmgspread","uncletopia"],"game_id":440,"stv_port":27016,"stv_name":"Uncletopia | S√£o Paulo | 2 | All Maps | STV","players":null},{"server_id":7,"name":"Uncletopia | Seattle | 1 | All Maps","name_short":"sea-1","host":"sea-1.us.uncletopia.com","port":27015,"enabled":true,"region":"us-west","cc":"us","latitude":47.608013,"longitude":-122.33517,"reserved":0,"last_update":"0001-01-01T00:00:00Z","name_a2s":"Uncletopia | Seattle | 1 | All Maps","protocol":17,"map":"pl_rumford_event","folder":"tf","game":"Team Fortress","app_id":440,"player_count":24,"max_players":24,"Bots":0,"server_type":"Dedicated","server_os":"Linux","password":true,"vac":true,"version":"7932396","steam_id":85568392924469997,"keywords":["nocrits","nodmgspread","payload","uncletopia"],"game_id":440,"stv_port":27016,"stv_name":"Uncletopia | Seattle | 1 | All Maps | STV","players":[{"user_id":422,"name":"cat gets the fleas","steam_id":76561198048754056,"connected_time":9411000000000,"state":"active","ping":61},{"user_id":531,"name":"twink in pastry flops","steam_id":76561198340646012,"connected_time":65000000000,"state":"active","ping":41},{"user_id":517,"name":"exephur","steam_id":76561198135763234,"connected_time":2554000000000,"state":"active","ping":62},{"user_id":500,"name":"ophiocordyceps","steam_id":76561198169755734,"connected_time":3556000000000,"state":"active","ping":60},{"user_id":527,"name":"Faster Than Instant Transmissio","steam_id":76561198271939793,"connected_time":1827000000000,"state":"active","ping":46},{"user_id":514,"name":"TRIPPYSIXS","steam_id":76561199236605546,"connected_time":2786000000000,"state":"active","ping":126},{"user_id":524,"name":"Tea","steam_id":76561198004133638,"connected_time":2111000000000,"state":"spawning","ping":74},{"user_id":534,"name":"The King of Piss World","steam_id":76561198082806956,"connected_time":47000000000,"state":"active","ping":137},{"user_id":481,"name":"H0UZM@$T3R!!!!1","steam_id":76561198044297170,"connected_time":4423000000000,"state":"active","ping":74},{"user_id":536,"name":"BolognaWithOlives","steam_id":76561198101262668,"connected_time":37000000000,"state":"active","ping":86},{"user_id":479,"name":"im mr ____hed look at me","steam_id":76561198051751133,"connected_time":4972000000000,"state":"active","ping":59},{"user_id":537,"name":"lasky","steam_id":76561198017030029,"connected_time":5000000000,"state":"spawning","ping":64},{"user_id":538,"name":"THE_VIRTUAL_MAN.exe","steam_id":76561197999522253,"connected_time":5000000000,"state":"spawning","ping":29},{"user_id":539,"name":"Sniff","steam_id":76561198010270922,"connected_time":4000000000,"state":"spawning","ping":51},{"user_id":384,"name":"rat gets the cheese","steam_id":76561198031234032,"connected_time":12505000000000,"state":"active","ping":91},{"user_id":515,"name":"Inflight","steam_id":76561198920049475,"connected_time":2709000000000,"state":"active","ping":67},{"user_id":506,"name":"Durazorn","steam_id":76561198096327396,"connected_time":3320000000000,"state":"active","ping":105},{"user_id":410,"name":"Cheezbeargur","steam_id":76561198164702899,"connected_time":10074000000000,"state":"active","ping":67},{"user_id":520,"name":"jungus","steam_id":76561198129862008,"connected_time":2149000000000,"state":"active","ping":75},{"user_id":533,"name":"reiidaya","steam_id":76561198325306660,"connected_time":55000000000,"state":"active","ping":51},{"user_id":518,"name":"Juuichi11","steam_id":76561198141955085,"connected_time":2455000000000,"state":"active","ping":50},{"user_id":526,"name":"lusty","steam_id":76561198138478947,"connected_time":1941000000000,"state":"active","ping":38},{"user_id":516,"name":"JoJoBo","steam_id":76561198211505960,"connected_time":2678000000000,"state":"active","ping":44},{"user_id":535,"name":"Doctor‚Ñ¢","steam_id":76561198134309750,"connected_time":47000000000,"state":"active","ping":114}]},{"server_id":119,"name":"Uncletopia | Seattle | 2 | All Maps","name_short":"sea-2","host":"sea-1.us.uncletopia.com","port":27025,"enabled":true,"region":"us-west","cc":"us","latitude":47.608013,"longitude":-122.33517,"reserved":0,"last_update":"0001-01-01T00:00:00Z","name_a2s":"Uncletopia | Seattle | 2 | All Maps","protocol":17,"map":"pl_snowycoast","folder":"tf","game":"Team Fortress","app_id":440,"player_count":24,"max_players":24,"Bots":0,"server_type":"Dedicated","server_os":"Linux","password":true,"vac":true,"version":"7932396","steam_id":85568392924469998,"keywords":["nocrits","nodmgspread","payload","uncletopia"],"game_id":440,"stv_port":27026,"stv_name":"Uncletopia | Seattle | 2 | All Maps | STV","players":[{"user_id":878,"name":"Herr M√ºller","steam_id":76561198064876829,"connected_time":460000000000,"state":"active","ping":131},{"user_id":880,"name":"GoldtoothFour","steam_id":76561198055529332,"connected_time":408000000000,"state":"active","ping":99},{"user_id":843,"name":"Prophet","steam_id":76561198134948582,"connected_time":2957000000000,"state":"active","ping":141},{"user_id":850,"name":"cataconik","steam_id":76561198145530829,"connected_time":2351000000000,"state":"active","ping":131},{"user_id":873,"name":"Phytophis","steam_id":76561198039123895,"connected_time":532000000000,"state":"active","ping":52},{"user_id":820,"name":"ars110","steam_id":76561198030492435,"connected_time":4283000000000,"state":"active","ping":68},{"user_id":874,"name":"Jim","steam_id":76561198998398262,"connected_time":524000000000,"state":"active","ping":75},{"user_id":877,"name":"mlg_grandad","steam_id":76561198033962898,"connected_time":490000000000,"state":"active","ping":84},{"user_id":875,"name":"Nightstalker","steam_id":76561199004204111,"connected_time":505000000000,"state":"active","ping":69},{"user_id":856,"name":"mrthugpug1732","steam_id":76561198881200768,"connected_time":1993000000000,"state":"active","ping":87},{"user_id":872,"name":"General Fisticuffs","steam_id":76561198255721392,"connected_time":639000000000,"state":"active","ping":113},{"user_id":876,"name":"ronald","steam_id":76561197960691622,"connected_time":503000000000,"state":"active","ping":90},{"user_id":883,"name":"Khronakal","steam_id":76561199047228098,"connected_time":56000000000,"state":"active","ping":76},{"user_id":871,"name":"i got a fever.... for dappa","steam_id":76561198321887449,"connected_time":753000000000,"state":"active","ping":94},{"user_id":838,"name":"JawnyMac","steam_id":76561198179529599,"connected_time":3309000000000,"state":"active","ping":72},{"user_id":866,"name":":(){ :|:\u0026 };:","steam_id":76561198115242460,"connected_time":1032000000000,"state":"active","ping":53},{"user_id":879,"name":"AilurosMajor88","steam_id":76561198350900640,"connected_time":450000000000,"state":"active","ping":56},{"user_id":869,"name":"MyMonkeyBaby","steam_id":76561198046896670,"connected_time":920000000000,"state":"active","ping":60},{"user_id":881,"name":"mooney","steam_id":76561199110622484,"connected_time":370000000000,"state":"active","ping":65},{"user_id":800,"name":"011sra","steam_id":76561199489542125,"connected_time":4870000000000,"state":"active","ping":60},{"user_id":882,"name":"BlueZy","steam_id":76561198059111030,"connected_time":366000000000,"state":"active","ping":49},{"user_id":861,"name":"¬´D·µÉ ≥·µè.,,.T·µâ·µê·µñ¬ª","steam_id":76561198018185884,"connected_time":1796000000000,"state":"active","ping":43},{"user_id":841,"name":"BreadGod","steam_id":76561198050665205,"connected_time":3254000000000,"state":"active","ping":120},{"user_id":867,"name":"fromagerie","steam_id":76561198276033128,"connected_time":1032000000000,"state":"active","ping":65}]},{"server_id":406,"name":"Uncletopia | Seattle | 3 | Stopwatch Beta","name_short":"sea-3","host":"sea-1.us.uncletopia.com","port":27035,"enabled":true,"region":"us-west","cc":"us","latitude":47.608013,"longitude":-122.33517,"reserved":0,"last_update":"0001-01-01T00:00:00Z","name_a2s":"Uncletopia | Seattle | 3 | Stopwatch Beta","protocol":17,"map":"workshop/koth_clearcut_b15.ugc2107050255","folder":"tf","game":"Team Fortress","app_id":440,"player_count":0,"max_players":24,"Bots":0,"server_type":"Dedicated","server_os":"Linux","password":true,"vac":true,"version":"7932396","steam_id":85568392924515217,"keywords":["cp","nocrits","nodmgspread","uncletopia"],"game_id":440,"stv_port":27036,"stv_name":"Uncletopia | Seattle | 3 | Stopwatch Beta | STV","players":null},{"server_id":17,"name":"Uncletopia | San Francisco | 1 | All Maps","name_short":"sfo-1","host":"sfo-1.us.uncletopia.com","port":27015,"enabled":true,"region":"us-west","cc":"us","latitude":37.77397,"longitude":-122.4313,"reserved":0,"last_update":"0001-01-01T00:00:00Z","name_a2s":"Uncletopia | San Francisco | 1 | All Maps","protocol":17,"map":"pl_badwater","folder":"tf","game":"Team Fortress","app_id":440,"player_count":24,"max_players":24,"Bots":0,"server_type":"Dedicated","server_os":"Linux","password":true,"vac":true,"version":"7932396","steam_id":85568392924469999,"keywords":["nocrits","nodmgspread","payload","uncletopia"],"game_id":440,"stv_port":27016,"stv_name":"Uncletopia | San Francisco | 1 | All Maps | STV","players":[{"user_id":199,"name":"[Industrial] A_HUMBLEBUMBLED","steam_id":76561198064771878,"connected_time":3720000000000,"state":"active","ping":55},{"user_id":165,"name":"Sleempreem","steam_id":76561198131987251,"connected_time":5032000000000,"state":"active","ping":50},{"user_id":212,"name":"cheesebro","steam_id":76561198002072852,"connected_time":3410000000000,"state":"active","ping":50},{"user_id":227,"name":"emerie","steam_id":76561198406252824,"connected_time":1395000000000,"state":"active","ping":75},{"user_id":225,"name":"kaede","steam_id":76561198345528370,"connected_time":1588000000000,"state":"active","ping":43},{"user_id":231,"name":"Killing_Moon","steam_id":76561198028185566,"connected_time":1232000000000,"state":"active","ping":61},{"user_id":235,"name":"MegaBron James","steam_id":76561198066091050,"connected_time":214000000000,"state":"active","ping":60},{"user_id":232,"name":"SoldMyKidneyForCollege","steam_id":76561198096329559,"connected_time":969000000000,"state":"active","ping":87},{"user_id":198,"name":"pwadvisor1","steam_id":76561199230039839,"connected_time":3859000000000,"state":"active","ping":66},{"user_id":197,"name":"Crazy Hungarian","steam_id":76561198025498172,"connected_time":3876000000000,"state":"active","ping":61},{"user_id":217,"name":"yahweh","steam_id":76561198347225801,"connected_time":2596000000000,"state":"active","ping":71},{"user_id":218,"name":"gucci shovel","steam_id":76561198065662025,"connected_time":2592000000000,"state":"active","ping":52},{"user_id":236,"name":"TYPICAL-HUMAN","steam_id":76561198060914982,"connected_time":4000000000,"state":"spawning","ping":56},{"user_id":202,"name":"Fluffy","steam_id":76561198213561811,"connected_time":3670000000000,"state":"active","ping":35},{"user_id":222,"name":"InvaderAlex","steam_id":76561198039232451,"connected_time":1641000000000,"state":"active","ping":105},{"user_id":220,"name":"Xx_PercyTheSmallEngineGamer6_xX","steam_id":76561198842297041,"connected_time":2544000000000,"state":"active","ping":124},{"user_id":179,"name":"Nani","steam_id":76561198010230727,"connected_time":4738000000000,"state":"active","ping":53},{"user_id":223,"name":"deej","steam_id":76561198127030699,"connected_time":1627000000000,"state":"active","ping":45},{"user_id":233,"name":"Spybusters","steam_id":76561198951505681,"connected_time":888000000000,"state":"active","ping":46},{"user_id":226,"name":"Tutorial","steam_id":76561198103496593,"connected_time":1557000000000,"state":"active","ping":95},{"user_id":234,"name":"lol","steam_id":76561198026491738,"connected_time":808000000000,"state":"active","ping":63},{"user_id":183,"name":"what da dog doin","steam_id":76561198090573639,"connected_time":4710000000000,"state":"active","ping":55},{"user_id":192,"name":"SAP","steam_id":76561198005186905,"connected_time":4179000000000,"state":"active","ping":84},{"user_id":195,"name":"gamer_devourer","steam_id":76561198973306314,"connected_time":4082000000000,"state":"active","ping":53}]},{"server_id":18,"name":"Uncletopia | San Francisco | 2 | All Maps","name_short":"sfo-2","host":"sfo-1.us.uncletopia.com","port":27025,"enabled":true,"region":"us-west","cc":"us","latitude":37.77397,"longitude":-122.4313,"reserved":0,"last_update":"0001-01-01T00:00:00Z","name_a2s":"Uncletopia | San Francisco | 2 | All Maps","protocol":17,"map":"pl_barnblitz","folder":"tf","game":"Team Fortress","app_id":440,"player_count":21,"max_players":24,"Bots":0,"server_type":"Dedicated","server_os":"Linux","password":true,"vac":true,"version":"7932396","steam_id":85568392924470000,"keywords":["nocrits","nodmgspread","payload","uncletopia"],"game_id":440,"stv_port":27026,"stv_name":"Uncletopia | San Francisco | 2 | All Maps | STV","players":[{"user_id":222,"name":"for the king","steam_id":76561197973488858,"connected_time":104000000000,"state":"active","ping":102},{"user_id":224,"name":"Big Blue","steam_id":76561198084930108,"connected_time":16000000000,"state":"active","ping":78},{"user_id":128,"name":"copperhead","steam_id":76561199054982784,"connected_time":7195000000000,"state":"active","ping":129},{"user_id":215,"name":"PeesTi2","steam_id":76561199016865192,"connected_time":557000000000,"state":"active","ping":45},{"user_id":202,"name":"ApertureCity","steam_id":76561198004153607,"connected_time":1382000000000,"state":"active","ping":123},{"user_id":217,"name":"Alex","steam_id":76561198140423612,"connected_time":470000000000,"state":"active","ping":80},{"user_id":210,"name":"fridge","steam_id":76561198986774696,"connected_time":691000000000,"state":"active","ping":92},{"user_id":192,"name":"ƒê√Ø…ê»ê…π…¶…Üa","steam_id":76561198981411945,"connected_time":1859000000000,"state":"active","ping":46},{"user_id":197,"name":"ant5678910","steam_id":76561199036142684,"connected_time":1669000000000,"state":"active","ping":66},{"user_id":208,"name":"D.A.V.I.D","steam_id":76561199443570634,"connected_time":967000000000,"state":"active","ping":94},{"user_id":219,"name":"SoldJar","steam_id":76561198364523450,"connected_time":360000000000,"state":"active","ping":69},{"user_id":223,"name":"Lemonade Juice","steam_id":76561198402892608,"connected_time":50000000000,"state":"spawning","ping":61},{"user_id":132,"name":"ForAPessimistImPrettyOptimistic","steam_id":76561198170128009,"connected_time":6661000000000,"state":"active","ping":58},{"user_id":220,"name":"Squiliam","steam_id":76561198025278006,"connected_time":291000000000,"state":"active","ping":78},{"user_id":221,"name":"bobtheninjaman","steam_id":76561198066424544,"connected_time":107000000000,"state":"active","ping":60},{"user_id":149,"name":"Grand","steam_id":76561198290143399,"connected_time":5537000000000,"state":"active","ping":75},{"user_id":207,"name":"Mr. Boombox","steam_id":76561198070609120,"connected_time":1033000000000,"state":"active","ping":90},{"user_id":77,"name":"riSygneD","steam_id":76561198331618687,"connected_time":11722000000000,"state":"active","ping":45},{"user_id":218,"name":"incompetentmedic","steam_id":76561199466073856,"connected_time":470000000000,"state":"active","ping":112},{"user_id":214,"name":"no brain","steam_id":76561198451032322,"connected_time":620000000000,"state":"active","ping":105},{"user_id":204,"name":"zinnk","steam_id":76561198092081825,"connected_time":1108000000000,"state":"active","ping":30}]},{"server_id":19,"name":"Uncletopia | San Francisco | 3 | Stopwatch Beta","name_short":"sfo-3","host":"sfo-1.us.uncletopia.com","port":27035,"enabled":true,"region":"us-west","cc":"us","latitude":37.77397,"longitude":-122.4313,"reserved":0,"last_update":"0001-01-01T00:00:00Z","name_a2s":"Uncletopia | San Francisco | 3 | Stopwatch Beta","protocol":17,"map":"workshop/pl_badwater_pro_v12.ugc2142942074","folder":"tf","game":"Team Fortress","app_id":440,"player_count":0,"max_players":24,"Bots":0,"server_type":"Dedicated","server_os":"Linux","password":true,"vac":true,"version":"7932396","steam_id":85568392924742824,"keywords":["nocrits","nodmgspread","payload","uncletopia"],"game_id":440,"stv_port":27036,"stv_name":"Uncletopia | San Francisco | 3 | Stopwatch Beta | STV","players":null},{"server_id":20,"name":"Uncletopia | San Francisco | 4 | Community","name_short":"sfo-4","host":"sfo-1.us.uncletopia.com","port":27045,"enabled":true,"region":"us-west","cc":"us","latitude":37.77397,"longitude":-122.4313,"reserved":0,"last_update":"0001-01-01T00:00:00Z","name_a2s":"Uncletopia | San Francisco | 4 | Community","protocol":17,"map":"workshop/koth_trenchfoot_b1a.ugc731436616","folder":"tf","game":"Team Fortress","app_id":440,"player_count":0,"max_players":24,"Bots":0,"server_type":"Dedicated","server_os":"Linux","password":true,"vac":true,"version":"7932396","steam_id":85568392924742826,"keywords":["cp","nocrits","nodmgspread","uncletopia"],"game_id":440,"stv_port":27046,"stv_name":"Uncletopia | San Francisco | 4 | Community | STV","players":null},{"server_id":141,"name":"Uncletopia | Sydney | 1 | All Maps","name_short":"syd-1","host":"syd-1.au.uncletopia.com","port":27015,"enabled":true,"region":"au","cc":"au","latitude":-33.865143,"longitude":151.2099,"reserved":0,"last_update":"0001-01-01T00:00:00Z","name_a2s":"Uncletopia | Sydney | 1 | All Maps","protocol":17,"map":"koth_lakeside_final","folder":"tf","game":"Team Fortress","app_id":440,"player_count":0,"max_players":24,"Bots":0,"server_type":"Dedicated","server_os":"Linux","password":true,"vac":true,"version":"7932396","steam_id":85568392924470001,"keywords":["cp","nocrits","nodmgspread","uncletopia"],"game_id":440,"stv_port":27016,"stv_name":"Uncletopia | Sydney | 1 | All Maps | STV","players":null},{"server_id":123,"name":"Uncletopia | Sydney | 2 | All Maps","name_short":"syd-2","host":"syd-1.au.uncletopia.com","port":27025,"enabled":true,"region":"au","cc":"au","latitude":-33.865143,"longitude":151.2099,"reserved":0,"last_update":"0001-01-01T00:00:00Z","name_a2s":"Uncletopia | Sydney | 2 | All Maps","protocol":17,"map":"cp_snakewater_final1","folder":"tf","game":"Team Fortress","app_id":440,"player_count":0,"max_players":24,"Bots":0,"server_type":"Dedicated","server_os":"Linux","password":true,"vac":true,"version":"7932396","steam_id":85568392924470002,"keywords":["cp","nocrits","nodmgspread","uncletopia"],"game_id":440,"stv_port":27026,"stv_name":"Uncletopia | Sydney | 2 | All Maps | STV","players":null},{"server_id":395,"name":"Uncletopia | Sydney | 3 | All Maps","name_short":"syd-3","host":"syd-1.au.uncletopia.com","port":27035,"enabled":true,"region":"au","cc":"au","latitude":-33.865143,"longitude":151.2099,"reserved":0,"last_update":"0001-01-01T00:00:00Z","name_a2s":"Uncletopia | Sydney | 3 | All Maps","protocol":17,"map":"pl_frontier_final","folder":"tf","game":"Team Fortress","app_id":440,"player_count":0,"max_players":24,"Bots":0,"server_type":"Dedicated","server_os":"Linux","password":true,"vac":true,"version":"7932396","steam_id":85568392925194467,"keywords":["nocrits","nodmgspread","payload","uncletopia"],"game_id":440,"stv_port":27036,"stv_name":"Uncletopia | Sydney | 3 | All Maps | STV","players":null},{"server_id":396,"name":"Uncletopia | Sydney | 4 | All Maps","name_short":"syd-4","host":"syd-1.au.uncletopia.com","port":27045,"enabled":true,"region":"au","cc":"au","latitude":-33.865143,"longitude":151.2099,"reserved":0,"last_update":"0001-01-01T00:00:00Z","name_a2s":"Uncletopia | Sydney | 4 | All Maps","protocol":17,"map":"pl_frontier_final","folder":"tf","game":"Team Fortress","app_id":440,"player_count":0,"max_players":24,"Bots":0,"server_type":"Dedicated","server_os":"Linux","password":true,"vac":true,"version":"7932396","steam_id":85568392925397958,"keywords":["nocrits","nodmgspread","payload","uncletopia"],"game_id":440,"stv_port":27046,"stv_name":"Uncletopia | Sydney | 4 | All Maps | STV","players":null},{"server_id":58,"name":"Uncletopia | Sydney | 5 | Stopwatch Beta","name_short":"syd-5","host":"syd-1.au.uncletopia.com","port":27055,"enabled":true,"region":"au","cc":"au","latitude":-33.865143,"longitude":151.2099,"reserved":0,"last_update":"0001-01-01T00:00:00Z","name_a2s":"Uncletopia | Sydney | 5 | Stopwatch Beta","protocol":17,"map":"pl_borneo","folder":"tf","game":"Team Fortress","app_id":440,"player_count":0,"max_players":24,"Bots":0,"server_type":"Dedicated","server_os":"Linux","password":true,"vac":true,"version":"7932396","steam_id":85568392925397959,"keywords":["nocrits","nodmgspread","payload","uncletopia"],"game_id":440,"stv_port":27056,"stv_name":"Uncletopia | Sydney | 5 | Stopwatch Beta | STV","players":null},{"server_id":59,"name":"Uncletopia | Sydney | 6 | Community","name_short":"syd-6","host":"syd-1.au.uncletopia.com","port":27065,"enabled":true,"region":"au","cc":"au","latitude":-33.865143,"longitude":151.2099,"reserved":0,"last_update":"0001-01-01T00:00:00Z","name_a2s":"Uncletopia | Sydney | 6 | Community","protocol":17,"map":"workshop/pl_highwood_b13.ugc1769496557","folder":"tf","game":"Team Fortress","app_id":440,"player_count":0,"max_players":24,"Bots":0,"server_type":"Dedicated","server_os":"Linux","password":true,"vac":true,"version":"7932396","steam_id":85568392925397960,"keywords":["nocrits","nodmgspread","payload","uncletopia"],"game_id":440,"stv_port":27066,"stv_name":"Uncletopia | Sydney | 6 | Community | STV","players":null},{"server_id":49,"name":"Uncletopia | Warsaw | 1 | All Maps","name_short":"waw-1","host":"waw-1.pl.uncletopia.com","port":27015,"enabled":true,"region":"eu","cc":"pl","latitude":52.2297,"longitude":21.017532,"reserved":0,"last_update":"0001-01-01T00:00:00Z","name_a2s":"","protocol":0,"map":"","folder":"","game":"","app_id":0,"player_count":0,"max_players":0,"Bots":0,"server_type":"","server_os":"","password":false,"vac":false,"version":"","steam_id":0,"keywords":null,"game_id":0,"stv_port":0,"stv_name":"","players":null},{"server_id":50,"name":"Uncletopia | Warsaw | 2 | All Maps","name_short":"waw-2","host":"waw-1.pl.uncletopia.com","port":27025,"enabled":true,"region":"eu","cc":"pl","latitude":52.2297,"longitude":21.017532,"reserved":0,"last_update":"0001-01-01T00:00:00Z","name_a2s":"Uncletopia | Warsaw | 2 | All Maps","protocol":17,"map":"cp_sunshine","folder":"tf","game":"Team Fortress","app_id":440,"player_count":0,"max_players":24,"Bots":0,"server_type":"Dedicated","server_os":"Linux","password":true,"vac":true,"version":"7932396","steam_id":85568392925397851,"keywords":["cp","nocrits","nodmgspread","uncletopia"],"game_id":440,"stv_port":27026,"stv_name":"Uncletopia | Warsaw | 2 | All Maps | STV","players":null},{"server_id":51,"name":"Uncletopia | Warsaw | 3 | All Maps","name_short":"waw-3","host":"waw-1.pl.uncletopia.com","port":27035,"enabled":true,"region":"eu","cc":"pl","latitude":52.2297,"longitude":21.017532,"reserved":0,"last_update":"0001-01-01T00:00:00Z","name_a2s":"Uncletopia | Warsaw | 3 | All Maps","protocol":17,"map":"koth_lakeside_final","folder":"tf","game":"Team Fortress","app_id":440,"player_count":0,"max_players":24,"Bots":0,"server_type":"Dedicated","server_os":"Linux","password":true,"vac":true,"version":"7932396","steam_id":85568392925397852,"keywords":["cp","nocrits","nodmgspread","uncletopia"],"game_id":440,"stv_port":27036,"stv_name":"Uncletopia | Warsaw | 3 | All Maps | STV","players":null},{"server_id":52,"name":"Uncletopia | Warsaw | 4 | All Maps","name_short":"waw-4","host":"waw-1.pl.uncletopia.com","port":27045,"enabled":true,"region":"eu","cc":"pl","latitude":52.2297,"longitude":21.017532,"reserved":0,"last_update":"0001-01-01T00:00:00Z","name_a2s":"Uncletopia | Warsaw | 4 | All Maps","protocol":17,"map":"pl_swiftwater_final1","folder":"tf","game":"Team Fortress","app_id":440,"player_count":0,"max_players":24,"Bots":0,"server_type":"Dedicated","server_os":"Linux","password":true,"vac":true,"version":"7932396","steam_id":85568392925397853,"keywords":["nocrits","nodmgspread","payload","uncletopia"],"game_id":440,"stv_port":27046,"stv_name":"Uncletopia | Warsaw | 4 | All Maps | STV","players":null},{"server_id":53,"name":"Uncletopia | Warsaw | 5 | Stopwatch Beta","name_short":"waw-5","host":"waw-1.pl.uncletopia.com","port":27055,"enabled":true,"region":"eu","cc":"pl","latitude":52.2297,"longitude":21.017532,"reserved":0,"last_update":"0001-01-01T00:00:00Z","name_a2s":"Uncletopia | Warsaw | 5 | Stopwatch Beta","protocol":17,"map":"koth_highpass","folder":"tf","game":"Team Fortress","app_id":440,"player_count":0,"max_players":24,"Bots":0,"server_type":"Dedicated","server_os":"Linux","password":true,"vac":true,"version":"7932396","steam_id":85568392925397854,"keywords":["cp","nocrits","nodmgspread","uncletopia"],"game_id":440,"stv_port":27056,"stv_name":"Uncletopia | Warsaw | 5 | Stopwatch Beta | STV","players":null},{"server_id":54,"name":"Uncletopia | Warsaw | 6 | Community","name_short":"waw-6","host":"waw-1.pl.uncletopia.com","port":27065,"enabled":true,"region":"eu","cc":"pl","latitude":52.2297,"longitude":21.017532,"reserved":0,"last_update":"0001-01-01T00:00:00Z","name_a2s":"Uncletopia | Warsaw | 6 | Community","protocol":17,"map":"pl_upward","folder":"tf","game":"Team Fortress","app_id":440,"player_count":0,"max_players":24,"Bots":0,"server_type":"Dedicated","server_os":"Linux","password":true,"vac":true,"version":"7932396","steam_id":85568392925397856,"keywords":["nocrits","nodmgspread","payload","uncletopia"],"game_id":440,"stv_port":27066,"stv_name":"Uncletopia | Warsaw | 6 | Community | STV","players":null}]}