{"status":true,"message":"","result":[{"server_id":9,"name":"Uncletopia | Atlanta | 1 | All Maps","name_short":"atl-1","host":"atl-1.us.uncletopia.com","port":27015,"enabled":true,"region":"us-east","cc":"us","latitude":33.753746,"longitude":-84.38633,"reserved":0,"last_update":"0001-01-01T00:00:00Z","name_a2s":"Uncletopia | Atlanta | 1 | All Maps","protocol":17,"map":"cp_mountainlab","folder":"tf","game":"Team Fortress","app_id":440,"player_count":0,"max_players":24,"Bots":0,"server_type":"Dedicated","server_os":"Linux","password":true,"vac":true,"version":"7742253","steam_id":85568392924469982,"keywords":["cp","nocrits","nodmgspread","uncletopia"],"game_id":440,"stv_port":27016,"stv_name":"Uncletopia | Atlanta | 1 | All Maps | STV","players":null},{"server_id":400,"name":"Uncletopia | Atlanta | 3 | Stopwatch Beta","name_short":"atl-3","host":"atl-1.us.uncletopia.com","port":27035,"enabled":true,"region":"us-east","cc":"us","latitude":33.753746,"longitude":-84.38633,"reserved":0,"last_update":"0001-01-01T00:00:00Z","name_a2s":"Uncletopia | Atlanta | 3 | Stopwatch Beta","protocol":17,"map":"workshop/koth_product_final.ugc454272353","folder":"tf","game":"Team Fortress","app_id":440,"player_count":0,"max_players":24,"Bots":0,"server_type":"Dedicated","server_os":"Linux","password":true,"vac":true,"version":"7742253","steam_id":85568392924515187,"keywords":["cp","nocrits","nodmgspread","uncletopia"],"game_id":440,"stv_port":27036,"stv_name":"Uncletopia | Atlanta | 3 | Stopwatch Beta | STV","players":null},{"server_id":401,"name":"Uncletopia | Atlanta | 4 | No Payload","name_short":"atl-4","host":"atl-1.us.uncletopia.com","port":27045,"enabled":true,"region":"us-east","cc":"us","latitude":33.753746,"longitude":-84.38633,"reserved":0,"last_update":"0001-01-01T00:00:00Z","name_a2s":"Uncletopia | Atlanta | 4 | No Payload","protocol":17,"map":"pl_pier","folder":"tf","game":"Team Fortress","app_id":440,"player_count":0,"max_players":24,"Bots":0,"server_type":"Dedicated","server_os":"Linux","password":true,"vac":true,"version":"7723704","steam_id":85568392924515188,"keywords":["nocrits","nodmgspread","payload","uncletopia"],"game_id":440,"stv_port":27046,"stv_name":"Uncletopia | Atlanta | 4 | No Payload | STV","players":null},{"server_id":2,"name":"Uncletopia | Chicago | 1 | All Maps","name_short":"chi-1","host":"chi-1.us.uncletopia.com","port":27015,"enabled":true,"region":"us-central","cc":"us","latitude":41.881832,"longitude":-87.62318,"reserved":0,"last_update":"0001-01-01T00:00:00Z","name_a2s":"Uncletopia | Chicago | 1 | All Maps","protocol":17,"map":"pl_snowycoast","folder":"tf","game":"Team Fortress","app_id":440,"player_count":0,"max_players":24,"Bots":0,"server_type":"Dedicated","server_os":"Linux","password":true,"vac":true,"version":"7742253","steam_id":85568392924469984,"keywords":["nocrits","nodmgspread","payload","uncletopia"],"game_id":440,"stv_port":27016,"stv_name":"Uncletopia | Chicago | 1 | All Maps | STV","players":null},{"server_id":106,"name":"Uncletopia | Chicago | 2 | All Maps","name_short":"chi-2","host":"chi-1.us.uncletopia.com","port":27025,"enabled":true,"region":"us-central","cc":"us","latitude":41.881832,"longitude":-87.62318,"reserved":0,"last_update":"0001-01-01T00:00:00Z","name_a2s":"Uncletopia | Chicago | 2 | All Maps","protocol":17,"map":"pl_swiftwater_final1","folder":"tf","game":"Team Fortress","app_id":440,"player_count":0,"max_players":24,"Bots":0,"server_type":"Dedicated","server_os":"Linux","password":true,"vac":true,"version":"7742253","steam_id":85568392924469985,"keywords":["nocrits","nodmgspread","payload","uncletopia"],"game_id":440,"stv_port":27026,"stv_name":"Uncletopia | Chicago | 2 | All Maps | STV","players":null},{"server_id":402,"name":"Uncletopia | Chicago | 3 | All Maps","name_short":"chi-3","host":"chi-1.us.uncletopia.com","port":27035,"enabled":true,"region":"us-central","cc":"us","latitude":41.881832,"longitude":-87.62318,"reserved":0,"last_update":"0001-01-01T00:00:00Z","name_a2s":"Uncletopia | Chicago | 3 | All Maps","protocol":17,"map":"pl_barnblitz","folder":"tf","game":"Team Fortress","app_id":440,"player_count":0,"max_players":24,"Bots":0,"server_type":"Dedicated","server_os":"Linux","password":true,"vac":true,"version":"7742253","steam_id":85568392924515191,"keywords":["nocrits","nodmgspread","payload","uncletopia"],"game_id":440,"stv_port":27036,"stv_name":"Uncletopia | Chicago | 3 | All Maps | STV","players":null},{"server_id":403,"name":"Uncletopia | Chicago | 4 | All Maps","name_short":"chi-4","host":"chi-1.us.uncletopia.com","port":27045,"enabled":true,"region":"us-central","cc":"us","latitude":41.881832,"longitude":-87.62318,"reserved":0,"last_update":"0001-01-01T00:00:00Z","name_a2s":"Uncletopia | Chicago | 4 | All Maps","protocol":17,"map":"cp_snakewater_final1","folder":"tf","game":"Team Fortress","app_id":440,"player_count":24,"max_players":24,"Bots":0,"server_type":"Dedicated","server_os":"Linux","password":true,"vac":true,"version":"7742253","steam_id":85568392924515193,"keywords":["cp","nocrits","nodmgspread","uncletopia"],"game_id":440,"stv_port":27046,"stv_name":"Uncletopia | Chicago | 4 | All Maps | STV","players":[{"user_id":557,"name":"neeko go fishing","steam_id":76561198108938632,"connected_time":1764000000000,"state":"active","ping":42},{"user_id":460,"name":"1 0 0 . m i l ‚Äò","steam_id":76561198255308129,"connected_time":10428000000000,"state":"active","ping":124},{"user_id":572,"name":"PopcornNinja101","steam_id":76561198330680181,"connected_time":325000000000,"state":"active","ping":95},{"user_id":556,"name":"Gote Boyo","steam_id":76561198169900278,"connected_time":1845000000000,"state":"active","ping":58},{"user_id":559,"name":"CheeseCake488","steam_id":76561199407617942,"connected_time":1745000000000,"state":"active","ping":157},{"user_id":543,"name":"Gecko","steam_id":76561198326615047,"connected_time":3131000000000,"state":"active","ping":105},{"user_id":560,"name":"Jesus","steam_id":76561198018890911,"connected_time":1744000000000,"state":"active","ping":77},{"user_id":521,"name":"Myracle","steam_id":76561198070916920,"connected_time":5815000000000,"state":"active","ping":51},{"user_id":549,"name":"Festive Monarch","steam_id":76561198896072266,"connected_time":2853000000000,"state":"active","ping":105},{"user_id":534,"name":"wordyhook830","steam_id":76561198086538218,"connected_time":4453000000000,"state":"active","ping":80},{"user_id":506,"name":"Crazy","steam_id":76561198102772209,"connected_time":6897000000000,"state":"active","ping":60},{"user_id":562,"name":"spangleborb","steam_id":76561198903054598,"connected_time":1688000000000,"state":"active","ping":71},{"user_id":554,"name":"–≥—Ä—É—Å—Ç–Ω—ã–π","steam_id":76561198274550638,"connected_time":1940000000000,"state":"active","ping":61},{"user_id":548,"name":"BustedRake","steam_id":76561198130489976,"connected_time":2914000000000,"state":"active","ping":64},{"user_id":545,"name":"LtK","steam_id":76561197993180943,"connected_time":3110000000000,"state":"active","ping":60},{"user_id":564,"name":"REALLINUSJEWTIP.","steam_id":76561198056647983,"connected_time":1521000000000,"state":"active","ping":61},{"user_id":444,"name":"Brown $keez","steam_id":76561198053621664,"connected_time":11752000000000,"state":"active","ping":58},{"user_id":547,"name":"Souper Scott","steam_id":76561198045518926,"connected_time":3039000000000,"state":"active","ping":51},{"user_id":501,"name":"Ye (I Love Hanukkah( Day6 ) Wes","steam_id":76561198068830312,"connected_time":7343000000000,"state":"active","ping":46},{"user_id":570,"name":"sleeping ronaldo","steam_id":76561199185768744,"connected_time":390000000000,"state":"active","ping":157},{"user_id":513,"name":"KingToaster","steam_id":76561198007903802,"connected_time":6513000000000,"state":"active","ping":81},{"user_id":571,"name":"üé∂","steam_id":76561198018213050,"connected_time":381000000000,"state":"active","ping":45},{"user_id":555,"name":"Xylemon","steam_id":76561197965297420,"connected_time":1938000000000,"state":"active","ping":99},{"user_id":531,"name":"Dirtbike rider","steam_id":76561198030457066,"connected_time":5365000000000,"state":"active","ping":93}]},{"server_id":36,"name":"Uncletopia | Chicago | 5 | All Maps","name_short":"chi-5","host":"chi-2.us.uncletopia.com","port":27015,"enabled":true,"region":"us-central","cc":"us","latitude":41.881832,"longitude":-87.62318,"reserved":0,"last_update":"0001-01-01T00:00:00Z","name_a2s":"Uncletopia | Chicago | 5 | All Maps","protocol":17,"map":"cp_dustbowl","folder":"tf","game":"Team Fortress","app_id":440,"player_count":19,"max_players":24,"Bots":0,"server_type":"Dedicated","server_os":"Linux","password":true,"vac":true,"version":"7742253","steam_id":85568392924866362,"keywords":["cp","nocrits","nodmgspread","uncletopia"],"game_id":440,"stv_port":27016,"stv_name":"Uncletopia | Chicago | 5 | All Maps | STV","players":[{"user_id":646,"name":"NeoN‚Ñ¢","steam_id":76561198117608366,"connected_time":1882000000000,"state":"active","ping":95},{"user_id":647,"name":"Drone","steam_id":76561198022920857,"connected_time":1801000000000,"state":"active","ping":76},{"user_id":614,"name":"Be Gay, Do Crimes, Smoke Weed!","steam_id":76561198092419868,"connected_time":5902000000000,"state":"active","ping":94},{"user_id":639,"name":"tup444","steam_id":76561198847462964,"connected_time":2549000000000,"state":"active","ping":149},{"user_id":663,"name":"Qepop","steam_id":76561199051354040,"connected_time":758000000000,"state":"active","ping":110},{"user_id":662,"name":"euphoricfilth (it/her)","steam_id":76561198100160865,"connected_time":830000000000,"state":"active","ping":61},{"user_id":664,"name":"sleapy","steam_id":76561198828573770,"connected_time":656000000000,"state":"active","ping":175},{"user_id":665,"name":"jboi","steam_id":76561198967909005,"connected_time":617000000000,"state":"active","ping":99},{"user_id":644,"name":"goopgrabber","steam_id":76561199029951083,"connected_time":2097000000000,"state":"active","ping":72},{"user_id":667,"name":"tea","steam_id":76561198067677576,"connected_time":401000000000,"state":"active","ping":103},{"user_id":669,"name":"Exxon","steam_id":76561198997885594,"connected_time":269000000000,"state":"active","ping":129},{"user_id":670,"name":"G‡∂ûMER","steam_id":76561198340389876,"connected_time":250000000000,"state":"active","ping":110},{"user_id":672,"name":"pine beetle","steam_id":76561197960794303,"connected_time":138000000000,"state":"active","ping":105},{"user_id":673,"name":"LimpbizkitFan99","steam_id":76561198307382591,"connected_time":56000000000,"state":"spawning","ping":152},{"user_id":674,"name":"mega giga payload hater!","steam_id":76561198039727616,"connected_time":49000000000,"state":"active","ping":65},{"user_id":615,"name":"[K.Y.L.L.]Pup (she/they)","steam_id":76561198027321950,"connected_time":5886000000000,"state":"active","ping":92},{"user_id":675,"name":"Scut","steam_id":76561198973734291,"connected_time":15000000000,"state":"spawning","ping":90},{"user_id":654,"name":"Freakoid","steam_id":76561198087177094,"connected_time":1408000000000,"state":"active","ping":84},{"user_id":658,"name":"Ghost","steam_id":76561198110914180,"connected_time":1181000000000,"state":"active","ping":175}]},{"server_id":37,"name":"Uncletopia | Chicago | 6 | All Maps","name_short":"chi-6","host":"chi-2.us.uncletopia.com","port":27025,"enabled":true,"region":"us-central","cc":"us","latitude":41.881832,"longitude":-87.62318,"reserved":0,"last_update":"0001-01-01T00:00:00Z","name_a2s":"Uncletopia | Chicago | 6 | All Maps","protocol":17,"map":"cp_dustbowl","folder":"tf","game":"Team Fortress","app_id":440,"player_count":0,"max_players":24,"Bots":0,"server_type":"Dedicated","server_os":"Linux","password":true,"vac":true,"version":"7742253","steam_id":85568392924866363,"keywords":["cp","nocrits","nodmgspread","uncletopia"],"game_id":440,"stv_port":27026,"stv_name":"Uncletopia | Chicago | 6 | All Maps | STV","players":null},{"server_id":38,"name":"Uncletopia | Chicago | 7 | Stopwatch Beta","name_short":"chi-7","host":"chi-2.us.uncletopia.com","port":27035,"enabled":true,"region":"us-central","cc":"us","latitude":41.881832,"longitude":-87.62318,"reserved":0,"last_update":"0001-01-01T00:00:00Z","name_a2s":"Uncletopia | Chicago | 7 | Stopwatch Beta","protocol":17,"map":"workshop/pl_barnblitz_pro7.ugc582280235","folder":"tf","game":"Team Fortress","app_id":440,"player_count":0,"max_players":24,"Bots":0,"server_type":"Dedicated","server_os":"Linux","password":true,"vac":true,"version":"7742253","steam_id":85568392924866364,"keywords":["nocrits","nodmgspread","payload","uncletopia"],"game_id":440,"stv_port":27036,"stv_name":"Uncletopia | Chicago | 7 | Stopwatch Beta | STV","players":null},{"server_id":39,"name":"Uncletopia | Chicago | 8 | Community","name_short":"chi-8","host":"chi-2.us.uncletopia.com","port":27045,"enabled":true,"region":"us-central","cc":"us","latitude":41.881832,"longitude":-87.62318,"reserved":0,"last_update":"0001-01-01T00:00:00Z","name_a2s":"Uncletopia | Chicago | 8 | Community","protocol":17,"map":"workshop/koth_bagel_rc5.ugc2514036946","folder":"tf","game":"Team Fortress","app_id":440,"player_count":0,"max_players":24,"Bots":0,"server_type":"Dedicated","server_os":"Linux","password":true,"vac":true,"version":"7742253","steam_id":85568392924866365,"keywords":["cp","nocrits","nodmgspread","uncletopia"],"game_id":440,"stv_port":27046,"stv_name":"Uncletopia | Chicago | 8 | Community | STV","players":null},{"server_id":8,"name":"Uncletopia | Dallas | 1 | All Maps","name_short":"dal-1","host":"dal-1.us.uncletopia.com","port":27015,"enabled":true,"region":"us-central","cc":"us","latitude":32.779167,"longitude":-96.80889,"reserved":0,"last_update":"0001-01-01T00:00:00Z","name_a2s":"Uncletopia | Dallas | 1 | All Maps","protocol":17,"map":"koth_lakeside_final","folder":"tf","game":"Team Fortress","app_id":440,"player_count":0,"max_players":24,"Bots":0,"server_type":"Dedicated","server_os":"Linux","password":true,"vac":true,"version":"7742253","steam_id":85568392924469986,"keywords":["cp","nocrits","nodmgspread","uncletopia"],"game_id":440,"stv_port":27016,"stv_name":"Uncletopia | Dallas | 1 | All Maps | STV","players":null},{"server_id":108,"name":"Uncletopia | Dallas | 2 | All Maps","name_short":"dal-2","host":"dal-1.us.uncletopia.com","port":27025,"enabled":true,"region":"us-central","cc":"us","latitude":32.779167,"longitude":-96.80889,"reserved":0,"last_update":"0001-01-01T00:00:00Z","name_a2s":"Uncletopia | Dallas | 2 | All Maps","protocol":17,"map":"pl_pier","folder":"tf","game":"Team Fortress","app_id":440,"player_count":0,"max_players":24,"Bots":0,"server_type":"Dedicated","server_os":"Linux","password":true,"vac":true,"version":"7742253","steam_id":85568392924469988,"keywords":["nocrits","nodmgspread","payload","uncletopia"],"game_id":440,"stv_port":27026,"stv_name":"Uncletopia | Dallas | 2 | All Maps | STV","players":null},{"server_id":5,"name":"Uncletopia | Frankfurt | 1 | All Maps","name_short":"frk-1","host":"frk-1.de.uncletopia.com","port":27015,"enabled":true,"region":"eu","cc":"de","latitude":50.110924,"longitude":8.682127,"reserved":0,"last_update":"0001-01-01T00:00:00Z","name_a2s":"Uncletopia | Frankfurt | 1 | All Maps","protocol":17,"map":"pl_badwater","folder":"tf","game":"Team Fortress","app_id":440,"player_count":24,"max_players":24,"Bots":0,"server_type":"Dedicated","server_os":"Linux","password":true,"vac":true,"version":"7742253","steam_id":85568392924469989,"keywords":["nocrits","nodmgspread","payload","uncletopia"],"game_id":440,"stv_port":27016,"stv_name":"Uncletopia | Frankfurt | 1 | All Maps | STV","players":[{"user_id":51,"name":"NO end to POOTIS","steam_id":76561198144879361,"connected_time":5983000000000,"state":"active","ping":103},{"user_id":95,"name":"GMsU | Rebikas","steam_id":76561198077053764,"connected_time":2917000000000,"state":"active","ping":43},{"user_id":70,"name":"Pico","steam_id":76561198063552545,"connected_time":4262000000000,"state":"active","ping":96},{"user_id":124,"name":"PWizard","steam_id":76561198026458489,"connected_time":1332000000000,"state":"active","ping":74},{"user_id":134,"name":"Squash Banana","steam_id":76561198055480280,"connected_time":907000000000,"state":"active","ping":79},{"user_id":96,"name":"Cippo95","steam_id":76561198255311582,"connected_time":2909000000000,"state":"active","ping":74},{"user_id":97,"name":"–¢—Ä—É–ø –í–æ–ª–æ–¥—è","steam_id":76561198035718457,"connected_time":2864000000000,"state":"active","ping":88},{"user_id":125,"name":"Jamie Hyneman","steam_id":76561198364121077,"connected_time":1316000000000,"state":"active","ping":96},{"user_id":122,"name":"2004 Kanye","steam_id":76561198189000841,"connected_time":1341000000000,"state":"active","ping":87},{"user_id":112,"name":"Wyvern786","steam_id":76561199137770636,"connected_time":1988000000000,"state":"active","ping":59},{"user_id":138,"name":"Nosyam","steam_id":76561198110297821,"connected_time":796000000000,"state":"active","ping":96},{"user_id":135,"name":"disturbing polish father","steam_id":76561198126398022,"connected_time":894000000000,"state":"active","ping":75},{"user_id":127,"name":"Bepperman","steam_id":76561198397517828,"connected_time":1301000000000,"state":"active","ping":71},{"user_id":128,"name":"cat (they/them)","steam_id":76561198416657815,"connected_time":1291000000000,"state":"active","ping":63},{"user_id":145,"name":"Troodon","steam_id":76561198223648788,"connected_time":427000000000,"state":"active","ping":101},{"user_id":140,"name":"Mr. Fox","steam_id":76561198803610709,"connected_time":607000000000,"state":"active","ping":115},{"user_id":93,"name":"Accident","steam_id":76561198115160396,"connected_time":3115000000000,"state":"active","ping":70},{"user_id":141,"name":"Naomi ‚òÖ","steam_id":76561198060307235,"connected_time":600000000000,"state":"active","ping":60},{"user_id":120,"name":"Viperense","steam_id":76561198036206811,"connected_time":1363000000000,"state":"active","ping":81},{"user_id":121,"name":"PLANNED","steam_id":76561198317019472,"connected_time":1363000000000,"state":"active","ping":157},{"user_id":143,"name":"‚ú™ Sny (The Sly Guy)","steam_id":76561198149266243,"connected_time":588000000000,"state":"active","ping":78},{"user_id":146,"name":"p!ke","steam_id":76561198416081952,"connected_time":423000000000,"state":"active","ping":56},{"user_id":147,"name":"DelT","steam_id":76561198204007537,"connected_time":399000000000,"state":"active","ping":59},{"user_id":103,"name":"Taipan66","steam_id":76561198154094423,"connected_time":2650000000000,"state":"active","ping":78}]},{"server_id":110,"name":"Uncletopia | Frankfurt | 2 | All Maps","name_short":"frk-2","host":"frk-1.de.uncletopia.com","port":27025,"enabled":true,"region":"eu","cc":"de","latitude":50.110924,"longitude":8.682127,"reserved":0,"last_update":"0001-01-01T00:00:00Z","name_a2s":"Uncletopia | Frankfurt | 2 | All Maps","protocol":17,"map":"pl_snowycoast","folder":"tf","game":"Team Fortress","app_id":440,"player_count":0,"max_players":24,"Bots":0,"server_type":"Dedicated","server_os":"Linux","password":true,"vac":true,"version":"7742253","steam_id":85568392924469990,"keywords":["nocrits","nodmgspread","payload","uncletopia"],"game_id":440,"stv_port":27026,"stv_name":"Uncletopia | Frankfurt | 2 | All Maps | STV","players":null},{"server_id":308,"name":"Uncletopia | Frankfurt | 3 | All Maps","name_short":"frk-3","host":"frk-1.de.uncletopia.com","port":27035,"enabled":true,"region":"eu","cc":"de","latitude":50.110924,"longitude":8.682127,"reserved":0,"last_update":"0001-01-01T00:00:00Z","name_a2s":"Uncletopia | Frankfurt | 3 | All Maps","protocol":17,"map":"koth_viaduct","folder":"tf","game":"Team Fortress","app_id":440,"player_count":0,"max_players":24,"Bots":0,"server_type":"Dedicated","server_os":"Linux","password":true,"vac":true,"version":"7742253","steam_id":85568392924504274,"keywords":["cp","nocrits","nodmgspread","uncletopia"],"game_id":440,"stv_port":27036,"stv_name":"Uncletopia | Frankfurt | 3 | All Maps | STV","players":null},{"server_id":309,"name":"Uncletopia | Frankfurt | 4 | All Maps","name_short":"frk-4","host":"frk-1.de.uncletopia.com","port":27045,"enabled":true,"region":"eu","cc":"de","latitude":50.110924,"longitude":8.682127,"reserved":0,"last_update":"0001-01-01T00:00:00Z","name_a2s":"Uncletopia | Frankfurt | 4 | All Maps","protocol":17,"map":"pl_frontier_final","folder":"tf","game":"Team Fortress","app_id":440,"player_count":0,"max_players":24,"Bots":0,"server_type":"Dedicated","server_os":"Linux","password":true,"vac":true,"version":"7742253","steam_id":85568392924504275,"keywords":["nocrits","nodmgspread","payload","uncletopia"],"game_id":440,"stv_port":27046,"stv_name":"Uncletopia | Frankfurt | 4 | All Maps | STV","players":null},{"server_id":310,"name":"Uncletopia | Frankfurt | 5 | All Maps","name_short":"frk-5","host":"frk-1.de.uncletopia.com","port":27055,"enabled":true,"region":"eu","cc":"de","latitude":50.110924,"longitude":8.682127,"reserved":0,"last_update":"0001-01-01T00:00:00Z","name_a2s":"Uncletopia | Frankfurt | 5 | All Maps","protocol":17,"map":"pl_borneo","folder":"tf","game":"Team Fortress","app_id":440,"player_count":0,"max_players":24,"Bots":0,"server_type":"Dedicated","server_os":"Linux","password":true,"vac":true,"version":"7742253","steam_id":85568392924504277,"keywords":["nocrits","nodmgspread","payload","uncletopia"],"game_id":440,"stv_port":27056,"stv_name":"Uncletopia | Frankfurt | 5 | All Maps | STV","players":null},{"server_id":311,"name":"Uncletopia | Frankfurt | 6 | All Maps","name_short":"frk-6","host":"frk-1.de.uncletopia.com","port":27065,"enabled":true,"region":"eu","cc":"de","latitude":50.110924,"longitude":8.682127,"reserved":0,"last_update":"0001-01-01T00:00:00Z","name_a2s":"Uncletopia | Frankfurt | 6 | All Maps","protocol":17,"map":"koth_highpass","folder":"tf","game":"Team Fortress","app_id":440,"player_count":0,"max_players":24,"Bots":0,"server_type":"Dedicated","server_os":"Linux","password":true,"vac":true,"version":"7742253","steam_id":85568392924504278,"keywords":["cp","nocrits","nodmgspread","uncletopia"],"game_id":440,"stv_port":27066,"stv_name":"Uncletopia | Frankfurt | 6 | All Maps | STV","players":null},{"server_id":23,"name":"Uncletopia | Frankfurt | 7 | Stopwatch Beta","name_short":"frk-7","host":"frk-1.de.uncletopia.com","port":27075,"enabled":true,"region":"eu","cc":"de","latitude":50.110924,"longitude":8.682127,"reserved":0,"last_update":"0001-01-01T00:00:00Z","name_a2s":"Uncletopia | Frankfurt | 7 | Stopwatch Beta","protocol":17,"map":"koth_lakeside_final","folder":"tf","game":"Team Fortress","app_id":440,"player_count":0,"max_players":24,"Bots":0,"server_type":"Dedicated","server_os":"Linux","password":true,"vac":true,"version":"7742253","steam_id":85568392924742827,"keywords":["cp","nocrits","nodmgspread","uncletopia"],"game_id":440,"stv_port":27076,"stv_name":"Uncletopia | Frankfurt | 7 | Stopwatch Beta | STV","players":null},{"server_id":24,"name":"Uncletopia | Frankfurt | 8 | Community","name_short":"frk-8","host":"frk-1.de.uncletopia.com","port":27085,"enabled":true,"region":"eu","cc":"de","latitude":50.110924,"longitude":8.682127,"reserved":0,"last_update":"0001-01-01T00:00:00Z","name_a2s":"Uncletopia | Frankfurt | 8 | Community","protocol":17,"map":"workshop/koth_synthetic_rc6a.ugc1549817316","folder":"tf","game":"Team Fortress","app_id":440,"player_count":0,"max_players":24,"Bots":0,"server_type":"Dedicated","server_os":"Linux","password":true,"vac":true,"version":"7742253","steam_id":85568392924742828,"keywords":["cp","nocrits","nodmgspread","uncletopia"],"game_id":440,"stv_port":27086,"stv_name":"Uncletopia | Frankfurt | 8 | Community | STV","players":null},{"server_id":202,"name":"Uncletopia | Hong Kong | 1 | All Maps","name_short":"hgk-1","host":"hgk-1.hk.uncletopia.com","port":27015,"enabled":true,"region":"asia","cc":"hk","latitude":22.302711,"longitude":114.177216,"reserved":0,"last_update":"0001-01-01T00:00:00Z","name_a2s":"Uncletopia | Hong Kong | 1 | All Maps","protocol":17,"map":"cp_mountainlab","folder":"tf","game":"Team Fortress","app_id":440,"player_count":24,"max_players":24,"Bots":0,"server_type":"Dedicated","server_os":"Linux","password":true,"vac":true,"version":"7742253","steam_id":85568392924494504,"keywords":["cp","nocrits","nodmgspread","uncletopia"],"game_id":440,"stv_port":27016,"stv_name":"Uncletopia | Hong Kong | 1 | All Maps | STV","players":[{"user_id":314,"name":"Bertengkar","steam_id":76561198213031155,"connected_time":5939000000000,"state":"active","ping":96},{"user_id":368,"name":"JayJ","steam_id":76561198324008555,"connected_time":572000000000,"state":"active","ping":53},{"user_id":351,"name":"Mystery cheese üßÄ","steam_id":76561198304002409,"connected_time":1983000000000,"state":"active","ping":71},{"user_id":355,"name":"C√° Th√°ng 4","steam_id":76561198047162026,"connected_time":1919000000000,"state":"active","ping":62},{"user_id":363,"name":"Urotsuki","steam_id":76561198074339034,"connected_time":1353000000000,"state":"active","ping":75},{"user_id":328,"name":"qballs","steam_id":76561198412329672,"connected_time":4721000000000,"state":"active","ping":89},{"user_id":369,"name":"ÂÜ¨Â≠£Â•≥Â∑´‚ùÄ‚ùÜ","steam_id":76561198337154745,"connected_time":555000000000,"state":"active","ping":84},{"user_id":347,"name":"it chrmis time","steam_id":76561198055553140,"connected_time":2973000000000,"state":"active","ping":76},{"user_id":332,"name":"lilla laxum","steam_id":76561198230213828,"connected_time":4229000000000,"state":"active","ping":68},{"user_id":365,"name":"…îu·ó°‡∂û …ü∆®u·íê","steam_id":76561199031283970,"connected_time":1284000000000,"state":"active","ping":73},{"user_id":333,"name":"MAGNUS","steam_id":76561198208990721,"connected_time":4223000000000,"state":"active","ping":91},{"user_id":334,"name":"Bear","steam_id":76561199445694770,"connected_time":4223000000000,"state":"active","ping":93},{"user_id":352,"name":"Vortex Morez","steam_id":76561198833527091,"connected_time":1965000000000,"state":"active","ping":91},{"user_id":371,"name":"CyloCrypt","steam_id":76561199247129620,"connected_time":551000000000,"state":"active","ping":169},{"user_id":362,"name":"Pillboi","steam_id":76561198011172886,"connected_time":1387000000000,"state":"active","ping":46},{"user_id":364,"name":"SICSIN","steam_id":76561198083923462,"connected_time":1302000000000,"state":"active","ping":83},{"user_id":349,"name":"Skeptikal01","steam_id":76561199064694137,"connected_time":2961000000000,"state":"active","ping":100},{"user_id":300,"name":"17","steam_id":76561198241530712,"connected_time":7251000000000,"state":"active","ping":56},{"user_id":373,"name":"Dest (f2p) (cheese)","steam_id":76561199206474711,"connected_time":401000000000,"state":"active","ping":57},{"user_id":339,"name":"Wx","steam_id":76561199217780897,"connected_time":3955000000000,"state":"active","ping":66},{"user_id":372,"name":"Sel","steam_id":76561198190923207,"connected_time":508000000000,"state":"active","ping":53},{"user_id":353,"name":"I am BOX","steam_id":76561198845309411,"connected_time":1965000000000,"state":"active","ping":98},{"user_id":321,"name":"Noyour","steam_id":76561198323259830,"connected_time":5338000000000,"state":"active","ping":114},{"user_id":354,"name":"Windmill","steam_id":76561199230997986,"connected_time":1965000000000,"state":"active","ping":74}]},{"server_id":1,"name":"Uncletopia | Los Angeles | 1 | All Maps","name_short":"lax-1","host":"lax-1.us.uncletopia.com","port":27015,"enabled":true,"region":"us-west","cc":"us","latitude":33.94279,"longitude":-118.41004,"reserved":0,"last_update":"0001-01-01T00:00:00Z","name_a2s":"Uncletopia | Los Angeles | 1 | All Maps","protocol":17,"map":"koth_cascade","folder":"tf","game":"Team Fortress","app_id":440,"player_count":0,"max_players":24,"Bots":0,"server_type":"Dedicated","server_os":"Linux","password":true,"vac":true,"version":"7742253","steam_id":85568392924469991,"keywords":["cp","nocrits","nodmgspread","uncletopia"],"game_id":440,"stv_port":27016,"stv_name":"Uncletopia | Los Angeles | 1 | All Maps | STV","players":null},{"server_id":112,"name":"Uncletopia | Los Angeles | 2 | All Maps","name_short":"lax-2","host":"lax-1.us.uncletopia.com","port":27025,"enabled":true,"region":"us-west","cc":"us","latitude":33.94279,"longitude":-118.41004,"reserved":0,"last_update":"0001-01-01T00:00:00Z","name_a2s":"Uncletopia | Los Angeles | 2 | All Maps","protocol":17,"map":"koth_cascade","folder":"tf","game":"Team Fortress","app_id":440,"player_count":0,"max_players":24,"Bots":0,"server_type":"Dedicated","server_os":"Linux","password":true,"vac":true,"version":"7742253","steam_id":85568392924469992,"keywords":["cp","nocrits","nodmgspread","uncletopia"],"game_id":440,"stv_port":27026,"stv_name":"Uncletopia | Los Angeles | 2 | All Maps | STV","players":null},{"server_id":324,"name":"Uncletopia | Los Angeles | 3 | All Maps","name_short":"lax-3","host":"lax-1.us.uncletopia.com","port":27035,"enabled":true,"region":"us-west","cc":"us","latitude":33.94279,"longitude":-118.41004,"reserved":0,"last_update":"0001-01-01T00:00:00Z","name_a2s":"Uncletopia | Los Angeles | 3 | All Maps","protocol":17,"map":"cp_altitude","folder":"tf","game":"Team Fortress","app_id":440,"player_count":0,"max_players":24,"Bots":0,"server_type":"Dedicated","server_os":"Linux","password":true,"vac":true,"version":"7742253","steam_id":85568392924510198,"keywords":["cp","nocrits","nodmgspread","uncletopia"],"game_id":440,"stv_port":27036,"stv_name":"Uncletopia | Los Angeles | 3 | All Maps | STV","players":null},{"server_id":25,"name":"Uncletopia | Los Angeles | 4 | Stopwatch Beta","name_short":"lax-4","host":"lax-1.us.uncletopia.com","port":27045,"enabled":true,"region":"us-west","cc":"us","latitude":33.94279,"longitude":-118.41004,"reserved":0,"last_update":"0001-01-01T00:00:00Z","name_a2s":"Uncletopia | Los Angeles | 4 | Stopwatch Beta","protocol":17,"map":"cp_process_final","folder":"tf","game":"Team Fortress","app_id":440,"player_count":0,"max_players":24,"Bots":0,"server_type":"Dedicated","server_os":"Linux","password":true,"vac":true,"version":"7742253","steam_id":85568392924510199,"keywords":["cp","nocrits","nodmgspread","uncletopia"],"game_id":440,"stv_port":27046,"stv_name":"Uncletopia | Los Angeles | 4 | Stopwatch Beta | STV","players":null},{"server_id":11,"name":"Uncletopia | London | 1 | All Maps","name_short":"lon-1","host":"lon-1.uk.uncletopia.com","port":27015,"enabled":true,"region":"eu","cc":"gb","latitude":51.509865,"longitude":-0.118092,"reserved":0,"last_update":"0001-01-01T00:00:00Z","name_a2s":"Uncletopia | London | 1 | All Maps","protocol":17,"map":"cp_dustbowl","folder":"tf","game":"Team Fortress","app_id":440,"player_count":0,"max_players":24,"Bots":0,"server_type":"Dedicated","server_os":"Linux","password":true,"vac":true,"version":"7742253","steam_id":85568392924367362,"keywords":["cp","nocrits","nodmgspread","uncletopia"],"game_id":440,"stv_port":27016,"stv_name":"Uncletopia | London | 1 | All Maps | STV","players":null},{"server_id":114,"name":"Uncletopia | London | 2 | All Maps","name_short":"lon-2","host":"lon-1.uk.uncletopia.com","port":27025,"enabled":true,"region":"eu","cc":"gb","latitude":51.509865,"longitude":-0.118092,"reserved":0,"last_update":"0001-01-01T00:00:00Z","name_a2s":"Uncletopia | London | 2 | All Maps","protocol":17,"map":"cp_altitude","folder":"tf","game":"Team Fortress","app_id":440,"player_count":0,"max_players":24,"Bots":0,"server_type":"Dedicated","server_os":"Linux","password":true,"vac":true,"version":"7742253","steam_id":85568392924470941,"keywords":["cp","nocrits","nodmgspread","uncletopia"],"game_id":440,"stv_port":27026,"stv_name":"Uncletopia | London | 2 | All Maps | STV","players":null},{"server_id":320,"name":"Uncletopia | London | 3 | All Maps","name_short":"lon-3","host":"lon-1.uk.uncletopia.com","port":27035,"enabled":true,"region":"eu","cc":"gb","latitude":51.509865,"longitude":-0.118092,"reserved":0,"last_update":"0001-01-01T00:00:00Z","name_a2s":"Uncletopia | London | 3 | All Maps","protocol":17,"map":"koth_lakeside_final","folder":"tf","game":"Team Fortress","app_id":440,"player_count":0,"max_players":24,"Bots":0,"server_type":"Dedicated","server_os":"Linux","password":true,"vac":true,"version":"7742253","steam_id":85568392924510192,"keywords":["cp","nocrits","nodmgspread","uncletopia"],"game_id":440,"stv_port":27036,"stv_name":"Uncletopia | London | 3 | All Maps | STV","players":null},{"server_id":321,"name":"Uncletopia | London | 4 | All Maps","name_short":"lon-4","host":"lon-1.uk.uncletopia.com","port":27045,"enabled":true,"region":"eu","cc":"gb","latitude":51.509865,"longitude":-0.118092,"reserved":0,"last_update":"0001-01-01T00:00:00Z","name_a2s":"Uncletopia | London | 4 | All Maps","protocol":17,"map":"cp_mercenarypark","folder":"tf","game":"Team Fortress","app_id":440,"player_count":24,"max_players":24,"Bots":0,"server_type":"Dedicated","server_os":"Linux","password":true,"vac":true,"version":"7742253","steam_id":85568392924510193,"keywords":["cp","nocrits","nodmgspread","uncletopia"],"game_id":440,"stv_port":27046,"stv_name":"Uncletopia | London | 4 | All Maps | STV","players":[{"user_id":38,"name":"Umbro","steam_id":76561198087930438,"connected_time":1057000000000,"state":"spawning","ping":109},{"user_id":17,"name":"phil","steam_id":76561198169102425,"connected_time":1556000000000,"state":"spawning","ping":117},{"user_id":8,"name":"100 real bailando cumbia","steam_id":76561198405291408,"connected_time":1929000000000,"state":"spawning","ping":93},{"user_id":43,"name":"silicon based life form","steam_id":76561199127121346,"connected_time":503000000000,"state":"spawning","ping":71},{"user_id":50,"name":"Turkey Jam","steam_id":76561198072691659,"connected_time":25000000000,"state":"spawning","ping":508},{"user_id":44,"name":"rajAs","steam_id":76561198035928111,"connected_time":428000000000,"state":"spawning","ping":90},{"user_id":41,"name":"szebniok ‚òÉ‚ùÑüéÑ","steam_id":76561198031435395,"connected_time":761000000000,"state":"spawning","ping":101},{"user_id":51,"name":"Xydran","steam_id":76561198042397402,"connected_time":13000000000,"state":"spawning","ping":524},{"user_id":49,"name":"Saken","steam_id":76561198049075295,"connected_time":214000000000,"state":"spawning","ping":78},{"user_id":20,"name":"purplecan","steam_id":76561199208283508,"connected_time":1439000000000,"state":"spawning","ping":102},{"user_id":19,"name":"Delab Le Fou","steam_id":76561198846356572,"connected_time":1490000000000,"state":"spawning","ping":141},{"user_id":21,"name":"It's clear that it's not ok","steam_id":76561198123064906,"connected_time":1431000000000,"state":"spawning","ping":116},{"user_id":52,"name":"KeithTheHeroBoii_","steam_id":76561199403556509,"connected_time":6000000000,"state":"spawning","ping":108},{"user_id":23,"name":"soar","steam_id":76561198010662796,"connected_time":1386000000000,"state":"spawning","ping":59},{"user_id":24,"name":"penetrating peter","steam_id":76561198076219289,"connected_time":1383000000000,"state":"spawning","ping":73},{"user_id":53,"name":"adolf rizzler","steam_id":76561198015876799,"connected_time":2000000000,"state":"spawning","ping":63},{"user_id":54,"name":"Retropunk4","steam_id":76561199388575352,"connected_time":2000000000,"state":"spawning","ping":89},{"user_id":28,"name":"Cosmetic brain","steam_id":76561198055936410,"connected_time":1352000000000,"state":"spawning","ping":112},{"user_id":30,"name":"peruna","steam_id":76561198000721196,"connected_time":1277000000000,"state":"spawning","ping":106},{"user_id":31,"name":"Pech'Throawin","steam_id":76561198362352218,"connected_time":1262000000000,"state":"spawning","ping":123},{"user_id":40,"name":"Andreus","steam_id":76561199403926001,"connected_time":880000000000,"state":"spawning","ping":118},{"user_id":47,"name":"marsel","steam_id":76561198116168271,"connected_time":405000000000,"state":"spawning","ping":109},{"user_id":35,"name":"Fdhou‚ò≠","steam_id":76561198881020399,"connected_time":1197000000000,"state":"spawning","ping":109},{"user_id":42,"name":"‚òÖ_Kierbee_‚òÖ","steam_id":76561198245127196,"connected_time":760000000000,"state":"spawning","ping":77}]},{"server_id":21,"name":"Uncletopia | London | 5 | All Maps","name_short":"lon-5","host":"lon-1.uk.uncletopia.com","port":27055,"enabled":true,"region":"eu","cc":"gb","latitude":51.509865,"longitude":-0.118092,"reserved":0,"last_update":"0001-01-01T00:00:00Z","name_a2s":"Uncletopia | London | 5 | All Maps","protocol":17,"map":"koth_highpass","folder":"tf","game":"Team Fortress","app_id":440,"player_count":0,"max_players":24,"Bots":0,"server_type":"Dedicated","server_os":"Linux","password":true,"vac":true,"version":"7742253","steam_id":85568392924742829,"keywords":["cp","nocrits","nodmgspread","uncletopia"],"game_id":440,"stv_port":27056,"stv_name":"Uncletopia | London | 5 | All Maps | STV","players":null},{"server_id":22,"name":"Uncletopia | London | 6 | All Maps","name_short":"lon-6","host":"lon-1.uk.uncletopia.com","port":27065,"enabled":true,"region":"eu","cc":"gb","latitude":51.509865,"longitude":-0.118092,"reserved":0,"last_update":"0001-01-01T00:00:00Z","name_a2s":"Uncletopia | London | 6 | All Maps","protocol":17,"map":"pl_borneo","folder":"tf","game":"Team Fortress","app_id":440,"player_count":24,"max_players":24,"Bots":0,"server_type":"Dedicated","server_os":"Linux","password":true,"vac":true,"version":"7742253","steam_id":85568392924742830,"keywords":["nocrits","nodmgspread","payload","uncletopia"],"game_id":440,"stv_port":27066,"stv_name":"Uncletopia | London | 6 | All Maps | STV","players":[{"user_id":67,"name":"goktwoxd","steam_id":76561198065114415,"connected_time":2104000000000,"state":"active","ping":87},{"user_id":77,"name":"f–∞t c’Ω’∏t","steam_id":76561198845550388,"connected_time":1276000000000,"state":"active","ping":109},{"user_id":5,"name":"Ÿ†TMŸ† Neo ‚Ñ¢","steam_id":76561197973669395,"connected_time":4935000000000,"state":"active","ping":64},{"user_id":6,"name":"nachtraaf","steam_id":76561197960473205,"connected_time":4807000000000,"state":"active","ping":53},{"user_id":84,"name":"Piki","steam_id":76561199209287968,"connected_time":244000000000,"state":"active","ping":99},{"user_id":80,"name":"Walter Jr","steam_id":76561199111329270,"connected_time":719000000000,"state":"active","ping":103},{"user_id":71,"name":"Iountzululululululululululululu","steam_id":76561198956308470,"connected_time":1494000000000,"state":"active","ping":95},{"user_id":79,"name":"Jingleboob's 1# Elf","steam_id":76561198067204908,"connected_time":925000000000,"state":"active","ping":93},{"user_id":57,"name":"Blastrock64","steam_id":76561199008932704,"connected_time":3133000000000,"state":"active","ping":76},{"user_id":14,"name":"Perci","steam_id":76561198097789669,"connected_time":4263000000000,"state":"active","ping":71},{"user_id":15,"name":"Gwishin","steam_id":76561198257158275,"connected_time":4252000000000,"state":"active","ping":152},{"user_id":74,"name":"Jesus Of Suburbia","steam_id":76561198941700660,"connected_time":1437000000000,"state":"active","ping":145},{"user_id":83,"name":"Batunga","steam_id":76561198174496709,"connected_time":261000000000,"state":"active","ping":64},{"user_id":19,"name":"dairy","steam_id":76561198117033273,"connected_time":4143000000000,"state":"active","ping":60},{"user_id":21,"name":"TheWither129","steam_id":76561199013422527,"connected_time":4080000000000,"state":"active","ping":128},{"user_id":81,"name":"·¥ò…™·¥èŒõ ∆éÍûç‚ä•","steam_id":76561198276912938,"connected_time":489000000000,"state":"active","ping":112},{"user_id":54,"name":"kitsunezane","steam_id":76561199383588882,"connected_time":3234000000000,"state":"active","ping":166},{"user_id":24,"name":"Bulyto","steam_id":76561198043205202,"connected_time":4026000000000,"state":"active","ping":68},{"user_id":82,"name":"Tortoise","steam_id":76561199446515491,"connected_time":279000000000,"state":"active","ping":49},{"user_id":26,"name":"poon","steam_id":76561198049740395,"connected_time":4010000000000,"state":"active","ping":129},{"user_id":78,"name":"Mr. Bean","steam_id":76561198086929777,"connected_time":1244000000000,"state":"active","ping":51},{"user_id":63,"name":"LasagnaLarry22","steam_id":76561198089478290,"connected_time":2519000000000,"state":"active","ping":37},{"user_id":60,"name":"LazyBane","steam_id":76561198032359132,"connected_time":2939000000000,"state":"active","ping":45},{"user_id":72,"name":"‚ô¶Silvia‚ô¶","steam_id":76561198373039444,"connected_time":1480000000000,"state":"active","ping":111}]},{"server_id":40,"name":"Uncletopia | London | 7 | No Payload","name_short":"lon-7","host":"lon-1.uk.uncletopia.com","port":27075,"enabled":true,"region":"eu","cc":"gb","latitude":51.509865,"longitude":-0.118092,"reserved":0,"last_update":"0001-01-01T00:00:00Z","name_a2s":"Uncletopia | London | 7 | No Payload","protocol":17,"map":"pl_borneo","folder":"tf","game":"Team Fortress","app_id":440,"player_count":0,"max_players":24,"Bots":0,"server_type":"Dedicated","server_os":"Linux","password":true,"vac":true,"version":"7742253","steam_id":85568392924964314,"keywords":["nocrits","nodmgspread","payload","uncletopia"],"game_id":440,"stv_port":27076,"stv_name":"Uncletopia | London | 7 | No Payload | STV","players":null},{"server_id":41,"name":"Uncletopia | London | 8 | Community","name_short":"lon-8","host":"lon-1.uk.uncletopia.com","port":27085,"enabled":true,"region":"eu","cc":"gb","latitude":51.509865,"longitude":-0.118092,"reserved":0,"last_update":"0001-01-01T00:00:00Z","name_a2s":"Uncletopia | London | 8 | Community","protocol":17,"map":"workshop/cp_logjam_rc12.ugc454812035","folder":"tf","game":"Team Fortress","app_id":440,"player_count":0,"max_players":24,"Bots":0,"server_type":"Dedicated","server_os":"Linux","password":true,"vac":true,"version":"7742253","steam_id":85568392924964315,"keywords":["cp","nocrits","nodmgspread","uncletopia"],"game_id":440,"stv_port":27086,"stv_name":"Uncletopia | London | 8 | Community | STV","players":null},{"server_id":300,"name":"Uncletopia | Montr√©al | 1 | All Maps","name_short":"mtl-1","host":"mtl-1.ca.uncletopia.com","port":27015,"enabled":true,"region":"us-east","cc":"ca","latitude":45.50889,"longitude":-73.56167,"reserved":0,"last_update":"0001-01-01T00:00:00Z","name_a2s":"Uncletopia | Montr√©al | 1 | All Maps","protocol":17,"map":"koth_lakeside_final","folder":"tf","game":"Team Fortress","app_id":440,"player_count":0,"max_players":24,"Bots":0,"server_type":"Dedicated","server_os":"Linux","password":true,"vac":true,"version":"7742253","steam_id":85568392924500087,"keywords":["cp","nocrits","nodmgspread","uncletopia"],"game_id":440,"stv_port":27016,"stv_name":"Uncletopia | Montr√©al | 1 | All Maps | STV","players":null},{"server_id":301,"name":"Uncletopia | Montr√©al | 2 | All Maps","name_short":"mtl-2","host":"mtl-1.ca.uncletopia.com","port":27025,"enabled":true,"region":"us-east","cc":"ca","latitude":45.50889,"longitude":-73.56167,"reserved":0,"last_update":"0001-01-01T00:00:00Z","name_a2s":"Uncletopia | Montr√©al | 2 | All Maps","protocol":17,"map":"koth_lakeside_final","folder":"tf","game":"Team Fortress","app_id":440,"player_count":0,"max_players":24,"Bots":0,"server_type":"Dedicated","server_os":"Linux","password":true,"vac":true,"version":"7742253","steam_id":85568392924500088,"keywords":["cp","nocrits","nodmgspread","uncletopia"],"game_id":440,"stv_port":27026,"stv_name":"Uncletopia | Montr√©al | 2 | All Maps | STV","players":null},{"server_id":302,"name":"Uncletopia | Montr√©al | 3 | All Maps","name_short":"mtl-3","host":"mtl-1.ca.uncletopia.com","port":27035,"enabled":true,"region":"us-east","cc":"ca","latitude":45.50889,"longitude":-73.56167,"reserved":0,"last_update":"0001-01-01T00:00:00Z","name_a2s":"Uncletopia | Montr√©al | 3 | All Maps","protocol":17,"map":"cp_altitude","folder":"tf","game":"Team Fortress","app_id":440,"player_count":0,"max_players":24,"Bots":0,"server_type":"Dedicated","server_os":"Linux","password":true,"vac":true,"version":"7742253","steam_id":85568392924500089,"keywords":["cp","nocrits","nodmgspread","uncletopia"],"game_id":440,"stv_port":27036,"stv_name":"Uncletopia | Montr√©al | 3 | All Maps | STV","players":null},{"server_id":303,"name":"Uncletopia | Montr√©al | 4 | No Payload","name_short":"mtl-4","host":"mtl-1.ca.uncletopia.com","port":27045,"enabled":true,"region":"us-east","cc":"ca","latitude":45.50889,"longitude":-73.56167,"reserved":0,"last_update":"0001-01-01T00:00:00Z","name_a2s":"Uncletopia | Montr√©al | 4 | No Payload","protocol":17,"map":"koth_highpass","folder":"tf","game":"Team Fortress","app_id":440,"player_count":0,"max_players":24,"Bots":0,"server_type":"Dedicated","server_os":"Linux","password":true,"vac":true,"version":"7742253","steam_id":85568392924500090,"keywords":["cp","nocrits","nodmgspread","uncletopia"],"game_id":440,"stv_port":27046,"stv_name":"Uncletopia | Montr√©al | 4 | No Payload | STV","players":null},{"server_id":13,"name":"Uncletopia | New York City | 1 | All Maps","name_short":"nyc-1","host":"nyc-1.us.uncletopia.com","port":27015,"enabled":true,"region":"us-east","cc":"us","latitude":40.73061,"longitude":-73.93524,"reserved":0,"last_update":"0001-01-01T00:00:00Z","name_a2s":"Uncletopia | New York City | 1 | All Maps","protocol":17,"map":"pl_borneo","folder":"tf","game":"Team Fortress","app_id":440,"player_count":0,"max_players":24,"Bots":0,"server_type":"Dedicated","server_os":"Linux","password":true,"vac":true,"version":"7742253","steam_id":85568392924469993,"keywords":["nocrits","nodmgspread","payload","uncletopia"],"game_id":440,"stv_port":27016,"stv_name":"Uncletopia | New York City | 1 | All Maps | STV","players":null},{"server_id":14,"name":"Uncletopia | New York City | 2 | All Maps","name_short":"nyc-2","host":"nyc-1.us.uncletopia.com","port":27025,"enabled":true,"region":"us-east","cc":"us","latitude":40.73061,"longitude":-73.93524,"reserved":0,"last_update":"0001-01-01T00:00:00Z","name_a2s":"Uncletopia | New York City | 2 | All Maps","protocol":17,"map":"pl_snowycoast","folder":"tf","game":"Team Fortress","app_id":440,"player_count":0,"max_players":24,"Bots":0,"server_type":"Dedicated","server_os":"Linux","password":true,"vac":true,"version":"7742253","steam_id":85568392924469994,"keywords":["nocrits","nodmgspread","payload","uncletopia"],"game_id":440,"stv_port":27026,"stv_name":"Uncletopia | New York City | 2 | All Maps | STV","players":null},{"server_id":15,"name":"Uncletopia | New York City | 3 | Stopwatch Beta","name_short":"nyc-3","host":"nyc-1.us.uncletopia.com","port":27035,"enabled":true,"region":"us-east","cc":"us","latitude":40.73061,"longitude":-73.93524,"reserved":0,"last_update":"0001-01-01T00:00:00Z","name_a2s":"Uncletopia | New York City | 3 | Stopwatch Beta","protocol":17,"map":"koth_lakeside_final","folder":"tf","game":"Team Fortress","app_id":440,"player_count":0,"max_players":24,"Bots":0,"server_type":"Dedicated","server_os":"Linux","password":true,"vac":true,"version":"7742253","steam_id":85568392924742820,"keywords":["cp","nocrits","nodmgspread","uncletopia"],"game_id":440,"stv_port":27036,"stv_name":"Uncletopia | New York City | 3 | Stopwatch Beta | STV","players":null},{"server_id":16,"name":"Uncletopia | New York City | 4 | Community","name_short":"nyc-4","host":"nyc-1.us.uncletopia.com","port":27045,"enabled":true,"region":"us-east","cc":"us","latitude":40.73061,"longitude":-73.93524,"reserved":0,"last_update":"0001-01-01T00:00:00Z","name_a2s":"Uncletopia | New York City | 4 | Community","protocol":17,"map":"workshop/koth_product_final.ugc454272353","folder":"tf","game":"Team Fortress","app_id":440,"player_count":0,"max_players":24,"Bots":0,"server_type":"Dedicated","server_os":"Linux","password":true,"vac":true,"version":"7742253","steam_id":85568392924742821,"keywords":["cp","nocrits","nodmgspread","uncletopia"],"game_id":440,"stv_port":27046,"stv_name":"Uncletopia | New York City | 4 | Community | STV","players":null},{"server_id":142,"name":"Uncletopia | S√£o Paulo | 1 | All Maps","name_short":"sao-1","host":"sao-1.br.uncletopia.com","port":27015,"enabled":true,"region":"sa","cc":"br","latitude":-23.533773,"longitude":-46.62529,"reserved":0,"last_update":"0001-01-01T00:00:00Z","name_a2s":"Uncletopia | S√£o Paulo | 1 | All Maps","protocol":17,"map":"pl_upward","folder":"tf","game":"Team Fortress","app_id":440,"player_count":0,"max_players":24,"Bots":0,"server_type":"Dedicated","server_os":"Linux","password":true,"vac":true,"version":"7742253","steam_id":85568392924469996,"keywords":["nocrits","nodmgspread","payload","uncletopia"],"game_id":440,"stv_port":27016,"stv_name":"Uncletopia | S√£o Paulo | 1 | All Maps | STV","players":null},{"server_id":143,"name":"Uncletopia | S√£o Paulo | 2 | All Maps","name_short":"sao-2","host":"sao-2.br.uncletopia.com","port":27015,"enabled":true,"region":"sa","cc":"br","latitude":-23.533773,"longitude":-46.62529,"reserved":0,"last_update":"0001-01-01T00:00:00Z","name_a2s":"Uncletopia | S√£o Paulo | 2 | All Maps","protocol":17,"map":"pl_upward","folder":"tf","game":"Team Fortress","app_id":440,"player_count":0,"max_players":24,"Bots":0,"server_type":"Dedicated","server_os":"Linux","password":true,"vac":true,"version":"7742253","steam_id":85568392924485349,"keywords":["nocrits","nodmgspread","payload","uncletopia"],"game_id":440,"stv_port":27016,"stv_name":"Uncletopia | S√£o Paulo | 2 | All Maps | STV","players":null},{"server_id":7,"name":"Uncletopia | Seattle | 1 | All Maps","name_short":"sea-1","host":"sea-1.us.uncletopia.com","port":27015,"enabled":true,"region":"us-west","cc":"us","latitude":47.608013,"longitude":-122.33517,"reserved":0,"last_update":"0001-01-01T00:00:00Z","name_a2s":"Uncletopia | Seattle | 1 | All Maps","protocol":17,"map":"pl_badwater","folder":"tf","game":"Team Fortress","app_id":440,"player_count":24,"max_players":24,"Bots":0,"server_type":"Dedicated","server_os":"Linux","password":true,"vac":true,"version":"7742253","steam_id":85568392924469997,"keywords":["nocrits","nodmgspread","payload","uncletopia"],"game_id":440,"stv_port":27016,"stv_name":"Uncletopia | Seattle | 1 | All Maps | STV","players":[{"user_id":691,"name":"sweaterfan","steam_id":76561199389567214,"connected_time":4204000000000,"state":"active","ping":117},{"user_id":680,"name":"Reagan Grey","steam_id":76561199244000976,"connected_time":5581000000000,"state":"active","ping":69},{"user_id":716,"name":"Pauwfs","steam_id":76561198067946226,"connected_time":2253000000000,"state":"active","ping":51},{"user_id":733,"name":"sleepyhead","steam_id":76561198070859040,"connected_time":988000000000,"state":"active","ping":78},{"user_id":731,"name":"notkadenk (ricky mode)","steam_id":76561198837454396,"connected_time":1210000000000,"state":"active","ping":51},{"user_id":718,"name":"mommy hog","steam_id":76561199230929836,"connected_time":2183000000000,"state":"active","ping":116},{"user_id":729,"name":"pcplace","steam_id":76561198097987387,"connected_time":1343000000000,"state":"active","ping":41},{"user_id":734,"name":"xaltar","steam_id":76561198049915836,"connected_time":912000000000,"state":"active","ping":63},{"user_id":737,"name":"GIGANTIC HOG","steam_id":76561198079923652,"connected_time":813000000000,"state":"active","ping":106},{"user_id":740,"name":"Shah","steam_id":76561198047508851,"connected_time":318000000000,"state":"active","ping":59},{"user_id":689,"name":"Nobody","steam_id":76561199352089107,"connected_time":4228000000000,"state":"active","ping":83},{"user_id":736,"name":"ibu","steam_id":76561197968084065,"connected_time":859000000000,"state":"active","ping":56},{"user_id":728,"name":"Grill Skills","steam_id":76561198053575147,"connected_time":1401000000000,"state":"active","ping":58},{"user_id":727,"name":"Goetha","steam_id":76561198803824764,"connected_time":1422000000000,"state":"active","ping":73},{"user_id":690,"name":"Papa Pyro","steam_id":76561198091613263,"connected_time":4222000000000,"state":"active","ping":75},{"user_id":688,"name":"HOG RIDER","steam_id":76561198298589502,"connected_time":4239000000000,"state":"active","ping":94},{"user_id":730,"name":"goldhed","steam_id":76561198051751133,"connected_time":1316000000000,"state":"active","ping":62},{"user_id":701,"name":"Gugomo","steam_id":76561198121428316,"connected_time":4008000000000,"state":"active","ping":66},{"user_id":697,"name":"......","steam_id":76561198067612741,"connected_time":4080000000000,"state":"active","ping":45},{"user_id":682,"name":"Jay","steam_id":76561198148464582,"connected_time":5288000000000,"state":"active","ping":104},{"user_id":725,"name":"[Boo] Everfar","steam_id":76561198024461823,"connected_time":1788000000000,"state":"active","ping":40},{"user_id":709,"name":"PRO HOG CRANKER","steam_id":76561198046073848,"connected_time":3230000000000,"state":"active","ping":46},{"user_id":742,"name":"resh","steam_id":76561198239598834,"connected_time":114000000000,"state":"active","ping":123},{"user_id":726,"name":"timmy","steam_id":76561198063322988,"connected_time":1688000000000,"state":"active","ping":46}]},{"server_id":119,"name":"Uncletopia | Seattle | 2 | All Maps","name_short":"sea-2","host":"sea-1.us.uncletopia.com","port":27025,"enabled":true,"region":"us-west","cc":"us","latitude":47.608013,"longitude":-122.33517,"reserved":0,"last_update":"0001-01-01T00:00:00Z","name_a2s":"Uncletopia | Seattle | 2 | All Maps","protocol":17,"map":"koth_harvest_final","folder":"tf","game":"Team Fortress","app_id":440,"player_count":0,"max_players":24,"Bots":0,"server_type":"Dedicated","server_os":"Linux","password":true,"vac":true,"version":"7742253","steam_id":85568392924469998,"keywords":["cp","nocrits","nodmgspread","uncletopia"],"game_id":440,"stv_port":27026,"stv_name":"Uncletopia | Seattle | 2 | All Maps | STV","players":null},{"server_id":406,"name":"Uncletopia | Seattle | 3 | Stopwatch Beta","name_short":"sea-3","host":"sea-1.us.uncletopia.com","port":27035,"enabled":true,"region":"us-west","cc":"us","latitude":47.608013,"longitude":-122.33517,"reserved":0,"last_update":"0001-01-01T00:00:00Z","name_a2s":"Uncletopia | Seattle | 3 | Stopwatch Beta","protocol":17,"map":"pl_upward","folder":"tf","game":"Team Fortress","app_id":440,"player_count":2,"max_players":24,"Bots":0,"server_type":"Dedicated","server_os":"Linux","password":true,"vac":false,"version":"7742253","steam_id":0,"keywords":["nocrits","nodmgspread","payload","uncletopia"],"game_id":440,"stv_port":27036,"stv_name":"Uncletopia | Seattle | 3 | Stopwatch Beta | STV","players":[{"user_id":8,"name":"Luke","steam_id":76561198335956790,"connected_time":394000000000,"state":"active","ping":125},{"user_id":9,"name":"Morse","steam_id":76561198039944542,"connected_time":220000000000,"state":"active","ping":45}]},{"server_id":17,"name":"Uncletopia | San Francisco | 1 | All Maps","name_short":"sfo-1","host":"sfo-1.us.uncletopia.com","port":27015,"enabled":true,"region":"us-west","cc":"us","latitude":37.77397,"longitude":-122.4313,"reserved":0,"last_update":"0001-01-01T00:00:00Z","name_a2s":"Uncletopia | San Francisco | 1 | All Maps","protocol":17,"map":"koth_cascade","folder":"tf","game":"Team Fortress","app_id":440,"player_count":0,"max_players":24,"Bots":0,"server_type":"Dedicated","server_os":"Linux","password":true,"vac":true,"version":"7742253","steam_id":85568392924469999,"keywords":["cp","nocrits","nodmgspread","uncletopia"],"game_id":440,"stv_port":27016,"stv_name":"Uncletopia | San Francisco | 1 | All Maps | STV","players":null},{"server_id":18,"name":"Uncletopia | San Francisco | 2 | All Maps","name_short":"sfo-2","host":"sfo-1.us.uncletopia.com","port":27025,"enabled":true,"region":"us-west","cc":"us","latitude":37.77397,"longitude":-122.4313,"reserved":0,"last_update":"0001-01-01T00:00:00Z","name_a2s":"Uncletopia | San Francisco | 2 | All Maps","protocol":17,"map":"cp_process_final","folder":"tf","game":"Team Fortress","app_id":440,"player_count":0,"max_players":24,"Bots":0,"server_type":"Dedicated","server_os":"Linux","password":true,"vac":true,"version":"7742253","steam_id":85568392924470000,"keywords":["cp","nocrits","nodmgspread","uncletopia"],"game_id":440,"stv_port":27026,"stv_name":"Uncletopia | San Francisco | 2 | All Maps | STV","players":null},{"server_id":19,"name":"Uncletopia | San Francisco | 3 | Stopwatch Beta","name_short":"sfo-3","host":"sfo-1.us.uncletopia.com","port":27035,"enabled":true,"region":"us-west","cc":"us","latitude":37.77397,"longitude":-122.4313,"reserved":0,"last_update":"0001-01-01T00:00:00Z","name_a2s":"Uncletopia | San Francisco | 3 | Stopwatch Beta","protocol":17,"map":"cp_snakewater_final1","folder":"tf","game":"Team Fortress","app_id":440,"player_count":0,"max_players":24,"Bots":0,"server_type":"Dedicated","server_os":"Linux","password":true,"vac":true,"version":"7742253","steam_id":85568392924742824,"keywords":["cp","nocrits","nodmgspread","uncletopia"],"game_id":440,"stv_port":27036,"stv_name":"Uncletopia | San Francisco | 3 | Stopwatch Beta | STV","players":null},{"server_id":20,"name":"Uncletopia | San Francisco | 4 | Community","name_short":"sfo-4","host":"sfo-1.us.uncletopia.com","port":27045,"enabled":true,"region":"us-west","cc":"us","latitude":37.77397,"longitude":-122.4313,"reserved":0,"last_update":"0001-01-01T00:00:00Z","name_a2s":"Uncletopia | San Francisco | 4 | Community","protocol":17,"map":"workshop/koth_bagel_rc5.ugc2514036946","folder":"tf","game":"Team Fortress","app_id":440,"player_count":0,"max_players":24,"Bots":0,"server_type":"Dedicated","server_os":"Linux","password":true,"vac":true,"version":"7742253","steam_id":85568392924742826,"keywords":["cp","nocrits","nodmgspread","uncletopia"],"game_id":440,"stv_port":27046,"stv_name":"Uncletopia | San Francisco | 4 | Community | STV","players":null},{"server_id":141,"name":"Uncletopia | Sydney | 1 | All Maps","name_short":"syd-1","host":"syd-1.au.uncletopia.com","port":27015,"enabled":true,"region":"au","cc":"au","latitude":-33.865143,"longitude":151.2099,"reserved":0,"last_update":"0001-01-01T00:00:00Z","name_a2s":"Uncletopia | Sydney | 1 | All Maps","protocol":17,"map":"cp_dustbowl","folder":"tf","game":"Team Fortress","app_id":440,"player_count":9,"max_players":24,"Bots":0,"server_type":"Dedicated","server_os":"Linux","password":true,"vac":true,"version":"7742253","steam_id":85568392924470001,"keywords":["cp","nocrits","nodmgspread","uncletopia"],"game_id":440,"stv_port":27016,"stv_name":"Uncletopia | Sydney | 1 | All Maps | STV","players":[{"user_id":530,"name":"goofy goober","steam_id":76561199010558927,"connected_time":381000000000,"state":"active","ping":175},{"user_id":536,"name":"The Inked Rabbit","steam_id":76561199158680285,"connected_time":59000000000,"state":"active","ping":45},{"user_id":529,"name":"Hai","steam_id":76561199091553099,"connected_time":592000000000,"state":"active","ping":55},{"user_id":532,"name":"WindowOrange","steam_id":76561198994382802,"connected_time":355000000000,"state":"active","ping":51},{"user_id":534,"name":"SerpentSnekko","steam_id":76561199203031174,"connected_time":169000000000,"state":"active","ping":50},{"user_id":535,"name":"gjmassey","steam_id":76561198309618592,"connected_time":103000000000,"state":"active","ping":62},{"user_id":537,"name":"corecore","steam_id":76561198864185927,"connected_time":54000000000,"state":"active","ping":46},{"user_id":538,"name":"sweet","steam_id":76561198075311236,"connected_time":22000000000,"state":"spawning","ping":45},{"user_id":511,"name":"Branko","steam_id":76561199262196710,"connected_time":2071000000000,"state":"active","ping":42}]},{"server_id":123,"name":"Uncletopia | Sydney | 2 | All Maps","name_short":"syd-2","host":"syd-1.au.uncletopia.com","port":27025,"enabled":true,"region":"au","cc":"au","latitude":-33.865143,"longitude":151.2099,"reserved":0,"last_update":"0001-01-01T00:00:00Z","name_a2s":"Uncletopia | Sydney | 2 | All Maps","protocol":17,"map":"pl_borneo","folder":"tf","game":"Team Fortress","app_id":440,"player_count":24,"max_players":24,"Bots":0,"server_type":"Dedicated","server_os":"Linux","password":true,"vac":true,"version":"7742253","steam_id":85568392924470002,"keywords":["nocrits","nodmgspread","payload","uncletopia"],"game_id":440,"stv_port":27026,"stv_name":"Uncletopia | Sydney | 2 | All Maps | STV","players":[{"user_id":200,"name":"MR. T","steam_id":76561198847421088,"connected_time":652000000000,"state":"active","ping":175},{"user_id":182,"name":"Nenguu","steam_id":76561198243952386,"connected_time":1617000000000,"state":"active","ping":63},{"user_id":196,"name":"Seagate","steam_id":76561198053796020,"connected_time":846000000000,"state":"active","ping":46},{"user_id":140,"name":"AzureFox","steam_id":76561198108179408,"connected_time":4112000000000,"state":"active","ping":106},{"user_id":192,"name":"AfroNinja","steam_id":76561198120372011,"connected_time":1116000000000,"state":"active","ping":62},{"user_id":120,"name":"tinkaton from pokemon gen 9 UU","steam_id":76561198079345240,"connected_time":5641000000000,"state":"active","ping":57},{"user_id":180,"name":"Diming","steam_id":76561198325584599,"connected_time":1843000000000,"state":"active","ping":58},{"user_id":145,"name":"Teags","steam_id":76561198310870519,"connected_time":4042000000000,"state":"active","ping":50},{"user_id":128,"name":"Gamma","steam_id":76561198281131757,"connected_time":5139000000000,"state":"active","ping":47},{"user_id":198,"name":"Spicy Water","steam_id":76561198017388097,"connected_time":716000000000,"state":"active","ping":65},{"user_id":169,"name":"Bing Soy","steam_id":76561198057093383,"connected_time":2838000000000,"state":"active","ping":49},{"user_id":199,"name":"Apteryx","steam_id":76561197976460834,"connected_time":673000000000,"state":"active","ping":61},{"user_id":146,"name":"little raw meat boy","steam_id":76561199248254676,"connected_time":4017000000000,"state":"active","ping":59},{"user_id":206,"name":"Skwuddie","steam_id":76561198092819016,"connected_time":67000000000,"state":"active","ping":52},{"user_id":139,"name":"TW_light2022","steam_id":76561199393566784,"connected_time":4526000000000,"state":"active","ping":60},{"user_id":205,"name":"Editor_Billy","steam_id":76561199165608946,"connected_time":457000000000,"state":"active","ping":57},{"user_id":194,"name":"krandlez` (Any/All)","steam_id":76561198044839726,"connected_time":993000000000,"state":"active","ping":40},{"user_id":187,"name":"EXTRA THICC","steam_id":76561198333936835,"connected_time":1360000000000,"state":"active","ping":65},{"user_id":147,"name":"TheSticky_Studio","steam_id":76561198428683022,"connected_time":3969000000000,"state":"active","ping":156},{"user_id":153,"name":"whiteshaq","steam_id":76561198131988811,"connected_time":3545000000000,"state":"active","ping":71},{"user_id":188,"name":"LeoJoeD","steam_id":76561198161848749,"connected_time":1342000000000,"state":"active","ping":42},{"user_id":204,"name":"El Chupacabra","steam_id":76561198070641651,"connected_time":469000000000,"state":"active","ping":49},{"user_id":201,"name":"dundee in yankee","steam_id":76561198859615089,"connected_time":608000000000,"state":"active","ping":72},{"user_id":202,"name":"Corrupt","steam_id":76561198008567328,"connected_time":600000000000,"state":"active","ping":104}]},{"server_id":395,"name":"Uncletopia | Sydney | 3 | All Maps","name_short":"syd-3","host":"syd-1.au.uncletopia.com","port":27035,"enabled":true,"region":"au","cc":"au","latitude":-33.865143,"longitude":151.2099,"reserved":0,"last_update":"0001-01-01T00:00:00Z","name_a2s":"Uncletopia | Sydney | 3 | All Maps","protocol":17,"map":"koth_lakeside_final","folder":"tf","game":"Team Fortress","app_id":440,"player_count":0,"max_players":24,"Bots":0,"server_type":"Dedicated","server_os":"Linux","password":true,"vac":true,"version":"7742253","steam_id":85568392925194467,"keywords":["cp","nocrits","nodmgspread","uncletopia"],"game_id":440,"stv_port":27036,"stv_name":"Uncletopia | Sydney | 3 | All Maps | STV","players":null},{"server_id":396,"name":"Uncletopia | Sydney | 4 | All Maps","name_short":"syd-4","host":"syd-1.au.uncletopia.com","port":27045,"enabled":true,"region":"au","cc":"au","latitude":-33.865143,"longitude":151.2099,"reserved":0,"last_update":"0001-01-01T00:00:00Z","name_a2s":"Uncletopia | Sydney | 4 | All Maps","protocol":17,"map":"pl_borneo","folder":"tf","game":"Team Fortress","app_id":440,"player_count":0,"max_players":24,"Bots":0,"server_type":"Dedicated","server_os":"Linux","password":true,"vac":true,"version":"7742253","steam_id":85568392925397958,"keywords":["nocrits","nodmgspread","payload","uncletopia"],"game_id":440,"stv_port":27046,"stv_name":"Uncletopia | Sydney | 4 | All Maps | STV","players":null},{"server_id":58,"name":"Uncletopia | Sydney | 5 | Stopwatch Beta","name_short":"syd-5","host":"syd-1.au.uncletopia.com","port":27055,"enabled":true,"region":"au","cc":"au","latitude":-33.865143,"longitude":151.2099,"reserved":0,"last_update":"0001-01-01T00:00:00Z","name_a2s":"Uncletopia | Sydney | 5 | Stopwatch Beta","protocol":17,"map":"workshop/koth_ashville_final.ugc2130459942","folder":"tf","game":"Team Fortress","app_id":440,"player_count":0,"max_players":24,"Bots":0,"server_type":"Dedicated","server_os":"Linux","password":true,"vac":true,"version":"7742253","steam_id":85568392925397959,"keywords":["cp","nocrits","nodmgspread","uncletopia"],"game_id":440,"stv_port":27056,"stv_name":"Uncletopia | Sydney | 5 | Stopwatch Beta | STV","players":null},{"server_id":59,"name":"Uncletopia | Sydney | 6 | Community","name_short":"syd-6","host":"syd-1.au.uncletopia.com","port":27065,"enabled":true,"region":"au","cc":"au","latitude":-33.865143,"longitude":151.2099,"reserved":0,"last_update":"0001-01-01T00:00:00Z","name_a2s":"Uncletopia | Sydney | 6 | Community","protocol":17,"map":"workshop/pl_fifthcurve_rc1.ugc648227046","folder":"tf","game":"Team Fortress","app_id":440,"player_count":0,"max_players":24,"Bots":0,"server_type":"Dedicated","server_os":"Linux","password":true,"vac":true,"version":"7742253","steam_id":85568392925397960,"keywords":["nocrits","nodmgspread","payload","uncletopia"],"game_id":440,"stv_port":27066,"stv_name":"Uncletopia | Sydney | 6 | Community | STV","players":null},{"server_id":49,"name":"Uncletopia | Warsaw | 1 | All Maps","name_short":"waw-1","host":"waw-1.pl.uncletopia.com","port":27015,"enabled":true,"region":"eu","cc":"pl","latitude":52.2297,"longitude":21.017532,"reserved":0,"last_update":"0001-01-01T00:00:00Z","name_a2s":"Uncletopia | Warsaw | 1 | All Maps","protocol":17,"map":"koth_lakeside_final","folder":"tf","game":"Team Fortress","app_id":440,"player_count":0,"max_players":24,"Bots":0,"server_type":"Dedicated","server_os":"Linux","password":true,"vac":true,"version":"7723704","steam_id":85568392925397850,"keywords":["cp","nocrits","nodmgspread","uncletopia"],"game_id":440,"stv_port":27016,"stv_name":"Uncletopia | Warsaw | 1 | All Maps | STV","players":null},{"server_id":50,"name":"Uncletopia | Warsaw | 2 | All Maps","name_short":"waw-2","host":"waw-1.pl.uncletopia.com","port":27025,"enabled":true,"region":"eu","cc":"pl","latitude":52.2297,"longitude":21.017532,"reserved":0,"last_update":"0001-01-01T00:00:00Z","name_a2s":"Uncletopia | Warsaw | 2 | All Maps","protocol":17,"map":"koth_harvest_final","folder":"tf","game":"Team Fortress","app_id":440,"player_count":0,"max_players":24,"Bots":0,"server_type":"Dedicated","server_os":"Linux","password":true,"vac":true,"version":"7742253","steam_id":85568392925397851,"keywords":["cp","nocrits","nodmgspread","uncletopia"],"game_id":440,"stv_port":27026,"stv_name":"Uncletopia | Warsaw | 2 | All Maps | STV","players":null},{"server_id":51,"name":"Uncletopia | Warsaw | 3 | All Maps","name_short":"waw-3","host":"waw-1.pl.uncletopia.com","port":27035,"enabled":true,"region":"eu","cc":"pl","latitude":52.2297,"longitude":21.017532,"reserved":0,"last_update":"0001-01-01T00:00:00Z","name_a2s":"Uncletopia | Warsaw | 3 | All Maps","protocol":17,"map":"pl_frontier_final","folder":"tf","game":"Team Fortress","app_id":440,"player_count":0,"max_players":24,"Bots":0,"server_type":"Dedicated","server_os":"Linux","password":true,"vac":true,"version":"7742253","steam_id":85568392925397852,"keywords":["nocrits","nodmgspread","payload","uncletopia"],"game_id":440,"stv_port":27036,"stv_name":"Uncletopia | Warsaw | 3 | All Maps | STV","players":null},{"server_id":52,"name":"Uncletopia | Warsaw | 4 | All Maps","name_short":"waw-4","host":"waw-1.pl.uncletopia.com","port":27045,"enabled":true,"region":"eu","cc":"pl","latitude":52.2297,"longitude":21.017532,"reserved":0,"last_update":"0001-01-01T00:00:00Z","name_a2s":"Uncletopia | Warsaw | 4 | All Maps","protocol":17,"map":"pl_swiftwater_final1","folder":"tf","game":"Team Fortress","app_id":440,"player_count":0,"max_players":24,"Bots":0,"server_type":"Dedicated","server_os":"Linux","password":true,"vac":true,"version":"7742253","steam_id":85568392925397853,"keywords":["nocrits","nodmgspread","payload","uncletopia"],"game_id":440,"stv_port":27046,"stv_name":"Uncletopia | Warsaw | 4 | All Maps | STV","players":null},{"server_id":53,"name":"Uncletopia | Warsaw | 5 | Stopwatch Beta","name_short":"waw-5","host":"waw-1.pl.uncletopia.com","port":27055,"enabled":true,"region":"eu","cc":"pl","latitude":52.2297,"longitude":21.017532,"reserved":0,"last_update":"0001-01-01T00:00:00Z","name_a2s":"Uncletopia | Warsaw | 5 | Stopwatch Beta","protocol":17,"map":"pl_pier","folder":"tf","game":"Team Fortress","app_id":440,"player_count":0,"max_players":24,"Bots":0,"server_type":"Dedicated","server_os":"Linux","password":true,"vac":true,"version":"7742253","steam_id":85568392925397854,"keywords":["nocrits","nodmgspread","payload","uncletopia"],"game_id":440,"stv_port":27056,"stv_name":"Uncletopia | Warsaw | 5 | Stopwatch Beta | STV","players":null},{"server_id":54,"name":"Uncletopia | Warsaw | 6 | Community","name_short":"waw-6","host":"waw-1.pl.uncletopia.com","port":27065,"enabled":true,"region":"eu","cc":"pl","latitude":52.2297,"longitude":21.017532,"reserved":0,"last_update":"0001-01-01T00:00:00Z","name_a2s":"Uncletopia | Warsaw | 6 | Community","protocol":17,"map":"workshop/koth_slaughter_rc1.ugc1712845210","folder":"tf","game":"Team Fortress","app_id":440,"player_count":0,"max_players":24,"Bots":0,"server_type":"Dedicated","server_os":"Linux","password":true,"vac":true,"version":"7742253","steam_id":85568392925397856,"keywords":["cp","nocrits","nodmgspread","uncletopia"],"game_id":440,"stv_port":27066,"stv_name":"Uncletopia | Warsaw | 6 | Community | STV","players":null}]}