{"status":true,"message":"","result":[{"server_id":9,"name":"Uncletopia | Atlanta | 1 | All Maps","name_short":"atl-1","host":"atl-1.us.uncletopia.com","port":27015,"enabled":true,"region":"us-east","cc":"us","latitude":33.753746,"longitude":-84.38633,"reserved":0,"last_update":"0001-01-01T00:00:00Z","name_a2s":"Uncletopia | Atlanta | 1 | All Maps","protocol":17,"map":"cp_steel","folder":"tf","game":"Team Fortress","app_id":440,"player_count":23,"max_players":24,"Bots":0,"server_type":"Dedicated","server_os":"Linux","password":true,"vac":true,"version":"7882260","steam_id":85568392924469982,"keywords":["cp","nocrits","nodmgspread","uncletopia"],"game_id":440,"stv_port":27016,"stv_name":"Uncletopia | Atlanta | 1 | All Maps | STV","players":[{"user_id":105,"name":"amablehughes","steam_id":76561199007131236,"connected_time":195000000000,"state":"active","ping":77},{"user_id":73,"name":"Scrux","steam_id":76561198129763115,"connected_time":3687000000000,"state":"active","ping":109},{"user_id":113,"name":"KBoneski ♡","steam_id":76561198307409065,"connected_time":71000000000,"state":"spawning","ping":79},{"user_id":94,"name":"TheKromeDome","steam_id":76561198288951592,"connected_time":1891000000000,"state":"active","ping":173},{"user_id":69,"name":"rat","steam_id":76561198313364985,"connected_time":3819000000000,"state":"active","ping":91},{"user_id":65,"name":"Gaiduk","steam_id":76561198112323877,"connected_time":3988000000000,"state":"active","ping":98},{"user_id":99,"name":"Lincs","steam_id":76561198049851872,"connected_time":1108000000000,"state":"active","ping":64},{"user_id":90,"name":"Rat-ortastic","steam_id":76561198105613110,"connected_time":2048000000000,"state":"active","ping":69},{"user_id":35,"name":"frizzle fried","steam_id":76561198062991744,"connected_time":5233000000000,"state":"active","ping":58},{"user_id":115,"name":"Intro Bonito","steam_id":76561198119478838,"connected_time":48000000000,"state":"active","ping":55},{"user_id":79,"name":"metalfan666|bday tmrw|","steam_id":76561198386344068,"connected_time":2713000000000,"state":"active","ping":70},{"user_id":97,"name":"braindead","steam_id":76561198263631055,"connected_time":1745000000000,"state":"active","ping":46},{"user_id":46,"name":"jump_apex_b1","steam_id":76561198092135570,"connected_time":4810000000000,"state":"active","ping":60},{"user_id":86,"name":"yoodle doodle","steam_id":76561198054897884,"connected_time":2090000000000,"state":"active","ping":60},{"user_id":68,"name":"highschool drop-out","steam_id":76561198366299848,"connected_time":3918000000000,"state":"active","ping":53},{"user_id":108,"name":"L.A Lucky","steam_id":76561198022881554,"connected_time":168000000000,"state":"active","ping":192},{"user_id":110,"name":"The Spinker \"Lord\"","steam_id":76561198968338494,"connected_time":108000000000,"state":"active","ping":99},{"user_id":114,"name":"Epifiny","steam_id":76561198027958086,"connected_time":70000000000,"state":"active","ping":101},{"user_id":84,"name":"guesstwo","steam_id":76561198813574552,"connected_time":2109000000000,"state":"active","ping":45},{"user_id":52,"name":"V!CT!M","steam_id":76561198962721502,"connected_time":4604000000000,"state":"active","ping":92},{"user_id":111,"name":"tiny terry","steam_id":76561198001488041,"connected_time":99000000000,"state":"active","ping":88},{"user_id":87,"name":"1001NinjaDucks","steam_id":76561198058169660,"connected_time":2088000000000,"state":"active","ping":74},{"user_id":112,"name":"RadioactiveBroccoli","steam_id":76561198041901197,"connected_time":98000000000,"state":"active","ping":74}]},{"server_id":104,"name":"Uncletopia | Atlanta | 2 | All Maps","name_short":"atl-2","host":"atl-1.us.uncletopia.com","port":27025,"enabled":true,"region":"us-east","cc":"us","latitude":33.753746,"longitude":-84.38633,"reserved":0,"last_update":"0001-01-01T00:00:00Z","name_a2s":"Uncletopia | Atlanta | 2 | All Maps","protocol":17,"map":"cp_process_final","folder":"tf","game":"Team Fortress","app_id":440,"player_count":0,"max_players":24,"Bots":0,"server_type":"Dedicated","server_os":"Linux","password":true,"vac":true,"version":"7882260","steam_id":85568392924469983,"keywords":["cp","nocrits","nodmgspread","uncletopia"],"game_id":440,"stv_port":27026,"stv_name":"Uncletopia | Atlanta | 2 | All Maps | STV","players":null},{"server_id":400,"name":"Uncletopia | Atlanta | 3 | Community","name_short":"atl-3","host":"atl-1.us.uncletopia.com","port":27035,"enabled":true,"region":"us-east","cc":"us","latitude":33.753746,"longitude":-84.38633,"reserved":0,"last_update":"0001-01-01T00:00:00Z","name_a2s":"Uncletopia | Atlanta | 3 | Community","protocol":17,"map":"cp_sunshine","folder":"tf","game":"Team Fortress","app_id":440,"player_count":0,"max_players":24,"Bots":0,"server_type":"Dedicated","server_os":"Linux","password":true,"vac":true,"version":"7882260","steam_id":85568392924515187,"keywords":["cp","nocrits","nodmgspread","uncletopia"],"game_id":440,"stv_port":27036,"stv_name":"Uncletopia | Atlanta | 3 | Community | STV","players":null},{"server_id":401,"name":"Uncletopia | Atlanta | 4 | No Payload","name_short":"atl-4","host":"atl-1.us.uncletopia.com","port":27045,"enabled":true,"region":"us-east","cc":"us","latitude":33.753746,"longitude":-84.38633,"reserved":0,"last_update":"0001-01-01T00:00:00Z","name_a2s":"","protocol":0,"map":"","folder":"","game":"","app_id":0,"player_count":0,"max_players":0,"Bots":0,"server_type":"","server_os":"","password":false,"vac":false,"version":"","steam_id":0,"keywords":null,"game_id":0,"stv_port":0,"stv_name":"","players":null},{"server_id":2,"name":"Uncletopia | Chicago | 1 | All Maps","name_short":"chi-1","host":"chi-1.us.uncletopia.com","port":27015,"enabled":true,"region":"us-central","cc":"us","latitude":41.881832,"longitude":-87.62318,"reserved":0,"last_update":"0001-01-01T00:00:00Z","name_a2s":"Uncletopia | Chicago | 1 | All Maps","protocol":17,"map":"pl_swiftwater_final1","folder":"tf","game":"Team Fortress","app_id":440,"player_count":24,"max_players":24,"Bots":0,"server_type":"Dedicated","server_os":"Linux","password":true,"vac":true,"version":"7882260","steam_id":85568392924469984,"keywords":["nocrits","nodmgspread","payload","uncletopia"],"game_id":440,"stv_port":27016,"stv_name":"Uncletopia | Chicago | 1 | All Maps | STV","players":[{"user_id":269,"name":"kapeebearuh","steam_id":76561198798828328,"connected_time":403000000000,"state":"active","ping":48},{"user_id":258,"name":"Shiro","steam_id":76561197979915878,"connected_time":1650000000000,"state":"active","ping":146},{"user_id":259,"name":"Blackbird","steam_id":76561198127818333,"connected_time":1643000000000,"state":"active","ping":55},{"user_id":250,"name":"Norman","steam_id":76561198154715990,"connected_time":2047000000000,"state":"active","ping":93},{"user_id":266,"name":"Travis","steam_id":76561198121819162,"connected_time":673000000000,"state":"active","ping":81},{"user_id":249,"name":"FoxThane","steam_id":76561198067641929,"connected_time":2075000000000,"state":"active","ping":110},{"user_id":252,"name":"raduski","steam_id":76561198795699119,"connected_time":1982000000000,"state":"active","ping":85},{"user_id":270,"name":"PKBEAST_7","steam_id":76561198177136537,"connected_time":150000000000,"state":"active","ping":88},{"user_id":244,"name":"Mookie Burns","steam_id":76561199202153909,"connected_time":2400000000000,"state":"active","ping":79},{"user_id":263,"name":"zik","steam_id":76561198122186802,"connected_time":909000000000,"state":"active","ping":60},{"user_id":267,"name":"The Dumper","steam_id":76561198147302569,"connected_time":672000000000,"state":"active","ping":119},{"user_id":137,"name":"Anonymous Redneck","steam_id":76561198006140954,"connected_time":10189000000000,"state":"active","ping":85},{"user_id":196,"name":"Sartupial","steam_id":76561198443169940,"connected_time":5966000000000,"state":"active","ping":70},{"user_id":239,"name":"Whoa","steam_id":76561197970353496,"connected_time":3060000000000,"state":"active","ping":79},{"user_id":214,"name":"milo","steam_id":76561199061380038,"connected_time":4686000000000,"state":"active","ping":74},{"user_id":262,"name":"boombox","steam_id":76561198237013798,"connected_time":922000000000,"state":"active","ping":85},{"user_id":117,"name":"Obelisk","steam_id":76561198049416866,"connected_time":10874000000000,"state":"active","ping":83},{"user_id":245,"name":"Mister36","steam_id":76561198019132100,"connected_time":2369000000000,"state":"active","ping":58},{"user_id":222,"name":"Im High","steam_id":76561198049954886,"connected_time":4106000000000,"state":"active","ping":74},{"user_id":242,"name":"177013","steam_id":76561198072303290,"connected_time":2667000000000,"state":"active","ping":63},{"user_id":268,"name":"I'm Dead, You Idiots","steam_id":76561199014681829,"connected_time":628000000000,"state":"active","ping":60},{"user_id":211,"name":"substance","steam_id":76561198050103868,"connected_time":5128000000000,"state":"active","ping":107},{"user_id":217,"name":"Za Zombie","steam_id":76561198055545262,"connected_time":4624000000000,"state":"active","ping":70},{"user_id":248,"name":"w","steam_id":76561197999666480,"connected_time":2100000000000,"state":"active","ping":118}]},{"server_id":106,"name":"Uncletopia | Chicago | 2 | All Maps","name_short":"chi-2","host":"chi-1.us.uncletopia.com","port":27025,"enabled":true,"region":"us-central","cc":"us","latitude":41.881832,"longitude":-87.62318,"reserved":0,"last_update":"0001-01-01T00:00:00Z","name_a2s":"Uncletopia | Chicago | 2 | All Maps","protocol":17,"map":"koth_highpass","folder":"tf","game":"Team Fortress","app_id":440,"player_count":3,"max_players":24,"Bots":0,"server_type":"Dedicated","server_os":"Linux","password":true,"vac":true,"version":"7882260","steam_id":85568392924469985,"keywords":["cp","nocrits","nodmgspread","uncletopia"],"game_id":440,"stv_port":27026,"stv_name":"Uncletopia | Chicago | 2 | All Maps | STV","players":[{"user_id":15,"name":"Mr.noob","steam_id":76561199200442395,"connected_time":1204000000000,"state":"active","ping":182},{"user_id":17,"name":"Shield12","steam_id":76561198857193675,"connected_time":323000000000,"state":"active","ping":53},{"user_id":18,"name":"gideon nav my beloved","steam_id":76561198259092181,"connected_time":162000000000,"state":"active","ping":60}]},{"server_id":402,"name":"Uncletopia | Chicago | 3 | All Maps","name_short":"chi-3","host":"chi-1.us.uncletopia.com","port":27035,"enabled":true,"region":"us-central","cc":"us","latitude":41.881832,"longitude":-87.62318,"reserved":0,"last_update":"0001-01-01T00:00:00Z","name_a2s":"Uncletopia | Chicago | 3 | All Maps","protocol":17,"map":"koth_highpass","folder":"tf","game":"Team Fortress","app_id":440,"player_count":24,"max_players":24,"Bots":0,"server_type":"Dedicated","server_os":"Linux","password":true,"vac":true,"version":"7882260","steam_id":85568392924515191,"keywords":["cp","nocrits","nodmgspread","uncletopia"],"game_id":440,"stv_port":27036,"stv_name":"Uncletopia | Chicago | 3 | All Maps | STV","players":[{"user_id":157,"name":"gabaghoulio","steam_id":76561198013650292,"connected_time":608000000000,"state":"active","ping":108},{"user_id":138,"name":"Darling","steam_id":76561198127525888,"connected_time":1834000000000,"state":"active","ping":75},{"user_id":146,"name":"James","steam_id":76561198077251918,"connected_time":882000000000,"state":"active","ping":91},{"user_id":131,"name":"Sprit ♥","steam_id":76561198268780781,"connected_time":1974000000000,"state":"active","ping":47},{"user_id":158,"name":"$lime k✔ng WHYYYTEb0y^-^","steam_id":76561198283687382,"connected_time":551000000000,"state":"active","ping":73},{"user_id":164,"name":"Human Person","steam_id":76561198283855440,"connected_time":15000000000,"state":"spawning","ping":70},{"user_id":128,"name":"Boomer Gaming","steam_id":76561198037803087,"connected_time":2663000000000,"state":"active","ping":70},{"user_id":132,"name":"PootOS","steam_id":76561198160462155,"connected_time":1958000000000,"state":"active","ping":75},{"user_id":140,"name":"BonesJohnson","steam_id":76561198799169951,"connected_time":1732000000000,"state":"active","ping":146},{"user_id":147,"name":"CollDragon","steam_id":76561198067534450,"connected_time":864000000000,"state":"active","ping":73},{"user_id":160,"name":"Fort_master","steam_id":76561198031531926,"connected_time":487000000000,"state":"active","ping":68},{"user_id":162,"name":"Kritzburgh","steam_id":76561198149466938,"connected_time":222000000000,"state":"active","ping":62},{"user_id":144,"name":"LukeLeal","steam_id":76561198049822995,"connected_time":923000000000,"state":"active","ping":173},{"user_id":161,"name":"yoklaty","steam_id":76561199020932212,"connected_time":451000000000,"state":"active","ping":175},{"user_id":108,"name":"aussie","steam_id":76561198374523099,"connected_time":4660000000000,"state":"active","ping":96},{"user_id":143,"name":"Goldensliv","steam_id":76561198161673891,"connected_time":931000000000,"state":"active","ping":129},{"user_id":149,"name":"Fyish","steam_id":76561198127303751,"connected_time":775000000000,"state":"active","ping":60},{"user_id":163,"name":"Lovedaddy","steam_id":76561198006569710,"connected_time":129000000000,"state":"active","ping":80},{"user_id":153,"name":"Frajer","steam_id":76561198059129680,"connected_time":725000000000,"state":"active","ping":77},{"user_id":130,"name":"guac","steam_id":76561198070305720,"connected_time":2276000000000,"state":"active","ping":84},{"user_id":156,"name":"Pimastr","steam_id":76561198230996464,"connected_time":643000000000,"state":"active","ping":62},{"user_id":137,"name":"Red Future","steam_id":76561198205420063,"connected_time":1890000000000,"state":"active","ping":89},{"user_id":139,"name":"Nuwrox1","steam_id":76561198406951007,"connected_time":1827000000000,"state":"active","ping":68},{"user_id":142,"name":"A Can of Arizona Green Tea","steam_id":76561198062481133,"connected_time":1684000000000,"state":"active","ping":74}]},{"server_id":403,"name":"Uncletopia | Chicago | 4 | All Maps","name_short":"chi-4","host":"chi-1.us.uncletopia.com","port":27045,"enabled":true,"region":"us-central","cc":"us","latitude":41.881832,"longitude":-87.62318,"reserved":0,"last_update":"0001-01-01T00:00:00Z","name_a2s":"Uncletopia | Chicago | 4 | All Maps","protocol":17,"map":"pl_barnblitz","folder":"tf","game":"Team Fortress","app_id":440,"player_count":23,"max_players":24,"Bots":0,"server_type":"Dedicated","server_os":"Linux","password":true,"vac":true,"version":"7882260","steam_id":85568392924515193,"keywords":["nocrits","nodmgspread","payload","uncletopia"],"game_id":440,"stv_port":27046,"stv_name":"Uncletopia | Chicago | 4 | All Maps | STV","players":[{"user_id":274,"name":"TwoBit","steam_id":76561198062437559,"connected_time":1619000000000,"state":"active","ping":74},{"user_id":258,"name":"Green Icicle","steam_id":76561198069624529,"connected_time":2952000000000,"state":"active","ping":91},{"user_id":289,"name":"Indigolake","steam_id":76561198202215807,"connected_time":657000000000,"state":"active","ping":93},{"user_id":236,"name":"Ass Blaster, Disaster Master","steam_id":76561197997774469,"connected_time":4343000000000,"state":"active","ping":89},{"user_id":295,"name":"JMan","steam_id":76561198367705381,"connected_time":8000000000,"state":"active","ping":217},{"user_id":262,"name":"IMCR8Z","steam_id":76561198069345132,"connected_time":2521000000000,"state":"active","ping":81},{"user_id":278,"name":"faka","steam_id":76561199093280815,"connected_time":1146000000000,"state":"active","ping":106},{"user_id":250,"name":"ARGON Soulidity","steam_id":76561198429603550,"connected_time":3842000000000,"state":"active","ping":75},{"user_id":282,"name":"BasicallySpring","steam_id":76561198953818016,"connected_time":915000000000,"state":"active","ping":92},{"user_id":185,"name":"goblino","steam_id":76561198068260422,"connected_time":7395000000000,"state":"active","ping":45},{"user_id":221,"name":"JD","steam_id":76561198202669250,"connected_time":5020000000000,"state":"active","ping":69},{"user_id":283,"name":"[GrGr]Target1801","steam_id":76561198148021922,"connected_time":913000000000,"state":"active","ping":149},{"user_id":251,"name":"The Announcer's Feet","steam_id":76561199443456893,"connected_time":3808000000000,"state":"active","ping":66},{"user_id":294,"name":"bikerkid207","steam_id":76561198390782783,"connected_time":101000000000,"state":"active","ping":57},{"user_id":285,"name":"Kunata","steam_id":76561198050998975,"connected_time":876000000000,"state":"active","ping":62},{"user_id":286,"name":"lanouille","steam_id":76561197984103199,"connected_time":849000000000,"state":"active","ping":160},{"user_id":167,"name":"Horrizan","steam_id":76561197965028480,"connected_time":9872000000000,"state":"active","ping":62},{"user_id":291,"name":"General Of Kicking Your Ass.","steam_id":76561198879929343,"connected_time":445000000000,"state":"active","ping":61},{"user_id":272,"name":"DarkEmpireOne","steam_id":76561198106849547,"connected_time":1693000000000,"state":"active","ping":50},{"user_id":276,"name":"Walkiing","steam_id":76561198074473413,"connected_time":1385000000000,"state":"active","ping":30},{"user_id":290,"name":"Nicholas771212","steam_id":76561198318065526,"connected_time":510000000000,"state":"active","ping":69},{"user_id":273,"name":"ShaggyTax8930","steam_id":76561198880156558,"connected_time":1691000000000,"state":"active","ping":91},{"user_id":288,"name":"Malevo","steam_id":76561198148606522,"connected_time":807000000000,"state":"active","ping":81}]},{"server_id":36,"name":"Uncletopia | Chicago | 5 | All Maps","name_short":"chi-5","host":"chi-2.us.uncletopia.com","port":27015,"enabled":true,"region":"us-central","cc":"us","latitude":41.881832,"longitude":-87.62318,"reserved":0,"last_update":"0001-01-01T00:00:00Z","name_a2s":"Uncletopia | Chicago | 5 | All Maps","protocol":17,"map":"pl_badwater","folder":"tf","game":"Team Fortress","app_id":440,"player_count":0,"max_players":24,"Bots":0,"server_type":"Dedicated","server_os":"Linux","password":true,"vac":true,"version":"7882260","steam_id":85568392924866362,"keywords":["nocrits","nodmgspread","payload","uncletopia"],"game_id":440,"stv_port":27016,"stv_name":"Uncletopia | Chicago | 5 | All Maps | STV","players":null},{"server_id":37,"name":"Uncletopia | Chicago | 6 | All Maps","name_short":"chi-6","host":"chi-2.us.uncletopia.com","port":27025,"enabled":true,"region":"us-central","cc":"us","latitude":41.881832,"longitude":-87.62318,"reserved":0,"last_update":"0001-01-01T00:00:00Z","name_a2s":"Uncletopia | Chicago | 6 | All Maps","protocol":17,"map":"koth_cascade","folder":"tf","game":"Team Fortress","app_id":440,"player_count":0,"max_players":24,"Bots":0,"server_type":"Dedicated","server_os":"Linux","password":true,"vac":true,"version":"7882260","steam_id":85568392924866363,"keywords":["cp","nocrits","nodmgspread","uncletopia"],"game_id":440,"stv_port":27026,"stv_name":"Uncletopia | Chicago | 6 | All Maps | STV","players":null},{"server_id":38,"name":"Uncletopia | Chicago | 7 | Stopwatch Beta","name_short":"chi-7","host":"chi-2.us.uncletopia.com","port":27035,"enabled":true,"region":"us-central","cc":"us","latitude":41.881832,"longitude":-87.62318,"reserved":0,"last_update":"0001-01-01T00:00:00Z","name_a2s":"Uncletopia | Chicago | 7 | Stopwatch Beta","protocol":17,"map":"pl_borneo","folder":"tf","game":"Team Fortress","app_id":440,"player_count":0,"max_players":24,"Bots":0,"server_type":"Dedicated","server_os":"Linux","password":true,"vac":true,"version":"7882260","steam_id":85568392924866364,"keywords":["nocrits","nodmgspread","payload","uncletopia"],"game_id":440,"stv_port":27036,"stv_name":"Uncletopia | Chicago | 7 | Stopwatch Beta | STV","players":null},{"server_id":39,"name":"Uncletopia | Chicago | 8 | Community","name_short":"chi-8","host":"chi-2.us.uncletopia.com","port":27045,"enabled":true,"region":"us-central","cc":"us","latitude":41.881832,"longitude":-87.62318,"reserved":0,"last_update":"0001-01-01T00:00:00Z","name_a2s":"Uncletopia | Chicago | 8 | Community","protocol":17,"map":"cp_snakewater_final1","folder":"tf","game":"Team Fortress","app_id":440,"player_count":0,"max_players":24,"Bots":0,"server_type":"Dedicated","server_os":"Linux","password":true,"vac":true,"version":"7882260","steam_id":85568392924866365,"keywords":["cp","nocrits","nodmgspread","uncletopia"],"game_id":440,"stv_port":27046,"stv_name":"Uncletopia | Chicago | 8 | Community | STV","players":null},{"server_id":8,"name":"Uncletopia | Dallas | 1 | All Maps","name_short":"dal-1","host":"dal-1.us.uncletopia.com","port":27015,"enabled":true,"region":"us-central","cc":"us","latitude":32.779167,"longitude":-96.80889,"reserved":0,"last_update":"0001-01-01T00:00:00Z","name_a2s":"Uncletopia | Dallas | 1 | All Maps","protocol":17,"map":"cp_process_final","folder":"tf","game":"Team Fortress","app_id":440,"player_count":23,"max_players":24,"Bots":0,"server_type":"Dedicated","server_os":"Linux","password":true,"vac":true,"version":"7882260","steam_id":85568392924469986,"keywords":["cp","nocrits","nodmgspread","uncletopia"],"game_id":440,"stv_port":27016,"stv_name":"Uncletopia | Dallas | 1 | All Maps | STV","players":[{"user_id":7,"name":"snick","steam_id":76561198066566813,"connected_time":1560000000000,"state":"active","ping":107},{"user_id":8,"name":"KittyToy","steam_id":76561198043990701,"connected_time":1544000000000,"state":"active","ping":101},{"user_id":41,"name":"[TSG] Turner's Chocolate Milk","steam_id":76561198058963288,"connected_time":265000000000,"state":"active","ping":84},{"user_id":18,"name":"PieTheMan","steam_id":76561198027825469,"connected_time":1082000000000,"state":"active","ping":101},{"user_id":11,"name":"Don't Fuckle with Shuckle","steam_id":76561199020102367,"connected_time":1344000000000,"state":"active","ping":101},{"user_id":19,"name":"ROGUE-PLANET","steam_id":76561198116023052,"connected_time":852000000000,"state":"active","ping":61},{"user_id":14,"name":"jeff_fan","steam_id":76561198086420687,"connected_time":1272000000000,"state":"active","ping":81},{"user_id":23,"name":"chungy","steam_id":76561198215559840,"connected_time":636000000000,"state":"active","ping":60},{"user_id":17,"name":"Atlas (Skylar)","steam_id":76561198041531774,"connected_time":1179000000000,"state":"active","ping":70},{"user_id":43,"name":"chanoc","steam_id":76561198026734746,"connected_time":210000000000,"state":"active","ping":81},{"user_id":21,"name":"eletric_blue","steam_id":76561198821187816,"connected_time":728000000000,"state":"active","ping":45},{"user_id":44,"name":"atari jaguar","steam_id":76561198084849541,"connected_time":88000000000,"state":"active","ping":45},{"user_id":33,"name":"Phshteve18","steam_id":76561198378835410,"connected_time":358000000000,"state":"active","ping":90},{"user_id":25,"name":"Miro","steam_id":76561198936412406,"connected_time":612000000000,"state":"active","ping":79},{"user_id":27,"name":"Gary Gilbert","steam_id":76561198143988056,"connected_time":584000000000,"state":"active","ping":110},{"user_id":28,"name":"Fat Payton | (GL)","steam_id":76561198169302585,"connected_time":574000000000,"state":"active","ping":82},{"user_id":29,"name":"Average Engineer Main","steam_id":76561198101969991,"connected_time":573000000000,"state":"active","ping":78},{"user_id":35,"name":"Seduce!_!Me_!213","steam_id":76561198857556368,"connected_time":346000000000,"state":"active","ping":69},{"user_id":36,"name":"Critical","steam_id":76561198123744966,"connected_time":331000000000,"state":"active","ping":90},{"user_id":37,"name":"lycoris","steam_id":76561199113965768,"connected_time":321000000000,"state":"active","ping":85},{"user_id":38,"name":"GatoSeiko","steam_id":76561198001001360,"connected_time":301000000000,"state":"active","ping":172},{"user_id":39,"name":"Jeansus","steam_id":76561198829917629,"connected_time":293000000000,"state":"active","ping":105},{"user_id":40,"name":"trks","steam_id":76561198233984300,"connected_time":291000000000,"state":"active","ping":67}]},{"server_id":108,"name":"Uncletopia | Dallas | 2 | All Maps","name_short":"dal-2","host":"dal-1.us.uncletopia.com","port":27025,"enabled":true,"region":"us-central","cc":"us","latitude":32.779167,"longitude":-96.80889,"reserved":0,"last_update":"0001-01-01T00:00:00Z","name_a2s":"Uncletopia | Dallas | 2 | All Maps","protocol":17,"map":"pl_frontier_final","folder":"tf","game":"Team Fortress","app_id":440,"player_count":1,"max_players":24,"Bots":0,"server_type":"Dedicated","server_os":"Linux","password":true,"vac":true,"version":"7882260","steam_id":85568392924469988,"keywords":["nocrits","nodmgspread","payload","uncletopia"],"game_id":440,"stv_port":27026,"stv_name":"Uncletopia | Dallas | 2 | All Maps | STV","players":[{"user_id":38,"name":"The Texan Inconvenience","steam_id":76561198958125792,"connected_time":611000000000,"state":"active","ping":105}]},{"server_id":5,"name":"Uncletopia | Frankfurt | 1 | All Maps","name_short":"frk-1","host":"frk-1.de.uncletopia.com","port":27015,"enabled":true,"region":"eu","cc":"de","latitude":50.110924,"longitude":8.682127,"reserved":0,"last_update":"0001-01-01T00:00:00Z","name_a2s":"Uncletopia | Frankfurt | 1 | All Maps","protocol":17,"map":"pl_pier","folder":"tf","game":"Team Fortress","app_id":440,"player_count":24,"max_players":24,"Bots":0,"server_type":"Dedicated","server_os":"Linux","password":true,"vac":true,"version":"7882260","steam_id":85568392924469989,"keywords":["nocrits","nodmgspread","payload","uncletopia"],"game_id":440,"stv_port":27016,"stv_name":"Uncletopia | Frankfurt | 1 | All Maps | STV","players":[{"user_id":438,"name":":)","steam_id":76561198039964082,"connected_time":2388000000000,"state":"active","ping":55},{"user_id":401,"name":"adam.prochazka2009","steam_id":76561198157511897,"connected_time":4511000000000,"state":"active","ping":44},{"user_id":447,"name":"Accident","steam_id":76561198115160396,"connected_time":2112000000000,"state":"active","ping":68},{"user_id":411,"name":"Solymr ibn Wali Barad","steam_id":76561198044008976,"connected_time":4068000000000,"state":"active","ping":74},{"user_id":440,"name":"Wardruna96","steam_id":76561199057083828,"connected_time":2351000000000,"state":"active","ping":77},{"user_id":388,"name":"Archsam","steam_id":76561198137828616,"connected_time":5412000000000,"state":"active","ping":60},{"user_id":470,"name":"Miton","steam_id":76561197970323209,"connected_time":162000000000,"state":"active","ping":77},{"user_id":441,"name":"Katero","steam_id":76561198059920958,"connected_time":2346000000000,"state":"active","ping":56},{"user_id":418,"name":"sareena","steam_id":76561198810194062,"connected_time":3750000000000,"state":"active","ping":75},{"user_id":452,"name":"leminsc8","steam_id":76561198825084995,"connected_time":1767000000000,"state":"active","ping":42},{"user_id":433,"name":"One-Face","steam_id":76561197999384826,"connected_time":2804000000000,"state":"active","ping":52},{"user_id":462,"name":"Amandus","steam_id":76561198036281079,"connected_time":662000000000,"state":"active","ping":60},{"user_id":466,"name":"DrExplosive 30fps gaming","steam_id":76561198063678579,"connected_time":279000000000,"state":"active","ping":58},{"user_id":457,"name":"generic alias","steam_id":76561198271607226,"connected_time":1583000000000,"state":"active","ping":86},{"user_id":422,"name":"Violet Hunii","steam_id":76561198207752648,"connected_time":3662000000000,"state":"active","ping":125},{"user_id":465,"name":"Mr Bean","steam_id":76561199076124858,"connected_time":602000000000,"state":"active","ping":60},{"user_id":468,"name":"Fedesgraz","steam_id":76561198324178619,"connected_time":235000000000,"state":"active","ping":77},{"user_id":393,"name":"def","steam_id":76561198857396812,"connected_time":5337000000000,"state":"active","ping":49},{"user_id":464,"name":"Fridge","steam_id":76561198071665589,"connected_time":652000000000,"state":"active","ping":89},{"user_id":471,"name":"CarBombEnthusiast","steam_id":76561199448185434,"connected_time":68000000000,"state":"active","ping":69},{"user_id":458,"name":"deadfish","steam_id":76561198068685830,"connected_time":1521000000000,"state":"active","ping":68},{"user_id":461,"name":"Spell Montassier","steam_id":76561198406319751,"connected_time":975000000000,"state":"active","ping":52},{"user_id":467,"name":"MrDachu","steam_id":76561198865485758,"connected_time":272000000000,"state":"active","ping":75},{"user_id":450,"name":"Kahvi","steam_id":76561198723244199,"connected_time":1828000000000,"state":"active","ping":87}]},{"server_id":110,"name":"Uncletopia | Frankfurt | 2 | All Maps","name_short":"frk-2","host":"frk-1.de.uncletopia.com","port":27025,"enabled":true,"region":"eu","cc":"de","latitude":50.110924,"longitude":8.682127,"reserved":0,"last_update":"0001-01-01T00:00:00Z","name_a2s":"Uncletopia | Frankfurt | 2 | All Maps","protocol":17,"map":"pl_frontier_final","folder":"tf","game":"Team Fortress","app_id":440,"player_count":24,"max_players":24,"Bots":0,"server_type":"Dedicated","server_os":"Linux","password":true,"vac":true,"version":"7882260","steam_id":85568392924469990,"keywords":["nocrits","nodmgspread","payload","uncletopia"],"game_id":440,"stv_port":27026,"stv_name":"Uncletopia | Frankfurt | 2 | All Maps | STV","players":[{"user_id":207,"name":"wgbubl","steam_id":76561199133004884,"connected_time":7322000000000,"state":"active","ping":84},{"user_id":281,"name":"Asa Mitaka","steam_id":76561198361723475,"connected_time":1043000000000,"state":"active","ping":66},{"user_id":292,"name":"sBLOCKER  85","steam_id":76561198939078994,"connected_time":887000000000,"state":"active","ping":139},{"user_id":306,"name":"PashaVerti","steam_id":76561199013963024,"connected_time":43000000000,"state":"active","ping":88},{"user_id":282,"name":"a freakin' knight","steam_id":76561198371341044,"connected_time":976000000000,"state":"active","ping":139},{"user_id":295,"name":"ryft #freenioh","steam_id":76561198429138254,"connected_time":774000000000,"state":"active","ping":60},{"user_id":303,"name":"jovi_","steam_id":76561198449280552,"connected_time":242000000000,"state":"active","ping":62},{"user_id":238,"name":"Chloemew","steam_id":76561198042071762,"connected_time":4494000000000,"state":"active","ping":59},{"user_id":285,"name":"reformed i swear","steam_id":76561198152392309,"connected_time":957000000000,"state":"active","ping":49},{"user_id":296,"name":"ZOZULA_","steam_id":76561198930100648,"connected_time":680000000000,"state":"active","ping":62},{"user_id":286,"name":"Just1s","steam_id":76561198026597437,"connected_time":956000000000,"state":"active","ping":63},{"user_id":304,"name":"Mr. Luigi","steam_id":76561198167312951,"connected_time":210000000000,"state":"active","ping":53},{"user_id":218,"name":"twitch/auratf2","steam_id":76561197988085026,"connected_time":6494000000000,"state":"active","ping":72},{"user_id":278,"name":"hisham","steam_id":76561198414437290,"connected_time":1470000000000,"state":"active","ping":108},{"user_id":294,"name":"mewcat","steam_id":76561199087050938,"connected_time":820000000000,"state":"active","ping":88},{"user_id":305,"name":"1337","steam_id":76561198930351000,"connected_time":152000000000,"state":"active","ping":60},{"user_id":279,"name":"Fluffy","steam_id":76561198084447725,"connected_time":1118000000000,"state":"active","ping":45},{"user_id":270,"name":"Xydran","steam_id":76561198042397402,"connected_time":2137000000000,"state":"active","ping":67},{"user_id":301,"name":"Gabys","steam_id":76561198282892553,"connected_time":480000000000,"state":"active","ping":76},{"user_id":299,"name":"madman hesus","steam_id":76561198159702599,"connected_time":554000000000,"state":"active","ping":82},{"user_id":288,"name":"lore","steam_id":76561198120984188,"connected_time":938000000000,"state":"active","ping":60},{"user_id":289,"name":"「◆Raku• 」","steam_id":76561198059283183,"connected_time":923000000000,"state":"active","ping":76},{"user_id":256,"name":"pijukaaaaaaaa","steam_id":76561198083063005,"connected_time":3105000000000,"state":"active","ping":52},{"user_id":300,"name":"Osman0","steam_id":76561198851527212,"connected_time":517000000000,"state":"active","ping":63}]},{"server_id":308,"name":"Uncletopia | Frankfurt | 3 | All Maps","name_short":"frk-3","host":"frk-1.de.uncletopia.com","port":27035,"enabled":true,"region":"eu","cc":"de","latitude":50.110924,"longitude":8.682127,"reserved":0,"last_update":"0001-01-01T00:00:00Z","name_a2s":"Uncletopia | Frankfurt | 3 | All Maps","protocol":17,"map":"cp_dustbowl","folder":"tf","game":"Team Fortress","app_id":440,"player_count":23,"max_players":24,"Bots":0,"server_type":"Dedicated","server_os":"Linux","password":true,"vac":true,"version":"7882260","steam_id":85568392924504274,"keywords":["cp","nocrits","nodmgspread","uncletopia"],"game_id":440,"stv_port":27036,"stv_name":"Uncletopia | Frankfurt | 3 | All Maps | STV","players":[{"user_id":97,"name":"Ratatatatatatouille","steam_id":76561198182267098,"connected_time":1467000000000,"state":"active","ping":79},{"user_id":60,"name":"Healix","steam_id":76561198130270161,"connected_time":4049000000000,"state":"active","ping":52},{"user_id":87,"name":"Popop","steam_id":76561198004793795,"connected_time":2794000000000,"state":"active","ping":45},{"user_id":93,"name":"G.R.E","steam_id":76561197979806514,"connected_time":1814000000000,"state":"active","ping":48},{"user_id":111,"name":"Rizz","steam_id":76561198192135953,"connected_time":48000000000,"state":"active","ping":84},{"user_id":85,"name":"After8","steam_id":76561198090750865,"connected_time":2844000000000,"state":"active","ping":73},{"user_id":48,"name":"Goga11","steam_id":76561198451145010,"connected_time":4901000000000,"state":"active","ping":114},{"user_id":108,"name":"JamesPepega","steam_id":76561198019156154,"connected_time":460000000000,"state":"active","ping":70},{"user_id":91,"name":"Mav","steam_id":76561198004403881,"connected_time":2442000000000,"state":"active","ping":53},{"user_id":109,"name":"JohnTraveltime","steam_id":76561199244281754,"connected_time":437000000000,"state":"active","ping":64},{"user_id":89,"name":"fmdi","steam_id":76561199433879329,"connected_time":2604000000000,"state":"active","ping":60},{"user_id":99,"name":"flr","steam_id":76561198249327786,"connected_time":1110000000000,"state":"active","ping":60},{"user_id":90,"name":"madijo","steam_id":76561198012617400,"connected_time":2572000000000,"state":"active","ping":60},{"user_id":112,"name":"halo from halo","steam_id":76561198023911938,"connected_time":40000000000,"state":"active","ping":54},{"user_id":70,"name":"Chromega","steam_id":76561199075307750,"connected_time":3619000000000,"state":"active","ping":51},{"user_id":68,"name":"ackh noo","steam_id":76561198066287297,"connected_time":3707000000000,"state":"active","ping":50},{"user_id":27,"name":"simon","steam_id":76561198880361394,"connected_time":5765000000000,"state":"active","ping":52},{"user_id":110,"name":"Burpman","steam_id":76561198022897937,"connected_time":80000000000,"state":"active","ping":61},{"user_id":96,"name":"piper","steam_id":76561198095560087,"connected_time":1550000000000,"state":"active","ping":62},{"user_id":113,"name":"Bonca","steam_id":76561198137503531,"connected_time":33000000000,"state":"active","ping":85},{"user_id":114,"name":"Dale Cooper","steam_id":76561198017583984,"connected_time":29000000000,"state":"active","ping":78},{"user_id":115,"name":"Michael","steam_id":76561198003146906,"connected_time":23000000000,"state":"active","ping":60},{"user_id":69,"name":"joachym","steam_id":76561198428579761,"connected_time":3703000000000,"state":"active","ping":55}]},{"server_id":309,"name":"Uncletopia | Frankfurt | 4 | All Maps","name_short":"frk-4","host":"frk-1.de.uncletopia.com","port":27045,"enabled":true,"region":"eu","cc":"de","latitude":50.110924,"longitude":8.682127,"reserved":0,"last_update":"0001-01-01T00:00:00Z","name_a2s":"Uncletopia | Frankfurt | 4 | All Maps","protocol":17,"map":"pl_swiftwater_final1","folder":"tf","game":"Team Fortress","app_id":440,"player_count":24,"max_players":24,"Bots":0,"server_type":"Dedicated","server_os":"Linux","password":true,"vac":true,"version":"7882260","steam_id":85568392924504275,"keywords":["nocrits","nodmgspread","payload","uncletopia"],"game_id":440,"stv_port":27046,"stv_name":"Uncletopia | Frankfurt | 4 | All Maps | STV","players":[{"user_id":523,"name":"dinorno","steam_id":76561198146276830,"connected_time":1055000000000,"state":"active","ping":90},{"user_id":496,"name":"Adolf gayming","steam_id":76561198830058797,"connected_time":3796000000000,"state":"active","ping":75},{"user_id":522,"name":"an idiot","steam_id":76561198172542535,"connected_time":1200000000000,"state":"active","ping":67},{"user_id":516,"name":"Valdis","steam_id":76561198057340489,"connected_time":1829000000000,"state":"active","ping":59},{"user_id":518,"name":"pajer0","steam_id":76561198002913482,"connected_time":1667000000000,"state":"active","ping":106},{"user_id":530,"name":"Spyman","steam_id":76561199237326048,"connected_time":627000000000,"state":"active","ping":101},{"user_id":520,"name":"Dorich","steam_id":76561198287126217,"connected_time":1451000000000,"state":"active","ping":60},{"user_id":538,"name":"Sulatejuusto","steam_id":76561198063971856,"connected_time":111000000000,"state":"active","ping":86},{"user_id":531,"name":"Sylmeuh","steam_id":76561198084685420,"connected_time":562000000000,"state":"active","ping":63},{"user_id":528,"name":"Gordon","steam_id":76561198303652059,"connected_time":795000000000,"state":"active","ping":68},{"user_id":529,"name":"Portal79","steam_id":76561198095499584,"connected_time":665000000000,"state":"active","ping":70},{"user_id":534,"name":"TJ1212","steam_id":76561199013575313,"connected_time":352000000000,"state":"active","ping":61},{"user_id":481,"name":"ksg","steam_id":76561198042894236,"connected_time":4839000000000,"state":"active","ping":65},{"user_id":526,"name":"bigwish | bmod.tf","steam_id":76561197997859723,"connected_time":1031000000000,"state":"active","ping":75},{"user_id":502,"name":"Prototype M.A.K","steam_id":76561198416932796,"connected_time":3405000000000,"state":"active","ping":72},{"user_id":503,"name":"The Sex Defender","steam_id":76561198165732391,"connected_time":3366000000000,"state":"active","ping":98},{"user_id":508,"name":"Welrod Gaming","steam_id":76561198439201906,"connected_time":2824000000000,"state":"active","ping":178},{"user_id":537,"name":"typicalcrimson","steam_id":76561198295439747,"connected_time":184000000000,"state":"active","ping":70},{"user_id":535,"name":"AwterSix","steam_id":76561198042561678,"connected_time":351000000000,"state":"active","ping":56},{"user_id":521,"name":"That Phlog mfer","steam_id":76561198050416948,"connected_time":1392000000000,"state":"active","ping":62},{"user_id":514,"name":"Adib al-asfar","steam_id":76561198095691592,"connected_time":2019000000000,"state":"active","ping":52},{"user_id":519,"name":"raTo","steam_id":76561198088433976,"connected_time":1653000000000,"state":"active","ping":87},{"user_id":533,"name":"Captain Scrumpe","steam_id":76561198032206577,"connected_time":464000000000,"state":"active","ping":71},{"user_id":512,"name":"Peigg","steam_id":76561198414749782,"connected_time":2132000000000,"state":"active","ping":91}]},{"server_id":310,"name":"Uncletopia | Frankfurt | 5 | All Maps","name_short":"frk-5","host":"frk-1.de.uncletopia.com","port":27055,"enabled":true,"region":"eu","cc":"de","latitude":50.110924,"longitude":8.682127,"reserved":0,"last_update":"0001-01-01T00:00:00Z","name_a2s":"Uncletopia | Frankfurt | 5 | All Maps","protocol":17,"map":"pl_snowycoast","folder":"tf","game":"Team Fortress","app_id":440,"player_count":23,"max_players":24,"Bots":0,"server_type":"Dedicated","server_os":"Linux","password":true,"vac":true,"version":"7882260","steam_id":85568392924504277,"keywords":["nocrits","nodmgspread","payload","uncletopia"],"game_id":440,"stv_port":27056,"stv_name":"Uncletopia | Frankfurt | 5 | All Maps | STV","players":[{"user_id":440,"name":"engineer drip","steam_id":76561198991032570,"connected_time":871000000000,"state":"active","ping":85},{"user_id":449,"name":"kreeekz","steam_id":76561198014431602,"connected_time":369000000000,"state":"active","ping":74},{"user_id":415,"name":"koray","steam_id":76561198260506514,"connected_time":2134000000000,"state":"active","ping":59},{"user_id":422,"name":"Greyhunter","steam_id":76561197960884202,"connected_time":1890000000000,"state":"active","ping":57},{"user_id":397,"name":"snowycoast","steam_id":76561198346638308,"connected_time":2803000000000,"state":"active","ping":60},{"user_id":444,"name":"skatie","steam_id":76561198169487380,"connected_time":573000000000,"state":"active","ping":73},{"user_id":396,"name":"j o n","steam_id":76561199229511741,"connected_time":3010000000000,"state":"active","ping":69},{"user_id":451,"name":"Aeglos","steam_id":76561198248698294,"connected_time":220000000000,"state":"active","ping":66},{"user_id":394,"name":"Der Herr Doktor","steam_id":76561198119476089,"connected_time":3254000000000,"state":"active","ping":55},{"user_id":402,"name":"mrklulz","steam_id":76561198120166752,"connected_time":2569000000000,"state":"active","ping":71},{"user_id":423,"name":"benifis163","steam_id":76561198420973492,"connected_time":1841000000000,"state":"active","ping":101},{"user_id":403,"name":"BoomBoom","steam_id":76561198094337443,"connected_time":2560000000000,"state":"active","ping":93},{"user_id":404,"name":"RSG","steam_id":76561198146333046,"connected_time":2555000000000,"state":"active","ping":91},{"user_id":429,"name":"YuraGreek","steam_id":76561198050182252,"connected_time":1637000000000,"state":"active","ping":74},{"user_id":446,"name":"Matbanan","steam_id":76561198228537672,"connected_time":510000000000,"state":"active","ping":82},{"user_id":378,"name":"stefanbejenari","steam_id":76561199466718294,"connected_time":4987000000000,"state":"active","ping":70},{"user_id":441,"name":"Xriasp","steam_id":76561198104721321,"connected_time":861000000000,"state":"active","ping":64},{"user_id":411,"name":"alset333","steam_id":76561198405345260,"connected_time":2194000000000,"state":"active","ping":132},{"user_id":438,"name":"Ozy","steam_id":76561198257359584,"connected_time":1058000000000,"state":"active","ping":78},{"user_id":443,"name":"lyra","steam_id":76561198043601838,"connected_time":678000000000,"state":"active","ping":60},{"user_id":434,"name":"antlionguard","steam_id":76561198072747143,"connected_time":1187000000000,"state":"active","ping":89},{"user_id":431,"name":"CAMON ENGELAND","steam_id":76561198054301125,"connected_time":1388000000000,"state":"active","ping":90},{"user_id":450,"name":"DOMAIN","steam_id":76561199095640319,"connected_time":366000000000,"state":"active","ping":78}]},{"server_id":311,"name":"Uncletopia | Frankfurt | 6 | All Maps","name_short":"frk-6","host":"frk-1.de.uncletopia.com","port":27065,"enabled":true,"region":"eu","cc":"de","latitude":50.110924,"longitude":8.682127,"reserved":0,"last_update":"0001-01-01T00:00:00Z","name_a2s":"Uncletopia | Frankfurt | 6 | All Maps","protocol":17,"map":"cp_sunshine","folder":"tf","game":"Team Fortress","app_id":440,"player_count":0,"max_players":24,"Bots":0,"server_type":"Dedicated","server_os":"Linux","password":true,"vac":true,"version":"7882260","steam_id":85568392924504278,"keywords":["cp","nocrits","nodmgspread","uncletopia"],"game_id":440,"stv_port":27066,"stv_name":"Uncletopia | Frankfurt | 6 | All Maps | STV","players":null},{"server_id":23,"name":"Uncletopia | Frankfurt | 7 | Stopwatch Beta","name_short":"frk-7","host":"frk-1.de.uncletopia.com","port":27075,"enabled":true,"region":"eu","cc":"de","latitude":50.110924,"longitude":8.682127,"reserved":0,"last_update":"0001-01-01T00:00:00Z","name_a2s":"Uncletopia | Frankfurt | 7 | Stopwatch Beta","protocol":17,"map":"workshop/pl_badwater_pro_v12.ugc2142942074","folder":"tf","game":"Team Fortress","app_id":440,"player_count":0,"max_players":24,"Bots":0,"server_type":"Dedicated","server_os":"Linux","password":true,"vac":true,"version":"7882260","steam_id":85568392924742827,"keywords":["nocrits","nodmgspread","payload","uncletopia"],"game_id":440,"stv_port":27076,"stv_name":"Uncletopia | Frankfurt | 7 | Stopwatch Beta | STV","players":null},{"server_id":24,"name":"Uncletopia | Frankfurt | 8 | Community","name_short":"frk-8","host":"frk-1.de.uncletopia.com","port":27085,"enabled":true,"region":"eu","cc":"de","latitude":50.110924,"longitude":8.682127,"reserved":0,"last_update":"0001-01-01T00:00:00Z","name_a2s":"Uncletopia | Frankfurt | 8 | Community","protocol":17,"map":"workshop/koth_bagel_rc6.ugc2514036946","folder":"tf","game":"Team Fortress","app_id":440,"player_count":0,"max_players":24,"Bots":0,"server_type":"Dedicated","server_os":"Linux","password":true,"vac":true,"version":"7882260","steam_id":85568392924742828,"keywords":["cp","nocrits","nodmgspread","uncletopia"],"game_id":440,"stv_port":27086,"stv_name":"Uncletopia | Frankfurt | 8 | Community | STV","players":null},{"server_id":202,"name":"Uncletopia | Hong Kong | 1 | All Maps","name_short":"hgk-1","host":"hgk-1.hk.uncletopia.com","port":27015,"enabled":true,"region":"asia","cc":"hk","latitude":22.302711,"longitude":114.177216,"reserved":0,"last_update":"0001-01-01T00:00:00Z","name_a2s":"Uncletopia | Hong Kong | 1 | All Maps","protocol":17,"map":"koth_viaduct","folder":"tf","game":"Team Fortress","app_id":440,"player_count":0,"max_players":24,"Bots":0,"server_type":"Dedicated","server_os":"Linux","password":true,"vac":true,"version":"7882260","steam_id":85568392924494504,"keywords":["cp","nocrits","nodmgspread","uncletopia"],"game_id":440,"stv_port":27016,"stv_name":"Uncletopia | Hong Kong | 1 | All Maps | STV","players":null},{"server_id":1,"name":"Uncletopia | Los Angeles | 1 | All Maps","name_short":"lax-1","host":"lax-1.us.uncletopia.com","port":27015,"enabled":true,"region":"us-west","cc":"us","latitude":33.94279,"longitude":-118.41004,"reserved":0,"last_update":"0001-01-01T00:00:00Z","name_a2s":"Uncletopia | Los Angeles | 1 | All Maps","protocol":17,"map":"pl_pier","folder":"tf","game":"Team Fortress","app_id":440,"player_count":0,"max_players":24,"Bots":0,"server_type":"Dedicated","server_os":"Linux","password":true,"vac":true,"version":"7882260","steam_id":85568392924469991,"keywords":["nocrits","nodmgspread","payload","uncletopia"],"game_id":440,"stv_port":27016,"stv_name":"Uncletopia | Los Angeles | 1 | All Maps | STV","players":null},{"server_id":112,"name":"Uncletopia | Los Angeles | 2 | All Maps","name_short":"lax-2","host":"lax-1.us.uncletopia.com","port":27025,"enabled":true,"region":"us-west","cc":"us","latitude":33.94279,"longitude":-118.41004,"reserved":0,"last_update":"0001-01-01T00:00:00Z","name_a2s":"Uncletopia | Los Angeles | 2 | All Maps","protocol":17,"map":"cp_sunshine","folder":"tf","game":"Team Fortress","app_id":440,"player_count":0,"max_players":24,"Bots":0,"server_type":"Dedicated","server_os":"Linux","password":true,"vac":true,"version":"7882260","steam_id":85568392924469992,"keywords":["cp","nocrits","nodmgspread","uncletopia"],"game_id":440,"stv_port":27026,"stv_name":"Uncletopia | Los Angeles | 2 | All Maps | STV","players":null},{"server_id":324,"name":"Uncletopia | Los Angeles | 3 | All Maps","name_short":"lax-3","host":"lax-1.us.uncletopia.com","port":27035,"enabled":true,"region":"us-west","cc":"us","latitude":33.94279,"longitude":-118.41004,"reserved":0,"last_update":"0001-01-01T00:00:00Z","name_a2s":"Uncletopia | Los Angeles | 3 | All Maps","protocol":17,"map":"cp_sunshine","folder":"tf","game":"Team Fortress","app_id":440,"player_count":0,"max_players":24,"Bots":0,"server_type":"Dedicated","server_os":"Linux","password":true,"vac":true,"version":"7882260","steam_id":85568392924510198,"keywords":["cp","nocrits","nodmgspread","uncletopia"],"game_id":440,"stv_port":27036,"stv_name":"Uncletopia | Los Angeles | 3 | All Maps | STV","players":null},{"server_id":25,"name":"Uncletopia | Los Angeles | 4 | Stopwatch Beta","name_short":"lax-4","host":"lax-1.us.uncletopia.com","port":27045,"enabled":true,"region":"us-west","cc":"us","latitude":33.94279,"longitude":-118.41004,"reserved":0,"last_update":"0001-01-01T00:00:00Z","name_a2s":"Uncletopia | Los Angeles | 4 | Stopwatch Beta","protocol":17,"map":"cp_snakewater_final1","folder":"tf","game":"Team Fortress","app_id":440,"player_count":0,"max_players":24,"Bots":0,"server_type":"Dedicated","server_os":"Linux","password":true,"vac":true,"version":"7882260","steam_id":85568392924510199,"keywords":["cp","nocrits","nodmgspread","uncletopia"],"game_id":440,"stv_port":27046,"stv_name":"Uncletopia | Los Angeles | 4 | Stopwatch Beta | STV","players":null},{"server_id":11,"name":"Uncletopia | London | 1 | All Maps","name_short":"lon-1","host":"lon-1.uk.uncletopia.com","port":27015,"enabled":true,"region":"eu","cc":"gb","latitude":51.509865,"longitude":-0.118092,"reserved":0,"last_update":"0001-01-01T00:00:00Z","name_a2s":"Uncletopia | London | 1 | All Maps","protocol":17,"map":"cp_dustbowl","folder":"tf","game":"Team Fortress","app_id":440,"player_count":24,"max_players":24,"Bots":0,"server_type":"Dedicated","server_os":"Linux","password":true,"vac":true,"version":"7882260","steam_id":85568392924367362,"keywords":["cp","nocrits","nodmgspread","uncletopia"],"game_id":440,"stv_port":27016,"stv_name":"Uncletopia | London | 1 | All Maps | STV","players":[{"user_id":174,"name":"flappi","steam_id":76561198072892783,"connected_time":565000000000,"state":"active","ping":67},{"user_id":184,"name":"shooer! :D \u003e\u003c(((º\u003e","steam_id":76561198110531281,"connected_time":56000000000,"state":"spawning","ping":53},{"user_id":132,"name":"Lubrsi","steam_id":76561198040208195,"connected_time":3341000000000,"state":"active","ping":46},{"user_id":168,"name":"Uncle Moomin","steam_id":76561198011628656,"connected_time":807000000000,"state":"active","ping":86},{"user_id":162,"name":"Dwayne \"The Cock\" Johnson","steam_id":76561198006293325,"connected_time":1047000000000,"state":"active","ping":98},{"user_id":169,"name":"vadim_kotler","steam_id":76561199016634369,"connected_time":792000000000,"state":"active","ping":105},{"user_id":178,"name":"Deltascheme","steam_id":76561199468731941,"connected_time":344000000000,"state":"active","ping":62},{"user_id":119,"name":"clunk","steam_id":76561198836460767,"connected_time":3817000000000,"state":"active","ping":72},{"user_id":161,"name":"Aroo","steam_id":76561198132601368,"connected_time":1142000000000,"state":"active","ping":75},{"user_id":158,"name":"Show me your gun","steam_id":76561198368339225,"connected_time":1777000000000,"state":"active","ping":125},{"user_id":180,"name":"♥ Cirno ♥","steam_id":76561198834982738,"connected_time":168000000000,"state":"active","ping":69},{"user_id":167,"name":"Lag","steam_id":76561198159360376,"connected_time":828000000000,"state":"active","ping":51},{"user_id":163,"name":"Skinny101","steam_id":76561197985599360,"connected_time":952000000000,"state":"active","ping":51},{"user_id":157,"name":"Ferlo","steam_id":76561198095561504,"connected_time":2055000000000,"state":"active","ping":45},{"user_id":126,"name":"Alexandre","steam_id":76561198121784446,"connected_time":3703000000000,"state":"active","ping":37},{"user_id":181,"name":"lpdinobd","steam_id":76561198926251812,"connected_time":158000000000,"state":"active","ping":161},{"user_id":177,"name":"Jara.","steam_id":76561197992207165,"connected_time":415000000000,"state":"active","ping":106},{"user_id":149,"name":"sleppykoche milk boy","steam_id":76561199046520128,"connected_time":2447000000000,"state":"active","ping":59},{"user_id":170,"name":"Mr.O #deletesniper","steam_id":76561198039567498,"connected_time":787000000000,"state":"active","ping":57},{"user_id":176,"name":"Nobel Prize Winner","steam_id":76561198085482419,"connected_time":493000000000,"state":"active","ping":59},{"user_id":175,"name":"Cross Breeze","steam_id":76561198043420803,"connected_time":540000000000,"state":"active","ping":61},{"user_id":182,"name":"Z.O.M.G","steam_id":76561198866719784,"connected_time":148000000000,"state":"active","ping":83},{"user_id":172,"name":"Shovelhalfrusty","steam_id":76561198346447513,"connected_time":768000000000,"state":"active","ping":71},{"user_id":183,"name":"Milo","steam_id":76561198399302307,"connected_time":128000000000,"state":"active","ping":72}]},{"server_id":114,"name":"Uncletopia | London | 2 | All Maps","name_short":"lon-2","host":"lon-1.uk.uncletopia.com","port":27025,"enabled":true,"region":"eu","cc":"gb","latitude":51.509865,"longitude":-0.118092,"reserved":0,"last_update":"0001-01-01T00:00:00Z","name_a2s":"Uncletopia | London | 2 | All Maps","protocol":17,"map":"pl_upward","folder":"tf","game":"Team Fortress","app_id":440,"player_count":24,"max_players":24,"Bots":0,"server_type":"Dedicated","server_os":"Linux","password":true,"vac":true,"version":"7882260","steam_id":85568392924470941,"keywords":["nocrits","nodmgspread","payload","uncletopia"],"game_id":440,"stv_port":27026,"stv_name":"Uncletopia | London | 2 | All Maps | STV","players":[{"user_id":57,"name":"Kiha","steam_id":76561198031408608,"connected_time":1135000000000,"state":"active","ping":70},{"user_id":76,"name":"Spheedermern","steam_id":76561198160898152,"connected_time":323000000000,"state":"active","ping":70},{"user_id":78,"name":"Isohel [Kiba]","steam_id":76561198129032662,"connected_time":279000000000,"state":"active","ping":41},{"user_id":62,"name":"Combat Wombat","steam_id":76561197994720068,"connected_time":973000000000,"state":"active","ping":58},{"user_id":73,"name":"Well, off to hang myself","steam_id":76561198053374944,"connected_time":569000000000,"state":"active","ping":66},{"user_id":58,"name":"SOULDOG","steam_id":76561199212057006,"connected_time":1032000000000,"state":"active","ping":73},{"user_id":85,"name":"RiX","steam_id":76561197969053733,"connected_time":100000000000,"state":"active","ping":58},{"user_id":60,"name":"Esteban Delsin","steam_id":76561198433519639,"connected_time":1007000000000,"state":"active","ping":183},{"user_id":30,"name":"MarkBV","steam_id":76561198427014506,"connected_time":1999000000000,"state":"active","ping":135},{"user_id":81,"name":"FishNachoz","steam_id":76561198026519426,"connected_time":188000000000,"state":"active","ping":49},{"user_id":74,"name":"WolfmanCZ","steam_id":76561199157141414,"connected_time":430000000000,"state":"active","ping":79},{"user_id":56,"name":"IRepairToasters30","steam_id":76561198386684419,"connected_time":1196000000000,"state":"active","ping":85},{"user_id":55,"name":"sam-","steam_id":76561198013770973,"connected_time":1277000000000,"state":"active","ping":74},{"user_id":36,"name":"Mr. Compress","steam_id":76561198082943599,"connected_time":1840000000000,"state":"active","ping":76},{"user_id":37,"name":"FlukeY","steam_id":76561198026137327,"connected_time":1792000000000,"state":"active","ping":67},{"user_id":84,"name":"Jaiden the Caber main","steam_id":76561198126998695,"connected_time":126000000000,"state":"active","ping":161},{"user_id":82,"name":"Zembis","steam_id":76561198008017918,"connected_time":177000000000,"state":"active","ping":96},{"user_id":41,"name":"ThatGamingKiwi","steam_id":76561199170522237,"connected_time":1691000000000,"state":"active","ping":145},{"user_id":49,"name":"P9Nexus","steam_id":76561198073416257,"connected_time":1441000000000,"state":"active","ping":59},{"user_id":44,"name":"Synted TF2.LT","steam_id":76561198032441551,"connected_time":1616000000000,"state":"active","ping":75},{"user_id":46,"name":"[LFT] | ℤar","steam_id":76561199019585369,"connected_time":1596000000000,"state":"active","ping":93},{"user_id":47,"name":"Spectre","steam_id":76561198163819482,"connected_time":1586000000000,"state":"active","ping":73},{"user_id":50,"name":"WAT","steam_id":76561198941203517,"connected_time":1431000000000,"state":"active","ping":73},{"user_id":75,"name":"Princess Peach","steam_id":76561198260272240,"connected_time":385000000000,"state":"active","ping":52}]},{"server_id":320,"name":"Uncletopia | London | 3 | All Maps","name_short":"lon-3","host":"lon-1.uk.uncletopia.com","port":27035,"enabled":true,"region":"eu","cc":"gb","latitude":51.509865,"longitude":-0.118092,"reserved":0,"last_update":"0001-01-01T00:00:00Z","name_a2s":"Uncletopia | London | 3 | All Maps","protocol":17,"map":"koth_highpass","folder":"tf","game":"Team Fortress","app_id":440,"player_count":0,"max_players":24,"Bots":0,"server_type":"Dedicated","server_os":"Linux","password":true,"vac":true,"version":"7882260","steam_id":85568392924510192,"keywords":["cp","nocrits","nodmgspread","uncletopia"],"game_id":440,"stv_port":27036,"stv_name":"Uncletopia | London | 3 | All Maps | STV","players":null},{"server_id":321,"name":"Uncletopia | London | 4 | All Maps","name_short":"lon-4","host":"lon-1.uk.uncletopia.com","port":27045,"enabled":true,"region":"eu","cc":"gb","latitude":51.509865,"longitude":-0.118092,"reserved":0,"last_update":"0001-01-01T00:00:00Z","name_a2s":"Uncletopia | London | 4 | All Maps","protocol":17,"map":"koth_lakeside_final","folder":"tf","game":"Team Fortress","app_id":440,"player_count":6,"max_players":24,"Bots":0,"server_type":"Dedicated","server_os":"Linux","password":true,"vac":true,"version":"7882260","steam_id":85568392924510193,"keywords":["cp","nocrits","nodmgspread","uncletopia"],"game_id":440,"stv_port":27046,"stv_name":"Uncletopia | London | 4 | All Maps | STV","players":[{"user_id":23,"name":"nvmHastee","steam_id":76561199371458295,"connected_time":1245000000000,"state":"active","ping":85},{"user_id":28,"name":"moððe","steam_id":76561199006462039,"connected_time":618000000000,"state":"active","ping":63},{"user_id":30,"name":"Purple Guy","steam_id":76561198977871125,"connected_time":326000000000,"state":"active","ping":83},{"user_id":31,"name":"Smaug [Ger]","steam_id":76561198853461583,"connected_time":11000000000,"state":"spawning","ping":238},{"user_id":27,"name":"☆MiNTERRRRR☆","steam_id":76561198799866156,"connected_time":769000000000,"state":"active","ping":112},{"user_id":32,"name":"ands90","steam_id":76561198006046508,"connected_time":3000000000,"state":"spawning","ping":66}]},{"server_id":21,"name":"Uncletopia | London | 5 | All Maps","name_short":"lon-5","host":"lon-1.uk.uncletopia.com","port":27055,"enabled":true,"region":"eu","cc":"gb","latitude":51.509865,"longitude":-0.118092,"reserved":0,"last_update":"0001-01-01T00:00:00Z","name_a2s":"Uncletopia | London | 5 | All Maps","protocol":17,"map":"koth_cascade","folder":"tf","game":"Team Fortress","app_id":440,"player_count":0,"max_players":24,"Bots":0,"server_type":"Dedicated","server_os":"Linux","password":true,"vac":true,"version":"7882260","steam_id":85568392924742829,"keywords":["cp","nocrits","nodmgspread","uncletopia"],"game_id":440,"stv_port":27056,"stv_name":"Uncletopia | London | 5 | All Maps | STV","players":null},{"server_id":22,"name":"Uncletopia | London | 6 | All Maps","name_short":"lon-6","host":"lon-1.uk.uncletopia.com","port":27065,"enabled":true,"region":"eu","cc":"gb","latitude":51.509865,"longitude":-0.118092,"reserved":0,"last_update":"0001-01-01T00:00:00Z","name_a2s":"Uncletopia | London | 6 | All Maps","protocol":17,"map":"pl_pier","folder":"tf","game":"Team Fortress","app_id":440,"player_count":24,"max_players":24,"Bots":0,"server_type":"Dedicated","server_os":"Linux","password":true,"vac":true,"version":"7882260","steam_id":85568392924742830,"keywords":["nocrits","nodmgspread","payload","uncletopia"],"game_id":440,"stv_port":27066,"stv_name":"Uncletopia | London | 6 | All Maps | STV","players":[{"user_id":211,"name":"Certified Doctor Bong Bong","steam_id":76561198171641874,"connected_time":4740000000000,"state":"active","ping":57},{"user_id":223,"name":"El_Kommadante","steam_id":76561198079551685,"connected_time":4307000000000,"state":"active","ping":58},{"user_id":210,"name":"noVa","steam_id":76561198296550363,"connected_time":4745000000000,"state":"active","ping":64},{"user_id":281,"name":"Sylvanas","steam_id":76561198154904165,"connected_time":581000000000,"state":"active","ping":102},{"user_id":229,"name":"Jan.","steam_id":76561197974066329,"connected_time":4059000000000,"state":"active","ping":60},{"user_id":270,"name":"spxcy","steam_id":76561198080296853,"connected_time":1594000000000,"state":"active","ping":102},{"user_id":244,"name":"Bob Sacamano","steam_id":76561198085610701,"connected_time":3093000000000,"state":"active","ping":90},{"user_id":265,"name":"Lilac","steam_id":76561199483835107,"connected_time":2160000000000,"state":"active","ping":89},{"user_id":277,"name":"vadr","steam_id":76561198334528186,"connected_time":1308000000000,"state":"active","ping":44},{"user_id":286,"name":"Big Benn","steam_id":76561199024168373,"connected_time":350000000000,"state":"active","ping":54},{"user_id":242,"name":"quickfast","steam_id":76561199438900919,"connected_time":3162000000000,"state":"active","ping":41},{"user_id":267,"name":"Noid","steam_id":76561198227804500,"connected_time":2058000000000,"state":"active","ping":144},{"user_id":282,"name":"Government Hooker","steam_id":76561198005361358,"connected_time":538000000000,"state":"active","ping":49},{"user_id":218,"name":"Sham!","steam_id":76561198050434275,"connected_time":4583000000000,"state":"active","ping":59},{"user_id":260,"name":"Old Hat","steam_id":76561197994673297,"connected_time":2497000000000,"state":"active","ping":65},{"user_id":108,"name":"Rori","steam_id":76561198052582902,"connected_time":11827000000000,"state":"active","ping":109},{"user_id":264,"name":"BlobsOfWax","steam_id":76561198041752402,"connected_time":2178000000000,"state":"active","ping":44},{"user_id":284,"name":"Kurage","steam_id":76561198021221288,"connected_time":424000000000,"state":"active","ping":70},{"user_id":274,"name":"Tank","steam_id":76561199059174576,"connected_time":1433000000000,"state":"active","ping":167},{"user_id":258,"name":"Jeerven","steam_id":76561198259189841,"connected_time":2651000000000,"state":"active","ping":61},{"user_id":246,"name":"lior.kr72","steam_id":76561199308997728,"connected_time":3014000000000,"state":"active","ping":109},{"user_id":257,"name":"gerg","steam_id":76561198041663219,"connected_time":2694000000000,"state":"active","ping":59},{"user_id":170,"name":"Yeets3er","steam_id":76561199137127757,"connected_time":7700000000000,"state":"active","ping":57},{"user_id":288,"name":"revolver CHEH","steam_id":76561198851411530,"connected_time":230000000000,"state":"active","ping":51}]},{"server_id":40,"name":"Uncletopia | London | 7 | No Payload","name_short":"lon-7","host":"lon-1.uk.uncletopia.com","port":27075,"enabled":true,"region":"eu","cc":"gb","latitude":51.509865,"longitude":-0.118092,"reserved":0,"last_update":"0001-01-01T00:00:00Z","name_a2s":"Uncletopia | London | 7 | No Payload","protocol":17,"map":"ctf_2fort","folder":"tf","game":"Team Fortress","app_id":440,"player_count":0,"max_players":24,"Bots":0,"server_type":"Dedicated","server_os":"Linux","password":true,"vac":true,"version":"7882260","steam_id":85568392924964314,"keywords":["ctf","nocrits","nodmgspread","uncletopia"],"game_id":440,"stv_port":27076,"stv_name":"Uncletopia | London | 7 | No Payload | STV","players":null},{"server_id":41,"name":"Uncletopia | London | 8 | Community","name_short":"lon-8","host":"lon-1.uk.uncletopia.com","port":27085,"enabled":true,"region":"eu","cc":"gb","latitude":51.509865,"longitude":-0.118092,"reserved":0,"last_update":"0001-01-01T00:00:00Z","name_a2s":"Uncletopia | London | 8 | Community","protocol":17,"map":"workshop/koth_kemptown_rc1.ugc767410655","folder":"tf","game":"Team Fortress","app_id":440,"player_count":0,"max_players":24,"Bots":0,"server_type":"Dedicated","server_os":"Linux","password":true,"vac":true,"version":"7882260","steam_id":85568392924964315,"keywords":["cp","nocrits","nodmgspread","uncletopia"],"game_id":440,"stv_port":27086,"stv_name":"Uncletopia | London | 8 | Community | STV","players":null},{"server_id":300,"name":"Uncletopia | Montréal | 1 | All Maps","name_short":"mtl-1","host":"mtl-1.ca.uncletopia.com","port":27015,"enabled":true,"region":"us-east","cc":"ca","latitude":45.50889,"longitude":-73.56167,"reserved":0,"last_update":"0001-01-01T00:00:00Z","name_a2s":"Uncletopia | Montréal | 1 | All Maps","protocol":17,"map":"pl_snowycoast","folder":"tf","game":"Team Fortress","app_id":440,"player_count":0,"max_players":24,"Bots":0,"server_type":"Dedicated","server_os":"Linux","password":true,"vac":true,"version":"7882260","steam_id":85568392924500087,"keywords":["nocrits","nodmgspread","payload","uncletopia"],"game_id":440,"stv_port":27016,"stv_name":"Uncletopia | Montréal | 1 | All Maps | STV","players":null},{"server_id":301,"name":"Uncletopia | Montréal | 2 | All Maps","name_short":"mtl-2","host":"mtl-1.ca.uncletopia.com","port":27025,"enabled":true,"region":"us-east","cc":"ca","latitude":45.50889,"longitude":-73.56167,"reserved":0,"last_update":"0001-01-01T00:00:00Z","name_a2s":"Uncletopia | Montréal | 2 | All Maps","protocol":17,"map":"cp_sunshine","folder":"tf","game":"Team Fortress","app_id":440,"player_count":0,"max_players":24,"Bots":0,"server_type":"Dedicated","server_os":"Linux","password":true,"vac":true,"version":"7882260","steam_id":85568392924500088,"keywords":["cp","nocrits","nodmgspread","uncletopia"],"game_id":440,"stv_port":27026,"stv_name":"Uncletopia | Montréal | 2 | All Maps | STV","players":null},{"server_id":302,"name":"Uncletopia | Montréal | 3 | All Maps","name_short":"mtl-3","host":"mtl-1.ca.uncletopia.com","port":27035,"enabled":true,"region":"us-east","cc":"ca","latitude":45.50889,"longitude":-73.56167,"reserved":0,"last_update":"0001-01-01T00:00:00Z","name_a2s":"Uncletopia | Montréal | 3 | All Maps","protocol":17,"map":"pl_borneo","folder":"tf","game":"Team Fortress","app_id":440,"player_count":0,"max_players":24,"Bots":0,"server_type":"Dedicated","server_os":"Linux","password":true,"vac":true,"version":"7882260","steam_id":85568392924500089,"keywords":["nocrits","nodmgspread","payload","uncletopia"],"game_id":440,"stv_port":27036,"stv_name":"Uncletopia | Montréal | 3 | All Maps | STV","players":null},{"server_id":303,"name":"Uncletopia | Montréal | 4 | No Payload","name_short":"mtl-4","host":"mtl-1.ca.uncletopia.com","port":27045,"enabled":true,"region":"us-east","cc":"ca","latitude":45.50889,"longitude":-73.56167,"reserved":0,"last_update":"0001-01-01T00:00:00Z","name_a2s":"Uncletopia | Montréal | 4 | No Payload","protocol":17,"map":"cp_altitude","folder":"tf","game":"Team Fortress","app_id":440,"player_count":0,"max_players":24,"Bots":0,"server_type":"Dedicated","server_os":"Linux","password":true,"vac":true,"version":"7882260","steam_id":85568392924500090,"keywords":["cp","nocrits","nodmgspread","uncletopia"],"game_id":440,"stv_port":27046,"stv_name":"Uncletopia | Montréal | 4 | No Payload | STV","players":null},{"server_id":13,"name":"Uncletopia | New York City | 1 | All Maps","name_short":"nyc-1","host":"nyc-1.us.uncletopia.com","port":27015,"enabled":true,"region":"us-east","cc":"us","latitude":40.73061,"longitude":-73.93524,"reserved":0,"last_update":"0001-01-01T00:00:00Z","name_a2s":"Uncletopia | New York City | 1 | All Maps","protocol":17,"map":"koth_highpass","folder":"tf","game":"Team Fortress","app_id":440,"player_count":0,"max_players":24,"Bots":0,"server_type":"Dedicated","server_os":"Linux","password":true,"vac":true,"version":"7882260","steam_id":85568392924469993,"keywords":["cp","nocrits","nodmgspread","uncletopia"],"game_id":440,"stv_port":27016,"stv_name":"Uncletopia | New York City | 1 | All Maps | STV","players":null},{"server_id":14,"name":"Uncletopia | New York City | 2 | All Maps","name_short":"nyc-2","host":"nyc-1.us.uncletopia.com","port":27025,"enabled":true,"region":"us-east","cc":"us","latitude":40.73061,"longitude":-73.93524,"reserved":0,"last_update":"0001-01-01T00:00:00Z","name_a2s":"Uncletopia | New York City | 2 | All Maps","protocol":17,"map":"pl_upward","folder":"tf","game":"Team Fortress","app_id":440,"player_count":1,"max_players":24,"Bots":0,"server_type":"Dedicated","server_os":"Linux","password":true,"vac":true,"version":"7882260","steam_id":85568392924469994,"keywords":["nocrits","nodmgspread","payload","uncletopia"],"game_id":440,"stv_port":27026,"stv_name":"Uncletopia | New York City | 2 | All Maps | STV","players":[{"user_id":3,"name":"DaybreakerYa","steam_id":76561199013632613,"connected_time":76000000000,"state":"active","ping":65}]},{"server_id":15,"name":"Uncletopia | New York City | 3 | Stopwatch Beta","name_short":"nyc-3","host":"nyc-1.us.uncletopia.com","port":27035,"enabled":true,"region":"us-east","cc":"us","latitude":40.73061,"longitude":-73.93524,"reserved":0,"last_update":"0001-01-01T00:00:00Z","name_a2s":"Uncletopia | New York City | 3 | Stopwatch Beta","protocol":17,"map":"koth_lakeside_final","folder":"tf","game":"Team Fortress","app_id":440,"player_count":0,"max_players":24,"Bots":0,"server_type":"Dedicated","server_os":"Linux","password":true,"vac":true,"version":"7882260","steam_id":85568392924742820,"keywords":["cp","nocrits","nodmgspread","uncletopia"],"game_id":440,"stv_port":27036,"stv_name":"Uncletopia | New York City | 3 | Stopwatch Beta | STV","players":null},{"server_id":16,"name":"Uncletopia | New York City | 4 | Community","name_short":"nyc-4","host":"nyc-1.us.uncletopia.com","port":27045,"enabled":true,"region":"us-east","cc":"us","latitude":40.73061,"longitude":-73.93524,"reserved":0,"last_update":"0001-01-01T00:00:00Z","name_a2s":"Uncletopia | New York City | 4 | Community","protocol":17,"map":"pl_badwater","folder":"tf","game":"Team Fortress","app_id":440,"player_count":0,"max_players":24,"Bots":0,"server_type":"Dedicated","server_os":"Linux","password":true,"vac":true,"version":"7882260","steam_id":85568392924742821,"keywords":["nocrits","nodmgspread","payload","uncletopia"],"game_id":440,"stv_port":27046,"stv_name":"Uncletopia | New York City | 4 | Community | STV","players":null},{"server_id":142,"name":"Uncletopia | São Paulo | 1 | All Maps","name_short":"sao-1","host":"sao-1.br.uncletopia.com","port":27015,"enabled":true,"region":"sa","cc":"br","latitude":-23.533773,"longitude":-46.62529,"reserved":0,"last_update":"0001-01-01T00:00:00Z","name_a2s":"Uncletopia | São Paulo | 1 | All Maps","protocol":17,"map":"koth_viaduct","folder":"tf","game":"Team Fortress","app_id":440,"player_count":0,"max_players":24,"Bots":0,"server_type":"Dedicated","server_os":"Linux","password":true,"vac":true,"version":"7882260","steam_id":85568392924469996,"keywords":["cp","nocrits","nodmgspread","uncletopia"],"game_id":440,"stv_port":27016,"stv_name":"Uncletopia | São Paulo | 1 | All Maps | STV","players":null},{"server_id":143,"name":"Uncletopia | São Paulo | 2 | All Maps","name_short":"sao-2","host":"sao-2.br.uncletopia.com","port":27015,"enabled":true,"region":"sa","cc":"br","latitude":-23.533773,"longitude":-46.62529,"reserved":0,"last_update":"0001-01-01T00:00:00Z","name_a2s":"Uncletopia | São Paulo | 2 | All Maps","protocol":17,"map":"pl_snowycoast","folder":"tf","game":"Team Fortress","app_id":440,"player_count":0,"max_players":24,"Bots":0,"server_type":"Dedicated","server_os":"Linux","password":true,"vac":true,"version":"7882260","steam_id":85568392924485349,"keywords":["nocrits","nodmgspread","payload","uncletopia"],"game_id":440,"stv_port":27016,"stv_name":"Uncletopia | São Paulo | 2 | All Maps | STV","players":null},{"server_id":7,"name":"Uncletopia | Seattle | 1 | All Maps","name_short":"sea-1","host":"sea-1.us.uncletopia.com","port":27015,"enabled":true,"region":"us-west","cc":"us","latitude":47.608013,"longitude":-122.33517,"reserved":0,"last_update":"0001-01-01T00:00:00Z","name_a2s":"Uncletopia | Seattle | 1 | All Maps","protocol":17,"map":"cp_sunshine","folder":"tf","game":"Team Fortress","app_id":440,"player_count":24,"max_players":24,"Bots":0,"server_type":"Dedicated","server_os":"Linux","password":true,"vac":true,"version":"7882260","steam_id":85568392924469997,"keywords":["cp","nocrits","nodmgspread","uncletopia"],"game_id":440,"stv_port":27016,"stv_name":"Uncletopia | Seattle | 1 | All Maps | STV","players":[{"user_id":158,"name":"ふわふわ毛布","steam_id":76561198088403016,"connected_time":3965000000000,"state":"active","ping":181},{"user_id":172,"name":"Mashi","steam_id":76561198027871223,"connected_time":2452000000000,"state":"active","ping":102},{"user_id":180,"name":"JackinatorBoss","steam_id":76561198322843851,"connected_time":1720000000000,"state":"active","ping":81},{"user_id":192,"name":"zinnk","steam_id":76561198092081825,"connected_time":291000000000,"state":"active","ping":57},{"user_id":160,"name":"Jolly","steam_id":76561198116357972,"connected_time":3472000000000,"state":"active","ping":74},{"user_id":89,"name":"Grassman (Cc)","steam_id":76561198026488532,"connected_time":8486000000000,"state":"active","ping":60},{"user_id":139,"name":"Whiskey","steam_id":76561198858154667,"connected_time":5003000000000,"state":"active","ping":75},{"user_id":168,"name":"DoubleX2000","steam_id":76561198164134387,"connected_time":3057000000000,"state":"active","ping":62},{"user_id":174,"name":"Ulrich Stern","steam_id":76561198101739682,"connected_time":2246000000000,"state":"active","ping":119},{"user_id":181,"name":"BrightOrangeMango","steam_id":76561198023144607,"connected_time":1687000000000,"state":"active","ping":86},{"user_id":191,"name":"Pockets","steam_id":76561198001742296,"connected_time":322000000000,"state":"active","ping":104},{"user_id":83,"name":"Cob","steam_id":76561198042518365,"connected_time":9088000000000,"state":"active","ping":68},{"user_id":159,"name":"sheep in da slipgate","steam_id":76561198076781979,"connected_time":3952000000000,"state":"active","ping":87},{"user_id":185,"name":"Stick Drift","steam_id":76561199019675078,"connected_time":1298000000000,"state":"active","ping":98},{"user_id":143,"name":"SolarusD","steam_id":76561198029279861,"connected_time":4575000000000,"state":"active","ping":65},{"user_id":186,"name":"INeverFold","steam_id":76561198285482224,"connected_time":694000000000,"state":"active","ping":99},{"user_id":190,"name":"Pre Pissed Pants","steam_id":76561198042143837,"connected_time":447000000000,"state":"active","ping":62},{"user_id":167,"name":"Walmus","steam_id":76561198111416393,"connected_time":3266000000000,"state":"active","ping":96},{"user_id":183,"name":"TTV/ChadMorningWood","steam_id":76561198139832291,"connected_time":1598000000000,"state":"active","ping":89},{"user_id":128,"name":"M4 Sherman","steam_id":76561198126990820,"connected_time":5762000000000,"state":"active","ping":96},{"user_id":193,"name":"Vincent Van Bro","steam_id":76561197966919802,"connected_time":57000000000,"state":"active","ping":60},{"user_id":156,"name":"BurningKev","steam_id":76561198057688837,"connected_time":4221000000000,"state":"active","ping":84},{"user_id":188,"name":"HeartAttack","steam_id":76561198135833968,"connected_time":551000000000,"state":"active","ping":88},{"user_id":162,"name":"Sugar Rush","steam_id":76561198094620058,"connected_time":3415000000000,"state":"active","ping":146}]},{"server_id":119,"name":"Uncletopia | Seattle | 2 | All Maps","name_short":"sea-2","host":"sea-1.us.uncletopia.com","port":27025,"enabled":true,"region":"us-west","cc":"us","latitude":47.608013,"longitude":-122.33517,"reserved":0,"last_update":"0001-01-01T00:00:00Z","name_a2s":"Uncletopia | Seattle | 2 | All Maps","protocol":17,"map":"koth_highpass","folder":"tf","game":"Team Fortress","app_id":440,"player_count":0,"max_players":24,"Bots":0,"server_type":"Dedicated","server_os":"Linux","password":true,"vac":true,"version":"7882260","steam_id":85568392924469998,"keywords":["cp","nocrits","nodmgspread","uncletopia"],"game_id":440,"stv_port":27026,"stv_name":"Uncletopia | Seattle | 2 | All Maps | STV","players":null},{"server_id":406,"name":"Uncletopia | Seattle | 3 | Stopwatch Beta","name_short":"sea-3","host":"sea-1.us.uncletopia.com","port":27035,"enabled":true,"region":"us-west","cc":"us","latitude":47.608013,"longitude":-122.33517,"reserved":0,"last_update":"0001-01-01T00:00:00Z","name_a2s":"Uncletopia | Seattle | 3 | Stopwatch Beta","protocol":17,"map":"cp_mountainlab","folder":"tf","game":"Team Fortress","app_id":440,"player_count":0,"max_players":24,"Bots":0,"server_type":"Dedicated","server_os":"Linux","password":true,"vac":true,"version":"7882260","steam_id":85568392924515217,"keywords":["cp","nocrits","nodmgspread","uncletopia"],"game_id":440,"stv_port":27036,"stv_name":"Uncletopia | Seattle | 3 | Stopwatch Beta | STV","players":null},{"server_id":17,"name":"Uncletopia | San Francisco | 1 | All Maps","name_short":"sfo-1","host":"sfo-1.us.uncletopia.com","port":27015,"enabled":true,"region":"us-west","cc":"us","latitude":37.77397,"longitude":-122.4313,"reserved":0,"last_update":"0001-01-01T00:00:00Z","name_a2s":"Uncletopia | San Francisco | 1 | All Maps","protocol":17,"map":"cp_process_final","folder":"tf","game":"Team Fortress","app_id":440,"player_count":0,"max_players":24,"Bots":0,"server_type":"Dedicated","server_os":"Linux","password":true,"vac":true,"version":"7757534","steam_id":85568392924469999,"keywords":["cp","nocrits","nodmgspread","uncletopia"],"game_id":440,"stv_port":27016,"stv_name":"Uncletopia | San Francisco | 1 | All Maps | STV","players":null},{"server_id":18,"name":"Uncletopia | San Francisco | 2 | All Maps","name_short":"sfo-2","host":"sfo-1.us.uncletopia.com","port":27025,"enabled":true,"region":"us-west","cc":"us","latitude":37.77397,"longitude":-122.4313,"reserved":0,"last_update":"0001-01-01T00:00:00Z","name_a2s":"Uncletopia | San Francisco | 2 | All Maps","protocol":17,"map":"koth_highpass","folder":"tf","game":"Team Fortress","app_id":440,"player_count":0,"max_players":24,"Bots":0,"server_type":"Dedicated","server_os":"Linux","password":true,"vac":true,"version":"7757534","steam_id":85568392924470000,"keywords":["cp","nocrits","nodmgspread","uncletopia"],"game_id":440,"stv_port":27026,"stv_name":"Uncletopia | San Francisco | 2 | All Maps | STV","players":null},{"server_id":19,"name":"Uncletopia | San Francisco | 3 | Stopwatch Beta","name_short":"sfo-3","host":"sfo-1.us.uncletopia.com","port":27035,"enabled":true,"region":"us-west","cc":"us","latitude":37.77397,"longitude":-122.4313,"reserved":0,"last_update":"0001-01-01T00:00:00Z","name_a2s":"Uncletopia | San Francisco | 3 | Stopwatch Beta","protocol":17,"map":"koth_lakeside_final","folder":"tf","game":"Team Fortress","app_id":440,"player_count":0,"max_players":24,"Bots":0,"server_type":"Dedicated","server_os":"Linux","password":true,"vac":true,"version":"7757534","steam_id":85568392924742824,"keywords":["cp","nocrits","nodmgspread","uncletopia"],"game_id":440,"stv_port":27036,"stv_name":"Uncletopia | San Francisco | 3 | Stopwatch Beta | STV","players":null},{"server_id":20,"name":"Uncletopia | San Francisco | 4 | Community","name_short":"sfo-4","host":"sfo-1.us.uncletopia.com","port":27045,"enabled":true,"region":"us-west","cc":"us","latitude":37.77397,"longitude":-122.4313,"reserved":0,"last_update":"0001-01-01T00:00:00Z","name_a2s":"Uncletopia | San Francisco | 4 | Community","protocol":17,"map":"cp_altitude","folder":"tf","game":"Team Fortress","app_id":440,"player_count":0,"max_players":24,"Bots":0,"server_type":"Dedicated","server_os":"Linux","password":true,"vac":true,"version":"7757534","steam_id":85568392924742826,"keywords":["cp","nocrits","nodmgspread","uncletopia"],"game_id":440,"stv_port":27046,"stv_name":"Uncletopia | San Francisco | 4 | Community | STV","players":null},{"server_id":141,"name":"Uncletopia | Sydney | 1 | All Maps","name_short":"syd-1","host":"syd-1.au.uncletopia.com","port":27015,"enabled":true,"region":"au","cc":"au","latitude":-33.865143,"longitude":151.2099,"reserved":0,"last_update":"0001-01-01T00:00:00Z","name_a2s":"Uncletopia | Sydney | 1 | All Maps","protocol":17,"map":"koth_lakeside_final","folder":"tf","game":"Team Fortress","app_id":440,"player_count":0,"max_players":24,"Bots":0,"server_type":"Dedicated","server_os":"Linux","password":true,"vac":true,"version":"7882260","steam_id":85568392924470001,"keywords":["cp","nocrits","nodmgspread","uncletopia"],"game_id":440,"stv_port":27016,"stv_name":"Uncletopia | Sydney | 1 | All Maps | STV","players":null},{"server_id":123,"name":"Uncletopia | Sydney | 2 | All Maps","name_short":"syd-2","host":"syd-1.au.uncletopia.com","port":27025,"enabled":true,"region":"au","cc":"au","latitude":-33.865143,"longitude":151.2099,"reserved":0,"last_update":"0001-01-01T00:00:00Z","name_a2s":"Uncletopia | Sydney | 2 | All Maps","protocol":17,"map":"pl_swiftwater_final1","folder":"tf","game":"Team Fortress","app_id":440,"player_count":0,"max_players":24,"Bots":0,"server_type":"Dedicated","server_os":"Linux","password":true,"vac":true,"version":"7882260","steam_id":85568392924470002,"keywords":["nocrits","nodmgspread","payload","uncletopia"],"game_id":440,"stv_port":27026,"stv_name":"Uncletopia | Sydney | 2 | All Maps | STV","players":null},{"server_id":395,"name":"Uncletopia | Sydney | 3 | All Maps","name_short":"syd-3","host":"syd-1.au.uncletopia.com","port":27035,"enabled":true,"region":"au","cc":"au","latitude":-33.865143,"longitude":151.2099,"reserved":0,"last_update":"0001-01-01T00:00:00Z","name_a2s":"Uncletopia | Sydney | 3 | All Maps","protocol":17,"map":"koth_cascade","folder":"tf","game":"Team Fortress","app_id":440,"player_count":0,"max_players":24,"Bots":0,"server_type":"Dedicated","server_os":"Linux","password":true,"vac":true,"version":"7882260","steam_id":85568392925194467,"keywords":["cp","nocrits","nodmgspread","uncletopia"],"game_id":440,"stv_port":27036,"stv_name":"Uncletopia | Sydney | 3 | All Maps | STV","players":null},{"server_id":396,"name":"Uncletopia | Sydney | 4 | All Maps","name_short":"syd-4","host":"syd-1.au.uncletopia.com","port":27045,"enabled":true,"region":"au","cc":"au","latitude":-33.865143,"longitude":151.2099,"reserved":0,"last_update":"0001-01-01T00:00:00Z","name_a2s":"Uncletopia | Sydney | 4 | All Maps","protocol":17,"map":"koth_cascade","folder":"tf","game":"Team Fortress","app_id":440,"player_count":0,"max_players":24,"Bots":0,"server_type":"Dedicated","server_os":"Linux","password":true,"vac":true,"version":"7882260","steam_id":85568392925397958,"keywords":["cp","nocrits","nodmgspread","uncletopia"],"game_id":440,"stv_port":27046,"stv_name":"Uncletopia | Sydney | 4 | All Maps | STV","players":null},{"server_id":58,"name":"Uncletopia | Sydney | 5 | Stopwatch Beta","name_short":"syd-5","host":"syd-1.au.uncletopia.com","port":27055,"enabled":true,"region":"au","cc":"au","latitude":-33.865143,"longitude":151.2099,"reserved":0,"last_update":"0001-01-01T00:00:00Z","name_a2s":"Uncletopia | Sydney | 5 | Stopwatch Beta","protocol":17,"map":"pl_swiftwater_final1","folder":"tf","game":"Team Fortress","app_id":440,"player_count":0,"max_players":24,"Bots":0,"server_type":"Dedicated","server_os":"Linux","password":true,"vac":true,"version":"7882260","steam_id":85568392925397959,"keywords":["nocrits","nodmgspread","payload","uncletopia"],"game_id":440,"stv_port":27056,"stv_name":"Uncletopia | Sydney | 5 | Stopwatch Beta | STV","players":null},{"server_id":59,"name":"Uncletopia | Sydney | 6 | Community","name_short":"syd-6","host":"syd-1.au.uncletopia.com","port":27065,"enabled":true,"region":"au","cc":"au","latitude":-33.865143,"longitude":151.2099,"reserved":0,"last_update":"0001-01-01T00:00:00Z","name_a2s":"Uncletopia | Sydney | 6 | Community","protocol":17,"map":"pl_snowycoast","folder":"tf","game":"Team Fortress","app_id":440,"player_count":0,"max_players":24,"Bots":0,"server_type":"Dedicated","server_os":"Linux","password":true,"vac":true,"version":"7882260","steam_id":85568392925397960,"keywords":["nocrits","nodmgspread","payload","uncletopia"],"game_id":440,"stv_port":27066,"stv_name":"Uncletopia | Sydney | 6 | Community | STV","players":null},{"server_id":49,"name":"Uncletopia | Warsaw | 1 | All Maps","name_short":"waw-1","host":"waw-1.pl.uncletopia.com","port":27015,"enabled":true,"region":"eu","cc":"pl","latitude":52.2297,"longitude":21.017532,"reserved":0,"last_update":"0001-01-01T00:00:00Z","name_a2s":"","protocol":0,"map":"","folder":"","game":"","app_id":0,"player_count":0,"max_players":0,"Bots":0,"server_type":"","server_os":"","password":false,"vac":false,"version":"","steam_id":0,"keywords":null,"game_id":0,"stv_port":0,"stv_name":"","players":null},{"server_id":50,"name":"Uncletopia | Warsaw | 2 | All Maps","name_short":"waw-2","host":"waw-1.pl.uncletopia.com","port":27025,"enabled":true,"region":"eu","cc":"pl","latitude":52.2297,"longitude":21.017532,"reserved":0,"last_update":"0001-01-01T00:00:00Z","name_a2s":"Uncletopia | Warsaw | 2 | All Maps","protocol":17,"map":"pl_swiftwater_final1","folder":"tf","game":"Team Fortress","app_id":440,"player_count":0,"max_players":24,"Bots":0,"server_type":"Dedicated","server_os":"Linux","password":true,"vac":true,"version":"7882260","steam_id":85568392925397851,"keywords":["nocrits","nodmgspread","payload","uncletopia"],"game_id":440,"stv_port":27026,"stv_name":"Uncletopia | Warsaw | 2 | All Maps | STV","players":null},{"server_id":51,"name":"Uncletopia | Warsaw | 3 | All Maps","name_short":"waw-3","host":"waw-1.pl.uncletopia.com","port":27035,"enabled":true,"region":"eu","cc":"pl","latitude":52.2297,"longitude":21.017532,"reserved":0,"last_update":"0001-01-01T00:00:00Z","name_a2s":"Uncletopia | Warsaw | 3 | All Maps","protocol":17,"map":"pl_upward","folder":"tf","game":"Team Fortress","app_id":440,"player_count":20,"max_players":24,"Bots":0,"server_type":"Dedicated","server_os":"Linux","password":true,"vac":true,"version":"7882260","steam_id":85568392925397852,"keywords":["nocrits","nodmgspread","payload","uncletopia"],"game_id":440,"stv_port":27036,"stv_name":"Uncletopia | Warsaw | 3 | All Maps | STV","players":[{"user_id":42,"name":"eXer","steam_id":76561198838634181,"connected_time":3800000000000,"state":"active","ping":88},{"user_id":43,"name":"Mario.k","steam_id":76561198978669175,"connected_time":3800000000000,"state":"active","ping":87},{"user_id":120,"name":"eidis","steam_id":76561198314954479,"connected_time":439000000000,"state":"active","ping":75},{"user_id":122,"name":"Akiron","steam_id":76561199267799044,"connected_time":232000000000,"state":"active","ping":68},{"user_id":118,"name":"Zedifo","steam_id":76561198044032070,"connected_time":681000000000,"state":"active","ping":69},{"user_id":111,"name":"Fat Pigeon","steam_id":76561198817940142,"connected_time":1036000000000,"state":"active","ping":72},{"user_id":123,"name":"favela_fan","steam_id":76561198086464040,"connected_time":143000000000,"state":"active","ping":81},{"user_id":124,"name":"eva.","steam_id":76561198054474684,"connected_time":43000000000,"state":"active","ping":75},{"user_id":36,"name":"ROB","steam_id":76561198982164150,"connected_time":4256000000000,"state":"active","ping":52},{"user_id":119,"name":"holykyckling","steam_id":76561198040661615,"connected_time":556000000000,"state":"active","ping":90},{"user_id":113,"name":"KaasKrans","steam_id":76561198240451972,"connected_time":997000000000,"state":"active","ping":70},{"user_id":125,"name":"Mega Saturn","steam_id":76561198024750500,"connected_time":36000000000,"state":"active","ping":106},{"user_id":86,"name":"Kjat","steam_id":76561198839433592,"connected_time":1811000000000,"state":"active","ping":71},{"user_id":82,"name":"thussu","steam_id":76561198890409949,"connected_time":1907000000000,"state":"active","ping":95},{"user_id":126,"name":"Mazenuni","steam_id":76561199224844842,"connected_time":35000000000,"state":"active","ping":105},{"user_id":109,"name":"☞LaZe☜","steam_id":76561198202191400,"connected_time":1187000000000,"state":"active","ping":84},{"user_id":127,"name":"Lyell","steam_id":76561198350329389,"connected_time":33000000000,"state":"active","ping":110},{"user_id":116,"name":"Doogie","steam_id":76561198846924693,"connected_time":894000000000,"state":"active","ping":81},{"user_id":73,"name":"Dragon's Fury \u003e You","steam_id":76561198799097492,"connected_time":2287000000000,"state":"active","ping":60},{"user_id":74,"name":"svantezch","steam_id":76561198373831657,"connected_time":2265000000000,"state":"active","ping":78}]},{"server_id":52,"name":"Uncletopia | Warsaw | 4 | All Maps","name_short":"waw-4","host":"waw-1.pl.uncletopia.com","port":27045,"enabled":true,"region":"eu","cc":"pl","latitude":52.2297,"longitude":21.017532,"reserved":0,"last_update":"0001-01-01T00:00:00Z","name_a2s":"Uncletopia | Warsaw | 4 | All Maps","protocol":17,"map":"koth_highpass","folder":"tf","game":"Team Fortress","app_id":440,"player_count":0,"max_players":24,"Bots":0,"server_type":"Dedicated","server_os":"Linux","password":true,"vac":true,"version":"7882260","steam_id":85568392925397853,"keywords":["cp","nocrits","nodmgspread","uncletopia"],"game_id":440,"stv_port":27046,"stv_name":"Uncletopia | Warsaw | 4 | All Maps | STV","players":null},{"server_id":53,"name":"Uncletopia | Warsaw | 5 | Stopwatch Beta","name_short":"waw-5","host":"waw-1.pl.uncletopia.com","port":27055,"enabled":true,"region":"eu","cc":"pl","latitude":52.2297,"longitude":21.017532,"reserved":0,"last_update":"0001-01-01T00:00:00Z","name_a2s":"Uncletopia | Warsaw | 5 | Stopwatch Beta","protocol":17,"map":"cp_mountainlab","folder":"tf","game":"Team Fortress","app_id":440,"player_count":0,"max_players":24,"Bots":0,"server_type":"Dedicated","server_os":"Linux","password":true,"vac":true,"version":"7882260","steam_id":85568392925397854,"keywords":["cp","nocrits","nodmgspread","uncletopia"],"game_id":440,"stv_port":27056,"stv_name":"Uncletopia | Warsaw | 5 | Stopwatch Beta | STV","players":null},{"server_id":54,"name":"Uncletopia | Warsaw | 6 | Community","name_short":"waw-6","host":"waw-1.pl.uncletopia.com","port":27065,"enabled":true,"region":"eu","cc":"pl","latitude":52.2297,"longitude":21.017532,"reserved":0,"last_update":"0001-01-01T00:00:00Z","name_a2s":"Uncletopia | Warsaw | 6 | Community","protocol":17,"map":"workshop/cp_mannbase_rc2a.ugc1900737467","folder":"tf","game":"Team Fortress","app_id":440,"player_count":0,"max_players":24,"Bots":0,"server_type":"Dedicated","server_os":"Linux","password":true,"vac":true,"version":"7882260","steam_id":85568392925397856,"keywords":["cp","nocrits","nodmgspread","uncletopia"],"game_id":440,"stv_port":27066,"stv_name":"Uncletopia | Warsaw | 6 | Community | STV","players":null}]}