{"status":true,"message":"","result":[{"server_id":9,"name":"Uncletopia | Atlanta | 1 | All Maps","name_short":"atl-1","host":"atl-1.us.uncletopia.com","port":27015,"enabled":true,"region":"us-east","cc":"us","latitude":33.753746,"longitude":-84.38633,"reserved":0,"last_update":"0001-01-01T00:00:00Z","name_a2s":"Uncletopia | Atlanta | 1 | All Maps","protocol":17,"map":"pl_badwater","folder":"tf","game":"Team Fortress","app_id":440,"player_count":24,"max_players":24,"Bots":0,"server_type":"Dedicated","server_os":"Linux","password":true,"vac":true,"version":"7961495","steam_id":85568392924469982,"keywords":["nocrits","nodmgspread","payload","uncletopia"],"game_id":440,"stv_port":27016,"stv_name":"Uncletopia | Atlanta | 1 | All Maps | STV","players":null},{"server_id":104,"name":"Uncletopia | Atlanta | 2 | All Maps","name_short":"atl-2","host":"atl-1.us.uncletopia.com","port":27025,"enabled":true,"region":"us-east","cc":"us","latitude":33.753746,"longitude":-84.38633,"reserved":0,"last_update":"0001-01-01T00:00:00Z","name_a2s":"Uncletopia | Atlanta | 2 | All Maps","protocol":17,"map":"pl_badwater","folder":"tf","game":"Team Fortress","app_id":440,"player_count":24,"max_players":24,"Bots":0,"server_type":"Dedicated","server_os":"Linux","password":true,"vac":true,"version":"7961495","steam_id":85568392924469983,"keywords":["nocrits","nodmgspread","payload","uncletopia"],"game_id":440,"stv_port":27026,"stv_name":"Uncletopia | Atlanta | 2 | All Maps | STV","players":null},{"server_id":400,"name":"Uncletopia | Atlanta | 3 | Stopwatch","name_short":"atl-3","host":"atl-1.us.uncletopia.com","port":27035,"enabled":true,"region":"us-east","cc":"us","latitude":33.753746,"longitude":-84.38633,"reserved":0,"last_update":"0001-01-01T00:00:00Z","name_a2s":"Uncletopia | Atlanta | 3 | Stopwatch","protocol":17,"map":"koth_lakeside_final","folder":"tf","game":"Team Fortress","app_id":440,"player_count":2,"max_players":24,"Bots":0,"server_type":"Dedicated","server_os":"Linux","password":true,"vac":true,"version":"7961495","steam_id":85568392924515187,"keywords":["cp","nocrits","nodmgspread","uncletopia"],"game_id":440,"stv_port":27036,"stv_name":"Uncletopia | Atlanta | 3 | Stopwatch | STV","players":null},{"server_id":401,"name":"Uncletopia | Atlanta | 4 | Community","name_short":"atl-4","host":"atl-1.us.uncletopia.com","port":27045,"enabled":true,"region":"us-east","cc":"us","latitude":33.753746,"longitude":-84.38633,"reserved":0,"last_update":"0001-01-01T00:00:00Z","name_a2s":"Uncletopia | Atlanta | 4 | Community","protocol":17,"map":"cp_logjam_rc12","folder":"tf","game":"Team Fortress","app_id":440,"player_count":1,"max_players":24,"Bots":0,"server_type":"Dedicated","server_os":"Linux","password":true,"vac":true,"version":"7961495","steam_id":85568392924515188,"keywords":["cp","nocrits","nodmgspread","uncletopia"],"game_id":440,"stv_port":27046,"stv_name":"Uncletopia | Atlanta | 4 | Community | STV","players":null},{"server_id":2,"name":"Uncletopia | Chicago | 1 | All Maps","name_short":"chi-1","host":"chi-1.us.uncletopia.com","port":27015,"enabled":true,"region":"us-central","cc":"us","latitude":41.881832,"longitude":-87.62318,"reserved":0,"last_update":"0001-01-01T00:00:00Z","name_a2s":"Uncletopia | Chicago | 1 | All Maps","protocol":17,"map":"ctf_2fort","folder":"tf","game":"Team Fortress","app_id":440,"player_count":23,"max_players":24,"Bots":0,"server_type":"Dedicated","server_os":"Linux","password":true,"vac":true,"version":"7961495","steam_id":85568392924469984,"keywords":["ctf","nocrits","nodmgspread","uncletopia"],"game_id":440,"stv_port":27016,"stv_name":"Uncletopia | Chicago | 1 | All Maps | STV","players":[{"user_id":416,"name":"thecal","steam_id":76561198307893384,"connected_time":11000000000,"state":"active","ping":117},{"user_id":366,"name":"Toxapex","steam_id":76561198341537452,"connected_time":2670000000000,"state":"active","ping":64},{"user_id":411,"name":"Idk","steam_id":76561198971629959,"connected_time":362000000000,"state":"active","ping":135},{"user_id":405,"name":"Pork Soda","steam_id":76561198119575082,"connected_time":666000000000,"state":"active","ping":83},{"user_id":408,"name":"Pot4toLord","steam_id":76561198044181063,"connected_time":497000000000,"state":"active","ping":53},{"user_id":359,"name":"Rivinwin","steam_id":76561198085047367,"connected_time":3276000000000,"state":"active","ping":82},{"user_id":409,"name":"dredbot1_","steam_id":76561199133238998,"connected_time":483000000000,"state":"active","ping":103},{"user_id":378,"name":"spondy","steam_id":76561198081201520,"connected_time":1715000000000,"state":"active","ping":32},{"user_id":345,"name":"Doctor Emerald(Bison enjoyer)","steam_id":76561199123003872,"connected_time":4048000000000,"state":"active","ping":96},{"user_id":330,"name":"[Agora] Parallax","steam_id":76561198056178518,"connected_time":4484000000000,"state":"active","ping":81},{"user_id":393,"name":"the munch","steam_id":76561199164347838,"connected_time":1195000000000,"state":"active","ping":66},{"user_id":413,"name":"NukaTheRabbit {Fur}","steam_id":76561198058692928,"connected_time":193000000000,"state":"active","ping":54},{"user_id":400,"name":"Quark","steam_id":76561198328155605,"connected_time":774000000000,"state":"active","ping":53},{"user_id":401,"name":"Mishiki","steam_id":76561198044338811,"connected_time":764000000000,"state":"active","ping":49},{"user_id":362,"name":"Zhukov","steam_id":76561199006602717,"connected_time":3197000000000,"state":"active","ping":85},{"user_id":332,"name":"Korrin, Femboy Fur Hire","steam_id":76561198095452955,"connected_time":4464000000000,"state":"active","ping":66},{"user_id":415,"name":"Nova","steam_id":76561198296902861,"connected_time":76000000000,"state":"active","ping":73},{"user_id":336,"name":"RocketeerJessie","steam_id":76561198829915210,"connected_time":4431000000000,"state":"active","ping":64},{"user_id":410,"name":"Gob07","steam_id":76561199182212668,"connected_time":432000000000,"state":"active","ping":76},{"user_id":406,"name":"HOTA","steam_id":76561199002778841,"connected_time":543000000000,"state":"active","ping":72},{"user_id":391,"name":"simplyhere141","steam_id":76561199204117948,"connected_time":1290000000000,"state":"active","ping":60},{"user_id":412,"name":"Dalburgh","steam_id":76561198044331017,"connected_time":247000000000,"state":"active","ping":70},{"user_id":374,"name":"Gummy","steam_id":76561198098801598,"connected_time":2460000000000,"state":"active","ping":55}]},{"server_id":106,"name":"Uncletopia | Chicago | 2 | All Maps","name_short":"chi-2","host":"chi-1.us.uncletopia.com","port":27025,"enabled":true,"region":"us-central","cc":"us","latitude":41.881832,"longitude":-87.62318,"reserved":0,"last_update":"0001-01-01T00:00:00Z","name_a2s":"Uncletopia | Chicago | 2 | All Maps","protocol":17,"map":"pl_frontier_final","folder":"tf","game":"Team Fortress","app_id":440,"player_count":25,"max_players":24,"Bots":0,"server_type":"Dedicated","server_os":"Linux","password":true,"vac":true,"version":"7961495","steam_id":85568392924469985,"keywords":["nocrits","nodmgspread","payload","uncletopia"],"game_id":440,"stv_port":27026,"stv_name":"Uncletopia | Chicago | 2 | All Maps | STV","players":[{"user_id":46,"name":"Waterwindow","steam_id":76561198112151398,"connected_time":1572000000000,"state":"active","ping":79},{"user_id":31,"name":"DragonHaert","steam_id":76561198132516061,"connected_time":2424000000000,"state":"active","ping":55},{"user_id":100,"name":"Smittywerbenjager-manjenson","steam_id":76561198067060742,"connected_time":382000000000,"state":"active","ping":60},{"user_id":105,"name":"Based White Man","steam_id":76561199491889281,"connected_time":311000000000,"state":"active","ping":99},{"user_id":108,"name":"Kiss Master","steam_id":76561198289572271,"connected_time":277000000000,"state":"active","ping":74},{"user_id":38,"name":"majorbobfunction","steam_id":76561198042464632,"connected_time":1707000000000,"state":"active","ping":54},{"user_id":47,"name":"Animal Slices","steam_id":76561198137545511,"connected_time":1560000000000,"state":"active","ping":62},{"user_id":40,"name":"Lethal","steam_id":76561198055545714,"connected_time":1699000000000,"state":"active","ping":65},{"user_id":121,"name":"jamesthegamer2","steam_id":76561198036213758,"connected_time":37000000000,"state":"spawning","ping":61},{"user_id":43,"name":"Willow","steam_id":76561198098589327,"connected_time":1626000000000,"state":"active","ping":87},{"user_id":122,"name":"Kirby.exe","steam_id":76561198242714582,"connected_time":14000000000,"state":"spawning","ping":61},{"user_id":48,"name":"Gothmog","steam_id":76561198115714484,"connected_time":1527000000000,"state":"active","ping":131},{"user_id":50,"name":"The Gentrified Urge","steam_id":76561198073314154,"connected_time":1495000000000,"state":"active","ping":49},{"user_id":112,"name":"Jamie","steam_id":76561198058840477,"connected_time":212000000000,"state":"active","ping":99},{"user_id":52,"name":"Ursus Ludius","steam_id":76561198025470722,"connected_time":1469000000000,"state":"active","ping":86},{"user_id":107,"name":"nat","steam_id":76561198865090309,"connected_time":294000000000,"state":"active","ping":98},{"user_id":54,"name":"Prsm","steam_id":76561198053344995,"connected_time":1446000000000,"state":"active","ping":54},{"user_id":120,"name":"god gamer","steam_id":76561198168149434,"connected_time":54000000000,"state":"active","ping":121},{"user_id":106,"name":"ShadowDragon0125","steam_id":76561198343849022,"connected_time":306000000000,"state":"active","ping":71},{"user_id":57,"name":"g00bur","steam_id":76561197993622520,"connected_time":1422000000000,"state":"active","ping":72},{"user_id":79,"name":"Glue Gulper","steam_id":76561198158014525,"connected_time":805000000000,"state":"active","ping":64},{"user_id":109,"name":"why did you meow?","steam_id":76561198072179483,"connected_time":261000000000,"state":"active","ping":90},{"user_id":104,"name":"mild","steam_id":76561198082470182,"connected_time":322000000000,"state":"active","ping":92},{"user_id":114,"name":"SlurpyTheDog","steam_id":76561198799733154,"connected_time":193000000000,"state":"active","ping":65},{"user_id":123,"name":"guppy","steam_id":76561198041380190,"connected_time":6000000000,"state":"spawning","ping":76}]},{"server_id":402,"name":"Uncletopia | Chicago | 3 | All Maps","name_short":"chi-3","host":"chi-1.us.uncletopia.com","port":27035,"enabled":true,"region":"us-central","cc":"us","latitude":41.881832,"longitude":-87.62318,"reserved":0,"last_update":"0001-01-01T00:00:00Z","name_a2s":"Uncletopia | Chicago | 3 | All Maps","protocol":17,"map":"cp_gravelpit","folder":"tf","game":"Team Fortress","app_id":440,"player_count":24,"max_players":24,"Bots":0,"server_type":"Dedicated","server_os":"Linux","password":true,"vac":true,"version":"7961495","steam_id":85568392924515191,"keywords":["cp","nocrits","nodmgspread","uncletopia"],"game_id":440,"stv_port":27036,"stv_name":"Uncletopia | Chicago | 3 | All Maps | STV","players":[{"user_id":291,"name":"HemoTox","steam_id":76561197999713466,"connected_time":295000000000,"state":"active","ping":69},{"user_id":289,"name":"TrashBoat","steam_id":76561199089671432,"connected_time":346000000000,"state":"active","ping":89},{"user_id":288,"name":"Letters","steam_id":76561198035508148,"connected_time":414000000000,"state":"active","ping":60},{"user_id":276,"name":"Queen Frau the Round","steam_id":76561197999942134,"connected_time":1517000000000,"state":"active","ping":43},{"user_id":290,"name":"Wehttam","steam_id":76561199229493583,"connected_time":327000000000,"state":"active","ping":90},{"user_id":249,"name":"phantom","steam_id":76561197963860777,"connected_time":3294000000000,"state":"active","ping":52},{"user_id":296,"name":"GucciGamingSocks","steam_id":76561198149851667,"connected_time":223000000000,"state":"active","ping":86},{"user_id":308,"name":"xelph","steam_id":76561198443008847,"connected_time":105000000000,"state":"active","ping":122},{"user_id":295,"name":"Lili W.","steam_id":76561199391478575,"connected_time":247000000000,"state":"active","ping":100},{"user_id":303,"name":"Polar","steam_id":76561198271964253,"connected_time":186000000000,"state":"active","ping":75},{"user_id":270,"name":"Magma","steam_id":76561198108261173,"connected_time":2044000000000,"state":"active","ping":46},{"user_id":299,"name":"Halo CE Elite","steam_id":76561198181208478,"connected_time":219000000000,"state":"active","ping":74},{"user_id":300,"name":"Gaming123","steam_id":76561198801780168,"connected_time":219000000000,"state":"active","ping":65},{"user_id":301,"name":"Rex","steam_id":76561198138365053,"connected_time":216000000000,"state":"active","ping":123},{"user_id":302,"name":"Beepleton The 3rd","steam_id":76561198081466207,"connected_time":210000000000,"state":"active","ping":85},{"user_id":304,"name":"brenden","steam_id":76561198120346280,"connected_time":184000000000,"state":"active","ping":94},{"user_id":246,"name":"PyroEagle","steam_id":76561198296434231,"connected_time":3602000000000,"state":"active","ping":70},{"user_id":247,"name":"Shady Businessman","steam_id":76561198143855968,"connected_time":3420000000000,"state":"active","ping":95},{"user_id":273,"name":"Thequirka","steam_id":76561198968058652,"connected_time":1941000000000,"state":"active","ping":92},{"user_id":305,"name":"TJ Money Bags","steam_id":76561198047678037,"connected_time":184000000000,"state":"active","ping":80},{"user_id":306,"name":"the archmage","steam_id":76561198380018244,"connected_time":180000000000,"state":"active","ping":74},{"user_id":284,"name":"[NAME-REDACTED]","steam_id":76561198035682975,"connected_time":950000000000,"state":"active","ping":64},{"user_id":283,"name":"Fortnite the movie","steam_id":76561199068219264,"connected_time":1042000000000,"state":"active","ping":59},{"user_id":209,"name":"Lia_Rein","steam_id":76561198151569597,"connected_time":6576000000000,"state":"active","ping":148}]},{"server_id":403,"name":"Uncletopia | Chicago | 4 | All Maps","name_short":"chi-4","host":"chi-1.us.uncletopia.com","port":27045,"enabled":true,"region":"us-central","cc":"us","latitude":41.881832,"longitude":-87.62318,"reserved":0,"last_update":"0001-01-01T00:00:00Z","name_a2s":"Uncletopia | Chicago | 4 | All Maps","protocol":17,"map":"pl_badwater","folder":"tf","game":"Team Fortress","app_id":440,"player_count":24,"max_players":24,"Bots":0,"server_type":"Dedicated","server_os":"Linux","password":true,"vac":true,"version":"7961495","steam_id":85568392924515193,"keywords":["nocrits","nodmgspread","payload","uncletopia"],"game_id":440,"stv_port":27046,"stv_name":"Uncletopia | Chicago | 4 | All Maps | STV","players":[{"user_id":523,"name":"sillylokisparkles","steam_id":76561198872251615,"connected_time":970000000000,"state":"active","ping":77},{"user_id":531,"name":"GooniOoni","steam_id":76561198102154561,"connected_time":715000000000,"state":"active","ping":45},{"user_id":532,"name":"King Of The Chill","steam_id":76561197971394640,"connected_time":713000000000,"state":"active","ping":98},{"user_id":511,"name":"momo","steam_id":76561198099061153,"connected_time":1339000000000,"state":"active","ping":98},{"user_id":543,"name":"bog","steam_id":76561198070975491,"connected_time":601000000000,"state":"active","ping":67},{"user_id":549,"name":"lazily","steam_id":76561198051127715,"connected_time":13000000000,"state":"spawning","ping":102},{"user_id":533,"name":"Gerald Jay Sussman","steam_id":76561198114515026,"connected_time":702000000000,"state":"active","ping":54},{"user_id":541,"name":"KrustyKrabFootLettuce","steam_id":76561199057965002,"connected_time":619000000000,"state":"active","ping":94},{"user_id":548,"name":"Vegerot","steam_id":76561197997843710,"connected_time":130000000000,"state":"active","ping":62},{"user_id":525,"name":"Colin102004","steam_id":76561198202384334,"connected_time":878000000000,"state":"active","ping":55},{"user_id":538,"name":"The Incredible Fem Boy","steam_id":76561198355754259,"connected_time":652000000000,"state":"active","ping":71},{"user_id":544,"name":"Critscare","steam_id":76561198087712508,"connected_time":491000000000,"state":"active","ping":45},{"user_id":513,"name":"Maggie Rhee","steam_id":76561198055921722,"connected_time":1275000000000,"state":"active","ping":87},{"user_id":410,"name":"bunsy","steam_id":76561198097292857,"connected_time":6535000000000,"state":"active","ping":77},{"user_id":448,"name":"Call me the sleeps","steam_id":76561198121245586,"connected_time":4245000000000,"state":"active","ping":96},{"user_id":534,"name":"Church","steam_id":76561199214866732,"connected_time":701000000000,"state":"active","ping":71},{"user_id":535,"name":"An Electric Blue Lobster","steam_id":76561198303125229,"connected_time":686000000000,"state":"active","ping":57},{"user_id":536,"name":"StudioMania (#SAVETF2)","steam_id":76561198211315795,"connected_time":682000000000,"state":"active","ping":65},{"user_id":545,"name":"Blacksteel387","steam_id":76561198060543196,"connected_time":406000000000,"state":"active","ping":69},{"user_id":539,"name":"Jonah Hill from 21 Jump Street","steam_id":76561198811130843,"connected_time":651000000000,"state":"active","ping":75},{"user_id":537,"name":"Owl Pacino","steam_id":76561197979970666,"connected_time":681000000000,"state":"active","ping":52},{"user_id":540,"name":"Braspooky","steam_id":76561198275170070,"connected_time":638000000000,"state":"active","ping":70},{"user_id":519,"name":"nickyboy","steam_id":76561198055205332,"connected_time":1167000000000,"state":"active","ping":84},{"user_id":547,"name":"ADRIEN BRODY","steam_id":76561198009299473,"connected_time":157000000000,"state":"active","ping":66}]},{"server_id":36,"name":"Uncletopia | Chicago | 5 | All Maps","name_short":"chi-5","host":"chi-2.us.uncletopia.com","port":27015,"enabled":true,"region":"us-central","cc":"us","latitude":41.881832,"longitude":-87.62318,"reserved":0,"last_update":"0001-01-01T00:00:00Z","name_a2s":"Uncletopia | Chicago | 5 | All Maps","protocol":17,"map":"koth_viaduct","folder":"tf","game":"Team Fortress","app_id":440,"player_count":0,"max_players":24,"Bots":0,"server_type":"Dedicated","server_os":"Linux","password":true,"vac":true,"version":"7961495","steam_id":85568392924866362,"keywords":["cp","nocrits","nodmgspread","uncletopia"],"game_id":440,"stv_port":27016,"stv_name":"Uncletopia | Chicago | 5 | All Maps | STV","players":null},{"server_id":37,"name":"Uncletopia | Chicago | 6 | All Maps","name_short":"chi-6","host":"chi-2.us.uncletopia.com","port":27025,"enabled":true,"region":"us-central","cc":"us","latitude":41.881832,"longitude":-87.62318,"reserved":0,"last_update":"0001-01-01T00:00:00Z","name_a2s":"Uncletopia | Chicago | 6 | All Maps","protocol":17,"map":"cp_altitude","folder":"tf","game":"Team Fortress","app_id":440,"player_count":0,"max_players":24,"Bots":0,"server_type":"Dedicated","server_os":"Linux","password":true,"vac":true,"version":"7961495","steam_id":85568392924866363,"keywords":["cp","nocrits","nodmgspread","uncletopia"],"game_id":440,"stv_port":27026,"stv_name":"Uncletopia | Chicago | 6 | All Maps | STV","players":null},{"server_id":38,"name":"Uncletopia | Chicago | 7 | Stopwatch","name_short":"chi-7","host":"chi-2.us.uncletopia.com","port":27035,"enabled":true,"region":"us-central","cc":"us","latitude":41.881832,"longitude":-87.62318,"reserved":0,"last_update":"0001-01-01T00:00:00Z","name_a2s":"Uncletopia | Chicago | 7 | Stopwatch","protocol":17,"map":"pl_badwater","folder":"tf","game":"Team Fortress","app_id":440,"player_count":0,"max_players":24,"Bots":0,"server_type":"Dedicated","server_os":"Linux","password":true,"vac":true,"version":"7961495","steam_id":85568392924866364,"keywords":["nocrits","nodmgspread","payload","uncletopia"],"game_id":440,"stv_port":27036,"stv_name":"Uncletopia | Chicago | 7 | Stopwatch | STV","players":null},{"server_id":39,"name":"Uncletopia | Chicago | 8 | Community","name_short":"chi-8","host":"chi-2.us.uncletopia.com","port":27045,"enabled":true,"region":"us-central","cc":"us","latitude":41.881832,"longitude":-87.62318,"reserved":0,"last_update":"0001-01-01T00:00:00Z","name_a2s":"Uncletopia | Chicago | 8 | Community","protocol":17,"map":"workshop/pl_highwood_b13.ugc1769496557","folder":"tf","game":"Team Fortress","app_id":440,"player_count":0,"max_players":24,"Bots":0,"server_type":"Dedicated","server_os":"Linux","password":true,"vac":true,"version":"7961495","steam_id":85568392924866365,"keywords":["nocrits","nodmgspread","payload","uncletopia"],"game_id":440,"stv_port":27046,"stv_name":"Uncletopia | Chicago | 8 | Community | STV","players":null},{"server_id":8,"name":"Uncletopia | Dallas | 1 | All Maps","name_short":"dal-1","host":"dal-1.us.uncletopia.com","port":27015,"enabled":true,"region":"us-central","cc":"us","latitude":32.779167,"longitude":-96.80889,"reserved":0,"last_update":"0001-01-01T00:00:00Z","name_a2s":"Uncletopia | Dallas | 1 | All Maps","protocol":17,"map":"pl_barnblitz","folder":"tf","game":"Team Fortress","app_id":440,"player_count":23,"max_players":24,"Bots":0,"server_type":"Dedicated","server_os":"Linux","password":true,"vac":true,"version":"7961495","steam_id":85568392924469986,"keywords":["nocrits","nodmgspread","payload","uncletopia"],"game_id":440,"stv_port":27016,"stv_name":"Uncletopia | Dallas | 1 | All Maps | STV","players":[{"user_id":278,"name":"REAL LAOZI","steam_id":76561198326944980,"connected_time":4399000000000,"state":"active","ping":82},{"user_id":353,"name":"Bleok -???-","steam_id":76561198078212322,"connected_time":189000000000,"state":"active","ping":125},{"user_id":291,"name":"Robzilla","steam_id":76561198035236155,"connected_time":3805000000000,"state":"active","ping":66},{"user_id":346,"name":"P.C. Baby","steam_id":76561198067011379,"connected_time":442000000000,"state":"active","ping":112},{"user_id":337,"name":"mkl","steam_id":76561197986401685,"connected_time":1564000000000,"state":"active","ping":59},{"user_id":276,"name":"TheDapperTaco","steam_id":76561199103076602,"connected_time":4421000000000,"state":"active","ping":124},{"user_id":334,"name":"Gigacheat","steam_id":76561198862843572,"connected_time":1758000000000,"state":"active","ping":73},{"user_id":340,"name":"FunnGames","steam_id":76561198159405782,"connected_time":947000000000,"state":"active","ping":90},{"user_id":348,"name":"Peter Muskrat (racist)","steam_id":76561198857749738,"connected_time":404000000000,"state":"active","ping":87},{"user_id":345,"name":"Kosmo","steam_id":76561198079015843,"connected_time":472000000000,"state":"active","ping":59},{"user_id":320,"name":"OddSlaush","steam_id":76561198043898488,"connected_time":2360000000000,"state":"active","ping":82},{"user_id":354,"name":"Chilis 2 for 20","steam_id":76561198121544531,"connected_time":154000000000,"state":"active","ping":74},{"user_id":332,"name":"SpamTheAlien","steam_id":76561199122290968,"connected_time":1827000000000,"state":"active","ping":117},{"user_id":330,"name":"El Güey","steam_id":76561197970450546,"connected_time":1863000000000,"state":"active","ping":109},{"user_id":349,"name":"Ⓑ⓪⓪ⓣⓨⓒⓐⓚⓔⓢ","steam_id":76561198088776421,"connected_time":366000000000,"state":"active","ping":86},{"user_id":336,"name":"sobaka","steam_id":76561198116008934,"connected_time":1642000000000,"state":"active","ping":99},{"user_id":303,"name":"Glaceon","steam_id":76561198177715869,"connected_time":3121000000000,"state":"active","ping":62},{"user_id":319,"name":"qt pa 2t","steam_id":76561198066867150,"connected_time":2392000000000,"state":"active","ping":86},{"user_id":342,"name":"leaving lunar orbit","steam_id":76561199085974120,"connected_time":836000000000,"state":"active","ping":91},{"user_id":313,"name":"MyTeamIsAzz","steam_id":76561198241921220,"connected_time":2612000000000,"state":"active","ping":97},{"user_id":324,"name":"Moonflower ✦","steam_id":76561198191782483,"connected_time":1995000000000,"state":"active","ping":79},{"user_id":335,"name":"Aclexu","steam_id":76561198927090219,"connected_time":1737000000000,"state":"active","ping":85},{"user_id":352,"name":"flu walrus","steam_id":76561198207940136,"connected_time":208000000000,"state":"active","ping":60}]},{"server_id":108,"name":"Uncletopia | Dallas | 2 | All Maps","name_short":"dal-2","host":"dal-1.us.uncletopia.com","port":27025,"enabled":true,"region":"us-central","cc":"us","latitude":32.779167,"longitude":-96.80889,"reserved":0,"last_update":"0001-01-01T00:00:00Z","name_a2s":"Uncletopia | Dallas | 2 | All Maps","protocol":17,"map":"pl_snowycoast","folder":"tf","game":"Team Fortress","app_id":440,"player_count":23,"max_players":24,"Bots":0,"server_type":"Dedicated","server_os":"Linux","password":true,"vac":true,"version":"7961495","steam_id":85568392924469988,"keywords":["nocrits","nodmgspread","payload","uncletopia"],"game_id":440,"stv_port":27026,"stv_name":"Uncletopia | Dallas | 2 | All Maps | STV","players":[{"user_id":326,"name":"Chub","steam_id":76561198380637611,"connected_time":1985000000000,"state":"active","ping":96},{"user_id":335,"name":"Broadsword #LGM","steam_id":76561198011160411,"connected_time":1638000000000,"state":"active","ping":86},{"user_id":337,"name":"Panda Loser","steam_id":76561198828745176,"connected_time":1173000000000,"state":"active","ping":92},{"user_id":323,"name":"Spaceman","steam_id":76561198098025074,"connected_time":2389000000000,"state":"active","ping":57},{"user_id":336,"name":"Orange Triangle","steam_id":76561198320498182,"connected_time":1636000000000,"state":"active","ping":82},{"user_id":343,"name":"cursed altar servant","steam_id":76561199206853525,"connected_time":758000000000,"state":"active","ping":72},{"user_id":352,"name":"Major Woody","steam_id":76561198835541533,"connected_time":274000000000,"state":"active","ping":77},{"user_id":354,"name":"papa john from pizza","steam_id":76561198035669814,"connected_time":247000000000,"state":"active","ping":66},{"user_id":312,"name":"emerge","steam_id":76561198186882891,"connected_time":3501000000000,"state":"active","ping":89},{"user_id":322,"name":"chubbs from happy gilmore","steam_id":76561198143538672,"connected_time":2799000000000,"state":"active","ping":79},{"user_id":347,"name":"Engideer","steam_id":76561198145733164,"connected_time":647000000000,"state":"active","ping":48},{"user_id":324,"name":"Levi","steam_id":76561198089832776,"connected_time":2271000000000,"state":"active","ping":58},{"user_id":351,"name":"JUCE","steam_id":76561198057835518,"connected_time":300000000000,"state":"active","ping":55},{"user_id":332,"name":"PocketTieAMPLFY","steam_id":76561199080485881,"connected_time":1707000000000,"state":"active","ping":120},{"user_id":360,"name":"barker bill","steam_id":76561198018451994,"connected_time":25000000000,"state":"active","ping":60},{"user_id":309,"name":"Lovedaddy","steam_id":76561198006569710,"connected_time":3733000000000,"state":"active","ping":102},{"user_id":353,"name":"The rat","steam_id":76561198050432341,"connected_time":270000000000,"state":"active","ping":150},{"user_id":317,"name":"jf_Killer","steam_id":76561198002258800,"connected_time":3163000000000,"state":"active","ping":150},{"user_id":359,"name":"PlanktonTheWayiCumBuckets","steam_id":76561198074678273,"connected_time":208000000000,"state":"active","ping":75},{"user_id":357,"name":"trying to get my bf pregnant","steam_id":76561198097175164,"connected_time":233000000000,"state":"active","ping":108},{"user_id":315,"name":"muck","steam_id":76561198120437909,"connected_time":3260000000000,"state":"active","ping":45},{"user_id":261,"name":"plink","steam_id":76561198057829889,"connected_time":7328000000000,"state":"active","ping":58},{"user_id":305,"name":"Dutch","steam_id":76561198040969743,"connected_time":3980000000000,"state":"active","ping":77}]},{"server_id":404,"name":"Uncletopia | Dallas | 3 | All Maps","name_short":"dal-3","host":"dal-1.us.uncletopia.com","port":27035,"enabled":true,"region":"us-central","cc":"us","latitude":32.779167,"longitude":-96.80889,"reserved":0,"last_update":"0001-01-01T00:00:00Z","name_a2s":"Uncletopia | Dallas | 3 | All Maps","protocol":17,"map":"pl_snowycoast","folder":"tf","game":"Team Fortress","app_id":440,"player_count":7,"max_players":24,"Bots":0,"server_type":"Dedicated","server_os":"Linux","password":true,"vac":true,"version":"7961495","steam_id":85568392924515219,"keywords":["nocrits","nodmgspread","payload","uncletopia"],"game_id":440,"stv_port":27036,"stv_name":"Uncletopia | Dallas | 3 | All Maps | STV","players":[{"user_id":61,"name":"God's Silliest BoyLover","steam_id":76561199200969139,"connected_time":620000000000,"state":"active","ping":107},{"user_id":67,"name":"Junk/","steam_id":76561199229331703,"connected_time":543000000000,"state":"active","ping":73},{"user_id":66,"name":"Kingland","steam_id":76561199062268425,"connected_time":553000000000,"state":"active","ping":70},{"user_id":70,"name":"Shalom","steam_id":76561198410005222,"connected_time":114000000000,"state":"active","ping":59},{"user_id":71,"name":"UNIT 220","steam_id":76561198042243497,"connected_time":91000000000,"state":"active","ping":78},{"user_id":72,"name":"Kumatora","steam_id":76561198137748378,"connected_time":91000000000,"state":"active","ping":76},{"user_id":73,"name":"Jean Deere","steam_id":76561198105101309,"connected_time":13000000000,"state":"spawning","ping":95}]},{"server_id":405,"name":"Uncletopia | Dallas | 4 | Community","name_short":"dal-4","host":"dal-1.us.uncletopia.com","port":27045,"enabled":true,"region":"us-central","cc":"us","latitude":32.779167,"longitude":-96.80889,"reserved":0,"last_update":"0001-01-01T00:00:00Z","name_a2s":"Uncletopia | Dallas | 4 | Community","protocol":17,"map":"workshop/cp_mannbase_rc2a.ugc1900737467","folder":"tf","game":"Team Fortress","app_id":440,"player_count":0,"max_players":24,"Bots":0,"server_type":"Dedicated","server_os":"Linux","password":true,"vac":true,"version":"7961495","steam_id":85568392924515220,"keywords":["cp","nocrits","nodmgspread","uncletopia"],"game_id":440,"stv_port":27046,"stv_name":"Uncletopia | Dallas | 4 | Community | STV","players":null},{"server_id":5,"name":"Uncletopia | Frankfurt | 1 | All Maps","name_short":"frk-1","host":"frk-1.de.uncletopia.com","port":27015,"enabled":true,"region":"eu","cc":"de","latitude":50.110924,"longitude":8.682127,"reserved":0,"last_update":"0001-01-01T00:00:00Z","name_a2s":"Uncletopia | Frankfurt | 1 | All Maps","protocol":17,"map":"koth_highpass","folder":"tf","game":"Team Fortress","app_id":440,"player_count":24,"max_players":24,"Bots":0,"server_type":"Dedicated","server_os":"Linux","password":true,"vac":true,"version":"7961495","steam_id":85568392924469989,"keywords":["cp","nocrits","nodmgspread","uncletopia"],"game_id":440,"stv_port":27016,"stv_name":"Uncletopia | Frankfurt | 1 | All Maps | STV","players":[{"user_id":788,"name":"monte","steam_id":76561199075506275,"connected_time":479000000000,"state":"active","ping":60},{"user_id":793,"name":"blow up like osama","steam_id":76561199195628354,"connected_time":280000000000,"state":"active","ping":75},{"user_id":765,"name":"Anh Yêu","steam_id":76561197991748701,"connected_time":2008000000000,"state":"active","ping":69},{"user_id":796,"name":"caramelldancin'","steam_id":76561198193357946,"connected_time":232000000000,"state":"active","ping":101},{"user_id":784,"name":"ΤΣΟΥΠΙΤΣ","steam_id":76561198153691047,"connected_time":659000000000,"state":"active","ping":63},{"user_id":785,"name":"Guyy","steam_id":76561198129532389,"connected_time":643000000000,"state":"active","ping":95},{"user_id":776,"name":"the_Bulgarian_Badger","steam_id":76561199067348424,"connected_time":1694000000000,"state":"active","ping":95},{"user_id":743,"name":"HADID_sex_god","steam_id":76561198302623594,"connected_time":3538000000000,"state":"active","ping":88},{"user_id":783,"name":"Ganasti","steam_id":76561198382925185,"connected_time":900000000000,"state":"active","ping":100},{"user_id":752,"name":"[ Louinskii ]","steam_id":76561198060509154,"connected_time":3198000000000,"state":"active","ping":71},{"user_id":786,"name":"Plavac","steam_id":76561198108120398,"connected_time":633000000000,"state":"active","ping":67},{"user_id":799,"name":"Tomfool","steam_id":76561197993256481,"connected_time":176000000000,"state":"active","ping":74},{"user_id":794,"name":"TheSpaceWizard","steam_id":76561198361055692,"connected_time":272000000000,"state":"active","ping":65},{"user_id":761,"name":"_Starlight_","steam_id":76561197993885738,"connected_time":2664000000000,"state":"active","ping":85},{"user_id":753,"name":"TunaaFsh","steam_id":76561198127194010,"connected_time":3186000000000,"state":"active","ping":75},{"user_id":756,"name":"Arty","steam_id":76561198160100181,"connected_time":3119000000000,"state":"active","ping":77},{"user_id":801,"name":"Aeinzalot","steam_id":76561198195288449,"connected_time":77000000000,"state":"active","ping":59},{"user_id":791,"name":"Mister_fLeXsS","steam_id":76561198075613556,"connected_time":429000000000,"state":"active","ping":94},{"user_id":792,"name":"Gangwolf","steam_id":76561198043868575,"connected_time":332000000000,"state":"active","ping":50},{"user_id":797,"name":"Donki Wonki","steam_id":76561198327761273,"connected_time":232000000000,"state":"active","ping":66},{"user_id":798,"name":"Joejee","steam_id":76561199122423976,"connected_time":219000000000,"state":"active","ping":79},{"user_id":759,"name":"Tá prátaí go maith","steam_id":76561198372536459,"connected_time":2789000000000,"state":"active","ping":62},{"user_id":800,"name":"Reptilian","steam_id":76561198261965131,"connected_time":162000000000,"state":"active","ping":95},{"user_id":755,"name":"Banatical Bean","steam_id":76561198122356617,"connected_time":3157000000000,"state":"active","ping":65}]},{"server_id":110,"name":"Uncletopia | Frankfurt | 2 | All Maps","name_short":"frk-2","host":"frk-1.de.uncletopia.com","port":27025,"enabled":true,"region":"eu","cc":"de","latitude":50.110924,"longitude":8.682127,"reserved":0,"last_update":"0001-01-01T00:00:00Z","name_a2s":"Uncletopia | Frankfurt | 2 | All Maps","protocol":17,"map":"pl_borneo","folder":"tf","game":"Team Fortress","app_id":440,"player_count":24,"max_players":24,"Bots":0,"server_type":"Dedicated","server_os":"Linux","password":true,"vac":true,"version":"7961495","steam_id":85568392924469990,"keywords":["nocrits","nodmgspread","payload","uncletopia"],"game_id":440,"stv_port":27026,"stv_name":"Uncletopia | Frankfurt | 2 | All Maps | STV","players":[{"user_id":621,"name":"Punker","steam_id":76561198255964089,"connected_time":3013000000000,"state":"active","ping":109},{"user_id":653,"name":"Din Javel","steam_id":76561198043018352,"connected_time":944000000000,"state":"active","ping":141},{"user_id":641,"name":"forsen smurf acc","steam_id":76561198102114347,"connected_time":1587000000000,"state":"active","ping":63},{"user_id":639,"name":"Lowbird","steam_id":76561198137424821,"connected_time":1607000000000,"state":"active","ping":48},{"user_id":657,"name":"mq","steam_id":76561198091888948,"connected_time":199000000000,"state":"active","ping":50},{"user_id":651,"name":"PIGs","steam_id":76561197998963483,"connected_time":1009000000000,"state":"active","ping":98},{"user_id":637,"name":"Gurgula","steam_id":76561198021253678,"connected_time":1832000000000,"state":"active","ping":60},{"user_id":596,"name":"Nonok","steam_id":76561199480685498,"connected_time":5344000000000,"state":"active","ping":72},{"user_id":654,"name":"JustMike","steam_id":76561198818282481,"connected_time":890000000000,"state":"active","ping":97},{"user_id":644,"name":"Grillem Dafoe","steam_id":76561198306874574,"connected_time":1531000000000,"state":"active","ping":84},{"user_id":613,"name":"degu","steam_id":76561198180823942,"connected_time":3594000000000,"state":"active","ping":71},{"user_id":634,"name":"Bobert","steam_id":76561198109008048,"connected_time":2486000000000,"state":"active","ping":76},{"user_id":636,"name":"Desnot","steam_id":76561198862581894,"connected_time":2357000000000,"state":"active","ping":71},{"user_id":647,"name":"Economic crisis","steam_id":76561198063562843,"connected_time":1429000000000,"state":"active","ping":63},{"user_id":656,"name":"spurdala","steam_id":76561198886546942,"connected_time":842000000000,"state":"active","ping":70},{"user_id":623,"name":"simon","steam_id":76561197960506122,"connected_time":2988000000000,"state":"active","ping":87},{"user_id":590,"name":"Prostate stealer","steam_id":76561198866972538,"connected_time":5510000000000,"state":"active","ping":79},{"user_id":632,"name":"madhead200","steam_id":76561198119498666,"connected_time":2579000000000,"state":"active","ping":81},{"user_id":650,"name":"SynthBox3","steam_id":76561199094075745,"connected_time":1365000000000,"state":"active","ping":93},{"user_id":605,"name":"Odinmuninn99","steam_id":76561198393712705,"connected_time":4421000000000,"state":"active","ping":102},{"user_id":648,"name":"beeper","steam_id":76561198130416479,"connected_time":1417000000000,"state":"active","ping":55},{"user_id":649,"name":"elwen","steam_id":76561198025282054,"connected_time":1392000000000,"state":"active","ping":70},{"user_id":624,"name":"essah","steam_id":76561197985717714,"connected_time":2916000000000,"state":"active","ping":84},{"user_id":655,"name":"Ch4bby","steam_id":76561198058792875,"connected_time":884000000000,"state":"active","ping":59}]},{"server_id":308,"name":"Uncletopia | Frankfurt | 3 | All Maps","name_short":"frk-3","host":"frk-1.de.uncletopia.com","port":27035,"enabled":true,"region":"eu","cc":"de","latitude":50.110924,"longitude":8.682127,"reserved":0,"last_update":"0001-01-01T00:00:00Z","name_a2s":"Uncletopia | Frankfurt | 3 | All Maps","protocol":17,"map":"cp_process_final","folder":"tf","game":"Team Fortress","app_id":440,"player_count":23,"max_players":24,"Bots":0,"server_type":"Dedicated","server_os":"Linux","password":true,"vac":true,"version":"7961495","steam_id":85568392924504274,"keywords":["cp","nocrits","nodmgspread","uncletopia"],"game_id":440,"stv_port":27036,"stv_name":"Uncletopia | Frankfurt | 3 | All Maps | STV","players":[{"user_id":289,"name":"Mr blue","steam_id":76561198281238533,"connected_time":242000000000,"state":"active","ping":72},{"user_id":262,"name":"Steen","steam_id":76561198122992510,"connected_time":1568000000000,"state":"active","ping":53},{"user_id":290,"name":"mespe","steam_id":76561198121530649,"connected_time":234000000000,"state":"active","ping":62},{"user_id":285,"name":"Maximilian1359","steam_id":76561198152439608,"connected_time":389000000000,"state":"active","ping":53},{"user_id":286,"name":"whatever...","steam_id":76561197980736364,"connected_time":323000000000,"state":"active","ping":76},{"user_id":287,"name":"Nabi","steam_id":76561198092259156,"connected_time":274000000000,"state":"active","ping":161},{"user_id":250,"name":"Sh1n","steam_id":76561199012155377,"connected_time":3612000000000,"state":"active","ping":44},{"user_id":291,"name":"etc","steam_id":76561197998394797,"connected_time":198000000000,"state":"active","ping":51},{"user_id":295,"name":"long cow","steam_id":76561198073645435,"connected_time":5000000000,"state":"spawning","ping":50},{"user_id":202,"name":"Vershal Smershal","steam_id":76561198116223995,"connected_time":8392000000000,"state":"active","ping":57},{"user_id":218,"name":"Mi Manchi","steam_id":76561198171573129,"connected_time":6654000000000,"state":"active","ping":59},{"user_id":246,"name":"Jon","steam_id":76561199380849468,"connected_time":4392000000000,"state":"active","ping":63},{"user_id":281,"name":"glorpis","steam_id":76561199225333422,"connected_time":543000000000,"state":"active","ping":66},{"user_id":294,"name":"Qdarks","steam_id":76561198013391340,"connected_time":76000000000,"state":"active","ping":142},{"user_id":268,"name":"Kahvi","steam_id":76561198723244199,"connected_time":1110000000000,"state":"active","ping":82},{"user_id":276,"name":"Costarona","steam_id":76561197989455970,"connected_time":940000000000,"state":"active","ping":80},{"user_id":270,"name":"Jappy","steam_id":76561198112444032,"connected_time":1081000000000,"state":"active","ping":54},{"user_id":198,"name":"Bajas","steam_id":76561198179339326,"connected_time":8713000000000,"state":"active","ping":76},{"user_id":283,"name":"dansal","steam_id":76561197997042510,"connected_time":528000000000,"state":"active","ping":175},{"user_id":277,"name":"get off my lawn","steam_id":76561198281175098,"connected_time":763000000000,"state":"active","ping":57},{"user_id":280,"name":"Borat","steam_id":76561198122226417,"connected_time":625000000000,"state":"active","ping":59},{"user_id":272,"name":"xavier","steam_id":76561198076494034,"connected_time":1065000000000,"state":"active","ping":56},{"user_id":284,"name":"Princess Fuzz","steam_id":76561198025783000,"connected_time":520000000000,"state":"active","ping":59}]},{"server_id":309,"name":"Uncletopia | Frankfurt | 4 | All Maps","name_short":"frk-4","host":"frk-1.de.uncletopia.com","port":27045,"enabled":true,"region":"eu","cc":"de","latitude":50.110924,"longitude":8.682127,"reserved":0,"last_update":"0001-01-01T00:00:00Z","name_a2s":"Uncletopia | Frankfurt | 4 | All Maps","protocol":17,"map":"pl_badwater","folder":"tf","game":"Team Fortress","app_id":440,"player_count":24,"max_players":24,"Bots":0,"server_type":"Dedicated","server_os":"Linux","password":true,"vac":true,"version":"7961495","steam_id":85568392924504275,"keywords":["nocrits","nodmgspread","payload","uncletopia"],"game_id":440,"stv_port":27046,"stv_name":"Uncletopia | Frankfurt | 4 | All Maps | STV","players":[{"user_id":270,"name":"Dougie","steam_id":76561198079567499,"connected_time":1051000000000,"state":"active","ping":73},{"user_id":279,"name":"Anti4life","steam_id":76561198836208242,"connected_time":77000000000,"state":"active","ping":65},{"user_id":252,"name":"Dreamy Snoozer","steam_id":76561198268184742,"connected_time":2200000000000,"state":"active","ping":64},{"user_id":266,"name":"szmen","steam_id":76561198072569764,"connected_time":1565000000000,"state":"active","ping":65},{"user_id":271,"name":"Aku+","steam_id":76561198813782795,"connected_time":933000000000,"state":"active","ping":83},{"user_id":280,"name":"Silver","steam_id":76561198175238807,"connected_time":57000000000,"state":"active","ping":62},{"user_id":263,"name":"Dapper","steam_id":76561198081694974,"connected_time":1629000000000,"state":"active","ping":59},{"user_id":159,"name":"s a i","steam_id":76561197970379754,"connected_time":7543000000000,"state":"active","ping":46},{"user_id":272,"name":"cansado","steam_id":76561198003898089,"connected_time":756000000000,"state":"active","ping":71},{"user_id":249,"name":"Femboy Gaming","steam_id":76561198174108515,"connected_time":2369000000000,"state":"active","ping":45},{"user_id":253,"name":"ran is running","steam_id":76561199443185667,"connected_time":2197000000000,"state":"active","ping":147},{"user_id":282,"name":"S4LV4G3","steam_id":76561198130314779,"connected_time":15000000000,"state":"active","ping":57},{"user_id":228,"name":"404 Hoffærn","steam_id":76561198114747803,"connected_time":3822000000000,"state":"active","ping":59},{"user_id":283,"name":"floraldi221","steam_id":76561199068750658,"connected_time":0,"state":"spawning","ping":27},{"user_id":227,"name":"MrWeis","steam_id":76561198115443579,"connected_time":3869000000000,"state":"active","ping":64},{"user_id":260,"name":"2BCD","steam_id":76561198178254946,"connected_time":1823000000000,"state":"active","ping":63},{"user_id":275,"name":"CheapMeds","steam_id":76561197990309210,"connected_time":578000000000,"state":"active","ping":93},{"user_id":220,"name":"Sheen (Khang)","steam_id":76561198371062974,"connected_time":5191000000000,"state":"active","ping":84},{"user_id":174,"name":"EKO","steam_id":76561198875472890,"connected_time":7085000000000,"state":"active","ping":65},{"user_id":248,"name":"Gibby","steam_id":76561198048213112,"connected_time":2377000000000,"state":"active","ping":51},{"user_id":264,"name":"Suspicious Viktor","steam_id":76561198136496249,"connected_time":1625000000000,"state":"active","ping":64},{"user_id":211,"name":"Velvet","steam_id":76561198180081394,"connected_time":5743000000000,"state":"active","ping":67},{"user_id":269,"name":"Yelowchy","steam_id":76561198199416121,"connected_time":1170000000000,"state":"active","ping":60},{"user_id":224,"name":"Mike Doe","steam_id":76561198331251922,"connected_time":4381000000000,"state":"active","ping":61}]},{"server_id":310,"name":"Uncletopia | Frankfurt | 5 | All Maps","name_short":"frk-5","host":"frk-1.de.uncletopia.com","port":27055,"enabled":true,"region":"eu","cc":"de","latitude":50.110924,"longitude":8.682127,"reserved":0,"last_update":"0001-01-01T00:00:00Z","name_a2s":"Uncletopia | Frankfurt | 5 | All Maps","protocol":17,"map":"pl_goldrush","folder":"tf","game":"Team Fortress","app_id":440,"player_count":6,"max_players":24,"Bots":0,"server_type":"Dedicated","server_os":"Linux","password":true,"vac":true,"version":"7961495","steam_id":85568392924504277,"keywords":["nocrits","nodmgspread","payload","uncletopia"],"game_id":440,"stv_port":27056,"stv_name":"Uncletopia | Frankfurt | 5 | All Maps | STV","players":[{"user_id":577,"name":"nekoooooo","steam_id":76561198974207724,"connected_time":191000000000,"state":"active","ping":104},{"user_id":541,"name":"Lackryx","steam_id":76561198313256505,"connected_time":2069000000000,"state":"active","ping":75},{"user_id":547,"name":"Ulyran","steam_id":76561198053773149,"connected_time":1632000000000,"state":"active","ping":132},{"user_id":570,"name":"Hussain_144","steam_id":76561198346029208,"connected_time":646000000000,"state":"active","ping":172},{"user_id":553,"name":"Siedet","steam_id":76561198366142130,"connected_time":1430000000000,"state":"active","ping":56},{"user_id":451,"name":"Archive","steam_id":76561198071255385,"connected_time":7672000000000,"state":"active","ping":85}]},{"server_id":311,"name":"Uncletopia | Frankfurt | 6 | All Maps","name_short":"frk-6","host":"frk-1.de.uncletopia.com","port":27065,"enabled":true,"region":"eu","cc":"de","latitude":50.110924,"longitude":8.682127,"reserved":0,"last_update":"0001-01-01T00:00:00Z","name_a2s":"Uncletopia | Frankfurt | 6 | All Maps","protocol":17,"map":"pl_pier","folder":"tf","game":"Team Fortress","app_id":440,"player_count":0,"max_players":24,"Bots":0,"server_type":"Dedicated","server_os":"Linux","password":true,"vac":true,"version":"7961495","steam_id":85568392924504278,"keywords":["nocrits","nodmgspread","payload","uncletopia"],"game_id":440,"stv_port":27066,"stv_name":"Uncletopia | Frankfurt | 6 | All Maps | STV","players":null},{"server_id":23,"name":"Uncletopia | Frankfurt | 7 | Stopwatch","name_short":"frk-7","host":"frk-1.de.uncletopia.com","port":27075,"enabled":true,"region":"eu","cc":"de","latitude":50.110924,"longitude":8.682127,"reserved":0,"last_update":"0001-01-01T00:00:00Z","name_a2s":"Uncletopia | Frankfurt | 7 | Stopwatch","protocol":17,"map":"workshop/koth_clearcut_b15.ugc2107050255","folder":"tf","game":"Team Fortress","app_id":440,"player_count":22,"max_players":24,"Bots":0,"server_type":"Dedicated","server_os":"Linux","password":true,"vac":true,"version":"7961495","steam_id":85568392924742827,"keywords":["cp","nocrits","nodmgspread","uncletopia"],"game_id":440,"stv_port":27076,"stv_name":"Uncletopia | Frankfurt | 7 | Stopwatch | STV","players":[{"user_id":345,"name":"Eujekas","steam_id":76561198010527145,"connected_time":1139000000000,"state":"active","ping":95},{"user_id":341,"name":"martin","steam_id":76561198107039012,"connected_time":1363000000000,"state":"active","ping":51},{"user_id":352,"name":"samadmhdi","steam_id":76561199473842592,"connected_time":546000000000,"state":"active","ping":167},{"user_id":354,"name":"Adam","steam_id":76561199386660975,"connected_time":486000000000,"state":"active","ping":95},{"user_id":296,"name":"[HOL] Solringen","steam_id":76561198003584681,"connected_time":4287000000000,"state":"active","ping":64},{"user_id":353,"name":"oreng","steam_id":76561198074389061,"connected_time":506000000000,"state":"active","ping":65},{"user_id":358,"name":"Umby","steam_id":76561198166584580,"connected_time":278000000000,"state":"active","ping":50},{"user_id":361,"name":"M4N","steam_id":76561199021460632,"connected_time":55000000000,"state":"spawning","ping":263},{"user_id":311,"name":"Revers","steam_id":76561198026409987,"connected_time":2848000000000,"state":"active","ping":71},{"user_id":351,"name":"pyro gaming","steam_id":76561198087970118,"connected_time":640000000000,"state":"active","ping":66},{"user_id":313,"name":"Arcan'O'Boulus","steam_id":76561198041985578,"connected_time":2675000000000,"state":"active","ping":59},{"user_id":324,"name":"gatl","steam_id":76561198116926545,"connected_time":2267000000000,"state":"active","ping":74},{"user_id":346,"name":"Snook","steam_id":76561198086981861,"connected_time":1051000000000,"state":"active","ping":72},{"user_id":355,"name":"Flavour K Smack","steam_id":76561198068264856,"connected_time":455000000000,"state":"active","ping":77},{"user_id":357,"name":"Egor Pomidor","steam_id":76561199175688390,"connected_time":373000000000,"state":"active","ping":75},{"user_id":326,"name":"DiamondArcade","steam_id":76561199367737652,"connected_time":2213000000000,"state":"active","ping":72},{"user_id":320,"name":"chrome heart","steam_id":76561198101978330,"connected_time":2501000000000,"state":"active","ping":61},{"user_id":327,"name":"Turek","steam_id":76561198280066503,"connected_time":2188000000000,"state":"active","ping":79},{"user_id":344,"name":"Ječmen","steam_id":76561198051617968,"connected_time":1214000000000,"state":"active","ping":69},{"user_id":331,"name":"BoBa_fett","steam_id":76561198185214165,"connected_time":1856000000000,"state":"active","ping":61},{"user_id":356,"name":"Bolton Freeman","steam_id":76561198096196978,"connected_time":414000000000,"state":"active","ping":60},{"user_id":350,"name":"God's Goofiest Goober","steam_id":76561198103175187,"connected_time":747000000000,"state":"active","ping":64}]},{"server_id":24,"name":"Uncletopia | Frankfurt | 8 | Community","name_short":"frk-8","host":"frk-1.de.uncletopia.com","port":27085,"enabled":true,"region":"eu","cc":"de","latitude":50.110924,"longitude":8.682127,"reserved":0,"last_update":"0001-01-01T00:00:00Z","name_a2s":"Uncletopia | Frankfurt | 8 | Community","protocol":17,"map":"workshop/cp_croissant_final.ugc458840209","folder":"tf","game":"Team Fortress","app_id":440,"player_count":0,"max_players":24,"Bots":0,"server_type":"Dedicated","server_os":"Linux","password":true,"vac":true,"version":"7961495","steam_id":85568392924742828,"keywords":["cp","nocrits","nodmgspread","uncletopia"],"game_id":440,"stv_port":27086,"stv_name":"Uncletopia | Frankfurt | 8 | Community | STV","players":null},{"server_id":202,"name":"Uncletopia | Hong Kong | 1 | All Maps","name_short":"hgk-1","host":"hgk-1.hk.uncletopia.com","port":27015,"enabled":true,"region":"asia","cc":"hk","latitude":22.302711,"longitude":114.177216,"reserved":0,"last_update":"0001-01-01T00:00:00Z","name_a2s":"Uncletopia | Hong Kong | 1 | All Maps","protocol":17,"map":"koth_cascade","folder":"tf","game":"Team Fortress","app_id":440,"player_count":0,"max_players":24,"Bots":0,"server_type":"Dedicated","server_os":"Linux","password":true,"vac":true,"version":"7961495","steam_id":85568392924494504,"keywords":["cp","nocrits","nodmgspread","uncletopia"],"game_id":440,"stv_port":27016,"stv_name":"Uncletopia | Hong Kong | 1 | All Maps | STV","players":null},{"server_id":1,"name":"Uncletopia | Los Angeles | 1 | All Maps","name_short":"lax-1","host":"lax-1.us.uncletopia.com","port":27015,"enabled":true,"region":"us-west","cc":"us","latitude":33.94279,"longitude":-118.41004,"reserved":0,"last_update":"0001-01-01T00:00:00Z","name_a2s":"Uncletopia | Los Angeles | 1 | All Maps","protocol":17,"map":"cp_snakewater_final1","folder":"tf","game":"Team Fortress","app_id":440,"player_count":0,"max_players":24,"Bots":0,"server_type":"Dedicated","server_os":"Linux","password":true,"vac":true,"version":"7961495","steam_id":85568392924469991,"keywords":["cp","nocrits","nodmgspread","uncletopia"],"game_id":440,"stv_port":27016,"stv_name":"Uncletopia | Los Angeles | 1 | All Maps | STV","players":null},{"server_id":112,"name":"Uncletopia | Los Angeles | 2 | All Maps","name_short":"lax-2","host":"lax-1.us.uncletopia.com","port":27025,"enabled":true,"region":"us-west","cc":"us","latitude":33.94279,"longitude":-118.41004,"reserved":0,"last_update":"0001-01-01T00:00:00Z","name_a2s":"Uncletopia | Los Angeles | 2 | All Maps","protocol":17,"map":"cp_process_final","folder":"tf","game":"Team Fortress","app_id":440,"player_count":0,"max_players":24,"Bots":0,"server_type":"Dedicated","server_os":"Linux","password":true,"vac":true,"version":"7961495","steam_id":85568392924469992,"keywords":["cp","nocrits","nodmgspread","uncletopia"],"game_id":440,"stv_port":27026,"stv_name":"Uncletopia | Los Angeles | 2 | All Maps | STV","players":null},{"server_id":324,"name":"Uncletopia | Los Angeles | 3 | All Maps","name_short":"lax-3","host":"lax-1.us.uncletopia.com","port":27035,"enabled":true,"region":"us-west","cc":"us","latitude":33.94279,"longitude":-118.41004,"reserved":0,"last_update":"0001-01-01T00:00:00Z","name_a2s":"Uncletopia | Los Angeles | 3 | All Maps","protocol":17,"map":"pl_pier","folder":"tf","game":"Team Fortress","app_id":440,"player_count":24,"max_players":24,"Bots":0,"server_type":"Dedicated","server_os":"Linux","password":true,"vac":true,"version":"7961495","steam_id":85568392924510198,"keywords":["nocrits","nodmgspread","payload","uncletopia"],"game_id":440,"stv_port":27036,"stv_name":"Uncletopia | Los Angeles | 3 | All Maps | STV","players":[{"user_id":5,"name":"usedhalfcart","steam_id":76561198072621852,"connected_time":4645000000000,"state":"active","ping":79},{"user_id":44,"name":"4 life","steam_id":76561198175961598,"connected_time":1442000000000,"state":"active","ping":56},{"user_id":7,"name":"aqua","steam_id":76561199407709552,"connected_time":4502000000000,"state":"active","ping":96},{"user_id":10,"name":"TBT","steam_id":76561198971318994,"connected_time":3736000000000,"state":"active","ping":131},{"user_id":11,"name":"Mack","steam_id":76561198089361823,"connected_time":3712000000000,"state":"active","ping":104},{"user_id":63,"name":"the jumpymonster","steam_id":76561198173296047,"connected_time":64000000000,"state":"active","ping":59},{"user_id":59,"name":"Boxcars","steam_id":76561198120978767,"connected_time":644000000000,"state":"active","ping":53},{"user_id":64,"name":"ive come for your pickle","steam_id":76561198986534519,"connected_time":39000000000,"state":"active","ping":60},{"user_id":53,"name":"Ygitor","steam_id":76561198328114476,"connected_time":828000000000,"state":"active","ping":58},{"user_id":25,"name":"Livin' Like Larry","steam_id":76561198313360974,"connected_time":2363000000000,"state":"active","ping":44},{"user_id":62,"name":"Gordon Ramsay.","steam_id":76561199167165627,"connected_time":97000000000,"state":"active","ping":87},{"user_id":47,"name":"riSygneD","steam_id":76561198331618687,"connected_time":1383000000000,"state":"active","ping":32},{"user_id":23,"name":"motherofdragons96","steam_id":76561198864779097,"connected_time":2478000000000,"state":"active","ping":70},{"user_id":58,"name":"Knuckled Sandwitched","steam_id":76561199055190467,"connected_time":678000000000,"state":"active","ping":120},{"user_id":56,"name":"Calamity | blw.tf","steam_id":76561198934012174,"connected_time":751000000000,"state":"active","ping":118},{"user_id":61,"name":"minerkid2004","steam_id":76561198044262827,"connected_time":345000000000,"state":"active","ping":60},{"user_id":35,"name":"Space360","steam_id":76561198106743284,"connected_time":1743000000000,"state":"active","ping":72},{"user_id":37,"name":"GIGAHAXX","steam_id":76561197993714726,"connected_time":1635000000000,"state":"active","ping":61},{"user_id":38,"name":"Training Arc","steam_id":76561198038832034,"connected_time":1612000000000,"state":"active","ping":78},{"user_id":39,"name":"Snowcen","steam_id":76561198346582597,"connected_time":1594000000000,"state":"active","ping":63},{"user_id":40,"name":"DocCZ","steam_id":76561198086384585,"connected_time":1588000000000,"state":"active","ping":92},{"user_id":41,"name":"Monte","steam_id":76561198173275715,"connected_time":1574000000000,"state":"active","ping":72},{"user_id":49,"name":"spacetoven","steam_id":76561198115821131,"connected_time":1331000000000,"state":"active","ping":47},{"user_id":52,"name":"small meth pouch","steam_id":76561198130412963,"connected_time":1130000000000,"state":"active","ping":84}]},{"server_id":25,"name":"Uncletopia | Los Angeles | 4 | Stopwatch","name_short":"lax-4","host":"lax-1.us.uncletopia.com","port":27045,"enabled":true,"region":"us-west","cc":"us","latitude":33.94279,"longitude":-118.41004,"reserved":0,"last_update":"0001-01-01T00:00:00Z","name_a2s":"Uncletopia | Los Angeles | 4 | Stopwatch","protocol":17,"map":"pl_barnblitz","folder":"tf","game":"Team Fortress","app_id":440,"player_count":0,"max_players":24,"Bots":0,"server_type":"Dedicated","server_os":"Linux","password":true,"vac":true,"version":"7961495","steam_id":85568392924510199,"keywords":["nocrits","nodmgspread","payload","uncletopia"],"game_id":440,"stv_port":27046,"stv_name":"Uncletopia | Los Angeles | 4 | Stopwatch | STV","players":null},{"server_id":11,"name":"Uncletopia | London | 1 | All Maps","name_short":"lon-1","host":"lon-1.uk.uncletopia.com","port":27015,"enabled":true,"region":"eu","cc":"gb","latitude":51.509865,"longitude":-0.118092,"reserved":0,"last_update":"0001-01-01T00:00:00Z","name_a2s":"Uncletopia | London | 1 | All Maps","protocol":17,"map":"cp_dustbowl","folder":"tf","game":"Team Fortress","app_id":440,"player_count":24,"max_players":24,"Bots":0,"server_type":"Dedicated","server_os":"Linux","password":true,"vac":true,"version":"7961495","steam_id":85568392924367362,"keywords":["cp","nocrits","nodmgspread","uncletopia"],"game_id":440,"stv_port":27016,"stv_name":"Uncletopia | London | 1 | All Maps | STV","players":[{"user_id":620,"name":"sora","steam_id":76561198096547662,"connected_time":1251000000000,"state":"active","ping":50},{"user_id":609,"name":"Flog","steam_id":76561197996440057,"connected_time":3085000000000,"state":"active","ping":59},{"user_id":535,"name":"Greg_M74","steam_id":76561198823492311,"connected_time":9248000000000,"state":"active","ping":122},{"user_id":613,"name":"Xyeed","steam_id":76561198055596799,"connected_time":2160000000000,"state":"active","ping":71},{"user_id":576,"name":"*Eurobeat Intensifies*","steam_id":76561199019412162,"connected_time":5299000000000,"state":"active","ping":50},{"user_id":630,"name":"DoomerDodie","steam_id":76561198177853490,"connected_time":640000000000,"state":"active","ping":69},{"user_id":636,"name":"Huskai","steam_id":76561198141512362,"connected_time":363000000000,"state":"active","ping":41},{"user_id":611,"name":"Slifer the SKY Acorn","steam_id":76561198062255803,"connected_time":2829000000000,"state":"active","ping":68},{"user_id":621,"name":"Illy","steam_id":76561198045537823,"connected_time":1164000000000,"state":"active","ping":55},{"user_id":626,"name":"Flashback","steam_id":76561197973978552,"connected_time":864000000000,"state":"active","ping":56},{"user_id":616,"name":"bird ideas","steam_id":76561199480942903,"connected_time":1833000000000,"state":"active","ping":75},{"user_id":619,"name":"FishNachoz","steam_id":76561198026519426,"connected_time":1452000000000,"state":"active","ping":53},{"user_id":628,"name":"Twiggu","steam_id":76561198070853128,"connected_time":657000000000,"state":"active","ping":76},{"user_id":632,"name":"69 ME 2NITE","steam_id":76561199124261801,"connected_time":504000000000,"state":"active","ping":107},{"user_id":612,"name":"AWildTamim","steam_id":76561198048060652,"connected_time":2375000000000,"state":"active","ping":42},{"user_id":602,"name":"Minimi","steam_id":76561198873850443,"connected_time":4743000000000,"state":"active","ping":47},{"user_id":573,"name":"Kphi(i)","steam_id":76561198970587061,"connected_time":5407000000000,"state":"active","ping":51},{"user_id":637,"name":"halow","steam_id":76561198061505163,"connected_time":88000000000,"state":"active","ping":110},{"user_id":629,"name":"tasteful Wario nudes","steam_id":76561198329640236,"connected_time":657000000000,"state":"active","ping":44},{"user_id":614,"name":"gnarly business","steam_id":76561198832688767,"connected_time":2057000000000,"state":"active","ping":47},{"user_id":596,"name":"Bradders","steam_id":76561198072225758,"connected_time":4850000000000,"state":"active","ping":44},{"user_id":635,"name":"wheel bread","steam_id":76561199062586342,"connected_time":397000000000,"state":"active","ping":67},{"user_id":599,"name":"Memph","steam_id":76561198093280341,"connected_time":4822000000000,"state":"active","ping":38},{"user_id":608,"name":"Aaron","steam_id":76561197990046953,"connected_time":3767000000000,"state":"active","ping":43}]},{"server_id":114,"name":"Uncletopia | London | 2 | All Maps","name_short":"lon-2","host":"lon-1.uk.uncletopia.com","port":27025,"enabled":true,"region":"eu","cc":"gb","latitude":51.509865,"longitude":-0.118092,"reserved":0,"last_update":"0001-01-01T00:00:00Z","name_a2s":"Uncletopia | London | 2 | All Maps","protocol":17,"map":"pl_borneo","folder":"tf","game":"Team Fortress","app_id":440,"player_count":22,"max_players":24,"Bots":0,"server_type":"Dedicated","server_os":"Linux","password":true,"vac":true,"version":"7961495","steam_id":85568392924470941,"keywords":["nocrits","nodmgspread","payload","uncletopia"],"game_id":440,"stv_port":27026,"stv_name":"Uncletopia | London | 2 | All Maps | STV","players":[{"user_id":596,"name":"Šumnik","steam_id":76561198014888042,"connected_time":77000000000,"state":"active","ping":61},{"user_id":583,"name":"Krucial","steam_id":76561198144464665,"connected_time":883000000000,"state":"active","ping":75},{"user_id":591,"name":"Hyppy ja liipasin pohjaan :D","steam_id":76561198080669698,"connected_time":256000000000,"state":"active","ping":121},{"user_id":538,"name":"Obama Sandwich","steam_id":76561199403752637,"connected_time":3746000000000,"state":"active","ping":38},{"user_id":470,"name":"Rez","steam_id":76561198410598772,"connected_time":7325000000000,"state":"active","ping":45},{"user_id":592,"name":"rice","steam_id":76561198119326733,"connected_time":198000000000,"state":"active","ping":150},{"user_id":590,"name":"LemonZest","steam_id":76561199196369249,"connected_time":610000000000,"state":"active","ping":126},{"user_id":578,"name":"Ash J. Williams","steam_id":76561198087717456,"connected_time":908000000000,"state":"active","ping":59},{"user_id":594,"name":"Dr Smeggman","steam_id":76561197966614845,"connected_time":117000000000,"state":"active","ping":37},{"user_id":571,"name":"jaime8D","steam_id":76561197980590671,"connected_time":2010000000000,"state":"active","ping":75},{"user_id":587,"name":"gang weed studios","steam_id":76561199025084891,"connected_time":862000000000,"state":"active","ping":54},{"user_id":595,"name":"DDGAF","steam_id":76561198257836694,"connected_time":103000000000,"state":"active","ping":32},{"user_id":597,"name":"Sabour","steam_id":76561197963965445,"connected_time":21000000000,"state":"spawning","ping":60},{"user_id":544,"name":"GeneralGiblits (Mustang)","steam_id":76561198081195387,"connected_time":3444000000000,"state":"active","ping":47},{"user_id":530,"name":"Jeryx","steam_id":76561197995602803,"connected_time":4154000000000,"state":"active","ping":89},{"user_id":589,"name":"Hleno","steam_id":76561198060442619,"connected_time":851000000000,"state":"active","ping":47},{"user_id":555,"name":"steck","steam_id":76561197973948113,"connected_time":2772000000000,"state":"active","ping":60},{"user_id":573,"name":"♂ Twink Hunter ♂","steam_id":76561198397024973,"connected_time":1160000000000,"state":"active","ping":41},{"user_id":557,"name":"Coke Zero","steam_id":76561198158562873,"connected_time":2764000000000,"state":"active","ping":67},{"user_id":572,"name":"Buamadoir","steam_id":76561198229417388,"connected_time":1654000000000,"state":"active","ping":85},{"user_id":580,"name":"sad monkey hands on his head","steam_id":76561198116530769,"connected_time":907000000000,"state":"active","ping":101},{"user_id":581,"name":"randompixel","steam_id":76561198003941207,"connected_time":907000000000,"state":"active","ping":62}]},{"server_id":320,"name":"Uncletopia | London | 3 | All Maps","name_short":"lon-3","host":"lon-1.uk.uncletopia.com","port":27035,"enabled":true,"region":"eu","cc":"gb","latitude":51.509865,"longitude":-0.118092,"reserved":0,"last_update":"0001-01-01T00:00:00Z","name_a2s":"Uncletopia | London | 3 | All Maps","protocol":17,"map":"koth_viaduct","folder":"tf","game":"Team Fortress","app_id":440,"player_count":0,"max_players":24,"Bots":0,"server_type":"Dedicated","server_os":"Linux","password":true,"vac":true,"version":"7961495","steam_id":85568392924510192,"keywords":["cp","nocrits","nodmgspread","uncletopia"],"game_id":440,"stv_port":27036,"stv_name":"Uncletopia | London | 3 | All Maps | STV","players":null},{"server_id":321,"name":"Uncletopia | London | 4 | All Maps","name_short":"lon-4","host":"lon-1.uk.uncletopia.com","port":27045,"enabled":true,"region":"eu","cc":"gb","latitude":51.509865,"longitude":-0.118092,"reserved":0,"last_update":"0001-01-01T00:00:00Z","name_a2s":"Uncletopia | London | 4 | All Maps","protocol":17,"map":"pl_badwater","folder":"tf","game":"Team Fortress","app_id":440,"player_count":2,"max_players":24,"Bots":0,"server_type":"Dedicated","server_os":"Linux","password":true,"vac":true,"version":"7961495","steam_id":85568392924510193,"keywords":["nocrits","nodmgspread","payload","uncletopia"],"game_id":440,"stv_port":27046,"stv_name":"Uncletopia | London | 4 | All Maps | STV","players":[{"user_id":750,"name":"xannapandax","steam_id":76561198404730113,"connected_time":148000000000,"state":"spawning","ping":60},{"user_id":751,"name":"lederm","steam_id":76561198281968417,"connected_time":125000000000,"state":"active","ping":75}]},{"server_id":21,"name":"Uncletopia | London | 5 | All Maps","name_short":"lon-5","host":"lon-1.uk.uncletopia.com","port":27055,"enabled":true,"region":"eu","cc":"gb","latitude":51.509865,"longitude":-0.118092,"reserved":0,"last_update":"0001-01-01T00:00:00Z","name_a2s":"Uncletopia | London | 5 | All Maps","protocol":17,"map":"koth_lakeside_final","folder":"tf","game":"Team Fortress","app_id":440,"player_count":16,"max_players":24,"Bots":0,"server_type":"Dedicated","server_os":"Linux","password":true,"vac":true,"version":"7961495","steam_id":85568392924742829,"keywords":["cp","nocrits","nodmgspread","uncletopia"],"game_id":440,"stv_port":27056,"stv_name":"Uncletopia | London | 5 | All Maps | STV","players":[{"user_id":176,"name":"Senator Palpaprotein","steam_id":76561198081980254,"connected_time":1061000000000,"state":"active","ping":38},{"user_id":177,"name":"dmEngineer_tf2 #SaveTF2","steam_id":76561199388956338,"connected_time":1027000000000,"state":"active","ping":84},{"user_id":173,"name":"Hoho","steam_id":76561198819835663,"connected_time":1209000000000,"state":"active","ping":54},{"user_id":164,"name":"gx71","steam_id":76561198035112358,"connected_time":2244000000000,"state":"active","ping":46},{"user_id":178,"name":"steve","steam_id":76561198139900407,"connected_time":1025000000000,"state":"active","ping":45},{"user_id":193,"name":"IndianBacca","steam_id":76561199130311873,"connected_time":187000000000,"state":"active","ping":129},{"user_id":180,"name":"the worst sniper","steam_id":76561198798516824,"connected_time":938000000000,"state":"active","ping":64},{"user_id":190,"name":"MikeUnslumber","steam_id":76561199076616802,"connected_time":524000000000,"state":"active","ping":141},{"user_id":195,"name":"gremlin_18","steam_id":76561198148653336,"connected_time":78000000000,"state":"active","ping":59},{"user_id":191,"name":"david.klemen","steam_id":76561198382246222,"connected_time":347000000000,"state":"active","ping":102},{"user_id":183,"name":"Vyllckart","steam_id":76561198119172997,"connected_time":765000000000,"state":"active","ping":75},{"user_id":194,"name":"LWebb","steam_id":76561199162936929,"connected_time":183000000000,"state":"active","ping":208},{"user_id":184,"name":"Spectra","steam_id":76561198086718879,"connected_time":749000000000,"state":"active","ping":65},{"user_id":196,"name":"Оральный урод","steam_id":76561198104746601,"connected_time":47000000000,"state":"active","ping":88},{"user_id":187,"name":"Remembrance","steam_id":76561199229247163,"connected_time":656000000000,"state":"active","ping":42},{"user_id":189,"name":"Portal2Player","steam_id":76561198062870114,"connected_time":589000000000,"state":"active","ping":130}]},{"server_id":22,"name":"Uncletopia | London | 6 | All Maps","name_short":"lon-6","host":"lon-1.uk.uncletopia.com","port":27065,"enabled":true,"region":"eu","cc":"gb","latitude":51.509865,"longitude":-0.118092,"reserved":0,"last_update":"0001-01-01T00:00:00Z","name_a2s":"Uncletopia | London | 6 | All Maps","protocol":17,"map":"pl_badwater","folder":"tf","game":"Team Fortress","app_id":440,"player_count":24,"max_players":24,"Bots":0,"server_type":"Dedicated","server_os":"Linux","password":true,"vac":true,"version":"7961495","steam_id":85568392924742830,"keywords":["nocrits","nodmgspread","payload","uncletopia"],"game_id":440,"stv_port":27066,"stv_name":"Uncletopia | London | 6 | All Maps | STV","players":[{"user_id":863,"name":"Fred","steam_id":76561199013600767,"connected_time":1225000000000,"state":"active","ping":57},{"user_id":832,"name":"Potshott","steam_id":76561198184014158,"connected_time":2723000000000,"state":"active","ping":49},{"user_id":821,"name":"CrowbarWarrior","steam_id":76561198044077015,"connected_time":3069000000000,"state":"active","ping":72},{"user_id":833,"name":"Batch Number 443714","steam_id":76561197977497969,"connected_time":2713000000000,"state":"active","ping":47},{"user_id":822,"name":"Sandman","steam_id":76561199018953105,"connected_time":3059000000000,"state":"active","ping":75},{"user_id":834,"name":"[BRYAN]","steam_id":76561198238097290,"connected_time":2696000000000,"state":"active","ping":72},{"user_id":864,"name":"El Wiwi","steam_id":76561198134378108,"connected_time":1179000000000,"state":"active","ping":85},{"user_id":879,"name":"AsuX","steam_id":76561197990333289,"connected_time":122000000000,"state":"active","ping":60},{"user_id":858,"name":"mr.resetti","steam_id":76561198974520642,"connected_time":1797000000000,"state":"active","ping":74},{"user_id":867,"name":"Gryoss","steam_id":76561197999837111,"connected_time":1080000000000,"state":"active","ping":113},{"user_id":880,"name":"Kanny","steam_id":76561198058810184,"connected_time":29000000000,"state":"active","ping":54},{"user_id":875,"name":"Mascotan","steam_id":76561198291799993,"connected_time":334000000000,"state":"active","ping":52},{"user_id":815,"name":"Psyducklover","steam_id":76561199092627265,"connected_time":3201000000000,"state":"active","ping":65},{"user_id":878,"name":"MS","steam_id":76561198037560108,"connected_time":207000000000,"state":"active","ping":42},{"user_id":856,"name":"armadillo","steam_id":76561198324656652,"connected_time":1930000000000,"state":"active","ping":52},{"user_id":845,"name":"TomNoSocks","steam_id":76561198114071046,"connected_time":2422000000000,"state":"active","ping":72},{"user_id":874,"name":"DJtrickshot2013","steam_id":76561199184622920,"connected_time":680000000000,"state":"active","ping":147},{"user_id":865,"name":"skilltissues","steam_id":76561198025828664,"connected_time":1104000000000,"state":"active","ping":55},{"user_id":877,"name":"Vince","steam_id":76561199103000131,"connected_time":235000000000,"state":"active","ping":34},{"user_id":816,"name":"Vanta_BlackLD","steam_id":76561198346271576,"connected_time":3198000000000,"state":"active","ping":68},{"user_id":787,"name":"Rodak","steam_id":76561199135986344,"connected_time":4717000000000,"state":"active","ping":75},{"user_id":868,"name":"Locke","steam_id":76561198339408300,"connected_time":1071000000000,"state":"active","ping":60},{"user_id":848,"name":"クソ野郎","steam_id":76561198248239796,"connected_time":2351000000000,"state":"active","ping":62},{"user_id":870,"name":"AHHHHHHHHHHHHHHHHHHHHHHHHHHHH","steam_id":76561199202637333,"connected_time":850000000000,"state":"active","ping":76}]},{"server_id":40,"name":"Uncletopia | London | 7 | Stopwatch","name_short":"lon-7","host":"lon-1.uk.uncletopia.com","port":27075,"enabled":true,"region":"eu","cc":"gb","latitude":51.509865,"longitude":-0.118092,"reserved":0,"last_update":"0001-01-01T00:00:00Z","name_a2s":"Uncletopia | London | 7 | Stopwatch","protocol":17,"map":"workshop/koth_bagel_rc6.ugc2514036946","folder":"tf","game":"Team Fortress","app_id":440,"player_count":0,"max_players":24,"Bots":0,"server_type":"Dedicated","server_os":"Linux","password":true,"vac":true,"version":"7961495","steam_id":85568392924964314,"keywords":["cp","nocrits","nodmgspread","uncletopia"],"game_id":440,"stv_port":27076,"stv_name":"Uncletopia | London | 7 | Stopwatch | STV","players":null},{"server_id":41,"name":"Uncletopia | London | 8 | Community","name_short":"lon-8","host":"lon-1.uk.uncletopia.com","port":27085,"enabled":true,"region":"eu","cc":"gb","latitude":51.509865,"longitude":-0.118092,"reserved":0,"last_update":"0001-01-01T00:00:00Z","name_a2s":"Uncletopia | London | 8 | Community","protocol":17,"map":"workshop/cp_alloy_rc3.ugc592805587","folder":"tf","game":"Team Fortress","app_id":440,"player_count":0,"max_players":24,"Bots":0,"server_type":"Dedicated","server_os":"Linux","password":true,"vac":true,"version":"7961495","steam_id":85568392924964315,"keywords":["cp","nocrits","nodmgspread","uncletopia"],"game_id":440,"stv_port":27086,"stv_name":"Uncletopia | London | 8 | Community | STV","players":null},{"server_id":300,"name":"Uncletopia | Montréal | 1 | All Maps","name_short":"mtl-1","host":"mtl-1.ca.uncletopia.com","port":27015,"enabled":true,"region":"us-east","cc":"ca","latitude":45.50889,"longitude":-73.56167,"reserved":0,"last_update":"0001-01-01T00:00:00Z","name_a2s":"","protocol":0,"map":"","folder":"","game":"","app_id":0,"player_count":2,"max_players":0,"Bots":0,"server_type":"","server_os":"","password":false,"vac":false,"version":"","steam_id":0,"keywords":null,"game_id":0,"stv_port":0,"stv_name":"","players":[{"user_id":10,"name":"ClanCat","steam_id":76561199033616639,"connected_time":406000000000,"state":"active","ping":68},{"user_id":11,"name":"Shrimpinator","steam_id":76561199016595261,"connected_time":395000000000,"state":"active","ping":65}]},{"server_id":301,"name":"Uncletopia | Montréal | 2 | All Maps","name_short":"mtl-2","host":"mtl-1.ca.uncletopia.com","port":27025,"enabled":true,"region":"us-east","cc":"ca","latitude":45.50889,"longitude":-73.56167,"reserved":0,"last_update":"0001-01-01T00:00:00Z","name_a2s":"","protocol":0,"map":"","folder":"","game":"","app_id":0,"player_count":0,"max_players":0,"Bots":0,"server_type":"","server_os":"","password":false,"vac":false,"version":"","steam_id":0,"keywords":null,"game_id":0,"stv_port":0,"stv_name":"","players":null},{"server_id":302,"name":"Uncletopia | Montréal | 3 | All Maps","name_short":"mtl-3","host":"mtl-1.ca.uncletopia.com","port":27035,"enabled":true,"region":"us-east","cc":"ca","latitude":45.50889,"longitude":-73.56167,"reserved":0,"last_update":"0001-01-01T00:00:00Z","name_a2s":"","protocol":0,"map":"","folder":"","game":"","app_id":0,"player_count":0,"max_players":0,"Bots":0,"server_type":"","server_os":"","password":false,"vac":false,"version":"","steam_id":0,"keywords":null,"game_id":0,"stv_port":0,"stv_name":"","players":null},{"server_id":303,"name":"Uncletopia | Montréal | 4 | No Payload","name_short":"mtl-4","host":"mtl-1.ca.uncletopia.com","port":27045,"enabled":true,"region":"us-east","cc":"ca","latitude":45.50889,"longitude":-73.56167,"reserved":0,"last_update":"0001-01-01T00:00:00Z","name_a2s":"","protocol":0,"map":"","folder":"","game":"","app_id":0,"player_count":0,"max_players":0,"Bots":0,"server_type":"","server_os":"","password":false,"vac":false,"version":"","steam_id":0,"keywords":null,"game_id":0,"stv_port":0,"stv_name":"","players":null},{"server_id":13,"name":"Uncletopia | New York City | 1 | All Maps","name_short":"nyc-1","host":"nyc-1.us.uncletopia.com","port":27015,"enabled":true,"region":"us-east","cc":"us","latitude":40.73061,"longitude":-73.93524,"reserved":0,"last_update":"0001-01-01T00:00:00Z","name_a2s":"Uncletopia | New York City | 1 | All Maps","protocol":17,"map":"pl_frontier_final","folder":"tf","game":"Team Fortress","app_id":440,"player_count":24,"max_players":24,"Bots":0,"server_type":"Dedicated","server_os":"Linux","password":true,"vac":true,"version":"7961495","steam_id":85568392924469993,"keywords":["nocrits","nodmgspread","payload","uncletopia"],"game_id":440,"stv_port":27016,"stv_name":"Uncletopia | New York City | 1 | All Maps | STV","players":[{"user_id":159,"name":"MADAM FISH","steam_id":76561198368265311,"connected_time":449000000000,"state":"active","ping":41},{"user_id":150,"name":"TTV/kkoduh","steam_id":76561198142884645,"connected_time":1285000000000,"state":"active","ping":67},{"user_id":155,"name":"Rocco__","steam_id":76561197992824074,"connected_time":684000000000,"state":"active","ping":60},{"user_id":152,"name":"Starkitten","steam_id":76561198123838363,"connected_time":1100000000000,"state":"active","ping":44},{"user_id":134,"name":"Domswish","steam_id":76561198331444240,"connected_time":2340000000000,"state":"active","ping":49},{"user_id":148,"name":"aversa","steam_id":76561198840460101,"connected_time":1323000000000,"state":"active","ping":48},{"user_id":161,"name":"Johnny Dang","steam_id":76561198333897550,"connected_time":399000000000,"state":"active","ping":143},{"user_id":157,"name":"Hertz","steam_id":76561198245322982,"connected_time":602000000000,"state":"active","ping":60},{"user_id":149,"name":"20 miles for a Quaalude","steam_id":76561198042579477,"connected_time":1320000000000,"state":"active","ping":51},{"user_id":163,"name":"mans big iron","steam_id":76561198011819389,"connected_time":318000000000,"state":"active","ping":130},{"user_id":120,"name":"breathingtrees","steam_id":76561198118931690,"connected_time":3632000000000,"state":"active","ping":51},{"user_id":129,"name":"K\u0026S Beverages","steam_id":76561198058378081,"connected_time":2635000000000,"state":"active","ping":58},{"user_id":143,"name":"Woolly","steam_id":76561198304211574,"connected_time":1584000000000,"state":"active","ping":63},{"user_id":162,"name":"fatcat","steam_id":76561197993786013,"connected_time":333000000000,"state":"active","ping":54},{"user_id":131,"name":"Big Time Bobby","steam_id":76561198935266162,"connected_time":2609000000000,"state":"active","ping":76},{"user_id":153,"name":"Charlie Brown Rule 34","steam_id":76561199496429311,"connected_time":958000000000,"state":"active","ping":34},{"user_id":167,"name":"Room_237","steam_id":76561199135081315,"connected_time":65000000000,"state":"active","ping":70},{"user_id":136,"name":"ElChuchoXf","steam_id":76561199235124146,"connected_time":2278000000000,"state":"active","ping":143},{"user_id":151,"name":"Sqiddwr","steam_id":76561197998071622,"connected_time":1215000000000,"state":"active","ping":83},{"user_id":122,"name":"Bottom feeder","steam_id":76561198181298169,"connected_time":3382000000000,"state":"active","ping":75},{"user_id":165,"name":"Deck Gaming","steam_id":76561198159579919,"connected_time":275000000000,"state":"active","ping":39},{"user_id":158,"name":"speedy mozzarella","steam_id":76561198327703300,"connected_time":590000000000,"state":"active","ping":52},{"user_id":166,"name":"Sire Salty","steam_id":76561198079639072,"connected_time":228000000000,"state":"active","ping":52},{"user_id":147,"name":"jamzine","steam_id":76561198186168293,"connected_time":1346000000000,"state":"active","ping":59}]},{"server_id":14,"name":"Uncletopia | New York City | 2 | All Maps","name_short":"nyc-2","host":"nyc-1.us.uncletopia.com","port":27025,"enabled":true,"region":"us-east","cc":"us","latitude":40.73061,"longitude":-73.93524,"reserved":0,"last_update":"0001-01-01T00:00:00Z","name_a2s":"Uncletopia | New York City | 2 | All Maps","protocol":17,"map":"koth_highpass","folder":"tf","game":"Team Fortress","app_id":440,"player_count":0,"max_players":24,"Bots":0,"server_type":"Dedicated","server_os":"Linux","password":true,"vac":true,"version":"7961495","steam_id":85568392924469994,"keywords":["cp","nocrits","nodmgspread","uncletopia"],"game_id":440,"stv_port":27026,"stv_name":"Uncletopia | New York City | 2 | All Maps | STV","players":null},{"server_id":15,"name":"Uncletopia | New York City | 3 | Stopwatch","name_short":"nyc-3","host":"nyc-1.us.uncletopia.com","port":27035,"enabled":true,"region":"us-east","cc":"us","latitude":40.73061,"longitude":-73.93524,"reserved":0,"last_update":"0001-01-01T00:00:00Z","name_a2s":"Uncletopia | New York City | 3 | Stopwatch","protocol":17,"map":"pl_snowycoast","folder":"tf","game":"Team Fortress","app_id":440,"player_count":0,"max_players":24,"Bots":0,"server_type":"Dedicated","server_os":"Linux","password":true,"vac":true,"version":"7961495","steam_id":85568392924742820,"keywords":["nocrits","nodmgspread","payload","uncletopia"],"game_id":440,"stv_port":27036,"stv_name":"Uncletopia | New York City | 3 | Stopwatch | STV","players":null},{"server_id":16,"name":"Uncletopia | New York City | 4 | Community","name_short":"nyc-4","host":"nyc-1.us.uncletopia.com","port":27045,"enabled":true,"region":"us-east","cc":"us","latitude":40.73061,"longitude":-73.93524,"reserved":0,"last_update":"0001-01-01T00:00:00Z","name_a2s":"Uncletopia | New York City | 4 | Community","protocol":17,"map":"workshop/cp_glacier_rc6.ugc2905735376","folder":"tf","game":"Team Fortress","app_id":440,"player_count":0,"max_players":24,"Bots":0,"server_type":"Dedicated","server_os":"Linux","password":true,"vac":true,"version":"7961495","steam_id":85568392924742821,"keywords":["cp","nocrits","nodmgspread","uncletopia"],"game_id":440,"stv_port":27046,"stv_name":"Uncletopia | New York City | 4 | Community | STV","players":null},{"server_id":142,"name":"Uncletopia | São Paulo | 1 | All Maps","name_short":"sao-1","host":"sao-1.br.uncletopia.com","port":27015,"enabled":true,"region":"sa","cc":"br","latitude":-23.533773,"longitude":-46.62529,"reserved":0,"last_update":"0001-01-01T00:00:00Z","name_a2s":"Uncletopia | São Paulo | 1 | All Maps","protocol":17,"map":"koth_cascade","folder":"tf","game":"Team Fortress","app_id":440,"player_count":2,"max_players":24,"Bots":0,"server_type":"Dedicated","server_os":"Linux","password":true,"vac":true,"version":"7961495","steam_id":85568392924469996,"keywords":["cp","nocrits","nodmgspread","uncletopia"],"game_id":440,"stv_port":27016,"stv_name":"Uncletopia | São Paulo | 1 | All Maps | STV","players":[{"user_id":6,"name":"guarda-chuva","steam_id":76561198078694330,"connected_time":271000000000,"state":"active","ping":55},{"user_id":7,"name":"Tert_14","steam_id":76561198185952289,"connected_time":92000000000,"state":"active","ping":70}]},{"server_id":143,"name":"Uncletopia | São Paulo | 2 | Community","name_short":"sao-2","host":"sao-2.br.uncletopia.com","port":27015,"enabled":true,"region":"sa","cc":"br","latitude":-23.533773,"longitude":-46.62529,"reserved":0,"last_update":"0001-01-01T00:00:00Z","name_a2s":"Uncletopia | São Paulo | 2 | Community","protocol":17,"map":"workshop/cp_reckoner_rc6.ugc674719999","folder":"tf","game":"Team Fortress","app_id":440,"player_count":0,"max_players":24,"Bots":0,"server_type":"Dedicated","server_os":"Linux","password":true,"vac":true,"version":"7961495","steam_id":85568392924485349,"keywords":["cp","nocrits","nodmgspread","uncletopia"],"game_id":440,"stv_port":27016,"stv_name":"Uncletopia | São Paulo | 2 | Community | STV","players":null},{"server_id":7,"name":"Uncletopia | Seattle | 1 | All Maps","name_short":"sea-1","host":"sea-1.us.uncletopia.com","port":27015,"enabled":true,"region":"us-west","cc":"us","latitude":47.608013,"longitude":-122.33517,"reserved":0,"last_update":"0001-01-01T00:00:00Z","name_a2s":"Uncletopia | Seattle | 1 | All Maps","protocol":17,"map":"pl_borneo","folder":"tf","game":"Team Fortress","app_id":440,"player_count":24,"max_players":24,"Bots":0,"server_type":"Dedicated","server_os":"Linux","password":true,"vac":true,"version":"7961495","steam_id":85568392924469997,"keywords":["nocrits","nodmgspread","payload","uncletopia"],"game_id":440,"stv_port":27016,"stv_name":"Uncletopia | Seattle | 1 | All Maps | STV","players":[{"user_id":160,"name":"Sunami","steam_id":76561198026941076,"connected_time":4392000000000,"state":"active","ping":90},{"user_id":188,"name":"Yack Skag","steam_id":76561198068251493,"connected_time":1698000000000,"state":"active","ping":69},{"user_id":176,"name":"Living_Zombie","steam_id":76561198204503240,"connected_time":2578000000000,"state":"active","ping":84},{"user_id":159,"name":"Big Juicy","steam_id":76561198018062350,"connected_time":4403000000000,"state":"active","ping":62},{"user_id":177,"name":"Grunt","steam_id":76561198200758903,"connected_time":2531000000000,"state":"active","ping":74},{"user_id":187,"name":"Vincent Van Bro","steam_id":76561197966919802,"connected_time":1727000000000,"state":"active","ping":58},{"user_id":175,"name":"death snail","steam_id":76561198093053238,"connected_time":2632000000000,"state":"active","ping":54},{"user_id":207,"name":"burger bill","steam_id":76561198116829392,"connected_time":367000000000,"state":"active","ping":60},{"user_id":169,"name":"cat woman yuri","steam_id":76561198004916219,"connected_time":3467000000000,"state":"active","ping":88},{"user_id":205,"name":"Strikerbolt","steam_id":76561199095622897,"connected_time":393000000000,"state":"active","ping":76},{"user_id":136,"name":"rat gets the cheese","steam_id":76561198031234032,"connected_time":6498000000000,"state":"active","ping":97},{"user_id":212,"name":"Lactose ๑ﭥ","steam_id":76561198208256987,"connected_time":119000000000,"state":"active","ping":61},{"user_id":153,"name":"Daz","steam_id":76561198041431938,"connected_time":5440000000000,"state":"active","ping":51},{"user_id":211,"name":"[PREMIUM BART]","steam_id":76561198173255559,"connected_time":147000000000,"state":"active","ping":82},{"user_id":189,"name":"That one gamer boy","steam_id":76561199166485004,"connected_time":1664000000000,"state":"active","ping":79},{"user_id":196,"name":"Greskrendtregk","steam_id":76561197969553142,"connected_time":1232000000000,"state":"active","ping":51},{"user_id":193,"name":"dougrocks421","steam_id":76561198165063918,"connected_time":1307000000000,"state":"active","ping":40},{"user_id":158,"name":"SnoDot","steam_id":76561198062209970,"connected_time":4405000000000,"state":"active","ping":42},{"user_id":171,"name":"DaBigA","steam_id":76561198326492538,"connected_time":3402000000000,"state":"active","ping":57},{"user_id":206,"name":"McSpazatron","steam_id":76561198955942148,"connected_time":392000000000,"state":"active","ping":61},{"user_id":181,"name":"Chevlanae","steam_id":76561198038180603,"connected_time":2336000000000,"state":"active","ping":101},{"user_id":198,"name":"Mirai Asamii","steam_id":76561198272673386,"connected_time":1100000000000,"state":"active","ping":133},{"user_id":192,"name":"Sploonbabagoosecooties","steam_id":76561198139972201,"connected_time":1359000000000,"state":"active","ping":64},{"user_id":209,"name":"moe","steam_id":76561198929586245,"connected_time":271000000000,"state":"active","ping":88}]},{"server_id":119,"name":"Uncletopia | Seattle | 2 | All Maps","name_short":"sea-2","host":"sea-1.us.uncletopia.com","port":27025,"enabled":true,"region":"us-west","cc":"us","latitude":47.608013,"longitude":-122.33517,"reserved":0,"last_update":"0001-01-01T00:00:00Z","name_a2s":"Uncletopia | Seattle | 2 | All Maps","protocol":17,"map":"cp_mountainlab","folder":"tf","game":"Team Fortress","app_id":440,"player_count":24,"max_players":24,"Bots":0,"server_type":"Dedicated","server_os":"Linux","password":true,"vac":true,"version":"7961495","steam_id":85568392924469998,"keywords":["cp","nocrits","nodmgspread","uncletopia"],"game_id":440,"stv_port":27026,"stv_name":"Uncletopia | Seattle | 2 | All Maps | STV","players":[{"user_id":288,"name":"Hans Olo","steam_id":76561198126767705,"connected_time":289000000000,"state":"active","ping":86},{"user_id":293,"name":"LLama","steam_id":76561198323298672,"connected_time":30000000000,"state":"active","ping":48},{"user_id":289,"name":"PPFitzenreit","steam_id":76561199381005210,"connected_time":222000000000,"state":"active","ping":76},{"user_id":268,"name":"Mario Trapped in a Piano","steam_id":76561198116765135,"connected_time":1259000000000,"state":"active","ping":46},{"user_id":286,"name":"What","steam_id":76561199075434906,"connected_time":366000000000,"state":"active","ping":144},{"user_id":254,"name":"Mr8bittripper","steam_id":76561198133894229,"connected_time":1589000000000,"state":"active","ping":47},{"user_id":269,"name":"Anon","steam_id":76561198109740776,"connected_time":1202000000000,"state":"active","ping":87},{"user_id":262,"name":"sk","steam_id":76561198133360797,"connected_time":1447000000000,"state":"active","ping":75},{"user_id":291,"name":"Akmacdondon","steam_id":76561198188384569,"connected_time":62000000000,"state":"active","ping":69},{"user_id":249,"name":"dddumb510","steam_id":76561198030793492,"connected_time":2055000000000,"state":"active","ping":84},{"user_id":264,"name":"Dan","steam_id":76561198058056249,"connected_time":1411000000000,"state":"active","ping":92},{"user_id":292,"name":"Mr. Fart","steam_id":76561198097290717,"connected_time":41000000000,"state":"spawning","ping":61},{"user_id":270,"name":"TheTalentlessChicken","steam_id":76561198148390834,"connected_time":1202000000000,"state":"active","ping":84},{"user_id":272,"name":"Yoyo-Wo","steam_id":76561198880520205,"connected_time":1083000000000,"state":"active","ping":95},{"user_id":277,"name":"The Skull Kid","steam_id":76561199015430193,"connected_time":977000000000,"state":"active","ping":181},{"user_id":290,"name":"Glanderson booper","steam_id":76561198021223747,"connected_time":82000000000,"state":"active","ping":55},{"user_id":252,"name":"Rodrick Knee","steam_id":76561198283021062,"connected_time":1950000000000,"state":"active","ping":130},{"user_id":247,"name":"DistantJragon","steam_id":76561198117563641,"connected_time":2935000000000,"state":"active","ping":94},{"user_id":294,"name":"uwu","steam_id":76561199058284787,"connected_time":4000000000,"state":"spawning","ping":97},{"user_id":283,"name":"rave killer","steam_id":76561199001918194,"connected_time":598000000000,"state":"active","ping":81},{"user_id":230,"name":"yolginmo","steam_id":76561198157985901,"connected_time":4500000000000,"state":"active","ping":56},{"user_id":282,"name":"Mr. DeLarge","steam_id":76561198336820066,"connected_time":640000000000,"state":"active","ping":56},{"user_id":229,"name":"Soy King","steam_id":76561198263025614,"connected_time":4544000000000,"state":"active","ping":117},{"user_id":279,"name":"SnazzyCelestial","steam_id":76561198328763813,"connected_time":940000000000,"state":"active","ping":126}]},{"server_id":406,"name":"Uncletopia | Seattle | 3 | Stopwatch","name_short":"sea-3","host":"sea-1.us.uncletopia.com","port":27035,"enabled":true,"region":"us-west","cc":"us","latitude":47.608013,"longitude":-122.33517,"reserved":0,"last_update":"0001-01-01T00:00:00Z","name_a2s":"Uncletopia | Seattle | 3 | Stopwatch","protocol":17,"map":"koth_highpass","folder":"tf","game":"Team Fortress","app_id":440,"player_count":0,"max_players":24,"Bots":0,"server_type":"Dedicated","server_os":"Linux","password":true,"vac":true,"version":"7961495","steam_id":85568392924515217,"keywords":["cp","nocrits","nodmgspread","uncletopia"],"game_id":440,"stv_port":27036,"stv_name":"Uncletopia | Seattle | 3 | Stopwatch | STV","players":null},{"server_id":17,"name":"Uncletopia | San Francisco | 1 | All Maps","name_short":"sfo-1","host":"sfo-1.us.uncletopia.com","port":27015,"enabled":true,"region":"us-west","cc":"us","latitude":37.77397,"longitude":-122.4313,"reserved":0,"last_update":"0001-01-01T00:00:00Z","name_a2s":"Uncletopia | San Francisco | 1 | All Maps","protocol":17,"map":"koth_cascade","folder":"tf","game":"Team Fortress","app_id":440,"player_count":0,"max_players":24,"Bots":0,"server_type":"Dedicated","server_os":"Linux","password":true,"vac":true,"version":"7961495","steam_id":85568392924469999,"keywords":["cp","nocrits","nodmgspread","uncletopia"],"game_id":440,"stv_port":27016,"stv_name":"Uncletopia | San Francisco | 1 | All Maps | STV","players":null},{"server_id":18,"name":"Uncletopia | San Francisco | 2 | All Maps","name_short":"sfo-2","host":"sfo-1.us.uncletopia.com","port":27025,"enabled":true,"region":"us-west","cc":"us","latitude":37.77397,"longitude":-122.4313,"reserved":0,"last_update":"0001-01-01T00:00:00Z","name_a2s":"Uncletopia | San Francisco | 2 | All Maps","protocol":17,"map":"pl_pier","folder":"tf","game":"Team Fortress","app_id":440,"player_count":2,"max_players":24,"Bots":0,"server_type":"Dedicated","server_os":"Linux","password":true,"vac":true,"version":"7961495","steam_id":85568392924470000,"keywords":["nocrits","nodmgspread","payload","uncletopia"],"game_id":440,"stv_port":27026,"stv_name":"Uncletopia | San Francisco | 2 | All Maps | STV","players":[{"user_id":6,"name":"10DollaBanana","steam_id":76561198359963901,"connected_time":568000000000,"state":"active","ping":55},{"user_id":9,"name":"n00dle","steam_id":76561198120798040,"connected_time":83000000000,"state":"active","ping":87}]},{"server_id":19,"name":"Uncletopia | San Francisco | 3 | Stopwatch","name_short":"sfo-3","host":"sfo-1.us.uncletopia.com","port":27035,"enabled":true,"region":"us-west","cc":"us","latitude":37.77397,"longitude":-122.4313,"reserved":0,"last_update":"0001-01-01T00:00:00Z","name_a2s":"Uncletopia | San Francisco | 3 | Stopwatch","protocol":17,"map":"pl_pier","folder":"tf","game":"Team Fortress","app_id":440,"player_count":0,"max_players":24,"Bots":0,"server_type":"Dedicated","server_os":"Linux","password":true,"vac":true,"version":"7961495","steam_id":85568392924742824,"keywords":["nocrits","nodmgspread","payload","uncletopia"],"game_id":440,"stv_port":27036,"stv_name":"Uncletopia | San Francisco | 3 | Stopwatch | STV","players":null},{"server_id":20,"name":"Uncletopia | San Francisco | 4 | Community","name_short":"sfo-4","host":"sfo-1.us.uncletopia.com","port":27045,"enabled":true,"region":"us-west","cc":"us","latitude":37.77397,"longitude":-122.4313,"reserved":0,"last_update":"0001-01-01T00:00:00Z","name_a2s":"Uncletopia | San Francisco | 4 | Community","protocol":17,"map":"workshop/pl_divulgence_b4b.ugc2884808746","folder":"tf","game":"Team Fortress","app_id":440,"player_count":0,"max_players":24,"Bots":0,"server_type":"Dedicated","server_os":"Linux","password":true,"vac":true,"version":"7961495","steam_id":85568392924742826,"keywords":["nocrits","nodmgspread","payload","uncletopia"],"game_id":440,"stv_port":27046,"stv_name":"Uncletopia | San Francisco | 4 | Community | STV","players":null},{"server_id":141,"name":"Uncletopia | Sydney | 1 | All Maps","name_short":"syd-1","host":"syd-1.au.uncletopia.com","port":27015,"enabled":true,"region":"au","cc":"au","latitude":-33.865143,"longitude":151.2099,"reserved":0,"last_update":"0001-01-01T00:00:00Z","name_a2s":"Uncletopia | Sydney | 1 | All Maps","protocol":17,"map":"koth_viaduct","folder":"tf","game":"Team Fortress","app_id":440,"player_count":0,"max_players":24,"Bots":0,"server_type":"Dedicated","server_os":"Linux","password":true,"vac":true,"version":"7961495","steam_id":85568392924470001,"keywords":["cp","nocrits","nodmgspread","uncletopia"],"game_id":440,"stv_port":27016,"stv_name":"Uncletopia | Sydney | 1 | All Maps | STV","players":null},{"server_id":123,"name":"Uncletopia | Sydney | 2 | All Maps","name_short":"syd-2","host":"syd-1.au.uncletopia.com","port":27025,"enabled":true,"region":"au","cc":"au","latitude":-33.865143,"longitude":151.2099,"reserved":0,"last_update":"0001-01-01T00:00:00Z","name_a2s":"Uncletopia | Sydney | 2 | All Maps","protocol":17,"map":"koth_lakeside_final","folder":"tf","game":"Team Fortress","app_id":440,"player_count":0,"max_players":24,"Bots":0,"server_type":"Dedicated","server_os":"Linux","password":true,"vac":true,"version":"7961495","steam_id":85568392924470002,"keywords":["cp","nocrits","nodmgspread","uncletopia"],"game_id":440,"stv_port":27026,"stv_name":"Uncletopia | Sydney | 2 | All Maps | STV","players":null},{"server_id":395,"name":"Uncletopia | Sydney | 3 | All Maps","name_short":"syd-3","host":"syd-1.au.uncletopia.com","port":27035,"enabled":true,"region":"au","cc":"au","latitude":-33.865143,"longitude":151.2099,"reserved":0,"last_update":"0001-01-01T00:00:00Z","name_a2s":"Uncletopia | Sydney | 3 | All Maps","protocol":17,"map":"pl_frontier_final","folder":"tf","game":"Team Fortress","app_id":440,"player_count":0,"max_players":24,"Bots":0,"server_type":"Dedicated","server_os":"Linux","password":true,"vac":true,"version":"7961495","steam_id":85568392925194467,"keywords":["nocrits","nodmgspread","payload","uncletopia"],"game_id":440,"stv_port":27036,"stv_name":"Uncletopia | Sydney | 3 | All Maps | STV","players":null},{"server_id":396,"name":"Uncletopia | Sydney | 4 | All Maps","name_short":"syd-4","host":"syd-1.au.uncletopia.com","port":27045,"enabled":true,"region":"au","cc":"au","latitude":-33.865143,"longitude":151.2099,"reserved":0,"last_update":"0001-01-01T00:00:00Z","name_a2s":"Uncletopia | Sydney | 4 | All Maps","protocol":17,"map":"cp_process_final","folder":"tf","game":"Team Fortress","app_id":440,"player_count":0,"max_players":24,"Bots":0,"server_type":"Dedicated","server_os":"Linux","password":true,"vac":true,"version":"7961495","steam_id":85568392925397958,"keywords":["cp","nocrits","nodmgspread","uncletopia"],"game_id":440,"stv_port":27046,"stv_name":"Uncletopia | Sydney | 4 | All Maps | STV","players":null},{"server_id":58,"name":"Uncletopia | Sydney | 5 | Stopwatch","name_short":"syd-5","host":"syd-1.au.uncletopia.com","port":27055,"enabled":true,"region":"au","cc":"au","latitude":-33.865143,"longitude":151.2099,"reserved":0,"last_update":"0001-01-01T00:00:00Z","name_a2s":"Uncletopia | Sydney | 5 | Stopwatch","protocol":17,"map":"workshop/koth_clearcut_b15.ugc2107050255","folder":"tf","game":"Team Fortress","app_id":440,"player_count":0,"max_players":24,"Bots":0,"server_type":"Dedicated","server_os":"Linux","password":true,"vac":true,"version":"7961495","steam_id":85568392925397959,"keywords":["cp","nocrits","nodmgspread","uncletopia"],"game_id":440,"stv_port":27056,"stv_name":"Uncletopia | Sydney | 5 | Stopwatch | STV","players":null},{"server_id":59,"name":"Uncletopia | Sydney | 6 | Community","name_short":"syd-6","host":"syd-1.au.uncletopia.com","port":27065,"enabled":true,"region":"au","cc":"au","latitude":-33.865143,"longitude":151.2099,"reserved":0,"last_update":"0001-01-01T00:00:00Z","name_a2s":"Uncletopia | Sydney | 6 | Community","protocol":17,"map":"cp_sunshine","folder":"tf","game":"Team Fortress","app_id":440,"player_count":0,"max_players":24,"Bots":0,"server_type":"Dedicated","server_os":"Linux","password":true,"vac":true,"version":"7961495","steam_id":85568392925397960,"keywords":["cp","nocrits","nodmgspread","uncletopia"],"game_id":440,"stv_port":27066,"stv_name":"Uncletopia | Sydney | 6 | Community | STV","players":null},{"server_id":49,"name":"Uncletopia | Warsaw | 1 | All Maps","name_short":"waw-1","host":"waw-1.pl.uncletopia.com","port":27015,"enabled":true,"region":"eu","cc":"pl","latitude":52.2297,"longitude":21.017532,"reserved":0,"last_update":"0001-01-01T00:00:00Z","name_a2s":"Uncletopia | Warsaw | 1 | All Maps","protocol":17,"map":"pl_badwater","folder":"tf","game":"Team Fortress","app_id":440,"player_count":0,"max_players":24,"Bots":0,"server_type":"Dedicated","server_os":"Linux","password":true,"vac":true,"version":"7961495","steam_id":85568392925397850,"keywords":["nocrits","nodmgspread","payload","uncletopia"],"game_id":440,"stv_port":27016,"stv_name":"Uncletopia | Warsaw | 1 | All Maps | STV","players":null},{"server_id":50,"name":"Uncletopia | Warsaw | 2 | All Maps","name_short":"waw-2","host":"waw-1.pl.uncletopia.com","port":27025,"enabled":true,"region":"eu","cc":"pl","latitude":52.2297,"longitude":21.017532,"reserved":0,"last_update":"0001-01-01T00:00:00Z","name_a2s":"Uncletopia | Warsaw | 2 | All Maps","protocol":17,"map":"cp_process_final","folder":"tf","game":"Team Fortress","app_id":440,"player_count":0,"max_players":24,"Bots":0,"server_type":"Dedicated","server_os":"Linux","password":true,"vac":true,"version":"7961495","steam_id":85568392925397851,"keywords":["cp","nocrits","nodmgspread","uncletopia"],"game_id":440,"stv_port":27026,"stv_name":"Uncletopia | Warsaw | 2 | All Maps | STV","players":null},{"server_id":51,"name":"Uncletopia | Warsaw | 3 | All Maps","name_short":"waw-3","host":"waw-1.pl.uncletopia.com","port":27035,"enabled":true,"region":"eu","cc":"pl","latitude":52.2297,"longitude":21.017532,"reserved":0,"last_update":"0001-01-01T00:00:00Z","name_a2s":"Uncletopia | Warsaw | 3 | All Maps","protocol":17,"map":"koth_cascade","folder":"tf","game":"Team Fortress","app_id":440,"player_count":0,"max_players":24,"Bots":0,"server_type":"Dedicated","server_os":"Linux","password":true,"vac":true,"version":"7961495","steam_id":85568392925397852,"keywords":["cp","nocrits","nodmgspread","uncletopia"],"game_id":440,"stv_port":27036,"stv_name":"Uncletopia | Warsaw | 3 | All Maps | STV","players":null},{"server_id":52,"name":"Uncletopia | Warsaw | 4 | All Maps","name_short":"waw-4","host":"waw-1.pl.uncletopia.com","port":27045,"enabled":true,"region":"eu","cc":"pl","latitude":52.2297,"longitude":21.017532,"reserved":0,"last_update":"0001-01-01T00:00:00Z","name_a2s":"Uncletopia | Warsaw | 4 | All Maps","protocol":17,"map":"cp_altitude","folder":"tf","game":"Team Fortress","app_id":440,"player_count":0,"max_players":24,"Bots":0,"server_type":"Dedicated","server_os":"Linux","password":true,"vac":true,"version":"7961495","steam_id":85568392925397853,"keywords":["cp","nocrits","nodmgspread","uncletopia"],"game_id":440,"stv_port":27046,"stv_name":"Uncletopia | Warsaw | 4 | All Maps | STV","players":null},{"server_id":53,"name":"Uncletopia | Warsaw | 5 | Stopwatch","name_short":"waw-5","host":"waw-1.pl.uncletopia.com","port":27055,"enabled":true,"region":"eu","cc":"pl","latitude":52.2297,"longitude":21.017532,"reserved":0,"last_update":"0001-01-01T00:00:00Z","name_a2s":"Uncletopia | Warsaw | 5 | Stopwatch","protocol":17,"map":"pl_barnblitz","folder":"tf","game":"Team Fortress","app_id":440,"player_count":0,"max_players":24,"Bots":0,"server_type":"Dedicated","server_os":"Linux","password":true,"vac":true,"version":"7961495","steam_id":85568392925397854,"keywords":["nocrits","nodmgspread","payload","uncletopia"],"game_id":440,"stv_port":27056,"stv_name":"Uncletopia | Warsaw | 5 | Stopwatch | STV","players":null},{"server_id":54,"name":"Uncletopia | Warsaw | 6 | Community","name_short":"waw-6","host":"waw-1.pl.uncletopia.com","port":27065,"enabled":true,"region":"eu","cc":"pl","latitude":52.2297,"longitude":21.017532,"reserved":0,"last_update":"0001-01-01T00:00:00Z","name_a2s":"Uncletopia | Warsaw | 6 | Community","protocol":17,"map":"workshop/pl_badwater_pro_v12.ugc2142942074","folder":"tf","game":"Team Fortress","app_id":440,"player_count":0,"max_players":24,"Bots":0,"server_type":"Dedicated","server_os":"Linux","password":true,"vac":true,"version":"7961495","steam_id":85568392925397856,"keywords":["nocrits","nodmgspread","payload","uncletopia"],"game_id":440,"stv_port":27066,"stv_name":"Uncletopia | Warsaw | 6 | Community | STV","players":null}]}