{"status":true,"message":"","result":[{"server_id":9,"name":"Uncletopia | Atlanta | 1 | All Maps","name_short":"atl-1","host":"atl-1.us.uncletopia.com","port":27015,"enabled":true,"region":"us-east","cc":"us","latitude":33.753746,"longitude":-84.38633,"reserved":0,"last_update":"0001-01-01T00:00:00Z","name_a2s":"Uncletopia | Atlanta | 1 | All Maps","protocol":17,"map":"pl_badwater","folder":"tf","game":"Team Fortress","app_id":440,"player_count":24,"max_players":24,"Bots":0,"server_type":"Dedicated","server_os":"Linux","password":true,"vac":true,"version":"7757534","steam_id":85568392924469982,"keywords":["nocrits","nodmgspread","payload","uncletopia"],"game_id":440,"stv_port":27016,"stv_name":"Uncletopia | Atlanta | 1 | All Maps | STV","players":[{"user_id":208,"name":"vid_","steam_id":76561198065159053,"connected_time":81000000000,"state":"active","ping":40},{"user_id":209,"name":"EduGhost","steam_id":76561198294986893,"connected_time":76000000000,"state":"connecting","ping":116},{"user_id":197,"name":"Normalux","steam_id":76561198293891426,"connected_time":1180000000000,"state":"active","ping":92},{"user_id":210,"name":"pdse","steam_id":76561198072897202,"connected_time":69000000000,"state":"active","ping":87},{"user_id":207,"name":"iluvtoust","steam_id":76561198869269207,"connected_time":438000000000,"state":"active","ping":61},{"user_id":192,"name":"chowder908","steam_id":76561198075858535,"connected_time":1416000000000,"state":"active","ping":58},{"user_id":178,"name":"jackhillard83","steam_id":76561199057098390,"connected_time":1970000000000,"state":"active","ping":86},{"user_id":198,"name":"cero","steam_id":76561198113096772,"connected_time":1149000000000,"state":"active","ping":118},{"user_id":188,"name":"PleasenoIfriend","steam_id":76561199441787165,"connected_time":1464000000000,"state":"active","ping":92},{"user_id":202,"name":"D K","steam_id":76561199040749437,"connected_time":668000000000,"state":"active","ping":123},{"user_id":174,"name":"Soul Garg Plushy","steam_id":76561198044480181,"connected_time":2463000000000,"state":"active","ping":70},{"user_id":204,"name":"StaigerDuck","steam_id":76561199190706582,"connected_time":647000000000,"state":"active","ping":82},{"user_id":181,"name":"Mem","steam_id":76561198170391715,"connected_time":1934000000000,"state":"active","ping":96},{"user_id":189,"name":"bocchi the rock","steam_id":76561198249206656,"connected_time":1461000000000,"state":"active","ping":78},{"user_id":203,"name":"shadow6","steam_id":76561197979807910,"connected_time":659000000000,"state":"active","ping":101},{"user_id":195,"name":"‚òº gamble","steam_id":76561198074180953,"connected_time":1221000000000,"state":"active","ping":73},{"user_id":152,"name":"Scorch","steam_id":76561198167024005,"connected_time":3733000000000,"state":"active","ping":69},{"user_id":190,"name":"Rheibe","steam_id":76561198027228795,"connected_time":1457000000000,"state":"active","ping":101},{"user_id":205,"name":"Wang of Wall St","steam_id":76561198047460598,"connected_time":644000000000,"state":"active","ping":70},{"user_id":206,"name":"Spy_Is_Pye","steam_id":76561199439622967,"connected_time":521000000000,"state":"active","ping":70},{"user_id":185,"name":"PageBoiSkull","steam_id":76561198237353578,"connected_time":1777000000000,"state":"active","ping":115},{"user_id":194,"name":"Thotimus Begonimus","steam_id":76561197970275938,"connected_time":1324000000000,"state":"active","ping":40},{"user_id":196,"name":"Magik","steam_id":76561198200169706,"connected_time":1218000000000,"state":"active","ping":178},{"user_id":151,"name":"Picked Wiss","steam_id":76561198057745131,"connected_time":3810000000000,"state":"active","ping":30}]},{"server_id":400,"name":"Uncletopia | Atlanta | 3 | Community","name_short":"atl-3","host":"atl-1.us.uncletopia.com","port":27035,"enabled":true,"region":"us-east","cc":"us","latitude":33.753746,"longitude":-84.38633,"reserved":0,"last_update":"0001-01-01T00:00:00Z","name_a2s":"Uncletopia | Atlanta | 3 | Community","protocol":17,"map":"workshop/koth_ashville_final.ugc2130459942","folder":"tf","game":"Team Fortress","app_id":440,"player_count":0,"max_players":24,"Bots":0,"server_type":"Dedicated","server_os":"Linux","password":true,"vac":true,"version":"7757534","steam_id":85568392924515187,"keywords":["cp","nocrits","nodmgspread","uncletopia"],"game_id":440,"stv_port":27036,"stv_name":"Uncletopia | Atlanta | 3 | Community | STV","players":null},{"server_id":401,"name":"Uncletopia | Atlanta | 4 | No Payload","name_short":"atl-4","host":"atl-1.us.uncletopia.com","port":27045,"enabled":true,"region":"us-east","cc":"us","latitude":33.753746,"longitude":-84.38633,"reserved":0,"last_update":"0001-01-01T00:00:00Z","name_a2s":"","protocol":0,"map":"","folder":"","game":"","app_id":0,"player_count":0,"max_players":0,"Bots":0,"server_type":"","server_os":"","password":false,"vac":false,"version":"","steam_id":0,"keywords":null,"game_id":0,"stv_port":0,"stv_name":"","players":null},{"server_id":2,"name":"Uncletopia | Chicago | 1 | All Maps","name_short":"chi-1","host":"chi-1.us.uncletopia.com","port":27015,"enabled":true,"region":"us-central","cc":"us","latitude":41.881832,"longitude":-87.62318,"reserved":0,"last_update":"0001-01-01T00:00:00Z","name_a2s":"Uncletopia | Chicago | 1 | All Maps","protocol":17,"map":"cp_sunshine","folder":"tf","game":"Team Fortress","app_id":440,"player_count":24,"max_players":24,"Bots":0,"server_type":"Dedicated","server_os":"Linux","password":true,"vac":true,"version":"7757534","steam_id":85568392924469984,"keywords":["cp","nocrits","nodmgspread","uncletopia"],"game_id":440,"stv_port":27016,"stv_name":"Uncletopia | Chicago | 1 | All Maps | STV","players":[{"user_id":3,"name":"daemon","steam_id":76561198001541433,"connected_time":20401000000000,"state":"active","ping":60},{"user_id":284,"name":"Coupon","steam_id":76561198111947598,"connected_time":479000000000,"state":"active","ping":74},{"user_id":194,"name":"Chimpish","steam_id":76561199263493270,"connected_time":8521000000000,"state":"active","ping":90},{"user_id":294,"name":"Robin","steam_id":76561198121165149,"connected_time":13000000000,"state":"spawning","ping":45},{"user_id":275,"name":"Qball","steam_id":76561198179016466,"connected_time":1750000000000,"state":"active","ping":43},{"user_id":290,"name":"Bongo","steam_id":76561198393756793,"connected_time":216000000000,"state":"active","ping":71},{"user_id":289,"name":"Professional Zoo Tycoon Player","steam_id":76561198013026044,"connected_time":275000000000,"state":"active","ping":85},{"user_id":272,"name":"Swedish Crowbar","steam_id":76561199105488936,"connected_time":1955000000000,"state":"active","ping":145},{"user_id":278,"name":"primordialheath","steam_id":76561199386942638,"connected_time":1736000000000,"state":"active","ping":62},{"user_id":286,"name":"Toottoot","steam_id":76561197992404836,"connected_time":437000000000,"state":"active","ping":44},{"user_id":14,"name":"Dot.","steam_id":76561198149463984,"connected_time":20374000000000,"state":"active","ping":47},{"user_id":219,"name":"blue","steam_id":76561199010765510,"connected_time":6626000000000,"state":"active","ping":61},{"user_id":293,"name":"Vibe‚Ñ¢","steam_id":76561198156083411,"connected_time":24000000000,"state":"spawning","ping":92},{"user_id":271,"name":"richard clock","steam_id":76561198048455671,"connected_time":2087000000000,"state":"active","ping":60},{"user_id":266,"name":"--_Cook_--","steam_id":76561198080855748,"connected_time":2604000000000,"state":"active","ping":47},{"user_id":273,"name":"Macko","steam_id":76561198452005461,"connected_time":1851000000000,"state":"active","ping":81},{"user_id":240,"name":"captainspatklz","steam_id":76561198432167270,"connected_time":3514000000000,"state":"active","ping":75},{"user_id":197,"name":"b4rry","steam_id":76561198365887154,"connected_time":8514000000000,"state":"active","ping":72},{"user_id":292,"name":"kametro4","steam_id":76561198835430429,"connected_time":48000000000,"state":"active","ping":85},{"user_id":276,"name":"Walkiing","steam_id":76561198074473413,"connected_time":1750000000000,"state":"active","ping":45},{"user_id":274,"name":"Lightatex","steam_id":76561199068097196,"connected_time":1762000000000,"state":"active","ping":54},{"user_id":281,"name":"Parker","steam_id":76561198046044893,"connected_time":1702000000000,"state":"active","ping":55},{"user_id":283,"name":"Dimension","steam_id":76561198132803810,"connected_time":597000000000,"state":"active","ping":60},{"user_id":260,"name":"Rornir","steam_id":76561198081829615,"connected_time":2691000000000,"state":"active","ping":36}]},{"server_id":106,"name":"Uncletopia | Chicago | 2 | All Maps","name_short":"chi-2","host":"chi-1.us.uncletopia.com","port":27025,"enabled":true,"region":"us-central","cc":"us","latitude":41.881832,"longitude":-87.62318,"reserved":0,"last_update":"0001-01-01T00:00:00Z","name_a2s":"Uncletopia | Chicago | 2 | All Maps","protocol":17,"map":"koth_viaduct","folder":"tf","game":"Team Fortress","app_id":440,"player_count":11,"max_players":24,"Bots":0,"server_type":"Dedicated","server_os":"Linux","password":true,"vac":true,"version":"7757534","steam_id":85568392924469985,"keywords":["cp","nocrits","nodmgspread","uncletopia"],"game_id":440,"stv_port":27026,"stv_name":"Uncletopia | Chicago | 2 | All Maps | STV","players":[{"user_id":19,"name":"AwesomeMissB","steam_id":76561199066244584,"connected_time":263000000000,"state":"active","ping":64},{"user_id":20,"name":"clownBSBR","steam_id":76561199230246701,"connected_time":259000000000,"state":"active","ping":88},{"user_id":21,"name":"coo1guy4","steam_id":76561199455252105,"connected_time":226000000000,"state":"active","ping":62},{"user_id":22,"name":"his flatulence","steam_id":76561198799404824,"connected_time":223000000000,"state":"active","ping":64},{"user_id":25,"name":"Loark","steam_id":76561198069381385,"connected_time":184000000000,"state":"active","ping":157},{"user_id":27,"name":"h0ly gh0s7","steam_id":76561198082984763,"connected_time":120000000000,"state":"active","ping":64},{"user_id":33,"name":"The Jim Super Saiyan IV","steam_id":76561199046650666,"connected_time":4000000000,"state":"spawning","ping":58},{"user_id":29,"name":"Den Fyren","steam_id":76561198153611019,"connected_time":104000000000,"state":"active","ping":169},{"user_id":30,"name":"AusmirZianot","steam_id":76561198017535522,"connected_time":56000000000,"state":"active","ping":69},{"user_id":31,"name":"Booz Lityar","steam_id":76561199056842761,"connected_time":51000000000,"state":"active","ping":104},{"user_id":32,"name":"gato","steam_id":76561198097588802,"connected_time":46000000000,"state":"active","ping":47}]},{"server_id":402,"name":"Uncletopia | Chicago | 3 | All Maps","name_short":"chi-3","host":"chi-1.us.uncletopia.com","port":27035,"enabled":true,"region":"us-central","cc":"us","latitude":41.881832,"longitude":-87.62318,"reserved":0,"last_update":"0001-01-01T00:00:00Z","name_a2s":"Uncletopia | Chicago | 3 | All Maps","protocol":17,"map":"koth_lakeside_final","folder":"tf","game":"Team Fortress","app_id":440,"player_count":0,"max_players":24,"Bots":0,"server_type":"Dedicated","server_os":"Linux","password":true,"vac":true,"version":"7757534","steam_id":85568392924515191,"keywords":["cp","nocrits","nodmgspread","uncletopia"],"game_id":440,"stv_port":27036,"stv_name":"Uncletopia | Chicago | 3 | All Maps | STV","players":null},{"server_id":403,"name":"Uncletopia | Chicago | 4 | All Maps","name_short":"chi-4","host":"chi-1.us.uncletopia.com","port":27045,"enabled":true,"region":"us-central","cc":"us","latitude":41.881832,"longitude":-87.62318,"reserved":0,"last_update":"0001-01-01T00:00:00Z","name_a2s":"Uncletopia | Chicago | 4 | All Maps","protocol":17,"map":"pl_borneo","folder":"tf","game":"Team Fortress","app_id":440,"player_count":24,"max_players":24,"Bots":0,"server_type":"Dedicated","server_os":"Linux","password":true,"vac":true,"version":"7757534","steam_id":85568392924515193,"keywords":["nocrits","nodmgspread","payload","uncletopia"],"game_id":440,"stv_port":27046,"stv_name":"Uncletopia | Chicago | 4 | All Maps | STV","players":[{"user_id":140,"name":"Furry Saul Goodman","steam_id":76561198069580305,"connected_time":1890000000000,"state":"active","ping":53},{"user_id":136,"name":"pooty mcgoods","steam_id":76561198043736707,"connected_time":2160000000000,"state":"active","ping":96},{"user_id":157,"name":"e | ham mafia |","steam_id":76561198273711158,"connected_time":601000000000,"state":"active","ping":71},{"user_id":154,"name":"bojack from the show bojack hor","steam_id":76561198053006712,"connected_time":991000000000,"state":"active","ping":60},{"user_id":97,"name":"det","steam_id":76561198170859755,"connected_time":5815000000000,"state":"active","ping":47},{"user_id":121,"name":"girlboss","steam_id":76561197989019617,"connected_time":3816000000000,"state":"active","ping":46},{"user_id":134,"name":"Literally a Trans Woman","steam_id":76561198054639925,"connected_time":2733000000000,"state":"active","ping":66},{"user_id":159,"name":"Scalie with Soup","steam_id":76561198126745958,"connected_time":446000000000,"state":"active","ping":80},{"user_id":147,"name":"Sorrow.R","steam_id":76561198309957185,"connected_time":1587000000000,"state":"active","ping":71},{"user_id":88,"name":"Morattab","steam_id":76561199467853508,"connected_time":6273000000000,"state":"active","ping":89},{"user_id":149,"name":"JennaShinx","steam_id":76561198074773762,"connected_time":1319000000000,"state":"active","ping":57},{"user_id":110,"name":"Quansen","steam_id":76561198151594550,"connected_time":5065000000000,"state":"active","ping":55},{"user_id":63,"name":"dzcreeper","steam_id":76561198072250723,"connected_time":7717000000000,"state":"active","ping":70},{"user_id":151,"name":"Evolve","steam_id":76561198258366762,"connected_time":1145000000000,"state":"active","ping":71},{"user_id":143,"name":"‚úø PoutyBun ‚úø","steam_id":76561197965762847,"connected_time":1856000000000,"state":"active","ping":85},{"user_id":113,"name":"Glory","steam_id":76561198013975080,"connected_time":4293000000000,"state":"active","ping":69},{"user_id":135,"name":"Gotta get my ammo fix","steam_id":76561198039763676,"connected_time":2504000000000,"state":"active","ping":63},{"user_id":155,"name":"gonk","steam_id":76561198061206732,"connected_time":973000000000,"state":"active","ping":78},{"user_id":158,"name":"Bees make honey","steam_id":76561198086107548,"connected_time":600000000000,"state":"active","ping":62},{"user_id":152,"name":"TruffShuff","steam_id":76561198055869160,"connected_time":1055000000000,"state":"active","ping":50},{"user_id":102,"name":"El Bondin","steam_id":76561198820792434,"connected_time":5680000000000,"state":"active","ping":91},{"user_id":122,"name":"Gachalover","steam_id":76561199231552074,"connected_time":3790000000000,"state":"active","ping":72},{"user_id":51,"name":"ZombieSkeletor2","steam_id":76561198244937990,"connected_time":8768000000000,"state":"active","ping":84},{"user_id":139,"name":"Chezburgures","steam_id":76561198173043730,"connected_time":1909000000000,"state":"active","ping":88}]},{"server_id":36,"name":"Uncletopia | Chicago | 5 | All Maps","name_short":"chi-5","host":"chi-2.us.uncletopia.com","port":27015,"enabled":true,"region":"us-central","cc":"us","latitude":41.881832,"longitude":-87.62318,"reserved":0,"last_update":"0001-01-01T00:00:00Z","name_a2s":"Uncletopia | Chicago | 5 | All Maps","protocol":17,"map":"pl_pier","folder":"tf","game":"Team Fortress","app_id":440,"player_count":24,"max_players":24,"Bots":0,"server_type":"Dedicated","server_os":"Linux","password":true,"vac":true,"version":"7757534","steam_id":85568392924866362,"keywords":["nocrits","nodmgspread","payload","uncletopia"],"game_id":440,"stv_port":27016,"stv_name":"Uncletopia | Chicago | 5 | All Maps | STV","players":[{"user_id":264,"name":"MoanfulMilk","steam_id":76561199229169396,"connected_time":265000000000,"state":"active","ping":76},{"user_id":246,"name":"B.","steam_id":76561198040445907,"connected_time":1252000000000,"state":"active","ping":73},{"user_id":231,"name":"bash -lc ./asshat.sh","steam_id":76561198004584315,"connected_time":2185000000000,"state":"active","ping":69},{"user_id":219,"name":"CJDGuy","steam_id":76561198213009545,"connected_time":3590000000000,"state":"active","ping":74},{"user_id":249,"name":"The Pestilence","steam_id":76561199081252282,"connected_time":1114000000000,"state":"active","ping":57},{"user_id":232,"name":"threethree","steam_id":76561198177354155,"connected_time":2171000000000,"state":"active","ping":45},{"user_id":250,"name":"Bassman[pu«ù∆É«ùÀ•]","steam_id":76561198083440914,"connected_time":1078000000000,"state":"active","ping":72},{"user_id":233,"name":"quatelhelix","steam_id":76561198066708113,"connected_time":2051000000000,"state":"active","ping":66},{"user_id":213,"name":"MaximumAce","steam_id":76561198359596849,"connected_time":4347000000000,"state":"active","ping":72},{"user_id":265,"name":"CherriKat (she/her)","steam_id":76561198821297512,"connected_time":246000000000,"state":"active","ping":108},{"user_id":266,"name":"Sunvaar","steam_id":76561198852679851,"connected_time":197000000000,"state":"active","ping":63},{"user_id":257,"name":"triangleman","steam_id":76561198972733542,"connected_time":479000000000,"state":"active","ping":63},{"user_id":267,"name":"BLU1 | Shame","steam_id":76561198100490994,"connected_time":191000000000,"state":"active","ping":75},{"user_id":254,"name":"TheGamingJasper","steam_id":76561199054003635,"connected_time":684000000000,"state":"active","ping":148},{"user_id":261,"name":"the worst player","steam_id":76561198400585475,"connected_time":356000000000,"state":"active","ping":114},{"user_id":263,"name":"pete_the_cat_2014","steam_id":76561198199266047,"connected_time":315000000000,"state":"active","ping":59},{"user_id":268,"name":"Missing Minus","steam_id":76561198120822928,"connected_time":166000000000,"state":"active","ping":63},{"user_id":245,"name":"god approaches","steam_id":76561198081617990,"connected_time":1578000000000,"state":"active","ping":102},{"user_id":240,"name":"friendofdorothy","steam_id":76561199014888603,"connected_time":1898000000000,"state":"active","ping":74},{"user_id":255,"name":"fallacy","steam_id":76561198057374871,"connected_time":675000000000,"state":"active","ping":62},{"user_id":243,"name":"SmudgeAlot","steam_id":76561199470365621,"connected_time":1729000000000,"state":"active","ping":88},{"user_id":269,"name":"FUNKY TOWN SLAYER","steam_id":76561198119489292,"connected_time":162000000000,"state":"active","ping":93},{"user_id":270,"name":"SubZeroDestruction","steam_id":76561198145082209,"connected_time":147000000000,"state":"active","ping":70},{"user_id":262,"name":"Stinkly","steam_id":76561198045010846,"connected_time":355000000000,"state":"active","ping":78}]},{"server_id":37,"name":"Uncletopia | Chicago | 6 | All Maps","name_short":"chi-6","host":"chi-2.us.uncletopia.com","port":27025,"enabled":true,"region":"us-central","cc":"us","latitude":41.881832,"longitude":-87.62318,"reserved":0,"last_update":"0001-01-01T00:00:00Z","name_a2s":"Uncletopia | Chicago | 6 | All Maps","protocol":17,"map":"koth_cascade","folder":"tf","game":"Team Fortress","app_id":440,"player_count":1,"max_players":24,"Bots":0,"server_type":"Dedicated","server_os":"Linux","password":true,"vac":true,"version":"7757534","steam_id":85568392924866363,"keywords":["cp","nocrits","nodmgspread","uncletopia"],"game_id":440,"stv_port":27026,"stv_name":"Uncletopia | Chicago | 6 | All Maps | STV","players":[{"user_id":5,"name":"A Reindeer Lime","steam_id":76561199005444057,"connected_time":41000000000,"state":"active","ping":284}]},{"server_id":38,"name":"Uncletopia | Chicago | 7 | Stopwatch Beta","name_short":"chi-7","host":"chi-2.us.uncletopia.com","port":27035,"enabled":true,"region":"us-central","cc":"us","latitude":41.881832,"longitude":-87.62318,"reserved":0,"last_update":"0001-01-01T00:00:00Z","name_a2s":"Uncletopia | Chicago | 7 | Stopwatch Beta","protocol":17,"map":"pl_upward","folder":"tf","game":"Team Fortress","app_id":440,"player_count":0,"max_players":24,"Bots":0,"server_type":"Dedicated","server_os":"Linux","password":true,"vac":true,"version":"7757534","steam_id":85568392924866364,"keywords":["nocrits","nodmgspread","payload","uncletopia"],"game_id":440,"stv_port":27036,"stv_name":"Uncletopia | Chicago | 7 | Stopwatch Beta | STV","players":null},{"server_id":39,"name":"Uncletopia | Chicago | 8 | Community","name_short":"chi-8","host":"chi-2.us.uncletopia.com","port":27045,"enabled":true,"region":"us-central","cc":"us","latitude":41.881832,"longitude":-87.62318,"reserved":0,"last_update":"0001-01-01T00:00:00Z","name_a2s":"Uncletopia | Chicago | 8 | Community","protocol":17,"map":"workshop/cp_kalinka_rc6a.ugc1272700588","folder":"tf","game":"Team Fortress","app_id":440,"player_count":4,"max_players":24,"Bots":0,"server_type":"Dedicated","server_os":"Linux","password":true,"vac":true,"version":"7757534","steam_id":85568392924866365,"keywords":["cp","nocrits","nodmgspread","uncletopia"],"game_id":440,"stv_port":27046,"stv_name":"Uncletopia | Chicago | 8 | Community | STV","players":[{"user_id":23,"name":"APOTATO","steam_id":76561198118199858,"connected_time":16000000000,"state":"spawning","ping":162},{"user_id":9,"name":"Sanitiezd","steam_id":76561199100533645,"connected_time":1750000000000,"state":"active","ping":60},{"user_id":15,"name":"Literally Roxy's Wife Tsuyu","steam_id":76561198175421763,"connected_time":674000000000,"state":"active","ping":54},{"user_id":22,"name":"RayLewis","steam_id":76561199182640861,"connected_time":176000000000,"state":"active","ping":60}]},{"server_id":8,"name":"Uncletopia | Dallas | 1 | All Maps","name_short":"dal-1","host":"dal-1.us.uncletopia.com","port":27015,"enabled":true,"region":"us-central","cc":"us","latitude":32.779167,"longitude":-96.80889,"reserved":0,"last_update":"0001-01-01T00:00:00Z","name_a2s":"Uncletopia | Dallas | 1 | All Maps","protocol":17,"map":"cp_altitude","folder":"tf","game":"Team Fortress","app_id":440,"player_count":0,"max_players":24,"Bots":0,"server_type":"Dedicated","server_os":"Linux","password":true,"vac":true,"version":"7757534","steam_id":85568392924469986,"keywords":["cp","nocrits","nodmgspread","uncletopia"],"game_id":440,"stv_port":27016,"stv_name":"Uncletopia | Dallas | 1 | All Maps | STV","players":null},{"server_id":108,"name":"Uncletopia | Dallas | 2 | All Maps","name_short":"dal-2","host":"dal-1.us.uncletopia.com","port":27025,"enabled":true,"region":"us-central","cc":"us","latitude":32.779167,"longitude":-96.80889,"reserved":0,"last_update":"0001-01-01T00:00:00Z","name_a2s":"Uncletopia | Dallas | 2 | All Maps","protocol":17,"map":"cp_altitude","folder":"tf","game":"Team Fortress","app_id":440,"player_count":0,"max_players":24,"Bots":0,"server_type":"Dedicated","server_os":"Linux","password":true,"vac":true,"version":"7757534","steam_id":85568392924469988,"keywords":["cp","nocrits","nodmgspread","uncletopia"],"game_id":440,"stv_port":27026,"stv_name":"Uncletopia | Dallas | 2 | All Maps | STV","players":null},{"server_id":5,"name":"Uncletopia | Frankfurt | 1 | All Maps","name_short":"frk-1","host":"frk-1.de.uncletopia.com","port":27015,"enabled":true,"region":"eu","cc":"de","latitude":50.110924,"longitude":8.682127,"reserved":0,"last_update":"0001-01-01T00:00:00Z","name_a2s":"Uncletopia | Frankfurt | 1 | All Maps","protocol":17,"map":"pl_upward","folder":"tf","game":"Team Fortress","app_id":440,"player_count":23,"max_players":24,"Bots":0,"server_type":"Dedicated","server_os":"Linux","password":true,"vac":true,"version":"7757534","steam_id":85568392924469989,"keywords":["nocrits","nodmgspread","payload","uncletopia"],"game_id":440,"stv_port":27016,"stv_name":"Uncletopia | Frankfurt | 1 | All Maps | STV","players":[{"user_id":192,"name":"Talent","steam_id":76561198153880354,"connected_time":2865000000000,"state":"active","ping":70},{"user_id":214,"name":"aksu","steam_id":76561198083955517,"connected_time":1327000000000,"state":"active","ping":74},{"user_id":215,"name":"Fran","steam_id":76561199070516960,"connected_time":1321000000000,"state":"active","ping":67},{"user_id":226,"name":"St√ºmpy","steam_id":76561198255904077,"connected_time":657000000000,"state":"active","ping":62},{"user_id":232,"name":"anairat","steam_id":76561198863788240,"connected_time":73000000000,"state":"active","ping":70},{"user_id":171,"name":"Rambi","steam_id":76561199058078505,"connected_time":4292000000000,"state":"active","ping":154},{"user_id":217,"name":"YuraGreek","steam_id":76561198050182252,"connected_time":1258000000000,"state":"active","ping":74},{"user_id":190,"name":"ricky pee pee","steam_id":76561198152620745,"connected_time":2899000000000,"state":"active","ping":78},{"user_id":231,"name":"hananamanna","steam_id":76561198006570285,"connected_time":255000000000,"state":"active","ping":108},{"user_id":228,"name":"Fanshi","steam_id":76561198108478911,"connected_time":409000000000,"state":"active","ping":90},{"user_id":224,"name":"derfie","steam_id":76561198062797578,"connected_time":854000000000,"state":"active","ping":60},{"user_id":196,"name":"Anri Okita's Massive Milkers","steam_id":76561199186352720,"connected_time":2797000000000,"state":"active","ping":77},{"user_id":206,"name":"Kiryu Kazuma","steam_id":76561198120390292,"connected_time":2094000000000,"state":"active","ping":72},{"user_id":210,"name":"SocialistBacon","steam_id":76561198055872267,"connected_time":1986000000000,"state":"active","ping":73},{"user_id":204,"name":"Jamba Sparabo","steam_id":76561198131647600,"connected_time":2393000000000,"state":"active","ping":45},{"user_id":92,"name":"Optimist 50","steam_id":76561198039631442,"connected_time":9413000000000,"state":"active","ping":81},{"user_id":212,"name":"r06u3","steam_id":76561198254099253,"connected_time":1667000000000,"state":"active","ping":163},{"user_id":201,"name":"Acanda","steam_id":76561198123246537,"connected_time":2682000000000,"state":"active","ping":55},{"user_id":134,"name":"Realist 40","steam_id":76561198052476979,"connected_time":6189000000000,"state":"active","ping":75},{"user_id":186,"name":"Cosmetic brain","steam_id":76561198055936410,"connected_time":3611000000000,"state":"active","ping":83},{"user_id":172,"name":"Mefuu","steam_id":76561198287729818,"connected_time":4277000000000,"state":"active","ping":103},{"user_id":221,"name":"KittyKate ‚ù§","steam_id":76561198116340817,"connected_time":1203000000000,"state":"active","ping":60},{"user_id":229,"name":"majora's boostio","steam_id":76561198392628642,"connected_time":364000000000,"state":"active","ping":60}]},{"server_id":110,"name":"Uncletopia | Frankfurt | 2 | All Maps","name_short":"frk-2","host":"frk-1.de.uncletopia.com","port":27025,"enabled":true,"region":"eu","cc":"de","latitude":50.110924,"longitude":8.682127,"reserved":0,"last_update":"0001-01-01T00:00:00Z","name_a2s":"Uncletopia | Frankfurt | 2 | All Maps","protocol":17,"map":"pl_swiftwater_final1","folder":"tf","game":"Team Fortress","app_id":440,"player_count":0,"max_players":24,"Bots":0,"server_type":"Dedicated","server_os":"Linux","password":true,"vac":true,"version":"7757534","steam_id":85568392924469990,"keywords":["nocrits","nodmgspread","payload","uncletopia"],"game_id":440,"stv_port":27026,"stv_name":"Uncletopia | Frankfurt | 2 | All Maps | STV","players":null},{"server_id":308,"name":"Uncletopia | Frankfurt | 3 | All Maps","name_short":"frk-3","host":"frk-1.de.uncletopia.com","port":27035,"enabled":true,"region":"eu","cc":"de","latitude":50.110924,"longitude":8.682127,"reserved":0,"last_update":"0001-01-01T00:00:00Z","name_a2s":"Uncletopia | Frankfurt | 3 | All Maps","protocol":17,"map":"pl_snowycoast","folder":"tf","game":"Team Fortress","app_id":440,"player_count":21,"max_players":24,"Bots":0,"server_type":"Dedicated","server_os":"Linux","password":true,"vac":true,"version":"7757534","steam_id":85568392924504274,"keywords":["nocrits","nodmgspread","payload","uncletopia"],"game_id":440,"stv_port":27036,"stv_name":"Uncletopia | Frankfurt | 3 | All Maps | STV","players":[{"user_id":245,"name":"ghost mw2 (real)","steam_id":76561199069489046,"connected_time":307000000000,"state":"active","ping":57},{"user_id":240,"name":"Ander Escobar","steam_id":76561198335366902,"connected_time":478000000000,"state":"active","ping":87},{"user_id":226,"name":"dgz","steam_id":76561197979345019,"connected_time":1668000000000,"state":"active","ping":85},{"user_id":220,"name":"AMDBlackblast","steam_id":76561198282983141,"connected_time":2581000000000,"state":"active","ping":112},{"user_id":248,"name":"Meem","steam_id":76561198041520773,"connected_time":21000000000,"state":"spawning","ping":118},{"user_id":241,"name":"goo","steam_id":76561198992256662,"connected_time":420000000000,"state":"active","ping":85},{"user_id":239,"name":"8 Ball","steam_id":76561197960988736,"connected_time":550000000000,"state":"active","ping":62},{"user_id":236,"name":"Plubu","steam_id":76561198082511092,"connected_time":835000000000,"state":"active","ping":119},{"user_id":227,"name":"Rimx","steam_id":76561198053034840,"connected_time":1666000000000,"state":"active","ping":86},{"user_id":221,"name":"Hydnhof","steam_id":76561198120989805,"connected_time":2564000000000,"state":"active","ping":70},{"user_id":161,"name":"ZeeZer0","steam_id":76561198043828441,"connected_time":7404000000000,"state":"active","ping":32},{"user_id":146,"name":"‚ò£Strale‚ò£","steam_id":76561198026578820,"connected_time":8346000000000,"state":"active","ping":66},{"user_id":198,"name":"Timber","steam_id":76561198024886009,"connected_time":4339000000000,"state":"active","ping":167},{"user_id":246,"name":"fnaf 2","steam_id":76561199149307190,"connected_time":231000000000,"state":"active","ping":72},{"user_id":229,"name":"Persic","steam_id":76561197997828319,"connected_time":1543000000000,"state":"active","ping":91},{"user_id":238,"name":"Fridge","steam_id":76561198071665589,"connected_time":625000000000,"state":"active","ping":93},{"user_id":228,"name":"Toasty5050","steam_id":76561198073540881,"connected_time":1655000000000,"state":"active","ping":45},{"user_id":234,"name":"Rashid Besythe","steam_id":76561198081477129,"connected_time":979000000000,"state":"active","ping":53},{"user_id":242,"name":"System","steam_id":76561199442503973,"connected_time":418000000000,"state":"active","ping":33},{"user_id":247,"name":"gagalak","steam_id":76561198089979108,"connected_time":225000000000,"state":"active","ping":78},{"user_id":176,"name":"$n√òw","steam_id":76561198238781028,"connected_time":5718000000000,"state":"active","ping":91}]},{"server_id":309,"name":"Uncletopia | Frankfurt | 4 | All Maps","name_short":"frk-4","host":"frk-1.de.uncletopia.com","port":27045,"enabled":true,"region":"eu","cc":"de","latitude":50.110924,"longitude":8.682127,"reserved":0,"last_update":"0001-01-01T00:00:00Z","name_a2s":"Uncletopia | Frankfurt | 4 | All Maps","protocol":17,"map":"pl_upward","folder":"tf","game":"Team Fortress","app_id":440,"player_count":24,"max_players":24,"Bots":0,"server_type":"Dedicated","server_os":"Linux","password":true,"vac":true,"version":"7757534","steam_id":85568392924504275,"keywords":["nocrits","nodmgspread","payload","uncletopia"],"game_id":440,"stv_port":27046,"stv_name":"Uncletopia | Frankfurt | 4 | All Maps | STV","players":[{"user_id":84,"name":"radek","steam_id":76561197998883721,"connected_time":616000000000,"state":"active","ping":69},{"user_id":85,"name":"Alice can't hit pipes","steam_id":76561198052410860,"connected_time":585000000000,"state":"active","ping":132},{"user_id":59,"name":"ddanis","steam_id":76561199059064358,"connected_time":1571000000000,"state":"active","ping":69},{"user_id":97,"name":"frosty","steam_id":76561198094560834,"connected_time":247000000000,"state":"active","ping":61},{"user_id":82,"name":"Boozia","steam_id":76561199001543294,"connected_time":916000000000,"state":"active","ping":71},{"user_id":73,"name":"Fofenho","steam_id":76561198436817109,"connected_time":1215000000000,"state":"active","ping":75},{"user_id":88,"name":"Moebius","steam_id":76561198045069988,"connected_time":506000000000,"state":"active","ping":65},{"user_id":60,"name":"ralkinas","steam_id":76561199057608130,"connected_time":1566000000000,"state":"active","ping":86},{"user_id":61,"name":"Aspartus","steam_id":76561198101385763,"connected_time":1566000000000,"state":"active","ping":47},{"user_id":93,"name":"G6 sherlock","steam_id":76561198802967796,"connected_time":370000000000,"state":"active","ping":119},{"user_id":21,"name":"Carl Gustav Jung","steam_id":76561198284558039,"connected_time":3009000000000,"state":"active","ping":99},{"user_id":95,"name":"poorchel","steam_id":76561198056905953,"connected_time":331000000000,"state":"active","ping":124},{"user_id":86,"name":"Hardway","steam_id":76561198272529254,"connected_time":567000000000,"state":"active","ping":63},{"user_id":94,"name":"silly gaming","steam_id":76561198145055526,"connected_time":346000000000,"state":"active","ping":117},{"user_id":46,"name":"torn","steam_id":76561198223003236,"connected_time":2041000000000,"state":"active","ping":80},{"user_id":47,"name":"waffle toaster","steam_id":76561198799089628,"connected_time":2038000000000,"state":"active","ping":62},{"user_id":90,"name":"SuperBob103","steam_id":76561199175360012,"connected_time":432000000000,"state":"active","ping":74},{"user_id":72,"name":"JujuBalu","steam_id":76561198207253071,"connected_time":1248000000000,"state":"active","ping":50},{"user_id":63,"name":"scantron","steam_id":76561199103959197,"connected_time":1489000000000,"state":"active","ping":87},{"user_id":98,"name":"panakid","steam_id":76561198364121077,"connected_time":149000000000,"state":"active","ping":101},{"user_id":78,"name":"–Ω–µ—Ç","steam_id":76561198051422734,"connected_time":1090000000000,"state":"active","ping":47},{"user_id":91,"name":"Fancy","steam_id":76561198350658462,"connected_time":416000000000,"state":"active","ping":75},{"user_id":53,"name":"KajaStorm","steam_id":76561199215842872,"connected_time":1788000000000,"state":"active","ping":129},{"user_id":96,"name":"Flex","steam_id":76561197970482191,"connected_time":312000000000,"state":"active","ping":61}]},{"server_id":310,"name":"Uncletopia | Frankfurt | 5 | All Maps","name_short":"frk-5","host":"frk-1.de.uncletopia.com","port":27055,"enabled":true,"region":"eu","cc":"de","latitude":50.110924,"longitude":8.682127,"reserved":0,"last_update":"0001-01-01T00:00:00Z","name_a2s":"Uncletopia | Frankfurt | 5 | All Maps","protocol":17,"map":"pl_upward","folder":"tf","game":"Team Fortress","app_id":440,"player_count":22,"max_players":24,"Bots":0,"server_type":"Dedicated","server_os":"Linux","password":true,"vac":true,"version":"7757534","steam_id":85568392924504277,"keywords":["nocrits","nodmgspread","payload","uncletopia"],"game_id":440,"stv_port":27056,"stv_name":"Uncletopia | Frankfurt | 5 | All Maps | STV","players":[{"user_id":396,"name":"Amon Gus","steam_id":76561199094540960,"connected_time":281000000000,"state":"active","ping":59},{"user_id":394,"name":"Bloody","steam_id":76561198005754592,"connected_time":380000000000,"state":"active","ping":75},{"user_id":348,"name":"Philip","steam_id":76561198420288961,"connected_time":2465000000000,"state":"active","ping":61},{"user_id":280,"name":"Cumbustible Punda #SaveTF2","steam_id":76561197974274677,"connected_time":6714000000000,"state":"active","ping":53},{"user_id":380,"name":"silenk","steam_id":76561198367689055,"connected_time":1071000000000,"state":"active","ping":66},{"user_id":367,"name":"king251311","steam_id":76561199063310889,"connected_time":1460000000000,"state":"active","ping":76},{"user_id":401,"name":"Noob_with_source","steam_id":76561198870362103,"connected_time":31000000000,"state":"active","ping":60},{"user_id":402,"name":"Aregularhuman","steam_id":76561198343319848,"connected_time":17000000000,"state":"spawning","ping":38},{"user_id":370,"name":"–î–µ–Ω–∏—Å –ë–∞–∑—É–∫–∞","steam_id":76561198835849082,"connected_time":1417000000000,"state":"active","ping":109},{"user_id":366,"name":"niaerniopawrjnko","steam_id":76561198030408772,"connected_time":1635000000000,"state":"active","ping":60},{"user_id":322,"name":"Salih","steam_id":76561198287934839,"connected_time":4078000000000,"state":"active","ping":48},{"user_id":371,"name":"Pootis Radio","steam_id":76561199013270629,"connected_time":1337000000000,"state":"active","ping":66},{"user_id":384,"name":"Alfred Schroom","steam_id":76561198117990411,"connected_time":968000000000,"state":"active","ping":98},{"user_id":373,"name":"RII","steam_id":76561198350826913,"connected_time":1265000000000,"state":"active","ping":71},{"user_id":399,"name":"just a cat","steam_id":76561198328023740,"connected_time":96000000000,"state":"active","ping":56},{"user_id":375,"name":"dacia papuc 4x4","steam_id":76561198020487843,"connected_time":1204000000000,"state":"active","ping":87},{"user_id":390,"name":"‚ô´‚òÖXriasp‚òÖ‚ô´","steam_id":76561198104721321,"connected_time":767000000000,"state":"active","ping":75},{"user_id":344,"name":"Autumnsky","steam_id":76561198055161203,"connected_time":3119000000000,"state":"active","ping":48},{"user_id":386,"name":"HimpoX","steam_id":76561198043946778,"connected_time":933000000000,"state":"active","ping":108},{"user_id":400,"name":"Nnyllazxz","steam_id":76561198247797436,"connected_time":85000000000,"state":"active","ping":149},{"user_id":387,"name":"bliss","steam_id":76561198067459427,"connected_time":899000000000,"state":"active","ping":57},{"user_id":389,"name":"Thors","steam_id":76561197968739075,"connected_time":828000000000,"state":"active","ping":45}]},{"server_id":311,"name":"Uncletopia | Frankfurt | 6 | All Maps","name_short":"frk-6","host":"frk-1.de.uncletopia.com","port":27065,"enabled":true,"region":"eu","cc":"de","latitude":50.110924,"longitude":8.682127,"reserved":0,"last_update":"0001-01-01T00:00:00Z","name_a2s":"Uncletopia | Frankfurt | 6 | All Maps","protocol":17,"map":"pl_swiftwater_final1","folder":"tf","game":"Team Fortress","app_id":440,"player_count":16,"max_players":24,"Bots":0,"server_type":"Dedicated","server_os":"Linux","password":true,"vac":true,"version":"7757534","steam_id":85568392924504278,"keywords":["nocrits","nodmgspread","payload","uncletopia"],"game_id":440,"stv_port":27066,"stv_name":"Uncletopia | Frankfurt | 6 | All Maps | STV","players":[{"user_id":143,"name":"M.L.JEW","steam_id":76561198997375055,"connected_time":431000000000,"state":"active","ping":174},{"user_id":114,"name":"Liten Jaevel","steam_id":76561198215876044,"connected_time":2970000000000,"state":"active","ping":100},{"user_id":45,"name":"tqla","steam_id":76561198073092585,"connected_time":7246000000000,"state":"active","ping":90},{"user_id":150,"name":"Nuclear Lunar","steam_id":76561198878380463,"connected_time":245000000000,"state":"active","ping":61},{"user_id":145,"name":"mrbeast109385079350229083479082","steam_id":76561198370687830,"connected_time":340000000000,"state":"active","ping":147},{"user_id":146,"name":"DZ.Algerian üá©üáø","steam_id":76561199266754351,"connected_time":334000000000,"state":"active","ping":187},{"user_id":147,"name":"Deckard","steam_id":76561198004704647,"connected_time":291000000000,"state":"active","ping":84},{"user_id":148,"name":"K√°men","steam_id":76561199167174993,"connected_time":288000000000,"state":"active","ping":72},{"user_id":151,"name":"The Bone Zone","steam_id":76561199110815433,"connected_time":59000000000,"state":"active","ping":240},{"user_id":152,"name":"yyny","steam_id":76561198066287297,"connected_time":43000000000,"state":"active","ping":53},{"user_id":101,"name":"VibeCheck","steam_id":76561198425961218,"connected_time":3450000000000,"state":"active","ping":100},{"user_id":153,"name":"‚ôöjar","steam_id":76561198156384007,"connected_time":30000000000,"state":"active","ping":70},{"user_id":88,"name":"N√∂STer","steam_id":76561198354649544,"connected_time":4672000000000,"state":"active","ping":56},{"user_id":103,"name":"fogings","steam_id":76561198044165284,"connected_time":3396000000000,"state":"active","ping":36},{"user_id":121,"name":"Qosmo","steam_id":76561197980806182,"connected_time":2643000000000,"state":"active","ping":85},{"user_id":129,"name":"Renolox","steam_id":76561198036590182,"connected_time":1998000000000,"state":"active","ping":62}]},{"server_id":23,"name":"Uncletopia | Frankfurt | 7 | Stopwatch Beta","name_short":"frk-7","host":"frk-1.de.uncletopia.com","port":27075,"enabled":true,"region":"eu","cc":"de","latitude":50.110924,"longitude":8.682127,"reserved":0,"last_update":"0001-01-01T00:00:00Z","name_a2s":"Uncletopia | Frankfurt | 7 | Stopwatch Beta","protocol":17,"map":"pl_frontier_final","folder":"tf","game":"Team Fortress","app_id":440,"player_count":0,"max_players":24,"Bots":0,"server_type":"Dedicated","server_os":"Linux","password":true,"vac":true,"version":"7757534","steam_id":85568392924742827,"keywords":["nocrits","nodmgspread","payload","uncletopia"],"game_id":440,"stv_port":27076,"stv_name":"Uncletopia | Frankfurt | 7 | Stopwatch Beta | STV","players":null},{"server_id":24,"name":"Uncletopia | Frankfurt | 8 | Community","name_short":"frk-8","host":"frk-1.de.uncletopia.com","port":27085,"enabled":true,"region":"eu","cc":"de","latitude":50.110924,"longitude":8.682127,"reserved":0,"last_update":"0001-01-01T00:00:00Z","name_a2s":"Uncletopia | Frankfurt | 8 | Community","protocol":17,"map":"workshop/pl_fifthcurve_rc1.ugc648227046","folder":"tf","game":"Team Fortress","app_id":440,"player_count":3,"max_players":24,"Bots":0,"server_type":"Dedicated","server_os":"Linux","password":true,"vac":true,"version":"7757534","steam_id":85568392924742828,"keywords":["nocrits","nodmgspread","payload","uncletopia"],"game_id":440,"stv_port":27086,"stv_name":"Uncletopia | Frankfurt | 8 | Community | STV","players":[{"user_id":16,"name":"ItsYeeman","steam_id":76561198066258291,"connected_time":3990000000000,"state":"active","ping":77},{"user_id":22,"name":"Odintron","steam_id":76561198408804079,"connected_time":2486000000000,"state":"active","ping":63},{"user_id":28,"name":"MoeKawaiiSugoiDesuHentaiEcchi39","steam_id":76561198069448495,"connected_time":645000000000,"state":"active","ping":67}]},{"server_id":202,"name":"Uncletopia | Hong Kong | 1 | All Maps","name_short":"hgk-1","host":"hgk-1.hk.uncletopia.com","port":27015,"enabled":true,"region":"asia","cc":"hk","latitude":22.302711,"longitude":114.177216,"reserved":0,"last_update":"0001-01-01T00:00:00Z","name_a2s":"Uncletopia | Hong Kong | 1 | All Maps","protocol":17,"map":"koth_harvest_final","folder":"tf","game":"Team Fortress","app_id":440,"player_count":0,"max_players":24,"Bots":0,"server_type":"Dedicated","server_os":"Linux","password":true,"vac":true,"version":"7757534","steam_id":85568392924494504,"keywords":["cp","nocrits","nodmgspread","uncletopia"],"game_id":440,"stv_port":27016,"stv_name":"Uncletopia | Hong Kong | 1 | All Maps | STV","players":null},{"server_id":1,"name":"Uncletopia | Los Angeles | 1 | All Maps","name_short":"lax-1","host":"lax-1.us.uncletopia.com","port":27015,"enabled":true,"region":"us-west","cc":"us","latitude":33.94279,"longitude":-118.41004,"reserved":0,"last_update":"0001-01-01T00:00:00Z","name_a2s":"Uncletopia | Los Angeles | 1 | All Maps","protocol":17,"map":"cp_dustbowl","folder":"tf","game":"Team Fortress","app_id":440,"player_count":0,"max_players":24,"Bots":0,"server_type":"Dedicated","server_os":"Linux","password":true,"vac":true,"version":"7757534","steam_id":85568392924469991,"keywords":["cp","nocrits","nodmgspread","uncletopia"],"game_id":440,"stv_port":27016,"stv_name":"Uncletopia | Los Angeles | 1 | All Maps | STV","players":null},{"server_id":112,"name":"Uncletopia | Los Angeles | 2 | All Maps","name_short":"lax-2","host":"lax-1.us.uncletopia.com","port":27025,"enabled":true,"region":"us-west","cc":"us","latitude":33.94279,"longitude":-118.41004,"reserved":0,"last_update":"0001-01-01T00:00:00Z","name_a2s":"Uncletopia | Los Angeles | 2 | All Maps","protocol":17,"map":"koth_cascade","folder":"tf","game":"Team Fortress","app_id":440,"player_count":0,"max_players":24,"Bots":0,"server_type":"Dedicated","server_os":"Linux","password":true,"vac":true,"version":"7757534","steam_id":85568392924469992,"keywords":["cp","nocrits","nodmgspread","uncletopia"],"game_id":440,"stv_port":27026,"stv_name":"Uncletopia | Los Angeles | 2 | All Maps | STV","players":null},{"server_id":324,"name":"Uncletopia | Los Angeles | 3 | All Maps","name_short":"lax-3","host":"lax-1.us.uncletopia.com","port":27035,"enabled":true,"region":"us-west","cc":"us","latitude":33.94279,"longitude":-118.41004,"reserved":0,"last_update":"0001-01-01T00:00:00Z","name_a2s":"Uncletopia | Los Angeles | 3 | All Maps","protocol":17,"map":"koth_cascade","folder":"tf","game":"Team Fortress","app_id":440,"player_count":0,"max_players":24,"Bots":0,"server_type":"Dedicated","server_os":"Linux","password":true,"vac":true,"version":"7757534","steam_id":85568392924510198,"keywords":["cp","nocrits","nodmgspread","uncletopia"],"game_id":440,"stv_port":27036,"stv_name":"Uncletopia | Los Angeles | 3 | All Maps | STV","players":null},{"server_id":25,"name":"Uncletopia | Los Angeles | 4 | Stopwatch Beta","name_short":"lax-4","host":"lax-1.us.uncletopia.com","port":27045,"enabled":true,"region":"us-west","cc":"us","latitude":33.94279,"longitude":-118.41004,"reserved":0,"last_update":"0001-01-01T00:00:00Z","name_a2s":"Uncletopia | Los Angeles | 4 | Stopwatch Beta","protocol":17,"map":"pl_frontier_final","folder":"tf","game":"Team Fortress","app_id":440,"player_count":0,"max_players":24,"Bots":0,"server_type":"Dedicated","server_os":"Linux","password":true,"vac":true,"version":"7757534","steam_id":85568392924510199,"keywords":["nocrits","nodmgspread","payload","uncletopia"],"game_id":440,"stv_port":27046,"stv_name":"Uncletopia | Los Angeles | 4 | Stopwatch Beta | STV","players":null},{"server_id":11,"name":"Uncletopia | London | 1 | All Maps","name_short":"lon-1","host":"lon-1.uk.uncletopia.com","port":27015,"enabled":true,"region":"eu","cc":"gb","latitude":51.509865,"longitude":-0.118092,"reserved":0,"last_update":"0001-01-01T00:00:00Z","name_a2s":"Uncletopia | London | 1 | All Maps","protocol":17,"map":"pl_barnblitz","folder":"tf","game":"Team Fortress","app_id":440,"player_count":24,"max_players":24,"Bots":0,"server_type":"Dedicated","server_os":"Linux","password":true,"vac":true,"version":"7757534","steam_id":85568392924367362,"keywords":["nocrits","nodmgspread","payload","uncletopia"],"game_id":440,"stv_port":27016,"stv_name":"Uncletopia | London | 1 | All Maps | STV","players":[{"user_id":377,"name":"Jimbo","steam_id":76561198253507297,"connected_time":7895000000000,"state":"active","ping":154},{"user_id":436,"name":"lvl. 50 honkler","steam_id":76561198061688660,"connected_time":4154000000000,"state":"active","ping":121},{"user_id":391,"name":"Puzzles","steam_id":76561198137106459,"connected_time":7502000000000,"state":"active","ping":56},{"user_id":516,"name":"gosi","steam_id":76561198084111532,"connected_time":141000000000,"state":"active","ping":75},{"user_id":464,"name":"7hero","steam_id":76561198118829945,"connected_time":1587000000000,"state":"active","ping":95},{"user_id":505,"name":"Pungkrockaren","steam_id":76561198050214002,"connected_time":355000000000,"state":"active","ping":60},{"user_id":465,"name":"DoraTheExplora","steam_id":76561198059319529,"connected_time":1563000000000,"state":"active","ping":89},{"user_id":451,"name":"Moja jaja ≈°lajdraju","steam_id":76561198280390098,"connected_time":2168000000000,"state":"active","ping":86},{"user_id":379,"name":"Grillem Dafoe","steam_id":76561198306874574,"connected_time":7880000000000,"state":"active","ping":63},{"user_id":449,"name":"most sane mentalist","steam_id":76561198310095220,"connected_time":2951000000000,"state":"active","ping":31},{"user_id":462,"name":"FTH","steam_id":76561198066287815,"connected_time":1756000000000,"state":"active","ping":120},{"user_id":450,"name":"MarioThePlumber","steam_id":76561198314229530,"connected_time":2171000000000,"state":"active","ping":86},{"user_id":454,"name":"meriones","steam_id":76561198034234373,"connected_time":2118000000000,"state":"active","ping":43},{"user_id":517,"name":"brother tyrannosaurus","steam_id":76561197994758189,"connected_time":134000000000,"state":"active","ping":43},{"user_id":500,"name":"Bruno","steam_id":76561198011340227,"connected_time":453000000000,"state":"active","ping":70},{"user_id":477,"name":"Spunkepeter","steam_id":76561198417171790,"connected_time":1084000000000,"state":"active","ping":75},{"user_id":519,"name":"Vaselineum","steam_id":76561199404585461,"connected_time":3000000000,"state":"spawning","ping":92},{"user_id":482,"name":"Wrong Whole","steam_id":76561198064922555,"connected_time":936000000000,"state":"active","ping":46},{"user_id":466,"name":"Chinese censorship Bureau","steam_id":76561198397898616,"connected_time":1552000000000,"state":"active","ping":60},{"user_id":475,"name":"AWildTamim","steam_id":76561198048060652,"connected_time":1125000000000,"state":"active","ping":40},{"user_id":408,"name":"Wardruna96","steam_id":76561199057083828,"connected_time":6628000000000,"state":"active","ping":92},{"user_id":478,"name":"Nobaddy","steam_id":76561198037871007,"connected_time":1072000000000,"state":"active","ping":76},{"user_id":480,"name":"Z√°por√°k","steam_id":76561198207175503,"connected_time":1020000000000,"state":"active","ping":74},{"user_id":486,"name":"ciliorkun18","steam_id":76561198228942500,"connected_time":834000000000,"state":"active","ping":100}]},{"server_id":114,"name":"Uncletopia | London | 2 | All Maps","name_short":"lon-2","host":"lon-1.uk.uncletopia.com","port":27025,"enabled":true,"region":"eu","cc":"gb","latitude":51.509865,"longitude":-0.118092,"reserved":0,"last_update":"0001-01-01T00:00:00Z","name_a2s":"Uncletopia | London | 2 | All Maps","protocol":17,"map":"cp_steel","folder":"tf","game":"Team Fortress","app_id":440,"player_count":24,"max_players":24,"Bots":0,"server_type":"Dedicated","server_os":"Linux","password":true,"vac":true,"version":"7757534","steam_id":85568392924470941,"keywords":["cp","nocrits","nodmgspread","uncletopia"],"game_id":440,"stv_port":27026,"stv_name":"Uncletopia | London | 2 | All Maps | STV","players":[{"user_id":459,"name":"ivanmixo","steam_id":76561198160213989,"connected_time":356000000000,"state":"active","ping":78},{"user_id":457,"name":"MAKENTAKEN","steam_id":76561199127359587,"connected_time":452000000000,"state":"active","ping":105},{"user_id":415,"name":"citronous","steam_id":76561198093290934,"connected_time":3200000000000,"state":"active","ping":71},{"user_id":453,"name":"hellbound","steam_id":76561198160562773,"connected_time":612000000000,"state":"active","ping":90},{"user_id":460,"name":"dorthyhy","steam_id":76561198062578399,"connected_time":240000000000,"state":"active","ping":63},{"user_id":461,"name":"dysesthesia","steam_id":76561198027159018,"connected_time":238000000000,"state":"active","ping":155},{"user_id":425,"name":"EdSuedi","steam_id":76561199387956486,"connected_time":1954000000000,"state":"active","ping":68},{"user_id":418,"name":"zek","steam_id":76561198862763731,"connected_time":2589000000000,"state":"active","ping":72},{"user_id":448,"name":"huh","steam_id":76561198079277466,"connected_time":791000000000,"state":"active","ping":75},{"user_id":442,"name":"AnonTron","steam_id":76561199031895493,"connected_time":1345000000000,"state":"active","ping":190},{"user_id":359,"name":"Fratm_Wolf","steam_id":76561199100512277,"connected_time":6753000000000,"state":"active","ping":77},{"user_id":462,"name":"Pablo","steam_id":76561198160394046,"connected_time":220000000000,"state":"active","ping":122},{"user_id":433,"name":"Bumblebee","steam_id":76561198033551105,"connected_time":1748000000000,"state":"active","ping":79},{"user_id":444,"name":"Blacksheep","steam_id":76561198019621063,"connected_time":1264000000000,"state":"active","ping":51},{"user_id":465,"name":"Jimmy","steam_id":76561198133680783,"connected_time":162000000000,"state":"active","ping":80},{"user_id":447,"name":"incel to girl pipeline","steam_id":76561198081559669,"connected_time":802000000000,"state":"active","ping":92},{"user_id":416,"name":"Night Fury","steam_id":76561197995207032,"connected_time":2880000000000,"state":"active","ping":87},{"user_id":445,"name":"Nugget","steam_id":76561198338916407,"connected_time":1249000000000,"state":"active","ping":82},{"user_id":423,"name":"Mr. Mundy","steam_id":76561198132008918,"connected_time":2277000000000,"state":"active","ping":82},{"user_id":458,"name":"EEEEEH","steam_id":76561198126717413,"connected_time":428000000000,"state":"active","ping":92},{"user_id":464,"name":"Gajin Entertainment (real)","steam_id":76561199077027954,"connected_time":187000000000,"state":"active","ping":151},{"user_id":245,"name":"Hexagon","steam_id":76561198151205758,"connected_time":14560000000000,"state":"active","ping":70},{"user_id":438,"name":"Lyra","steam_id":76561198043601838,"connected_time":1661000000000,"state":"active","ping":74},{"user_id":456,"name":"alex","steam_id":76561197995857448,"connected_time":515000000000,"state":"active","ping":62}]},{"server_id":320,"name":"Uncletopia | London | 3 | All Maps","name_short":"lon-3","host":"lon-1.uk.uncletopia.com","port":27035,"enabled":true,"region":"eu","cc":"gb","latitude":51.509865,"longitude":-0.118092,"reserved":0,"last_update":"0001-01-01T00:00:00Z","name_a2s":"Uncletopia | London | 3 | All Maps","protocol":17,"map":"pl_frontier_final","folder":"tf","game":"Team Fortress","app_id":440,"player_count":22,"max_players":24,"Bots":0,"server_type":"Dedicated","server_os":"Linux","password":true,"vac":true,"version":"7757534","steam_id":85568392924510192,"keywords":["nocrits","nodmgspread","payload","uncletopia"],"game_id":440,"stv_port":27036,"stv_name":"Uncletopia | London | 3 | All Maps | STV","players":[{"user_id":493,"name":"KFC Enjoyer","steam_id":76561198840259819,"connected_time":128000000000,"state":"active","ping":62},{"user_id":485,"name":"Silvan","steam_id":76561198415391988,"connected_time":768000000000,"state":"active","ping":59},{"user_id":484,"name":"rmn","steam_id":76561198182789386,"connected_time":771000000000,"state":"active","ping":67},{"user_id":434,"name":"wootabs","steam_id":76561198831766743,"connected_time":5297000000000,"state":"active","ping":80},{"user_id":462,"name":"facing difficulties","steam_id":76561198037237664,"connected_time":2474000000000,"state":"active","ping":83},{"user_id":491,"name":"MateMO","steam_id":76561198146180114,"connected_time":300000000000,"state":"active","ping":99},{"user_id":488,"name":"Koi-Koi","steam_id":76561198045527771,"connected_time":678000000000,"state":"active","ping":99},{"user_id":452,"name":"Wario","steam_id":76561198356089255,"connected_time":3758000000000,"state":"active","ping":81},{"user_id":492,"name":"meatsoupcube","steam_id":76561198276802249,"connected_time":181000000000,"state":"active","ping":109},{"user_id":464,"name":"gorp enyojer","steam_id":76561198044293799,"connected_time":2243000000000,"state":"active","ping":83},{"user_id":425,"name":"H√ølkje","steam_id":76561198998581449,"connected_time":5828000000000,"state":"active","ping":76},{"user_id":426,"name":"Zenos","steam_id":76561198212366199,"connected_time":5818000000000,"state":"active","ping":58},{"user_id":483,"name":"Veqtar","steam_id":76561198261377979,"connected_time":993000000000,"state":"active","ping":154},{"user_id":490,"name":"Rohnus","steam_id":76561198074049934,"connected_time":578000000000,"state":"active","ping":53},{"user_id":468,"name":"Jyoukero","steam_id":76561199214266029,"connected_time":2193000000000,"state":"active","ping":118},{"user_id":470,"name":"Olaxce","steam_id":76561198172073342,"connected_time":1982000000000,"state":"active","ping":91},{"user_id":444,"name":"quickfast","steam_id":76561199438900919,"connected_time":4654000000000,"state":"active","ping":43},{"user_id":478,"name":"super nintendo chalmers","steam_id":76561199049633351,"connected_time":1338000000000,"state":"active","ping":80},{"user_id":433,"name":"Sebiromanes (Spookm√°ster)","steam_id":76561198112800408,"connected_time":5564000000000,"state":"active","ping":116},{"user_id":489,"name":"General Kiel","steam_id":76561198021317816,"connected_time":633000000000,"state":"active","ping":78},{"user_id":458,"name":"I am on the tf2 scoreboard...","steam_id":76561198043850884,"connected_time":3097000000000,"state":"active","ping":140},{"user_id":450,"name":"(wm) Das Fleisch","steam_id":76561198001250715,"connected_time":4285000000000,"state":"active","ping":70}]},{"server_id":321,"name":"Uncletopia | London | 4 | All Maps","name_short":"lon-4","host":"lon-1.uk.uncletopia.com","port":27045,"enabled":true,"region":"eu","cc":"gb","latitude":51.509865,"longitude":-0.118092,"reserved":0,"last_update":"0001-01-01T00:00:00Z","name_a2s":"Uncletopia | London | 4 | All Maps","protocol":17,"map":"pl_borneo","folder":"tf","game":"Team Fortress","app_id":440,"player_count":24,"max_players":24,"Bots":0,"server_type":"Dedicated","server_os":"Linux","password":true,"vac":true,"version":"7757534","steam_id":85568392924510193,"keywords":["nocrits","nodmgspread","payload","uncletopia"],"game_id":440,"stv_port":27046,"stv_name":"Uncletopia | London | 4 | All Maps | STV","players":[{"user_id":133,"name":"Maximus","steam_id":76561198032472655,"connected_time":409000000000,"state":"active","ping":61},{"user_id":134,"name":"htraB","steam_id":76561198043122677,"connected_time":379000000000,"state":"active","ping":69},{"user_id":71,"name":"Senator Armstrong","steam_id":76561198984346408,"connected_time":4841000000000,"state":"active","ping":77},{"user_id":111,"name":"_Context_","steam_id":76561199163359312,"connected_time":2285000000000,"state":"active","ping":59},{"user_id":98,"name":"gibb (official)","steam_id":76561198074097655,"connected_time":3645000000000,"state":"active","ping":44},{"user_id":74,"name":"KNARRER","steam_id":76561199130777953,"connected_time":4740000000000,"state":"active","ping":69},{"user_id":135,"name":"Beamz","steam_id":76561198014230017,"connected_time":368000000000,"state":"active","ping":155},{"user_id":136,"name":"chef","steam_id":76561198168641792,"connected_time":344000000000,"state":"active","ping":45},{"user_id":137,"name":"FairlyFatFungus","steam_id":76561199152828854,"connected_time":339000000000,"state":"active","ping":46},{"user_id":115,"name":"jimmy bob","steam_id":76561198319583692,"connected_time":1933000000000,"state":"active","ping":60},{"user_id":141,"name":"Rubi","steam_id":76561198139410003,"connected_time":173000000000,"state":"active","ping":88},{"user_id":116,"name":"pizza time","steam_id":76561199015899793,"connected_time":1829000000000,"state":"active","ping":51},{"user_id":130,"name":"Not Friends","steam_id":76561198043775605,"connected_time":483000000000,"state":"active","ping":93},{"user_id":139,"name":"Cat Poop","steam_id":76561198149986505,"connected_time":304000000000,"state":"active","ping":71},{"user_id":110,"name":"Boki","steam_id":76561198044553351,"connected_time":2370000000000,"state":"active","ping":75},{"user_id":127,"name":"din mor's lucy","steam_id":76561198879261242,"connected_time":805000000000,"state":"active","ping":76},{"user_id":124,"name":"Zombi3","steam_id":76561198326290621,"connected_time":967000000000,"state":"active","ping":74},{"user_id":113,"name":"Kraftlos","steam_id":76561198074350350,"connected_time":2217000000000,"state":"active","ping":132},{"user_id":129,"name":"Hey, I¬¥m Andy!","steam_id":76561198060337777,"connected_time":629000000000,"state":"active","ping":94},{"user_id":85,"name":"LordTrap.exe","steam_id":76561198318089716,"connected_time":4567000000000,"state":"active","ping":53},{"user_id":90,"name":":)","steam_id":76561198039964082,"connected_time":4325000000000,"state":"active","ping":64},{"user_id":103,"name":"Tort","steam_id":76561198329646769,"connected_time":3218000000000,"state":"active","ping":55},{"user_id":93,"name":"0xDEADBEEF","steam_id":76561199075416111,"connected_time":3846000000000,"state":"active","ping":77},{"user_id":128,"name":"Honest Tom's Discount Beef","steam_id":76561198029971392,"connected_time":738000000000,"state":"active","ping":53}]},{"server_id":21,"name":"Uncletopia | London | 5 | All Maps","name_short":"lon-5","host":"lon-1.uk.uncletopia.com","port":27055,"enabled":true,"region":"eu","cc":"gb","latitude":51.509865,"longitude":-0.118092,"reserved":0,"last_update":"0001-01-01T00:00:00Z","name_a2s":"Uncletopia | London | 5 | All Maps","protocol":17,"map":"koth_lakeside_final","folder":"tf","game":"Team Fortress","app_id":440,"player_count":0,"max_players":24,"Bots":0,"server_type":"Dedicated","server_os":"Linux","password":true,"vac":true,"version":"7757534","steam_id":85568392924742829,"keywords":["cp","nocrits","nodmgspread","uncletopia"],"game_id":440,"stv_port":27056,"stv_name":"Uncletopia | London | 5 | All Maps | STV","players":null},{"server_id":22,"name":"Uncletopia | London | 6 | All Maps","name_short":"lon-6","host":"lon-1.uk.uncletopia.com","port":27065,"enabled":true,"region":"eu","cc":"gb","latitude":51.509865,"longitude":-0.118092,"reserved":0,"last_update":"0001-01-01T00:00:00Z","name_a2s":"Uncletopia | London | 6 | All Maps","protocol":17,"map":"koth_viaduct","folder":"tf","game":"Team Fortress","app_id":440,"player_count":0,"max_players":24,"Bots":0,"server_type":"Dedicated","server_os":"Linux","password":true,"vac":true,"version":"7757534","steam_id":85568392924742830,"keywords":["cp","nocrits","nodmgspread","uncletopia"],"game_id":440,"stv_port":27066,"stv_name":"Uncletopia | London | 6 | All Maps | STV","players":null},{"server_id":40,"name":"Uncletopia | London | 7 | No Payload","name_short":"lon-7","host":"lon-1.uk.uncletopia.com","port":27075,"enabled":true,"region":"eu","cc":"gb","latitude":51.509865,"longitude":-0.118092,"reserved":0,"last_update":"0001-01-01T00:00:00Z","name_a2s":"Uncletopia | London | 7 | No Payload","protocol":17,"map":"ctf_sawmill","folder":"tf","game":"Team Fortress","app_id":440,"player_count":4,"max_players":24,"Bots":0,"server_type":"Dedicated","server_os":"Linux","password":true,"vac":true,"version":"7757534","steam_id":85568392924964314,"keywords":["ctf","nocrits","nodmgspread","uncletopia"],"game_id":440,"stv_port":27076,"stv_name":"Uncletopia | London | 7 | No Payload | STV","players":[{"user_id":50,"name":"fried","steam_id":76561198307522022,"connected_time":2034000000000,"state":"active","ping":53},{"user_id":52,"name":"justin_ (f2p) (real)","steam_id":76561198839843428,"connected_time":748000000000,"state":"active","ping":120},{"user_id":9,"name":"Joshua","steam_id":76561198159409260,"connected_time":6430000000000,"state":"active","ping":84},{"user_id":19,"name":"Cavalier","steam_id":76561198077283980,"connected_time":3855000000000,"state":"active","ping":76}]},{"server_id":41,"name":"Uncletopia | London | 8 | Community","name_short":"lon-8","host":"lon-1.uk.uncletopia.com","port":27085,"enabled":true,"region":"eu","cc":"gb","latitude":51.509865,"longitude":-0.118092,"reserved":0,"last_update":"0001-01-01T00:00:00Z","name_a2s":"Uncletopia | London | 8 | Community","protocol":17,"map":"workshop/koth_product_final.ugc454272353","folder":"tf","game":"Team Fortress","app_id":440,"player_count":24,"max_players":24,"Bots":0,"server_type":"Dedicated","server_os":"Linux","password":true,"vac":true,"version":"7757534","steam_id":85568392924964315,"keywords":["cp","nocrits","nodmgspread","uncletopia"],"game_id":440,"stv_port":27086,"stv_name":"Uncletopia | London | 8 | Community | STV","players":[{"user_id":261,"name":"P Diddy","steam_id":76561198829344838,"connected_time":822000000000,"state":"active","ping":51},{"user_id":262,"name":"Superiumentarius","steam_id":76561198081642249,"connected_time":796000000000,"state":"active","ping":74},{"user_id":167,"name":"Sgreff","steam_id":76561198036304365,"connected_time":8291000000000,"state":"active","ping":43},{"user_id":263,"name":"I'm A Real Human Being","steam_id":76561199471571148,"connected_time":680000000000,"state":"active","ping":66},{"user_id":226,"name":"Biggest Boss [Knockout]","steam_id":76561198044387120,"connected_time":3324000000000,"state":"active","ping":92},{"user_id":212,"name":"zaleek69","steam_id":76561198058877595,"connected_time":3729000000000,"state":"active","ping":88},{"user_id":168,"name":"Fat Pigeon","steam_id":76561198817940142,"connected_time":8269000000000,"state":"active","ping":56},{"user_id":169,"name":"Welder","steam_id":76561198355300561,"connected_time":8213000000000,"state":"active","ping":81},{"user_id":255,"name":"Dolcelatte","steam_id":76561198038501770,"connected_time":987000000000,"state":"active","ping":74},{"user_id":232,"name":"Rob_Duxk","steam_id":76561198966203087,"connected_time":3005000000000,"state":"active","ping":102},{"user_id":190,"name":"X-tis","steam_id":76561198043837480,"connected_time":6112000000000,"state":"active","ping":77},{"user_id":269,"name":"Codex","steam_id":76561198068748584,"connected_time":15000000000,"state":"spawning","ping":141},{"user_id":246,"name":"clunk","steam_id":76561198836460767,"connected_time":2407000000000,"state":"active","ping":74},{"user_id":170,"name":"Jonathan","steam_id":76561198087988880,"connected_time":8185000000000,"state":"active","ping":70},{"user_id":268,"name":"hunger","steam_id":76561198126656442,"connected_time":175000000000,"state":"active","ping":123},{"user_id":248,"name":"Fit Crow mark","steam_id":76561198309246388,"connected_time":2090000000000,"state":"active","ping":65},{"user_id":242,"name":"Dmytr0 Gaming","steam_id":76561199187702830,"connected_time":2762000000000,"state":"active","ping":86},{"user_id":258,"name":"Slazaa","steam_id":76561197993252446,"connected_time":947000000000,"state":"active","ping":59},{"user_id":186,"name":"night.s","steam_id":76561198326287823,"connected_time":7020000000000,"state":"active","ping":83},{"user_id":267,"name":"undead","steam_id":76561198281688228,"connected_time":281000000000,"state":"active","ping":49},{"user_id":266,"name":"my hamster died last week","steam_id":76561198834897089,"connected_time":427000000000,"state":"active","ping":74},{"user_id":251,"name":"FatalRyhme","steam_id":76561198018713483,"connected_time":1773000000000,"state":"active","ping":102},{"user_id":241,"name":"The Danger","steam_id":76561198438110920,"connected_time":2774000000000,"state":"active","ping":76},{"user_id":221,"name":"FUKAYU","steam_id":76561198380484033,"connected_time":3546000000000,"state":"active","ping":58}]},{"server_id":300,"name":"Uncletopia | Montr√©al | 1 | All Maps","name_short":"mtl-1","host":"mtl-1.ca.uncletopia.com","port":27015,"enabled":true,"region":"us-east","cc":"ca","latitude":45.50889,"longitude":-73.56167,"reserved":0,"last_update":"0001-01-01T00:00:00Z","name_a2s":"Uncletopia | Montr√©al | 1 | All Maps","protocol":17,"map":"pl_snowycoast","folder":"tf","game":"Team Fortress","app_id":440,"player_count":0,"max_players":24,"Bots":0,"server_type":"Dedicated","server_os":"Linux","password":true,"vac":true,"version":"7757534","steam_id":85568392924500087,"keywords":["nocrits","nodmgspread","payload","uncletopia"],"game_id":440,"stv_port":27016,"stv_name":"Uncletopia | Montr√©al | 1 | All Maps | STV","players":null},{"server_id":301,"name":"Uncletopia | Montr√©al | 2 | All Maps","name_short":"mtl-2","host":"mtl-1.ca.uncletopia.com","port":27025,"enabled":true,"region":"us-east","cc":"ca","latitude":45.50889,"longitude":-73.56167,"reserved":0,"last_update":"0001-01-01T00:00:00Z","name_a2s":"Uncletopia | Montr√©al | 2 | All Maps","protocol":17,"map":"pl_snowycoast","folder":"tf","game":"Team Fortress","app_id":440,"player_count":0,"max_players":24,"Bots":0,"server_type":"Dedicated","server_os":"Linux","password":true,"vac":true,"version":"7757534","steam_id":85568392924500088,"keywords":["nocrits","nodmgspread","payload","uncletopia"],"game_id":440,"stv_port":27026,"stv_name":"Uncletopia | Montr√©al | 2 | All Maps | STV","players":null},{"server_id":302,"name":"Uncletopia | Montr√©al | 3 | All Maps","name_short":"mtl-3","host":"mtl-1.ca.uncletopia.com","port":27035,"enabled":true,"region":"us-east","cc":"ca","latitude":45.50889,"longitude":-73.56167,"reserved":0,"last_update":"0001-01-01T00:00:00Z","name_a2s":"Uncletopia | Montr√©al | 3 | All Maps","protocol":17,"map":"cp_dustbowl","folder":"tf","game":"Team Fortress","app_id":440,"player_count":0,"max_players":24,"Bots":0,"server_type":"Dedicated","server_os":"Linux","password":true,"vac":true,"version":"7757534","steam_id":85568392924500089,"keywords":["cp","nocrits","nodmgspread","uncletopia"],"game_id":440,"stv_port":27036,"stv_name":"Uncletopia | Montr√©al | 3 | All Maps | STV","players":null},{"server_id":303,"name":"Uncletopia | Montr√©al | 4 | No Payload","name_short":"mtl-4","host":"mtl-1.ca.uncletopia.com","port":27045,"enabled":true,"region":"us-east","cc":"ca","latitude":45.50889,"longitude":-73.56167,"reserved":0,"last_update":"0001-01-01T00:00:00Z","name_a2s":"Uncletopia | Montr√©al | 4 | No Payload","protocol":17,"map":"pl_borneo","folder":"tf","game":"Team Fortress","app_id":440,"player_count":0,"max_players":24,"Bots":0,"server_type":"Dedicated","server_os":"Linux","password":true,"vac":true,"version":"7757534","steam_id":85568392924500090,"keywords":["nocrits","nodmgspread","payload","uncletopia"],"game_id":440,"stv_port":27046,"stv_name":"Uncletopia | Montr√©al | 4 | No Payload | STV","players":null},{"server_id":13,"name":"Uncletopia | New York City | 1 | All Maps","name_short":"nyc-1","host":"nyc-1.us.uncletopia.com","port":27015,"enabled":true,"region":"us-east","cc":"us","latitude":40.73061,"longitude":-73.93524,"reserved":0,"last_update":"0001-01-01T00:00:00Z","name_a2s":"Uncletopia | New York City | 1 | All Maps","protocol":17,"map":"koth_viaduct","folder":"tf","game":"Team Fortress","app_id":440,"player_count":24,"max_players":24,"Bots":0,"server_type":"Dedicated","server_os":"Linux","password":true,"vac":true,"version":"7757534","steam_id":85568392924469993,"keywords":["cp","nocrits","nodmgspread","uncletopia"],"game_id":440,"stv_port":27016,"stv_name":"Uncletopia | New York City | 1 | All Maps | STV","players":[{"user_id":92,"name":"Regina Phoca (She/Her)","steam_id":76561199317584594,"connected_time":4094000000000,"state":"active","ping":57},{"user_id":79,"name":"Fat Man","steam_id":76561198118957055,"connected_time":4798000000000,"state":"active","ping":38},{"user_id":144,"name":"Anyar","steam_id":76561198160174097,"connected_time":174000000000,"state":"active","ping":81},{"user_id":149,"name":"tatanv0406","steam_id":76561198842954039,"connected_time":17000000000,"state":"active","ping":108},{"user_id":86,"name":"bartholomew","steam_id":76561198986534519,"connected_time":4234000000000,"state":"active","ping":117},{"user_id":138,"name":"Apex60","steam_id":76561198041898090,"connected_time":582000000000,"state":"active","ping":78},{"user_id":134,"name":"bergly","steam_id":76561198811650078,"connected_time":1101000000000,"state":"active","ping":91},{"user_id":124,"name":"lazyhead","steam_id":76561198044358804,"connected_time":1672000000000,"state":"active","ping":47},{"user_id":145,"name":"Simply_Komeiji","steam_id":76561198354177703,"connected_time":141000000000,"state":"active","ping":88},{"user_id":126,"name":"Nic0","steam_id":76561198305690218,"connected_time":1389000000000,"state":"active","ping":55},{"user_id":123,"name":"Astrocircuit","steam_id":76561198014437544,"connected_time":1869000000000,"state":"active","ping":48},{"user_id":122,"name":"Hook, Line, and Sphincter","steam_id":76561198078207743,"connected_time":1928000000000,"state":"active","ping":47},{"user_id":146,"name":"Phoelamander","steam_id":76561198001462472,"connected_time":131000000000,"state":"active","ping":78},{"user_id":148,"name":"AER0.exe","steam_id":76561198062940197,"connected_time":20000000000,"state":"active","ping":59},{"user_id":90,"name":"Huge","steam_id":76561199030987614,"connected_time":4141000000000,"state":"active","ping":98},{"user_id":114,"name":"saul goodman","steam_id":76561199165336576,"connected_time":2541000000000,"state":"active","ping":126},{"user_id":125,"name":"Dilbert","steam_id":76561198195613682,"connected_time":1524000000000,"state":"active","ping":75},{"user_id":147,"name":"thundermuffin","steam_id":76561198067770965,"connected_time":100000000000,"state":"active","ping":49},{"user_id":99,"name":"FreonAddict9x19","steam_id":76561198060010824,"connected_time":3810000000000,"state":"active","ping":61},{"user_id":56,"name":"Player 51","steam_id":76561198169427767,"connected_time":6335000000000,"state":"active","ping":54},{"user_id":142,"name":"Chase McCain","steam_id":76561198314538469,"connected_time":211000000000,"state":"active","ping":61},{"user_id":132,"name":"Swifgz","steam_id":76561198162875756,"connected_time":1203000000000,"state":"active","ping":41},{"user_id":136,"name":"willow","steam_id":76561198276866938,"connected_time":868000000000,"state":"active","ping":50},{"user_id":133,"name":"Pnuema the Skooma Drinker","steam_id":76561199024080693,"connected_time":1202000000000,"state":"active","ping":233}]},{"server_id":14,"name":"Uncletopia | New York City | 2 | All Maps","name_short":"nyc-2","host":"nyc-1.us.uncletopia.com","port":27025,"enabled":true,"region":"us-east","cc":"us","latitude":40.73061,"longitude":-73.93524,"reserved":0,"last_update":"0001-01-01T00:00:00Z","name_a2s":"Uncletopia | New York City | 2 | All Maps","protocol":17,"map":"koth_viaduct","folder":"tf","game":"Team Fortress","app_id":440,"player_count":0,"max_players":24,"Bots":0,"server_type":"Dedicated","server_os":"Linux","password":true,"vac":true,"version":"7757534","steam_id":85568392924469994,"keywords":["cp","nocrits","nodmgspread","uncletopia"],"game_id":440,"stv_port":27026,"stv_name":"Uncletopia | New York City | 2 | All Maps | STV","players":null},{"server_id":15,"name":"Uncletopia | New York City | 3 | Stopwatch Beta","name_short":"nyc-3","host":"nyc-1.us.uncletopia.com","port":27035,"enabled":true,"region":"us-east","cc":"us","latitude":40.73061,"longitude":-73.93524,"reserved":0,"last_update":"0001-01-01T00:00:00Z","name_a2s":"Uncletopia | New York City | 3 | Stopwatch Beta","protocol":17,"map":"cp_mountainlab","folder":"tf","game":"Team Fortress","app_id":440,"player_count":0,"max_players":24,"Bots":0,"server_type":"Dedicated","server_os":"Linux","password":true,"vac":true,"version":"7757534","steam_id":85568392924742820,"keywords":["cp","nocrits","nodmgspread","uncletopia"],"game_id":440,"stv_port":27036,"stv_name":"Uncletopia | New York City | 3 | Stopwatch Beta | STV","players":null},{"server_id":16,"name":"Uncletopia | New York City | 4 | Community","name_short":"nyc-4","host":"nyc-1.us.uncletopia.com","port":27045,"enabled":true,"region":"us-east","cc":"us","latitude":40.73061,"longitude":-73.93524,"reserved":0,"last_update":"0001-01-01T00:00:00Z","name_a2s":"Uncletopia | New York City | 4 | Community","protocol":17,"map":"workshop/cp_logjam_rc12.ugc454812035","folder":"tf","game":"Team Fortress","app_id":440,"player_count":0,"max_players":24,"Bots":0,"server_type":"Dedicated","server_os":"Linux","password":true,"vac":true,"version":"7757534","steam_id":85568392924742821,"keywords":["cp","nocrits","nodmgspread","uncletopia"],"game_id":440,"stv_port":27046,"stv_name":"Uncletopia | New York City | 4 | Community | STV","players":null},{"server_id":142,"name":"Uncletopia | S√£o Paulo | 1 | All Maps","name_short":"sao-1","host":"sao-1.br.uncletopia.com","port":27015,"enabled":true,"region":"sa","cc":"br","latitude":-23.533773,"longitude":-46.62529,"reserved":0,"last_update":"0001-01-01T00:00:00Z","name_a2s":"Uncletopia | S√£o Paulo | 1 | All Maps","protocol":17,"map":"koth_highpass","folder":"tf","game":"Team Fortress","app_id":440,"player_count":0,"max_players":24,"Bots":0,"server_type":"Dedicated","server_os":"Linux","password":true,"vac":true,"version":"7757534","steam_id":85568392924469996,"keywords":["cp","nocrits","nodmgspread","uncletopia"],"game_id":440,"stv_port":27016,"stv_name":"Uncletopia | S√£o Paulo | 1 | All Maps | STV","players":null},{"server_id":143,"name":"Uncletopia | S√£o Paulo | 2 | All Maps","name_short":"sao-2","host":"sao-2.br.uncletopia.com","port":27015,"enabled":true,"region":"sa","cc":"br","latitude":-23.533773,"longitude":-46.62529,"reserved":0,"last_update":"0001-01-01T00:00:00Z","name_a2s":"Uncletopia | S√£o Paulo | 2 | All Maps","protocol":17,"map":"cp_process_final","folder":"tf","game":"Team Fortress","app_id":440,"player_count":0,"max_players":24,"Bots":0,"server_type":"Dedicated","server_os":"Linux","password":true,"vac":true,"version":"7757534","steam_id":85568392924485349,"keywords":["cp","nocrits","nodmgspread","uncletopia"],"game_id":440,"stv_port":27016,"stv_name":"Uncletopia | S√£o Paulo | 2 | All Maps | STV","players":null},{"server_id":7,"name":"Uncletopia | Seattle | 1 | All Maps","name_short":"sea-1","host":"sea-1.us.uncletopia.com","port":27015,"enabled":true,"region":"us-west","cc":"us","latitude":47.608013,"longitude":-122.33517,"reserved":0,"last_update":"0001-01-01T00:00:00Z","name_a2s":"Uncletopia | Seattle | 1 | All Maps","protocol":17,"map":"pl_borneo","folder":"tf","game":"Team Fortress","app_id":440,"player_count":24,"max_players":24,"Bots":0,"server_type":"Dedicated","server_os":"Linux","password":true,"vac":true,"version":"7757534","steam_id":85568392924469997,"keywords":["nocrits","nodmgspread","payload","uncletopia"],"game_id":440,"stv_port":27016,"stv_name":"Uncletopia | Seattle | 1 | All Maps | STV","players":[{"user_id":152,"name":"„Ä£dust„Ä£ -she/her-","steam_id":76561198045218909,"connected_time":1721000000000,"state":"active","ping":35},{"user_id":154,"name":"Bastee1021","steam_id":76561199456141163,"connected_time":1157000000000,"state":"active","ping":101},{"user_id":141,"name":"xd Clover","steam_id":76561198038905361,"connected_time":3654000000000,"state":"active","ping":102},{"user_id":109,"name":"Vivzen","steam_id":76561198972619900,"connected_time":7179000000000,"state":"active","ping":101},{"user_id":161,"name":" Ä.Íï§ÔΩ°.","steam_id":76561198029580420,"connected_time":1072000000000,"state":"active","ping":165},{"user_id":150,"name":"ramalama ding dong","steam_id":76561198321264704,"connected_time":2559000000000,"state":"active","ping":70},{"user_id":163,"name":"Sykes10","steam_id":76561198279623105,"connected_time":904000000000,"state":"active","ping":88},{"user_id":151,"name":"grugposter","steam_id":76561198035805348,"connected_time":2262000000000,"state":"active","ping":32},{"user_id":158,"name":"DuckyDave","steam_id":76561199080644355,"connected_time":1138000000000,"state":"active","ping":116},{"user_id":128,"name":"hoOmIN","steam_id":76561198334947079,"connected_time":5706000000000,"state":"active","ping":69},{"user_id":165,"name":"The Original Ryan","steam_id":76561197992443496,"connected_time":842000000000,"state":"active","ping":54},{"user_id":124,"name":"TheGrassMan (He/Him)","steam_id":76561198118984048,"connected_time":6037000000000,"state":"active","ping":110},{"user_id":166,"name":"Scut","steam_id":76561198973734291,"connected_time":643000000000,"state":"active","ping":67},{"user_id":144,"name":"Retrowave","steam_id":76561198061921346,"connected_time":3642000000000,"state":"active","ping":134},{"user_id":153,"name":"The Pepsi¬Æ Superbowl¬Æ!","steam_id":76561198080828981,"connected_time":1472000000000,"state":"active","ping":76},{"user_id":160,"name":"AmiableNebula","steam_id":76561198094306627,"connected_time":1124000000000,"state":"active","ping":75},{"user_id":167,"name":"siah","steam_id":76561198051881047,"connected_time":549000000000,"state":"active","ping":79},{"user_id":164,"name":"joebot","steam_id":76561197975606100,"connected_time":900000000000,"state":"active","ping":132},{"user_id":136,"name":"KingTinkerer","steam_id":76561198226856548,"connected_time":3867000000000,"state":"active","ping":75},{"user_id":162,"name":"thebestman982","steam_id":76561199001698710,"connected_time":1007000000000,"state":"active","ping":95},{"user_id":126,"name":"Ghost5x1","steam_id":76561198117418164,"connected_time":5983000000000,"state":"active","ping":121},{"user_id":130,"name":"Suu Hung","steam_id":76561198036218766,"connected_time":4797000000000,"state":"active","ping":74},{"user_id":147,"name":"ap","steam_id":76561198202273263,"connected_time":2797000000000,"state":"active","ping":103},{"user_id":170,"name":"oo","steam_id":76561198119626492,"connected_time":96000000000,"state":"active","ping":77}]},{"server_id":119,"name":"Uncletopia | Seattle | 2 | All Maps","name_short":"sea-2","host":"sea-1.us.uncletopia.com","port":27025,"enabled":true,"region":"us-west","cc":"us","latitude":47.608013,"longitude":-122.33517,"reserved":0,"last_update":"0001-01-01T00:00:00Z","name_a2s":"Uncletopia | Seattle | 2 | All Maps","protocol":17,"map":"pl_pier","folder":"tf","game":"Team Fortress","app_id":440,"player_count":6,"max_players":24,"Bots":0,"server_type":"Dedicated","server_os":"Linux","password":true,"vac":true,"version":"7757534","steam_id":85568392924469998,"keywords":["nocrits","nodmgspread","payload","uncletopia"],"game_id":440,"stv_port":27026,"stv_name":"Uncletopia | Seattle | 2 | All Maps | STV","players":[{"user_id":12,"name":"BoX_hEaD101","steam_id":76561198200875467,"connected_time":723000000000,"state":"active","ping":89},{"user_id":4,"name":"CrackedSanity","steam_id":76561198279841251,"connected_time":2928000000000,"state":"active","ping":69},{"user_id":10,"name":"Scottish meatballs.","steam_id":76561199405759754,"connected_time":966000000000,"state":"active","ping":140},{"user_id":14,"name":"Best Bleach","steam_id":76561198090216348,"connected_time":420000000000,"state":"active","ping":64},{"user_id":15,"name":"Rango-Bango","steam_id":76561198996966748,"connected_time":319000000000,"state":"active","ping":92},{"user_id":16,"name":"Nibotshooter","steam_id":76561199284825579,"connected_time":243000000000,"state":"active","ping":103}]},{"server_id":406,"name":"Uncletopia | Seattle | 3 | Stopwatch Beta","name_short":"sea-3","host":"sea-1.us.uncletopia.com","port":27035,"enabled":true,"region":"us-west","cc":"us","latitude":47.608013,"longitude":-122.33517,"reserved":0,"last_update":"0001-01-01T00:00:00Z","name_a2s":"Uncletopia | Seattle | 3 | Stopwatch Beta","protocol":17,"map":"pl_barnblitz","folder":"tf","game":"Team Fortress","app_id":440,"player_count":0,"max_players":24,"Bots":0,"server_type":"Dedicated","server_os":"Linux","password":true,"vac":true,"version":"7757534","steam_id":85568392924515217,"keywords":["nocrits","nodmgspread","payload","uncletopia"],"game_id":440,"stv_port":27036,"stv_name":"Uncletopia | Seattle | 3 | Stopwatch Beta | STV","players":null},{"server_id":17,"name":"Uncletopia | San Francisco | 1 | All Maps","name_short":"sfo-1","host":"sfo-1.us.uncletopia.com","port":27015,"enabled":true,"region":"us-west","cc":"us","latitude":37.77397,"longitude":-122.4313,"reserved":0,"last_update":"0001-01-01T00:00:00Z","name_a2s":"Uncletopia | San Francisco | 1 | All Maps","protocol":17,"map":"pl_snowycoast","folder":"tf","game":"Team Fortress","app_id":440,"player_count":0,"max_players":24,"Bots":0,"server_type":"Dedicated","server_os":"Linux","password":true,"vac":true,"version":"7757534","steam_id":85568392924469999,"keywords":["nocrits","nodmgspread","payload","uncletopia"],"game_id":440,"stv_port":27016,"stv_name":"Uncletopia | San Francisco | 1 | All Maps | STV","players":null},{"server_id":18,"name":"Uncletopia | San Francisco | 2 | All Maps","name_short":"sfo-2","host":"sfo-1.us.uncletopia.com","port":27025,"enabled":true,"region":"us-west","cc":"us","latitude":37.77397,"longitude":-122.4313,"reserved":0,"last_update":"0001-01-01T00:00:00Z","name_a2s":"Uncletopia | San Francisco | 2 | All Maps","protocol":17,"map":"koth_highpass","folder":"tf","game":"Team Fortress","app_id":440,"player_count":0,"max_players":24,"Bots":0,"server_type":"Dedicated","server_os":"Linux","password":true,"vac":true,"version":"7757534","steam_id":85568392924470000,"keywords":["cp","nocrits","nodmgspread","uncletopia"],"game_id":440,"stv_port":27026,"stv_name":"Uncletopia | San Francisco | 2 | All Maps | STV","players":null},{"server_id":19,"name":"Uncletopia | San Francisco | 3 | Stopwatch Beta","name_short":"sfo-3","host":"sfo-1.us.uncletopia.com","port":27035,"enabled":true,"region":"us-west","cc":"us","latitude":37.77397,"longitude":-122.4313,"reserved":0,"last_update":"0001-01-01T00:00:00Z","name_a2s":"Uncletopia | San Francisco | 3 | Stopwatch Beta","protocol":17,"map":"pl_borneo","folder":"tf","game":"Team Fortress","app_id":440,"player_count":0,"max_players":24,"Bots":0,"server_type":"Dedicated","server_os":"Linux","password":true,"vac":true,"version":"7757534","steam_id":85568392924742824,"keywords":["nocrits","nodmgspread","payload","uncletopia"],"game_id":440,"stv_port":27036,"stv_name":"Uncletopia | San Francisco | 3 | Stopwatch Beta | STV","players":null},{"server_id":20,"name":"Uncletopia | San Francisco | 4 | Community","name_short":"sfo-4","host":"sfo-1.us.uncletopia.com","port":27045,"enabled":true,"region":"us-west","cc":"us","latitude":37.77397,"longitude":-122.4313,"reserved":0,"last_update":"0001-01-01T00:00:00Z","name_a2s":"Uncletopia | San Francisco | 4 | Community","protocol":17,"map":"koth_highpass","folder":"tf","game":"Team Fortress","app_id":440,"player_count":0,"max_players":24,"Bots":0,"server_type":"Dedicated","server_os":"Linux","password":true,"vac":true,"version":"7757534","steam_id":85568392924742826,"keywords":["cp","nocrits","nodmgspread","uncletopia"],"game_id":440,"stv_port":27046,"stv_name":"Uncletopia | San Francisco | 4 | Community | STV","players":null},{"server_id":141,"name":"Uncletopia | Sydney | 1 | All Maps","name_short":"syd-1","host":"syd-1.au.uncletopia.com","port":27015,"enabled":true,"region":"au","cc":"au","latitude":-33.865143,"longitude":151.2099,"reserved":0,"last_update":"0001-01-01T00:00:00Z","name_a2s":"Uncletopia | Sydney | 1 | All Maps","protocol":17,"map":"pl_barnblitz","folder":"tf","game":"Team Fortress","app_id":440,"player_count":0,"max_players":24,"Bots":0,"server_type":"Dedicated","server_os":"Linux","password":true,"vac":true,"version":"7757534","steam_id":85568392924470001,"keywords":["nocrits","nodmgspread","payload","uncletopia"],"game_id":440,"stv_port":27016,"stv_name":"Uncletopia | Sydney | 1 | All Maps | STV","players":null},{"server_id":123,"name":"Uncletopia | Sydney | 2 | All Maps","name_short":"syd-2","host":"syd-1.au.uncletopia.com","port":27025,"enabled":true,"region":"au","cc":"au","latitude":-33.865143,"longitude":151.2099,"reserved":0,"last_update":"0001-01-01T00:00:00Z","name_a2s":"Uncletopia | Sydney | 2 | All Maps","protocol":17,"map":"cp_altitude","folder":"tf","game":"Team Fortress","app_id":440,"player_count":0,"max_players":24,"Bots":0,"server_type":"Dedicated","server_os":"Linux","password":true,"vac":true,"version":"7757534","steam_id":85568392924470002,"keywords":["cp","nocrits","nodmgspread","uncletopia"],"game_id":440,"stv_port":27026,"stv_name":"Uncletopia | Sydney | 2 | All Maps | STV","players":null},{"server_id":395,"name":"Uncletopia | Sydney | 3 | All Maps","name_short":"syd-3","host":"syd-1.au.uncletopia.com","port":27035,"enabled":true,"region":"au","cc":"au","latitude":-33.865143,"longitude":151.2099,"reserved":0,"last_update":"0001-01-01T00:00:00Z","name_a2s":"Uncletopia | Sydney | 3 | All Maps","protocol":17,"map":"koth_cascade","folder":"tf","game":"Team Fortress","app_id":440,"player_count":0,"max_players":24,"Bots":0,"server_type":"Dedicated","server_os":"Linux","password":true,"vac":true,"version":"7757534","steam_id":85568392925194467,"keywords":["cp","nocrits","nodmgspread","uncletopia"],"game_id":440,"stv_port":27036,"stv_name":"Uncletopia | Sydney | 3 | All Maps | STV","players":null},{"server_id":396,"name":"Uncletopia | Sydney | 4 | All Maps","name_short":"syd-4","host":"syd-1.au.uncletopia.com","port":27045,"enabled":true,"region":"au","cc":"au","latitude":-33.865143,"longitude":151.2099,"reserved":0,"last_update":"0001-01-01T00:00:00Z","name_a2s":"Uncletopia | Sydney | 4 | All Maps","protocol":17,"map":"pl_frontier_final","folder":"tf","game":"Team Fortress","app_id":440,"player_count":0,"max_players":24,"Bots":0,"server_type":"Dedicated","server_os":"Linux","password":true,"vac":true,"version":"7757534","steam_id":85568392925397958,"keywords":["nocrits","nodmgspread","payload","uncletopia"],"game_id":440,"stv_port":27046,"stv_name":"Uncletopia | Sydney | 4 | All Maps | STV","players":null},{"server_id":58,"name":"Uncletopia | Sydney | 5 | Stopwatch Beta","name_short":"syd-5","host":"syd-1.au.uncletopia.com","port":27055,"enabled":true,"region":"au","cc":"au","latitude":-33.865143,"longitude":151.2099,"reserved":0,"last_update":"0001-01-01T00:00:00Z","name_a2s":"Uncletopia | Sydney | 5 | Stopwatch Beta","protocol":17,"map":"koth_lakeside_final","folder":"tf","game":"Team Fortress","app_id":440,"player_count":0,"max_players":24,"Bots":0,"server_type":"Dedicated","server_os":"Linux","password":true,"vac":true,"version":"7757534","steam_id":85568392925397959,"keywords":["cp","nocrits","nodmgspread","uncletopia"],"game_id":440,"stv_port":27056,"stv_name":"Uncletopia | Sydney | 5 | Stopwatch Beta | STV","players":null},{"server_id":59,"name":"Uncletopia | Sydney | 6 | Community","name_short":"syd-6","host":"syd-1.au.uncletopia.com","port":27065,"enabled":true,"region":"au","cc":"au","latitude":-33.865143,"longitude":151.2099,"reserved":0,"last_update":"0001-01-01T00:00:00Z","name_a2s":"Uncletopia | Sydney | 6 | Community","protocol":17,"map":"workshop/koth_slaughter_rc1.ugc1712845210","folder":"tf","game":"Team Fortress","app_id":440,"player_count":0,"max_players":24,"Bots":0,"server_type":"Dedicated","server_os":"Linux","password":true,"vac":true,"version":"7757534","steam_id":85568392925397960,"keywords":["cp","nocrits","nodmgspread","uncletopia"],"game_id":440,"stv_port":27066,"stv_name":"Uncletopia | Sydney | 6 | Community | STV","players":null},{"server_id":49,"name":"Uncletopia | Warsaw | 1 | All Maps","name_short":"waw-1","host":"waw-1.pl.uncletopia.com","port":27015,"enabled":true,"region":"eu","cc":"pl","latitude":52.2297,"longitude":21.017532,"reserved":0,"last_update":"0001-01-01T00:00:00Z","name_a2s":"","protocol":0,"map":"","folder":"","game":"","app_id":0,"player_count":0,"max_players":0,"Bots":0,"server_type":"","server_os":"","password":false,"vac":false,"version":"","steam_id":0,"keywords":null,"game_id":0,"stv_port":0,"stv_name":"","players":null},{"server_id":50,"name":"Uncletopia | Warsaw | 2 | All Maps","name_short":"waw-2","host":"waw-1.pl.uncletopia.com","port":27025,"enabled":true,"region":"eu","cc":"pl","latitude":52.2297,"longitude":21.017532,"reserved":0,"last_update":"0001-01-01T00:00:00Z","name_a2s":"Uncletopia | Warsaw | 2 | All Maps","protocol":17,"map":"koth_lakeside_final","folder":"tf","game":"Team Fortress","app_id":440,"player_count":0,"max_players":24,"Bots":0,"server_type":"Dedicated","server_os":"Linux","password":true,"vac":true,"version":"7757534","steam_id":85568392925397851,"keywords":["cp","nocrits","nodmgspread","uncletopia"],"game_id":440,"stv_port":27026,"stv_name":"Uncletopia | Warsaw | 2 | All Maps | STV","players":null},{"server_id":51,"name":"Uncletopia | Warsaw | 3 | All Maps","name_short":"waw-3","host":"waw-1.pl.uncletopia.com","port":27035,"enabled":true,"region":"eu","cc":"pl","latitude":52.2297,"longitude":21.017532,"reserved":0,"last_update":"0001-01-01T00:00:00Z","name_a2s":"Uncletopia | Warsaw | 3 | All Maps","protocol":17,"map":"koth_highpass","folder":"tf","game":"Team Fortress","app_id":440,"player_count":0,"max_players":24,"Bots":0,"server_type":"Dedicated","server_os":"Linux","password":true,"vac":true,"version":"7757534","steam_id":85568392925397852,"keywords":["cp","nocrits","nodmgspread","uncletopia"],"game_id":440,"stv_port":27036,"stv_name":"Uncletopia | Warsaw | 3 | All Maps | STV","players":null},{"server_id":52,"name":"Uncletopia | Warsaw | 4 | All Maps","name_short":"waw-4","host":"waw-1.pl.uncletopia.com","port":27045,"enabled":true,"region":"eu","cc":"pl","latitude":52.2297,"longitude":21.017532,"reserved":0,"last_update":"0001-01-01T00:00:00Z","name_a2s":"Uncletopia | Warsaw | 4 | All Maps","protocol":17,"map":"cp_sunshine","folder":"tf","game":"Team Fortress","app_id":440,"player_count":0,"max_players":24,"Bots":0,"server_type":"Dedicated","server_os":"Linux","password":true,"vac":true,"version":"7757534","steam_id":85568392925397853,"keywords":["cp","nocrits","nodmgspread","uncletopia"],"game_id":440,"stv_port":27046,"stv_name":"Uncletopia | Warsaw | 4 | All Maps | STV","players":null},{"server_id":53,"name":"Uncletopia | Warsaw | 5 | Stopwatch Beta","name_short":"waw-5","host":"waw-1.pl.uncletopia.com","port":27055,"enabled":true,"region":"eu","cc":"pl","latitude":52.2297,"longitude":21.017532,"reserved":0,"last_update":"0001-01-01T00:00:00Z","name_a2s":"Uncletopia | Warsaw | 5 | Stopwatch Beta","protocol":17,"map":"pl_barnblitz","folder":"tf","game":"Team Fortress","app_id":440,"player_count":0,"max_players":24,"Bots":0,"server_type":"Dedicated","server_os":"Linux","password":true,"vac":true,"version":"7757534","steam_id":85568392925397854,"keywords":["nocrits","nodmgspread","payload","uncletopia"],"game_id":440,"stv_port":27056,"stv_name":"Uncletopia | Warsaw | 5 | Stopwatch Beta | STV","players":null},{"server_id":54,"name":"Uncletopia | Warsaw | 6 | Community","name_short":"waw-6","host":"waw-1.pl.uncletopia.com","port":27065,"enabled":true,"region":"eu","cc":"pl","latitude":52.2297,"longitude":21.017532,"reserved":0,"last_update":"0001-01-01T00:00:00Z","name_a2s":"Uncletopia | Warsaw | 6 | Community","protocol":17,"map":"pl_swiftwater_final1","folder":"tf","game":"Team Fortress","app_id":440,"player_count":0,"max_players":24,"Bots":0,"server_type":"Dedicated","server_os":"Linux","password":true,"vac":true,"version":"7757534","steam_id":85568392925397856,"keywords":["nocrits","nodmgspread","payload","uncletopia"],"game_id":440,"stv_port":27066,"stv_name":"Uncletopia | Warsaw | 6 | Community | STV","players":null}]}