{"status":true,"message":"","result":[{"server_id":9,"name":"Uncletopia | Atlanta | 1 | All Maps","name_short":"atl-1","host":"atl-1.us.uncletopia.com","port":27015,"enabled":true,"region":"us-east","cc":"us","latitude":33.753746,"longitude":-84.38633,"reserved":0,"last_update":"0001-01-01T00:00:00Z","name_a2s":"Uncletopia | Atlanta | 1 | All Maps","protocol":17,"map":"cp_steel","folder":"tf","game":"Team Fortress","app_id":440,"player_count":24,"max_players":24,"Bots":0,"server_type":"Dedicated","server_os":"Linux","password":true,"vac":true,"version":"7757534","steam_id":85568392924469982,"keywords":["cp","nocrits","nodmgspread","uncletopia"],"game_id":440,"stv_port":27016,"stv_name":"Uncletopia | Atlanta | 1 | All Maps | STV","players":[{"user_id":734,"name":"Marshall","steam_id":76561198042570322,"connected_time":2230000000000,"state":"active","ping":71},{"user_id":748,"name":"â‡Œ StriKeR â‡‹","steam_id":76561199389089862,"connected_time":807000000000,"state":"active","ping":152},{"user_id":750,"name":"Blu1 Quality","steam_id":76561198361132101,"connected_time":783000000000,"state":"active","ping":74},{"user_id":701,"name":"ATL1 | Kramer","steam_id":76561198083595936,"connected_time":5220000000000,"state":"active","ping":63},{"user_id":743,"name":"Ä 1 â™¦ Synth","steam_id":76561198058660228,"connected_time":1692000000000,"state":"active","ping":44},{"user_id":756,"name":"The Luigi","steam_id":76561199184140541,"connected_time":362000000000,"state":"active","ping":57},{"user_id":731,"name":"hamal cine","steam_id":76561198079619374,"connected_time":2479000000000,"state":"active","ping":58},{"user_id":759,"name":"shaderoses","steam_id":76561198070800500,"connected_time":39000000000,"state":"active","ping":63},{"user_id":746,"name":"Uncle Majic the Hip Hop Magicia","steam_id":76561198107924303,"connected_time":1245000000000,"state":"active","ping":75},{"user_id":735,"name":"Pizza","steam_id":76561198118748364,"connected_time":2193000000000,"state":"active","ping":60},{"user_id":727,"name":"HARRY","steam_id":76561198842067238,"connected_time":2608000000000,"state":"active","ping":66},{"user_id":752,"name":"3fu23141wv6fn46y","steam_id":76561199383789041,"connected_time":766000000000,"state":"active","ping":174},{"user_id":758,"name":"dog","steam_id":76561198263873491,"connected_time":208000000000,"state":"active","ping":53},{"user_id":738,"name":"KodaksLawyer","steam_id":76561198085195754,"connected_time":2059000000000,"state":"active","ping":61},{"user_id":737,"name":"Kamikazedoctor","steam_id":76561198157078818,"connected_time":2098000000000,"state":"active","ping":81},{"user_id":740,"name":"Yukon Cornelius","steam_id":76561198261512781,"connected_time":2016000000000,"state":"active","ping":51},{"user_id":753,"name":"keffers","steam_id":76561198202338796,"connected_time":759000000000,"state":"active","ping":105},{"user_id":757,"name":"Karma","steam_id":76561198030565234,"connected_time":266000000000,"state":"active","ping":75},{"user_id":726,"name":"SamFec","steam_id":76561198414538682,"connected_time":2624000000000,"state":"active","ping":105},{"user_id":733,"name":"K2f","steam_id":76561198049600563,"connected_time":2447000000000,"state":"active","ping":83},{"user_id":638,"name":"Uganda Knuckles lll","steam_id":76561199121276474,"connected_time":10144000000000,"state":"active","ping":77},{"user_id":681,"name":"âœ¯Agent Ã†120âœ¯","steam_id":76561198202370363,"connected_time":6625000000000,"state":"active","ping":75},{"user_id":754,"name":"Nightfall","steam_id":76561198169718867,"connected_time":744000000000,"state":"active","ping":102},{"user_id":744,"name":"Young-OG","steam_id":76561198058800479,"connected_time":1446000000000,"state":"active","ping":70}]},{"server_id":400,"name":"Uncletopia | Atlanta | 3 | Community","name_short":"atl-3","host":"atl-1.us.uncletopia.com","port":27035,"enabled":true,"region":"us-east","cc":"us","latitude":33.753746,"longitude":-84.38633,"reserved":0,"last_update":"0001-01-01T00:00:00Z","name_a2s":"Uncletopia | Atlanta | 3 | Community","protocol":17,"map":"workshop/pl_boundary_final1.ugc456799153","folder":"tf","game":"Team Fortress","app_id":440,"player_count":0,"max_players":24,"Bots":0,"server_type":"Dedicated","server_os":"Linux","password":true,"vac":true,"version":"7757534","steam_id":85568392924515187,"keywords":["nocrits","nodmgspread","payload","uncletopia"],"game_id":440,"stv_port":27036,"stv_name":"Uncletopia | Atlanta | 3 | Community | STV","players":null},{"server_id":401,"name":"Uncletopia | Atlanta | 4 | No Payload","name_short":"atl-4","host":"atl-1.us.uncletopia.com","port":27045,"enabled":true,"region":"us-east","cc":"us","latitude":33.753746,"longitude":-84.38633,"reserved":0,"last_update":"0001-01-01T00:00:00Z","name_a2s":"","protocol":0,"map":"","folder":"","game":"","app_id":0,"player_count":0,"max_players":0,"Bots":0,"server_type":"","server_os":"","password":false,"vac":false,"version":"","steam_id":0,"keywords":null,"game_id":0,"stv_port":0,"stv_name":"","players":null},{"server_id":2,"name":"Uncletopia | Chicago | 1 | All Maps","name_short":"chi-1","host":"chi-1.us.uncletopia.com","port":27015,"enabled":true,"region":"us-central","cc":"us","latitude":41.881832,"longitude":-87.62318,"reserved":0,"last_update":"0001-01-01T00:00:00Z","name_a2s":"Uncletopia | Chicago | 1 | All Maps","protocol":17,"map":"pl_badwater","folder":"tf","game":"Team Fortress","app_id":440,"player_count":24,"max_players":24,"Bots":0,"server_type":"Dedicated","server_os":"Linux","password":true,"vac":true,"version":"7757534","steam_id":85568392924469984,"keywords":["nocrits","nodmgspread","payload","uncletopia"],"game_id":440,"stv_port":27016,"stv_name":"Uncletopia | Chicago | 1 | All Maps | STV","players":[{"user_id":417,"name":"Trucker","steam_id":76561198849343232,"connected_time":183000000000,"state":"active","ping":60},{"user_id":382,"name":"MR.Badatgames","steam_id":76561198820423721,"connected_time":3692000000000,"state":"active","ping":46},{"user_id":412,"name":"Jimmy","steam_id":76561198059948196,"connected_time":221000000000,"state":"active","ping":87},{"user_id":405,"name":"amablehughes","steam_id":76561199007131236,"connected_time":887000000000,"state":"active","ping":84},{"user_id":413,"name":"Ka Xin Yu","steam_id":76561198057116531,"connected_time":220000000000,"state":"active","ping":54},{"user_id":401,"name":"The strongest â‘¨ ball","steam_id":76561198126760743,"connected_time":1152000000000,"state":"active","ping":71},{"user_id":332,"name":"Astoriae!","steam_id":76561199090168858,"connected_time":7619000000000,"state":"active","ping":68},{"user_id":414,"name":"drinkos","steam_id":76561198261556166,"connected_time":220000000000,"state":"active","ping":30},{"user_id":392,"name":"Snom","steam_id":76561198333827920,"connected_time":2114000000000,"state":"active","ping":90},{"user_id":402,"name":"Cleric","steam_id":76561198045887994,"connected_time":1107000000000,"state":"active","ping":45},{"user_id":326,"name":"Furry Saul Goodman","steam_id":76561198069580305,"connected_time":7980000000000,"state":"active","ping":53},{"user_id":389,"name":"Chezburgures","steam_id":76561198173043730,"connected_time":2724000000000,"state":"active","ping":90},{"user_id":415,"name":"bobby peanstalk","steam_id":76561198040495463,"connected_time":217000000000,"state":"active","ping":62},{"user_id":278,"name":"blob","steam_id":76561198122375328,"connected_time":10841000000000,"state":"active","ping":68},{"user_id":416,"name":"MajesticYEEE","steam_id":76561198882470932,"connected_time":215000000000,"state":"active","ping":51},{"user_id":383,"name":"ShitsandGigglesâ„¢","steam_id":76561198058708019,"connected_time":3554000000000,"state":"active","ping":53},{"user_id":403,"name":"Spex","steam_id":76561198404566859,"connected_time":894000000000,"state":"active","ping":70},{"user_id":394,"name":"Marisuh","steam_id":76561198843890616,"connected_time":1768000000000,"state":"active","ping":84},{"user_id":411,"name":"Fresh","steam_id":76561199006338675,"connected_time":264000000000,"state":"active","ping":58},{"user_id":384,"name":"Thatoneguybunchanumbers","steam_id":76561198028039160,"connected_time":3385000000000,"state":"active","ping":80},{"user_id":344,"name":"Adam (Cursed Confetti Creature)","steam_id":76561198317690197,"connected_time":6438000000000,"state":"active","ping":45},{"user_id":410,"name":"Samsiel","steam_id":76561198094134951,"connected_time":384000000000,"state":"active","ping":108},{"user_id":343,"name":"Gabinator32","steam_id":76561198872467183,"connected_time":6453000000000,"state":"active","ping":47},{"user_id":398,"name":"jrmadmallard","steam_id":76561198275994616,"connected_time":1705000000000,"state":"active","ping":118}]},{"server_id":106,"name":"Uncletopia | Chicago | 2 | All Maps","name_short":"chi-2","host":"chi-1.us.uncletopia.com","port":27025,"enabled":true,"region":"us-central","cc":"us","latitude":41.881832,"longitude":-87.62318,"reserved":0,"last_update":"0001-01-01T00:00:00Z","name_a2s":"Uncletopia | Chicago | 2 | All Maps","protocol":17,"map":"pl_frontier_final","folder":"tf","game":"Team Fortress","app_id":440,"player_count":24,"max_players":24,"Bots":0,"server_type":"Dedicated","server_os":"Linux","password":true,"vac":true,"version":"7757534","steam_id":85568392924469985,"keywords":["nocrits","nodmgspread","payload","uncletopia"],"game_id":440,"stv_port":27026,"stv_name":"Uncletopia | Chicago | 2 | All Maps | STV","players":[{"user_id":362,"name":"greg","steam_id":76561199195205705,"connected_time":684000000000,"state":"active","ping":84},{"user_id":270,"name":"Dr. Dick","steam_id":76561198138011922,"connected_time":7819000000000,"state":"active","ping":74},{"user_id":360,"name":"edwinbrood","steam_id":76561198044848769,"connected_time":1048000000000,"state":"active","ping":61},{"user_id":334,"name":"Balerion the Black Dread","steam_id":76561198003728369,"connected_time":3888000000000,"state":"active","ping":84},{"user_id":354,"name":"wheat","steam_id":76561197971158435,"connected_time":1512000000000,"state":"active","ping":53},{"user_id":357,"name":"Crunchy Pancake","steam_id":76561198002555973,"connected_time":1151000000000,"state":"active","ping":73},{"user_id":314,"name":"Hooked","steam_id":76561198007302139,"connected_time":5106000000000,"state":"active","ping":75},{"user_id":351,"name":"meth pen","steam_id":76561198040889645,"connected_time":2637000000000,"state":"active","ping":87},{"user_id":345,"name":"static","steam_id":76561198075855372,"connected_time":2705000000000,"state":"active","ping":61},{"user_id":365,"name":"Toast","steam_id":76561198234616616,"connected_time":586000000000,"state":"active","ping":69},{"user_id":346,"name":"Idiot on his Keyboard","steam_id":76561198217662787,"connected_time":2701000000000,"state":"active","ping":87},{"user_id":355,"name":"Brownser","steam_id":76561198263895597,"connected_time":1508000000000,"state":"active","ping":76},{"user_id":361,"name":"Kat","steam_id":76561198032533803,"connected_time":940000000000,"state":"active","ping":92},{"user_id":330,"name":"cheetaz","steam_id":76561198224614084,"connected_time":4199000000000,"state":"active","ping":68},{"user_id":347,"name":"inferno","steam_id":76561198053733137,"connected_time":2694000000000,"state":"active","ping":76},{"user_id":356,"name":".JIFF","steam_id":76561198045181760,"connected_time":1155000000000,"state":"active","ping":60},{"user_id":366,"name":"SofaKing","steam_id":76561198176691859,"connected_time":431000000000,"state":"active","ping":101},{"user_id":322,"name":"capybara","steam_id":76561198843437081,"connected_time":4337000000000,"state":"active","ping":102},{"user_id":316,"name":"Anthid","steam_id":76561198074493797,"connected_time":4756000000000,"state":"active","ping":61},{"user_id":367,"name":"batscovethe2nd","steam_id":76561199109923603,"connected_time":363000000000,"state":"active","ping":80},{"user_id":279,"name":"A Puppy","steam_id":76561198828184456,"connected_time":6749000000000,"state":"active","ping":60},{"user_id":353,"name":"daffodil","steam_id":76561198049480053,"connected_time":1952000000000,"state":"active","ping":61},{"user_id":308,"name":"Piyono","steam_id":76561197962188504,"connected_time":5471000000000,"state":"active","ping":74},{"user_id":311,"name":"Sick Lia :c","steam_id":76561198151569597,"connected_time":5407000000000,"state":"active","ping":147}]},{"server_id":402,"name":"Uncletopia | Chicago | 3 | All Maps","name_short":"chi-3","host":"chi-1.us.uncletopia.com","port":27035,"enabled":true,"region":"us-central","cc":"us","latitude":41.881832,"longitude":-87.62318,"reserved":0,"last_update":"0001-01-01T00:00:00Z","name_a2s":"Uncletopia | Chicago | 3 | All Maps","protocol":17,"map":"pl_frontier_final","folder":"tf","game":"Team Fortress","app_id":440,"player_count":24,"max_players":24,"Bots":0,"server_type":"Dedicated","server_os":"Linux","password":true,"vac":true,"version":"7757534","steam_id":85568392924515191,"keywords":["nocrits","nodmgspread","payload","uncletopia"],"game_id":440,"stv_port":27036,"stv_name":"Uncletopia | Chicago | 3 | All Maps | STV","players":[{"user_id":370,"name":"ReDiculous22","steam_id":76561198038391383,"connected_time":1372000000000,"state":"active","ping":61},{"user_id":381,"name":"bad demoman","steam_id":76561198372994028,"connected_time":784000000000,"state":"active","ping":146},{"user_id":282,"name":"Wilhelmktx","steam_id":76561198158102295,"connected_time":7276000000000,"state":"active","ping":56},{"user_id":317,"name":"[BBW] Justario","steam_id":76561198016095410,"connected_time":5393000000000,"state":"active","ping":74},{"user_id":343,"name":"Cyber Cylon","steam_id":76561198048972781,"connected_time":3366000000000,"state":"active","ping":59},{"user_id":371,"name":"Feared Gamer","steam_id":76561198350127514,"connected_time":1319000000000,"state":"active","ping":63},{"user_id":362,"name":"GooniOoni","steam_id":76561198102154561,"connected_time":2012000000000,"state":"active","ping":47},{"user_id":382,"name":"Amogous Supreme","steam_id":76561198025476774,"connected_time":780000000000,"state":"active","ping":103},{"user_id":372,"name":"BernardBull","steam_id":76561198036138813,"connected_time":1208000000000,"state":"active","ping":83},{"user_id":380,"name":"Taco","steam_id":76561198158621392,"connected_time":799000000000,"state":"active","ping":54},{"user_id":391,"name":"Morbius","steam_id":76561198255249600,"connected_time":167000000000,"state":"active","ping":83},{"user_id":363,"name":"Interrobang","steam_id":76561198385044529,"connected_time":1998000000000,"state":"active","ping":153},{"user_id":366,"name":"Cheeeeeeeen","steam_id":76561198986388085,"connected_time":1976000000000,"state":"active","ping":107},{"user_id":389,"name":"butch cowboy monkey","steam_id":76561198097175164,"connected_time":227000000000,"state":"active","ping":82},{"user_id":331,"name":"Razz","steam_id":76561198158027533,"connected_time":4373000000000,"state":"active","ping":44},{"user_id":321,"name":"[BBC] manfart2021","steam_id":76561198252511840,"connected_time":5377000000000,"state":"active","ping":57},{"user_id":332,"name":"Rex","steam_id":76561198138365053,"connected_time":4368000000000,"state":"active","ping":126},{"user_id":379,"name":"Cdesmondd","steam_id":76561198072774462,"connected_time":811000000000,"state":"active","ping":64},{"user_id":354,"name":"Dieu-Sama","steam_id":76561198002075862,"connected_time":2524000000000,"state":"active","ping":84},{"user_id":383,"name":"Nerpuge","steam_id":76561198032316546,"connected_time":768000000000,"state":"active","ping":92},{"user_id":378,"name":"Satan","steam_id":76561198049821475,"connected_time":865000000000,"state":"active","ping":84},{"user_id":347,"name":"SexySpectacles","steam_id":76561198211449103,"connected_time":3223000000000,"state":"active","ping":64},{"user_id":387,"name":"Laundry","steam_id":76561198106170346,"connected_time":586000000000,"state":"active","ping":95},{"user_id":388,"name":"DuckMann","steam_id":76561198197058638,"connected_time":327000000000,"state":"active","ping":75}]},{"server_id":403,"name":"Uncletopia | Chicago | 4 | All Maps","name_short":"chi-4","host":"chi-1.us.uncletopia.com","port":27045,"enabled":true,"region":"us-central","cc":"us","latitude":41.881832,"longitude":-87.62318,"reserved":0,"last_update":"0001-01-01T00:00:00Z","name_a2s":"Uncletopia | Chicago | 4 | All Maps","protocol":17,"map":"cp_snakewater_final1","folder":"tf","game":"Team Fortress","app_id":440,"player_count":24,"max_players":24,"Bots":0,"server_type":"Dedicated","server_os":"Linux","password":true,"vac":true,"version":"7757534","steam_id":85568392924515193,"keywords":["cp","nocrits","nodmgspread","uncletopia"],"game_id":440,"stv_port":27046,"stv_name":"Uncletopia | Chicago | 4 | All Maps | STV","players":[{"user_id":507,"name":"GummybearKillr","steam_id":76561198031235750,"connected_time":1641000000000,"state":"active","ping":69},{"user_id":459,"name":"2000 late","steam_id":76561198072179483,"connected_time":4595000000000,"state":"active","ping":90},{"user_id":488,"name":"smuffy","steam_id":76561198091459506,"connected_time":2801000000000,"state":"active","ping":73},{"user_id":530,"name":"McGangBang","steam_id":76561198862379865,"connected_time":271000000000,"state":"active","ping":53},{"user_id":505,"name":"Athaz","steam_id":76561198296557673,"connected_time":1803000000000,"state":"active","ping":75},{"user_id":529,"name":"the blade","steam_id":76561198068039870,"connected_time":351000000000,"state":"active","ping":75},{"user_id":514,"name":"JTD1019","steam_id":76561198131179444,"connected_time":1003000000000,"state":"active","ping":71},{"user_id":490,"name":"Bumsickle42","steam_id":76561198805635571,"connected_time":2777000000000,"state":"active","ping":103},{"user_id":493,"name":"Moshi Man","steam_id":76561198038249762,"connected_time":2543000000000,"state":"active","ping":47},{"user_id":523,"name":"Project Dusk","steam_id":76561198193521149,"connected_time":642000000000,"state":"active","ping":91},{"user_id":516,"name":"MidSobbes08","steam_id":76561199013101925,"connected_time":962000000000,"state":"active","ping":89},{"user_id":511,"name":"[rat] ennui","steam_id":76561198054279302,"connected_time":1390000000000,"state":"active","ping":49},{"user_id":496,"name":"ChicklePips","steam_id":76561198168478350,"connected_time":2244000000000,"state":"active","ping":82},{"user_id":474,"name":"worm","steam_id":76561197980239135,"connected_time":4475000000000,"state":"active","ping":64},{"user_id":525,"name":"roman","steam_id":76561198170066797,"connected_time":537000000000,"state":"active","ping":71},{"user_id":472,"name":"Kaluka","steam_id":76561198036861445,"connected_time":4535000000000,"state":"active","ping":77},{"user_id":519,"name":"Kthatsit77","steam_id":76561199175000489,"connected_time":914000000000,"state":"active","ping":122},{"user_id":498,"name":"my race is tortellinian","steam_id":76561198094425158,"connected_time":2203000000000,"state":"active","ping":58},{"user_id":536,"name":"scrapheap","steam_id":76561198202407087,"connected_time":80000000000,"state":"active","ping":74},{"user_id":532,"name":"Skoomer","steam_id":76561198034414784,"connected_time":201000000000,"state":"active","ping":82},{"user_id":422,"name":"gasparmx","steam_id":76561197998611994,"connected_time":6490000000000,"state":"active","ping":108},{"user_id":494,"name":"eThaNos","steam_id":76561198035403279,"connected_time":2452000000000,"state":"active","ping":81},{"user_id":534,"name":"Del","steam_id":76561198878578791,"connected_time":122000000000,"state":"active","ping":95},{"user_id":504,"name":"Carpicious","steam_id":76561198426619665,"connected_time":1854000000000,"state":"active","ping":109}]},{"server_id":36,"name":"Uncletopia | Chicago | 5 | All Maps","name_short":"chi-5","host":"chi-2.us.uncletopia.com","port":27015,"enabled":true,"region":"us-central","cc":"us","latitude":41.881832,"longitude":-87.62318,"reserved":0,"last_update":"0001-01-01T00:00:00Z","name_a2s":"Uncletopia | Chicago | 5 | All Maps","protocol":17,"map":"pl_upward","folder":"tf","game":"Team Fortress","app_id":440,"player_count":24,"max_players":24,"Bots":0,"server_type":"Dedicated","server_os":"Linux","password":true,"vac":true,"version":"7757534","steam_id":85568392924866362,"keywords":["nocrits","nodmgspread","payload","uncletopia"],"game_id":440,"stv_port":27016,"stv_name":"Uncletopia | Chicago | 5 | All Maps | STV","players":[{"user_id":204,"name":"The World's Softest Sandwich","steam_id":76561198015577707,"connected_time":1089000000000,"state":"active","ping":69},{"user_id":217,"name":"dawg","steam_id":76561198019444443,"connected_time":372000000000,"state":"active","ping":89},{"user_id":159,"name":"â˜¼ gamble","steam_id":76561198074180953,"connected_time":3292000000000,"state":"active","ping":70},{"user_id":220,"name":"Supr","steam_id":76561198093790672,"connected_time":251000000000,"state":"active","ping":63},{"user_id":162,"name":"Windex","steam_id":76561198105561395,"connected_time":2947000000000,"state":"active","ping":80},{"user_id":206,"name":"Frien :3","steam_id":76561199078988456,"connected_time":1074000000000,"state":"active","ping":110},{"user_id":221,"name":"Rudy","steam_id":76561198013456828,"connected_time":247000000000,"state":"active","ping":60},{"user_id":155,"name":"Cambonieboo","steam_id":76561198139174433,"connected_time":3967000000000,"state":"active","ping":90},{"user_id":154,"name":"a1ex","steam_id":76561198341411993,"connected_time":3976000000000,"state":"active","ping":67},{"user_id":167,"name":"Luis wid a mic","steam_id":76561198349570006,"connected_time":2901000000000,"state":"active","ping":59},{"user_id":222,"name":"Bassman","steam_id":76561198083440914,"connected_time":187000000000,"state":"active","ping":76},{"user_id":216,"name":"ITSYOURBOYBUTTER","steam_id":76561199391393630,"connected_time":438000000000,"state":"active","ping":103},{"user_id":218,"name":"Real_Beanos","steam_id":76561198362127180,"connected_time":306000000000,"state":"active","ping":89},{"user_id":214,"name":"foreskin gaming","steam_id":76561198113407992,"connected_time":492000000000,"state":"active","ping":64},{"user_id":196,"name":"Asuka Langley","steam_id":76561198157732609,"connected_time":1399000000000,"state":"active","ping":141},{"user_id":187,"name":"Hi, I'm Jesus","steam_id":76561198015327152,"connected_time":1809000000000,"state":"active","ping":66},{"user_id":219,"name":"Salad","steam_id":76561198842089895,"connected_time":288000000000,"state":"active","ping":66},{"user_id":213,"name":"SwingDickerson","steam_id":76561198045542926,"connected_time":547000000000,"state":"active","ping":42},{"user_id":203,"name":"Lullaby","steam_id":76561198061103166,"connected_time":1302000000000,"state":"active","ping":59},{"user_id":215,"name":"Bacon Stripper","steam_id":76561198012828731,"connected_time":491000000000,"state":"active","ping":51},{"user_id":158,"name":"Jar Jar Kinks","steam_id":76561199087748803,"connected_time":3316000000000,"state":"active","ping":90},{"user_id":197,"name":"GreenApples","steam_id":76561198120559543,"connected_time":1394000000000,"state":"active","ping":91},{"user_id":178,"name":"hummus in my tummus","steam_id":76561199438698036,"connected_time":2327000000000,"state":"active","ping":53},{"user_id":199,"name":"ProfessorCagan","steam_id":76561198141372356,"connected_time":1386000000000,"state":"active","ping":47}]},{"server_id":37,"name":"Uncletopia | Chicago | 6 | All Maps","name_short":"chi-6","host":"chi-2.us.uncletopia.com","port":27025,"enabled":true,"region":"us-central","cc":"us","latitude":41.881832,"longitude":-87.62318,"reserved":0,"last_update":"0001-01-01T00:00:00Z","name_a2s":"Uncletopia | Chicago | 6 | All Maps","protocol":17,"map":"pl_borneo","folder":"tf","game":"Team Fortress","app_id":440,"player_count":24,"max_players":24,"Bots":0,"server_type":"Dedicated","server_os":"Linux","password":true,"vac":true,"version":"7757534","steam_id":85568392924866363,"keywords":["nocrits","nodmgspread","payload","uncletopia"],"game_id":440,"stv_port":27026,"stv_name":"Uncletopia | Chicago | 6 | All Maps | STV","players":[{"user_id":184,"name":"Gubbington","steam_id":76561198959381302,"connected_time":726000000000,"state":"active","ping":53},{"user_id":134,"name":"RandyPickleshoes [BEC]","steam_id":76561198064139260,"connected_time":2881000000000,"state":"active","ping":78},{"user_id":136,"name":"SCATTER","steam_id":76561198405168492,"connected_time":2764000000000,"state":"active","ping":80},{"user_id":169,"name":"Kiwimpediment","steam_id":76561198322781400,"connected_time":1530000000000,"state":"active","ping":76},{"user_id":159,"name":"Six","steam_id":76561198052472822,"connected_time":1966000000000,"state":"active","ping":67},{"user_id":156,"name":"TheSmolPopato","steam_id":76561199076606348,"connected_time":2106000000000,"state":"active","ping":59},{"user_id":174,"name":"Riske","steam_id":76561198115840568,"connected_time":1132000000000,"state":"active","ping":70},{"user_id":175,"name":"seeker","steam_id":76561198001293673,"connected_time":1132000000000,"state":"active","ping":77},{"user_id":185,"name":"1000 Ping","steam_id":76561198098330939,"connected_time":717000000000,"state":"active","ping":126},{"user_id":183,"name":"rathotel","steam_id":76561198208126512,"connected_time":796000000000,"state":"active","ping":85},{"user_id":186,"name":"Zin","steam_id":76561199041369507,"connected_time":704000000000,"state":"active","ping":84},{"user_id":144,"name":"name420","steam_id":76561198129374525,"connected_time":2423000000000,"state":"active","ping":90},{"user_id":187,"name":"BookBurner23","steam_id":76561198034771185,"connected_time":674000000000,"state":"active","ping":70},{"user_id":178,"name":"Team Fortress 2","steam_id":76561198045746493,"connected_time":1094000000000,"state":"active","ping":71},{"user_id":188,"name":"Cthulwho?","steam_id":76561198165550810,"connected_time":636000000000,"state":"active","ping":67},{"user_id":166,"name":"Crows!","steam_id":76561198150086324,"connected_time":1693000000000,"state":"active","ping":60},{"user_id":189,"name":"mepng","steam_id":76561199018758598,"connected_time":575000000000,"state":"active","ping":103},{"user_id":190,"name":"Howoriginal","steam_id":76561197993701184,"connected_time":566000000000,"state":"active","ping":60},{"user_id":171,"name":"clavin_","steam_id":76561198046398447,"connected_time":1232000000000,"state":"active","ping":59},{"user_id":89,"name":"Chicken Nugget","steam_id":76561198082601232,"connected_time":4953000000000,"state":"active","ping":74},{"user_id":180,"name":"Birdhorse Of Course","steam_id":76561198038997485,"connected_time":948000000000,"state":"active","ping":70},{"user_id":191,"name":"Chillin Turt","steam_id":76561198025796849,"connected_time":529000000000,"state":"active","ping":84},{"user_id":192,"name":"[DEEP] Roz257","steam_id":76561198842844532,"connected_time":441000000000,"state":"active","ping":60},{"user_id":168,"name":"live4teaching","steam_id":76561198976290051,"connected_time":1637000000000,"state":"active","ping":66}]},{"server_id":38,"name":"Uncletopia | Chicago | 7 | Stopwatch Beta","name_short":"chi-7","host":"chi-2.us.uncletopia.com","port":27035,"enabled":true,"region":"us-central","cc":"us","latitude":41.881832,"longitude":-87.62318,"reserved":0,"last_update":"0001-01-01T00:00:00Z","name_a2s":"Uncletopia | Chicago | 7 | Stopwatch Beta","protocol":17,"map":"pl_upward","folder":"tf","game":"Team Fortress","app_id":440,"player_count":0,"max_players":24,"Bots":0,"server_type":"Dedicated","server_os":"Linux","password":true,"vac":true,"version":"7757534","steam_id":85568392924866364,"keywords":["nocrits","nodmgspread","payload","uncletopia"],"game_id":440,"stv_port":27036,"stv_name":"Uncletopia | Chicago | 7 | Stopwatch Beta | STV","players":null},{"server_id":39,"name":"Uncletopia | Chicago | 8 | Community","name_short":"chi-8","host":"chi-2.us.uncletopia.com","port":27045,"enabled":true,"region":"us-central","cc":"us","latitude":41.881832,"longitude":-87.62318,"reserved":0,"last_update":"0001-01-01T00:00:00Z","name_a2s":"Uncletopia | Chicago | 8 | Community","protocol":17,"map":"workshop/koth_trenchfoot_b1a.ugc731436616","folder":"tf","game":"Team Fortress","app_id":440,"player_count":0,"max_players":24,"Bots":0,"server_type":"Dedicated","server_os":"Linux","password":true,"vac":true,"version":"7757534","steam_id":85568392924866365,"keywords":["cp","nocrits","nodmgspread","uncletopia"],"game_id":440,"stv_port":27046,"stv_name":"Uncletopia | Chicago | 8 | Community | STV","players":null},{"server_id":8,"name":"Uncletopia | Dallas | 1 | All Maps","name_short":"dal-1","host":"dal-1.us.uncletopia.com","port":27015,"enabled":true,"region":"us-central","cc":"us","latitude":32.779167,"longitude":-96.80889,"reserved":0,"last_update":"0001-01-01T00:00:00Z","name_a2s":"Uncletopia | Dallas | 1 | All Maps","protocol":17,"map":"pl_pier","folder":"tf","game":"Team Fortress","app_id":440,"player_count":12,"max_players":24,"Bots":0,"server_type":"Dedicated","server_os":"Linux","password":true,"vac":true,"version":"7757534","steam_id":85568392924469986,"keywords":["nocrits","nodmgspread","payload","uncletopia"],"game_id":440,"stv_port":27016,"stv_name":"Uncletopia | Dallas | 1 | All Maps | STV","players":[{"user_id":154,"name":"sithreis","steam_id":76561198000564263,"connected_time":64000000000,"state":"active","ping":63},{"user_id":54,"name":"Caoticaos","steam_id":76561198114800227,"connected_time":7034000000000,"state":"active","ping":148},{"user_id":155,"name":"java","steam_id":76561198030276792,"connected_time":61000000000,"state":"active","ping":53},{"user_id":156,"name":"King","steam_id":76561198010019214,"connected_time":58000000000,"state":"active","ping":57},{"user_id":143,"name":"ur dads hooker","steam_id":76561198151569766,"connected_time":1081000000000,"state":"active","ping":55},{"user_id":144,"name":"Pinetree w/ apples.","steam_id":76561198105411709,"connected_time":991000000000,"state":"active","ping":98},{"user_id":139,"name":"Colonel Salt","steam_id":76561198207009563,"connected_time":1933000000000,"state":"active","ping":46},{"user_id":152,"name":"king_nebblit","steam_id":76561199183321935,"connected_time":121000000000,"state":"active","ping":75},{"user_id":145,"name":"TrashVortex","steam_id":76561199229200288,"connected_time":951000000000,"state":"active","ping":61},{"user_id":150,"name":"NeutrinoCarrot","steam_id":76561199064279851,"connected_time":377000000000,"state":"active","ping":47},{"user_id":118,"name":"Can You Feel It Mr.Krabs","steam_id":76561198128302414,"connected_time":3661000000000,"state":"active","ping":63},{"user_id":130,"name":"Gamma","steam_id":76561198079709328,"connected_time":2665000000000,"state":"active","ping":83}]},{"server_id":108,"name":"Uncletopia | Dallas | 2 | All Maps","name_short":"dal-2","host":"dal-1.us.uncletopia.com","port":27025,"enabled":true,"region":"us-central","cc":"us","latitude":32.779167,"longitude":-96.80889,"reserved":0,"last_update":"0001-01-01T00:00:00Z","name_a2s":"Uncletopia | Dallas | 2 | All Maps","protocol":17,"map":"cp_dustbowl","folder":"tf","game":"Team Fortress","app_id":440,"player_count":24,"max_players":24,"Bots":0,"server_type":"Dedicated","server_os":"Linux","password":true,"vac":true,"version":"7757534","steam_id":85568392924469988,"keywords":["cp","nocrits","nodmgspread","uncletopia"],"game_id":440,"stv_port":27026,"stv_name":"Uncletopia | Dallas | 2 | All Maps | STV","players":[{"user_id":200,"name":"Yimberly","steam_id":76561199206923109,"connected_time":1636000000000,"state":"active","ping":84},{"user_id":217,"name":"The Notorious RBG","steam_id":76561198014275148,"connected_time":460000000000,"state":"active","ping":96},{"user_id":210,"name":"merge without looking","steam_id":76561198056702628,"connected_time":906000000000,"state":"active","ping":39},{"user_id":208,"name":"Ricardo Chavez","steam_id":76561198129389124,"connected_time":1128000000000,"state":"active","ping":113},{"user_id":194,"name":"A/funny/dream","steam_id":76561198354481597,"connected_time":1830000000000,"state":"active","ping":92},{"user_id":219,"name":"SapphireSundew [Lotus]","steam_id":76561198040904890,"connected_time":275000000000,"state":"active","ping":98},{"user_id":151,"name":"DeckofDragons","steam_id":76561198057398213,"connected_time":4918000000000,"state":"active","ping":69},{"user_id":195,"name":"Superman123389","steam_id":76561198267472539,"connected_time":1774000000000,"state":"active","ping":87},{"user_id":216,"name":"Brick Outhouse","steam_id":76561197976661072,"connected_time":661000000000,"state":"active","ping":85},{"user_id":196,"name":"Lord Garrard","steam_id":76561198212184303,"connected_time":1757000000000,"state":"active","ping":55},{"user_id":159,"name":"Moonflower âœ¦","steam_id":76561198191782483,"connected_time":4536000000000,"state":"active","ping":49},{"user_id":211,"name":"Red","steam_id":76561198031865869,"connected_time":819000000000,"state":"active","ping":61},{"user_id":218,"name":"That \"Spud\" Guy","steam_id":76561197997444126,"connected_time":301000000000,"state":"active","ping":105},{"user_id":220,"name":"Goldbug","steam_id":76561198025221202,"connected_time":210000000000,"state":"active","ping":90},{"user_id":213,"name":"Socialism Enjoyer","steam_id":76561197991817974,"connected_time":775000000000,"state":"active","ping":99},{"user_id":214,"name":"Shicho","steam_id":76561199191434635,"connected_time":708000000000,"state":"active","ping":99},{"user_id":172,"name":"Bullwinkle J. Moose","steam_id":76561198075977196,"connected_time":3181000000000,"state":"active","ping":60},{"user_id":186,"name":"hat kid","steam_id":76561199210229079,"connected_time":2143000000000,"state":"active","ping":45},{"user_id":223,"name":"heimdall","steam_id":76561198069380992,"connected_time":104000000000,"state":"active","ping":68},{"user_id":199,"name":"Lt. Birb","steam_id":76561199086146261,"connected_time":1700000000000,"state":"active","ping":78},{"user_id":190,"name":"Warrenator","steam_id":76561198132094572,"connected_time":1879000000000,"state":"active","ping":56},{"user_id":150,"name":"superbee","steam_id":76561199008964468,"connected_time":4942000000000,"state":"active","ping":80},{"user_id":215,"name":"Peecho","steam_id":76561199036228941,"connected_time":698000000000,"state":"active","ping":115},{"user_id":173,"name":"BOR XOR","steam_id":76561198063294776,"connected_time":2738000000000,"state":"active","ping":80}]},{"server_id":5,"name":"Uncletopia | Frankfurt | 1 | All Maps","name_short":"frk-1","host":"frk-1.de.uncletopia.com","port":27015,"enabled":true,"region":"eu","cc":"de","latitude":50.110924,"longitude":8.682127,"reserved":0,"last_update":"0001-01-01T00:00:00Z","name_a2s":"Uncletopia | Frankfurt | 1 | All Maps","protocol":17,"map":"pl_badwater","folder":"tf","game":"Team Fortress","app_id":440,"player_count":8,"max_players":24,"Bots":0,"server_type":"Dedicated","server_os":"Linux","password":true,"vac":true,"version":"7757534","steam_id":85568392924469989,"keywords":["nocrits","nodmgspread","payload","uncletopia"],"game_id":440,"stv_port":27016,"stv_name":"Uncletopia | Frankfurt | 1 | All Maps | STV","players":[{"user_id":805,"name":"Melon","steam_id":76561198150893860,"connected_time":5293000000000,"state":"active","ping":60},{"user_id":837,"name":"IronHawkâœ¨","steam_id":76561198008959448,"connected_time":2062000000000,"state":"active","ping":60},{"user_id":815,"name":"D D","steam_id":76561198257836694,"connected_time":4395000000000,"state":"active","ping":45},{"user_id":847,"name":"vani","steam_id":76561197991778291,"connected_time":660000000000,"state":"active","ping":63},{"user_id":848,"name":"trustable","steam_id":76561198894574244,"connected_time":149000000000,"state":"active","ping":180},{"user_id":846,"name":"Shads","steam_id":76561198080817039,"connected_time":934000000000,"state":"active","ping":59},{"user_id":849,"name":"Hyperek","steam_id":76561198130797464,"connected_time":83000000000,"state":"active","ping":68},{"user_id":808,"name":"Pawkey","steam_id":76561198012182113,"connected_time":4746000000000,"state":"active","ping":82}]},{"server_id":110,"name":"Uncletopia | Frankfurt | 2 | All Maps","name_short":"frk-2","host":"frk-1.de.uncletopia.com","port":27025,"enabled":true,"region":"eu","cc":"de","latitude":50.110924,"longitude":8.682127,"reserved":0,"last_update":"0001-01-01T00:00:00Z","name_a2s":"Uncletopia | Frankfurt | 2 | All Maps","protocol":17,"map":"cp_altitude","folder":"tf","game":"Team Fortress","app_id":440,"player_count":0,"max_players":24,"Bots":0,"server_type":"Dedicated","server_os":"Linux","password":true,"vac":true,"version":"7757534","steam_id":85568392924469990,"keywords":["cp","nocrits","nodmgspread","uncletopia"],"game_id":440,"stv_port":27026,"stv_name":"Uncletopia | Frankfurt | 2 | All Maps | STV","players":null},{"server_id":308,"name":"Uncletopia | Frankfurt | 3 | All Maps","name_short":"frk-3","host":"frk-1.de.uncletopia.com","port":27035,"enabled":true,"region":"eu","cc":"de","latitude":50.110924,"longitude":8.682127,"reserved":0,"last_update":"0001-01-01T00:00:00Z","name_a2s":"Uncletopia | Frankfurt | 3 | All Maps","protocol":17,"map":"pl_frontier_final","folder":"tf","game":"Team Fortress","app_id":440,"player_count":0,"max_players":24,"Bots":0,"server_type":"Dedicated","server_os":"Linux","password":true,"vac":true,"version":"7757534","steam_id":85568392924504274,"keywords":["nocrits","nodmgspread","payload","uncletopia"],"game_id":440,"stv_port":27036,"stv_name":"Uncletopia | Frankfurt | 3 | All Maps | STV","players":null},{"server_id":309,"name":"Uncletopia | Frankfurt | 4 | All Maps","name_short":"frk-4","host":"frk-1.de.uncletopia.com","port":27045,"enabled":true,"region":"eu","cc":"de","latitude":50.110924,"longitude":8.682127,"reserved":0,"last_update":"0001-01-01T00:00:00Z","name_a2s":"Uncletopia | Frankfurt | 4 | All Maps","protocol":17,"map":"pl_pier","folder":"tf","game":"Team Fortress","app_id":440,"player_count":0,"max_players":24,"Bots":0,"server_type":"Dedicated","server_os":"Linux","password":true,"vac":true,"version":"7757534","steam_id":85568392924504275,"keywords":["nocrits","nodmgspread","payload","uncletopia"],"game_id":440,"stv_port":27046,"stv_name":"Uncletopia | Frankfurt | 4 | All Maps | STV","players":null},{"server_id":310,"name":"Uncletopia | Frankfurt | 5 | All Maps","name_short":"frk-5","host":"frk-1.de.uncletopia.com","port":27055,"enabled":true,"region":"eu","cc":"de","latitude":50.110924,"longitude":8.682127,"reserved":0,"last_update":"0001-01-01T00:00:00Z","name_a2s":"Uncletopia | Frankfurt | 5 | All Maps","protocol":17,"map":"cp_mountainlab","folder":"tf","game":"Team Fortress","app_id":440,"player_count":0,"max_players":24,"Bots":0,"server_type":"Dedicated","server_os":"Linux","password":true,"vac":true,"version":"7757534","steam_id":85568392924504277,"keywords":["cp","nocrits","nodmgspread","uncletopia"],"game_id":440,"stv_port":27056,"stv_name":"Uncletopia | Frankfurt | 5 | All Maps | STV","players":null},{"server_id":311,"name":"Uncletopia | Frankfurt | 6 | All Maps","name_short":"frk-6","host":"frk-1.de.uncletopia.com","port":27065,"enabled":true,"region":"eu","cc":"de","latitude":50.110924,"longitude":8.682127,"reserved":0,"last_update":"0001-01-01T00:00:00Z","name_a2s":"Uncletopia | Frankfurt | 6 | All Maps","protocol":17,"map":"cp_process_final","folder":"tf","game":"Team Fortress","app_id":440,"player_count":0,"max_players":24,"Bots":0,"server_type":"Dedicated","server_os":"Linux","password":true,"vac":true,"version":"7757534","steam_id":85568392924504278,"keywords":["cp","nocrits","nodmgspread","uncletopia"],"game_id":440,"stv_port":27066,"stv_name":"Uncletopia | Frankfurt | 6 | All Maps | STV","players":null},{"server_id":23,"name":"Uncletopia | Frankfurt | 7 | Stopwatch Beta","name_short":"frk-7","host":"frk-1.de.uncletopia.com","port":27075,"enabled":true,"region":"eu","cc":"de","latitude":50.110924,"longitude":8.682127,"reserved":0,"last_update":"0001-01-01T00:00:00Z","name_a2s":"Uncletopia | Frankfurt | 7 | Stopwatch Beta","protocol":17,"map":"workshop/koth_product_final.ugc454272353","folder":"tf","game":"Team Fortress","app_id":440,"player_count":0,"max_players":24,"Bots":0,"server_type":"Dedicated","server_os":"Linux","password":true,"vac":true,"version":"7757534","steam_id":85568392924742827,"keywords":["cp","nocrits","nodmgspread","uncletopia"],"game_id":440,"stv_port":27076,"stv_name":"Uncletopia | Frankfurt | 7 | Stopwatch Beta | STV","players":null},{"server_id":24,"name":"Uncletopia | Frankfurt | 8 | Community","name_short":"frk-8","host":"frk-1.de.uncletopia.com","port":27085,"enabled":true,"region":"eu","cc":"de","latitude":50.110924,"longitude":8.682127,"reserved":0,"last_update":"0001-01-01T00:00:00Z","name_a2s":"Uncletopia | Frankfurt | 8 | Community","protocol":17,"map":"workshop/koth_trenchfoot_b1a.ugc731436616","folder":"tf","game":"Team Fortress","app_id":440,"player_count":0,"max_players":24,"Bots":0,"server_type":"Dedicated","server_os":"Linux","password":true,"vac":true,"version":"7757534","steam_id":85568392924742828,"keywords":["cp","nocrits","nodmgspread","uncletopia"],"game_id":440,"stv_port":27086,"stv_name":"Uncletopia | Frankfurt | 8 | Community | STV","players":null},{"server_id":202,"name":"Uncletopia | Hong Kong | 1 | All Maps","name_short":"hgk-1","host":"hgk-1.hk.uncletopia.com","port":27015,"enabled":true,"region":"asia","cc":"hk","latitude":22.302711,"longitude":114.177216,"reserved":0,"last_update":"0001-01-01T00:00:00Z","name_a2s":"Uncletopia | Hong Kong | 1 | All Maps","protocol":17,"map":"cp_dustbowl","folder":"tf","game":"Team Fortress","app_id":440,"player_count":0,"max_players":24,"Bots":0,"server_type":"Dedicated","server_os":"Linux","password":true,"vac":true,"version":"7757534","steam_id":85568392924494504,"keywords":["cp","nocrits","nodmgspread","uncletopia"],"game_id":440,"stv_port":27016,"stv_name":"Uncletopia | Hong Kong | 1 | All Maps | STV","players":null},{"server_id":1,"name":"Uncletopia | Los Angeles | 1 | All Maps","name_short":"lax-1","host":"lax-1.us.uncletopia.com","port":27015,"enabled":true,"region":"us-west","cc":"us","latitude":33.94279,"longitude":-118.41004,"reserved":0,"last_update":"0001-01-01T00:00:00Z","name_a2s":"Uncletopia | Los Angeles | 1 | All Maps","protocol":17,"map":"cp_dustbowl","folder":"tf","game":"Team Fortress","app_id":440,"player_count":24,"max_players":24,"Bots":0,"server_type":"Dedicated","server_os":"Linux","password":true,"vac":true,"version":"7757534","steam_id":85568392924469991,"keywords":["cp","nocrits","nodmgspread","uncletopia"],"game_id":440,"stv_port":27016,"stv_name":"Uncletopia | Los Angeles | 1 | All Maps | STV","players":[{"user_id":128,"name":"PUMPKIN EATER","steam_id":76561198151826836,"connected_time":2924000000000,"state":"active","ping":51},{"user_id":105,"name":"à¼˜ â‹†ËšðŸŽ§Caffeineâ˜•*Ë–Â°","steam_id":76561199259309294,"connected_time":4980000000000,"state":"active","ping":128},{"user_id":143,"name":"cup","steam_id":76561198121245586,"connected_time":1858000000000,"state":"active","ping":87},{"user_id":137,"name":"Mirari","steam_id":76561198126889358,"connected_time":2185000000000,"state":"active","ping":130},{"user_id":109,"name":"Belmore","steam_id":76561198009355231,"connected_time":4794000000000,"state":"active","ping":115},{"user_id":110,"name":"kangaroo wife","steam_id":76561198040455711,"connected_time":4725000000000,"state":"active","ping":96},{"user_id":150,"name":"ZodiacThundaga","steam_id":76561199025117814,"connected_time":369000000000,"state":"active","ping":129},{"user_id":147,"name":"azureglxy","steam_id":76561198861388315,"connected_time":847000000000,"state":"active","ping":41},{"user_id":111,"name":"f0xh0le 0ne","steam_id":76561199471269566,"connected_time":4716000000000,"state":"active","ping":78},{"user_id":148,"name":"Perididdle","steam_id":76561198056864606,"connected_time":516000000000,"state":"active","ping":79},{"user_id":132,"name":"Ghoster","steam_id":76561198329367716,"connected_time":2610000000000,"state":"active","ping":58},{"user_id":146,"name":"Shamrock Shake Oct.10.2020 @8pm","steam_id":76561198833313201,"connected_time":989000000000,"state":"active","ping":57},{"user_id":139,"name":"judesro","steam_id":76561198352244888,"connected_time":2102000000000,"state":"active","ping":142},{"user_id":124,"name":"Fruitbrute","steam_id":76561197970507995,"connected_time":3953000000000,"state":"active","ping":110},{"user_id":134,"name":"Mr. Blubber","steam_id":76561198338906916,"connected_time":2251000000000,"state":"active","ping":45},{"user_id":101,"name":"KewlPenguin69","steam_id":76561198936042791,"connected_time":5353000000000,"state":"active","ping":117},{"user_id":126,"name":"berserker_tf2 ttv","steam_id":76561198303464488,"connected_time":3356000000000,"state":"active","ping":72},{"user_id":125,"name":"â€¢GGâ€¢ Ace2020boyd","steam_id":76561197983887815,"connected_time":3941000000000,"state":"active","ping":124},{"user_id":140,"name":"UWBW","steam_id":76561198007524241,"connected_time":2083000000000,"state":"active","ping":119},{"user_id":144,"name":"spot","steam_id":76561198151135298,"connected_time":1570000000000,"state":"active","ping":41},{"user_id":97,"name":"Dauntless Duelist","steam_id":76561198025056018,"connected_time":5613000000000,"state":"active","ping":75},{"user_id":76,"name":"TTV/ChadMorningWood","steam_id":76561198139832291,"connected_time":7186000000000,"state":"active","ping":58},{"user_id":122,"name":"K4le","steam_id":76561198747668363,"connected_time":4067000000000,"state":"active","ping":56},{"user_id":145,"name":"emevas","steam_id":76561198013896818,"connected_time":1502000000000,"state":"active","ping":83}]},{"server_id":112,"name":"Uncletopia | Los Angeles | 2 | All Maps","name_short":"lax-2","host":"lax-1.us.uncletopia.com","port":27025,"enabled":true,"region":"us-west","cc":"us","latitude":33.94279,"longitude":-118.41004,"reserved":0,"last_update":"0001-01-01T00:00:00Z","name_a2s":"Uncletopia | Los Angeles | 2 | All Maps","protocol":17,"map":"koth_cascade","folder":"tf","game":"Team Fortress","app_id":440,"player_count":0,"max_players":24,"Bots":0,"server_type":"Dedicated","server_os":"Linux","password":true,"vac":true,"version":"7757534","steam_id":85568392924469992,"keywords":["cp","nocrits","nodmgspread","uncletopia"],"game_id":440,"stv_port":27026,"stv_name":"Uncletopia | Los Angeles | 2 | All Maps | STV","players":null},{"server_id":324,"name":"Uncletopia | Los Angeles | 3 | All Maps","name_short":"lax-3","host":"lax-1.us.uncletopia.com","port":27035,"enabled":true,"region":"us-west","cc":"us","latitude":33.94279,"longitude":-118.41004,"reserved":0,"last_update":"0001-01-01T00:00:00Z","name_a2s":"Uncletopia | Los Angeles | 3 | All Maps","protocol":17,"map":"pl_upward","folder":"tf","game":"Team Fortress","app_id":440,"player_count":24,"max_players":24,"Bots":0,"server_type":"Dedicated","server_os":"Linux","password":true,"vac":true,"version":"7757534","steam_id":85568392924510198,"keywords":["nocrits","nodmgspread","payload","uncletopia"],"game_id":440,"stv_port":27036,"stv_name":"Uncletopia | Los Angeles | 3 | All Maps | STV","players":[{"user_id":17,"name":"Gamer6464","steam_id":76561199133688871,"connected_time":2963000000000,"state":"active","ping":76},{"user_id":54,"name":"tum","steam_id":76561198084712019,"connected_time":913000000000,"state":"active","ping":49},{"user_id":57,"name":"Uta","steam_id":76561198271964253,"connected_time":496000000000,"state":"active","ping":95},{"user_id":11,"name":"korpzexemp4","steam_id":76561199238210426,"connected_time":3260000000000,"state":"active","ping":71},{"user_id":58,"name":"SleepySheepy","steam_id":76561198297221249,"connected_time":256000000000,"state":"active","ping":60},{"user_id":51,"name":"chimplicity","steam_id":76561198012097062,"connected_time":1168000000000,"state":"active","ping":290},{"user_id":15,"name":"HaphazardHazel","steam_id":76561198316812693,"connected_time":3092000000000,"state":"active","ping":134},{"user_id":34,"name":"AmyPercent","steam_id":76561198071896932,"connected_time":2321000000000,"state":"active","ping":76},{"user_id":18,"name":"zoo lemur","steam_id":76561198022951946,"connected_time":2753000000000,"state":"active","ping":80},{"user_id":53,"name":"SD","steam_id":76561198217410988,"connected_time":980000000000,"state":"active","ping":45},{"user_id":20,"name":"Awuga","steam_id":76561198222963936,"connected_time":2692000000000,"state":"active","ping":92},{"user_id":33,"name":"lavender","steam_id":76561199069518286,"connected_time":2356000000000,"state":"active","ping":46},{"user_id":22,"name":"Gutsled","steam_id":76561198045477064,"connected_time":2608000000000,"state":"active","ping":73},{"user_id":26,"name":"McSpazatron","steam_id":76561198955942148,"connected_time":2569000000000,"state":"active","ping":113},{"user_id":27,"name":"hockward","steam_id":76561198037307413,"connected_time":2551000000000,"state":"active","ping":73},{"user_id":55,"name":"snub","steam_id":76561198312106312,"connected_time":910000000000,"state":"active","ping":96},{"user_id":59,"name":"dash23â„¢","steam_id":76561198314951185,"connected_time":174000000000,"state":"active","ping":81},{"user_id":44,"name":"IshLexi","steam_id":76561198192185397,"connected_time":1970000000000,"state":"active","ping":103},{"user_id":49,"name":"ShredMaan","steam_id":76561198429982138,"connected_time":1241000000000,"state":"active","ping":59},{"user_id":56,"name":"Pile of Spinach","steam_id":76561198043068841,"connected_time":863000000000,"state":"active","ping":75},{"user_id":60,"name":"CatGirl__","steam_id":76561198309631990,"connected_time":164000000000,"state":"active","ping":58},{"user_id":48,"name":"join orange arrena ia m begging","steam_id":76561199033068184,"connected_time":1246000000000,"state":"active","ping":87},{"user_id":41,"name":"Comms","steam_id":76561198388364061,"connected_time":2118000000000,"state":"active","ping":46},{"user_id":61,"name":"Ava","steam_id":76561198174751517,"connected_time":159000000000,"state":"active","ping":93}]},{"server_id":25,"name":"Uncletopia | Los Angeles | 4 | Stopwatch Beta","name_short":"lax-4","host":"lax-1.us.uncletopia.com","port":27045,"enabled":true,"region":"us-west","cc":"us","latitude":33.94279,"longitude":-118.41004,"reserved":0,"last_update":"0001-01-01T00:00:00Z","name_a2s":"Uncletopia | Los Angeles | 4 | Stopwatch Beta","protocol":17,"map":"pl_frontier_final","folder":"tf","game":"Team Fortress","app_id":440,"player_count":0,"max_players":24,"Bots":0,"server_type":"Dedicated","server_os":"Linux","password":true,"vac":true,"version":"7757534","steam_id":85568392924510199,"keywords":["nocrits","nodmgspread","payload","uncletopia"],"game_id":440,"stv_port":27046,"stv_name":"Uncletopia | Los Angeles | 4 | Stopwatch Beta | STV","players":null},{"server_id":11,"name":"Uncletopia | London | 1 | All Maps","name_short":"lon-1","host":"lon-1.uk.uncletopia.com","port":27015,"enabled":true,"region":"eu","cc":"gb","latitude":51.509865,"longitude":-0.118092,"reserved":0,"last_update":"0001-01-01T00:00:00Z","name_a2s":"Uncletopia | London | 1 | All Maps","protocol":17,"map":"koth_highpass","folder":"tf","game":"Team Fortress","app_id":440,"player_count":0,"max_players":24,"Bots":0,"server_type":"Dedicated","server_os":"Linux","password":true,"vac":true,"version":"7757534","steam_id":85568392924367362,"keywords":["cp","nocrits","nodmgspread","uncletopia"],"game_id":440,"stv_port":27016,"stv_name":"Uncletopia | London | 1 | All Maps | STV","players":null},{"server_id":114,"name":"Uncletopia | London | 2 | All Maps","name_short":"lon-2","host":"lon-1.uk.uncletopia.com","port":27025,"enabled":true,"region":"eu","cc":"gb","latitude":51.509865,"longitude":-0.118092,"reserved":0,"last_update":"0001-01-01T00:00:00Z","name_a2s":"Uncletopia | London | 2 | All Maps","protocol":17,"map":"koth_viaduct","folder":"tf","game":"Team Fortress","app_id":440,"player_count":0,"max_players":24,"Bots":0,"server_type":"Dedicated","server_os":"Linux","password":true,"vac":true,"version":"7757534","steam_id":85568392924470941,"keywords":["cp","nocrits","nodmgspread","uncletopia"],"game_id":440,"stv_port":27026,"stv_name":"Uncletopia | London | 2 | All Maps | STV","players":null},{"server_id":320,"name":"Uncletopia | London | 3 | All Maps","name_short":"lon-3","host":"lon-1.uk.uncletopia.com","port":27035,"enabled":true,"region":"eu","cc":"gb","latitude":51.509865,"longitude":-0.118092,"reserved":0,"last_update":"0001-01-01T00:00:00Z","name_a2s":"Uncletopia | London | 3 | All Maps","protocol":17,"map":"plr_bananabay","folder":"tf","game":"Team Fortress","app_id":440,"player_count":0,"max_players":24,"Bots":0,"server_type":"Dedicated","server_os":"Linux","password":true,"vac":true,"version":"7757534","steam_id":85568392924510192,"keywords":["nocrits","nodmgspread","payload","uncletopia"],"game_id":440,"stv_port":27036,"stv_name":"Uncletopia | London | 3 | All Maps | STV","players":null},{"server_id":321,"name":"Uncletopia | London | 4 | All Maps","name_short":"lon-4","host":"lon-1.uk.uncletopia.com","port":27045,"enabled":true,"region":"eu","cc":"gb","latitude":51.509865,"longitude":-0.118092,"reserved":0,"last_update":"0001-01-01T00:00:00Z","name_a2s":"Uncletopia | London | 4 | All Maps","protocol":17,"map":"koth_cascade","folder":"tf","game":"Team Fortress","app_id":440,"player_count":0,"max_players":24,"Bots":0,"server_type":"Dedicated","server_os":"Linux","password":true,"vac":true,"version":"7757534","steam_id":85568392924510193,"keywords":["cp","nocrits","nodmgspread","uncletopia"],"game_id":440,"stv_port":27046,"stv_name":"Uncletopia | London | 4 | All Maps | STV","players":null},{"server_id":21,"name":"Uncletopia | London | 5 | All Maps","name_short":"lon-5","host":"lon-1.uk.uncletopia.com","port":27055,"enabled":true,"region":"eu","cc":"gb","latitude":51.509865,"longitude":-0.118092,"reserved":0,"last_update":"0001-01-01T00:00:00Z","name_a2s":"Uncletopia | London | 5 | All Maps","protocol":17,"map":"cp_dustbowl","folder":"tf","game":"Team Fortress","app_id":440,"player_count":22,"max_players":24,"Bots":0,"server_type":"Dedicated","server_os":"Linux","password":true,"vac":true,"version":"7757534","steam_id":85568392924742829,"keywords":["cp","nocrits","nodmgspread","uncletopia"],"game_id":440,"stv_port":27056,"stv_name":"Uncletopia | London | 5 | All Maps | STV","players":[{"user_id":588,"name":"SuntanPikachu","steam_id":76561198121242476,"connected_time":3412000000000,"state":"active","ping":59},{"user_id":567,"name":"Skendes","steam_id":76561198397186252,"connected_time":5977000000000,"state":"active","ping":112},{"user_id":595,"name":"Rave Robber","steam_id":76561199414716848,"connected_time":2251000000000,"state":"active","ping":75},{"user_id":607,"name":"Marty Byrde IRL","steam_id":76561199427269098,"connected_time":1091000000000,"state":"active","ping":158},{"user_id":610,"name":"boo_thefeared","steam_id":76561198127967685,"connected_time":880000000000,"state":"active","ping":49},{"user_id":574,"name":"John Ross","steam_id":76561198034560808,"connected_time":5031000000000,"state":"active","ping":55},{"user_id":602,"name":"Shlongulator","steam_id":76561198149779201,"connected_time":1710000000000,"state":"active","ping":54},{"user_id":566,"name":"Lord Maldimort","steam_id":76561198063150039,"connected_time":6115000000000,"state":"active","ping":57},{"user_id":575,"name":"kbbq","steam_id":76561198346638308,"connected_time":4610000000000,"state":"active","ping":55},{"user_id":604,"name":"Axz","steam_id":76561198057357190,"connected_time":1337000000000,"state":"active","ping":52},{"user_id":616,"name":"Thermalnight","steam_id":76561199348149583,"connected_time":45000000000,"state":"spawning","ping":213},{"user_id":598,"name":"DJ Music Man","steam_id":76561198085273364,"connected_time":2173000000000,"state":"active","ping":53},{"user_id":615,"name":"Toastie","steam_id":76561199131516082,"connected_time":565000000000,"state":"active","ping":70},{"user_id":586,"name":"Athomix","steam_id":76561198170108402,"connected_time":4100000000000,"state":"active","ping":79},{"user_id":612,"name":"Thalgorock","steam_id":76561198195315022,"connected_time":792000000000,"state":"active","ping":70},{"user_id":531,"name":"Hood","steam_id":76561199229682408,"connected_time":8095000000000,"state":"active","ping":36},{"user_id":601,"name":"ChPerette","steam_id":76561198060004887,"connected_time":2027000000000,"state":"active","ping":44},{"user_id":563,"name":"Matomatic","steam_id":76561198063013603,"connected_time":6322000000000,"state":"active","ping":59},{"user_id":564,"name":"pip boy","steam_id":76561197960530280,"connected_time":6314000000000,"state":"active","ping":74},{"user_id":606,"name":"Ashley","steam_id":76561198056152479,"connected_time":1301000000000,"state":"active","ping":45},{"user_id":608,"name":"Superiumentarius","steam_id":76561198081642249,"connected_time":1073000000000,"state":"active","ping":70},{"user_id":613,"name":"Bilbo Ballbaggins","steam_id":76561198070593514,"connected_time":746000000000,"state":"active","ping":44}]},{"server_id":22,"name":"Uncletopia | London | 6 | All Maps","name_short":"lon-6","host":"lon-1.uk.uncletopia.com","port":27065,"enabled":true,"region":"eu","cc":"gb","latitude":51.509865,"longitude":-0.118092,"reserved":0,"last_update":"0001-01-01T00:00:00Z","name_a2s":"Uncletopia | London | 6 | All Maps","protocol":17,"map":"koth_cascade","folder":"tf","game":"Team Fortress","app_id":440,"player_count":0,"max_players":24,"Bots":0,"server_type":"Dedicated","server_os":"Linux","password":true,"vac":true,"version":"7757534","steam_id":85568392924742830,"keywords":["cp","nocrits","nodmgspread","uncletopia"],"game_id":440,"stv_port":27066,"stv_name":"Uncletopia | London | 6 | All Maps | STV","players":null},{"server_id":40,"name":"Uncletopia | London | 7 | No Payload","name_short":"lon-7","host":"lon-1.uk.uncletopia.com","port":27075,"enabled":true,"region":"eu","cc":"gb","latitude":51.509865,"longitude":-0.118092,"reserved":0,"last_update":"0001-01-01T00:00:00Z","name_a2s":"Uncletopia | London | 7 | No Payload","protocol":17,"map":"cp_5gorge","folder":"tf","game":"Team Fortress","app_id":440,"player_count":0,"max_players":24,"Bots":0,"server_type":"Dedicated","server_os":"Linux","password":true,"vac":true,"version":"7757534","steam_id":85568392924964314,"keywords":["cp","nocrits","nodmgspread","uncletopia"],"game_id":440,"stv_port":27076,"stv_name":"Uncletopia | London | 7 | No Payload | STV","players":null},{"server_id":41,"name":"Uncletopia | London | 8 | Community","name_short":"lon-8","host":"lon-1.uk.uncletopia.com","port":27085,"enabled":true,"region":"eu","cc":"gb","latitude":51.509865,"longitude":-0.118092,"reserved":0,"last_update":"0001-01-01T00:00:00Z","name_a2s":"Uncletopia | London | 8 | Community","protocol":17,"map":"workshop/koth_kemptown_rc1.ugc767410655","folder":"tf","game":"Team Fortress","app_id":440,"player_count":0,"max_players":24,"Bots":0,"server_type":"Dedicated","server_os":"Linux","password":true,"vac":true,"version":"7757534","steam_id":85568392924964315,"keywords":["cp","nocrits","nodmgspread","uncletopia"],"game_id":440,"stv_port":27086,"stv_name":"Uncletopia | London | 8 | Community | STV","players":null},{"server_id":300,"name":"Uncletopia | MontrÃ©al | 1 | All Maps","name_short":"mtl-1","host":"mtl-1.ca.uncletopia.com","port":27015,"enabled":true,"region":"us-east","cc":"ca","latitude":45.50889,"longitude":-73.56167,"reserved":0,"last_update":"0001-01-01T00:00:00Z","name_a2s":"Uncletopia | MontrÃ©al | 1 | All Maps","protocol":17,"map":"koth_cascade","folder":"tf","game":"Team Fortress","app_id":440,"player_count":4,"max_players":24,"Bots":0,"server_type":"Dedicated","server_os":"Linux","password":true,"vac":true,"version":"7757534","steam_id":85568392924500087,"keywords":["cp","nocrits","nodmgspread","uncletopia"],"game_id":440,"stv_port":27016,"stv_name":"Uncletopia | MontrÃ©al | 1 | All Maps | STV","players":[{"user_id":13,"name":"Lays Classic Chips","steam_id":76561198128796792,"connected_time":1794000000000,"state":"active","ping":65},{"user_id":14,"name":"ó €¡ó €¡","steam_id":76561198130454292,"connected_time":1789000000000,"state":"active","ping":54},{"user_id":15,"name":"Tennessee","steam_id":76561198097586013,"connected_time":1783000000000,"state":"active","ping":68},{"user_id":16,"name":"th1cc nicc","steam_id":76561198087300791,"connected_time":1775000000000,"state":"active","ping":62}]},{"server_id":301,"name":"Uncletopia | MontrÃ©al | 2 | All Maps","name_short":"mtl-2","host":"mtl-1.ca.uncletopia.com","port":27025,"enabled":true,"region":"us-east","cc":"ca","latitude":45.50889,"longitude":-73.56167,"reserved":0,"last_update":"0001-01-01T00:00:00Z","name_a2s":"Uncletopia | MontrÃ©al | 2 | All Maps","protocol":17,"map":"pl_snowycoast","folder":"tf","game":"Team Fortress","app_id":440,"player_count":0,"max_players":24,"Bots":0,"server_type":"Dedicated","server_os":"Linux","password":true,"vac":true,"version":"7757534","steam_id":85568392924500088,"keywords":["nocrits","nodmgspread","payload","uncletopia"],"game_id":440,"stv_port":27026,"stv_name":"Uncletopia | MontrÃ©al | 2 | All Maps | STV","players":null},{"server_id":302,"name":"Uncletopia | MontrÃ©al | 3 | All Maps","name_short":"mtl-3","host":"mtl-1.ca.uncletopia.com","port":27035,"enabled":true,"region":"us-east","cc":"ca","latitude":45.50889,"longitude":-73.56167,"reserved":0,"last_update":"0001-01-01T00:00:00Z","name_a2s":"Uncletopia | MontrÃ©al | 3 | All Maps","protocol":17,"map":"pl_upward","folder":"tf","game":"Team Fortress","app_id":440,"player_count":11,"max_players":24,"Bots":0,"server_type":"Dedicated","server_os":"Linux","password":true,"vac":true,"version":"7757534","steam_id":85568392924500089,"keywords":["nocrits","nodmgspread","payload","uncletopia"],"game_id":440,"stv_port":27036,"stv_name":"Uncletopia | MontrÃ©al | 3 | All Maps | STV","players":[{"user_id":6,"name":"Droz misses shots","steam_id":76561198072555204,"connected_time":4768000000000,"state":"active","ping":68},{"user_id":7,"name":"Bagel Jesus","steam_id":76561198095798546,"connected_time":4738000000000,"state":"active","ping":75},{"user_id":75,"name":"Jetteyes","steam_id":76561198366782769,"connected_time":268000000000,"state":"active","ping":93},{"user_id":77,"name":"man","steam_id":76561199365643094,"connected_time":76000000000,"state":"active","ping":200},{"user_id":76,"name":"The Canadian Femboy","steam_id":76561199198397328,"connected_time":239000000000,"state":"active","ping":59},{"user_id":78,"name":"breakcat","steam_id":76561199446314558,"connected_time":38000000000,"state":"active","ping":154},{"user_id":44,"name":"Li","steam_id":76561198165502205,"connected_time":2347000000000,"state":"active","ping":82},{"user_id":64,"name":"Biggles","steam_id":76561198126576389,"connected_time":1203000000000,"state":"active","ping":59},{"user_id":79,"name":"Forevershooting","steam_id":76561198124213574,"connected_time":27000000000,"state":"active","ping":118},{"user_id":52,"name":"frizzle fried","steam_id":76561198062991744,"connected_time":1783000000000,"state":"active","ping":58},{"user_id":54,"name":"Turk Turkleton","steam_id":76561198073265101,"connected_time":1674000000000,"state":"active","ping":81}]},{"server_id":303,"name":"Uncletopia | MontrÃ©al | 4 | No Payload","name_short":"mtl-4","host":"mtl-1.ca.uncletopia.com","port":27045,"enabled":true,"region":"us-east","cc":"ca","latitude":45.50889,"longitude":-73.56167,"reserved":0,"last_update":"0001-01-01T00:00:00Z","name_a2s":"Uncletopia | MontrÃ©al | 4 | No Payload","protocol":17,"map":"koth_lazarus","folder":"tf","game":"Team Fortress","app_id":440,"player_count":0,"max_players":24,"Bots":0,"server_type":"Dedicated","server_os":"Linux","password":true,"vac":true,"version":"7757534","steam_id":85568392924500090,"keywords":["cp","nocrits","nodmgspread","uncletopia"],"game_id":440,"stv_port":27046,"stv_name":"Uncletopia | MontrÃ©al | 4 | No Payload | STV","players":null},{"server_id":13,"name":"Uncletopia | New York City | 1 | All Maps","name_short":"nyc-1","host":"nyc-1.us.uncletopia.com","port":27015,"enabled":true,"region":"us-east","cc":"us","latitude":40.73061,"longitude":-73.93524,"reserved":0,"last_update":"0001-01-01T00:00:00Z","name_a2s":"Uncletopia | New York City | 1 | All Maps","protocol":17,"map":"pl_upward","folder":"tf","game":"Team Fortress","app_id":440,"player_count":24,"max_players":24,"Bots":0,"server_type":"Dedicated","server_os":"Linux","password":true,"vac":true,"version":"7757534","steam_id":85568392924469993,"keywords":["nocrits","nodmgspread","payload","uncletopia"],"game_id":440,"stv_port":27016,"stv_name":"Uncletopia | New York City | 1 | All Maps | STV","players":[{"user_id":584,"name":"Calypso","steam_id":76561198082939544,"connected_time":5506000000000,"state":"active","ping":112},{"user_id":472,"name":"minecraft","steam_id":76561198023595873,"connected_time":12877000000000,"state":"active","ping":78},{"user_id":611,"name":"funny weed swag gangnam style","steam_id":76561198145264978,"connected_time":2993000000000,"state":"active","ping":102},{"user_id":595,"name":"ArcanianArcher","steam_id":76561198088445076,"connected_time":4743000000000,"state":"active","ping":57},{"user_id":594,"name":"FrumpyGoldsmith","steam_id":76561199036534127,"connected_time":4770000000000,"state":"active","ping":79},{"user_id":600,"name":"Zip-Doom","steam_id":76561198051689455,"connected_time":3310000000000,"state":"active","ping":40},{"user_id":605,"name":"FUSION","steam_id":76561197972659738,"connected_time":3189000000000,"state":"active","ping":32},{"user_id":616,"name":"The X","steam_id":76561198878504308,"connected_time":1826000000000,"state":"active","ping":63},{"user_id":620,"name":"Papyrus","steam_id":76561198133990817,"connected_time":963000000000,"state":"active","ping":58},{"user_id":617,"name":"Maxxycat","steam_id":76561198194062681,"connected_time":1825000000000,"state":"active","ping":65},{"user_id":618,"name":"Spike","steam_id":76561198141356571,"connected_time":1786000000000,"state":"active","ping":61},{"user_id":590,"name":"Sir Quacksalot","steam_id":76561198048942777,"connected_time":5058000000000,"state":"active","ping":93},{"user_id":614,"name":"Braamklauw","steam_id":76561198283287697,"connected_time":2537000000000,"state":"active","ping":139},{"user_id":625,"name":"Yuzu","steam_id":76561198417913035,"connected_time":299000000000,"state":"active","ping":75},{"user_id":596,"name":"xXBigWingmanFanXx","steam_id":76561198067904392,"connected_time":4604000000000,"state":"active","ping":58},{"user_id":602,"name":"Vivid Hut 64","steam_id":76561198170050059,"connected_time":3227000000000,"state":"active","ping":59},{"user_id":628,"name":"Kerflumple","steam_id":76561198050602757,"connected_time":79000000000,"state":"active","ping":57},{"user_id":622,"name":"LazyKoala99","steam_id":76561199183623672,"connected_time":660000000000,"state":"active","ping":59},{"user_id":627,"name":"jibby","steam_id":76561198046872382,"connected_time":159000000000,"state":"active","ping":42},{"user_id":577,"name":"MetaKrakalaka","steam_id":76561199095316646,"connected_time":5811000000000,"state":"active","ping":58},{"user_id":621,"name":"GoreFudge","steam_id":76561199080573462,"connected_time":716000000000,"state":"active","ping":151},{"user_id":629,"name":"Just Business","steam_id":76561198106600085,"connected_time":52000000000,"state":"active","ping":45},{"user_id":575,"name":"joeeeeeeeeeee","steam_id":76561198311704368,"connected_time":5864000000000,"state":"active","ping":60},{"user_id":626,"name":"Frajer","steam_id":76561198059129680,"connected_time":258000000000,"state":"active","ping":62}]},{"server_id":14,"name":"Uncletopia | New York City | 2 | All Maps","name_short":"nyc-2","host":"nyc-1.us.uncletopia.com","port":27025,"enabled":true,"region":"us-east","cc":"us","latitude":40.73061,"longitude":-73.93524,"reserved":0,"last_update":"0001-01-01T00:00:00Z","name_a2s":"Uncletopia | New York City | 2 | All Maps","protocol":17,"map":"cp_foundry","folder":"tf","game":"Team Fortress","app_id":440,"player_count":24,"max_players":24,"Bots":0,"server_type":"Dedicated","server_os":"Linux","password":true,"vac":true,"version":"7757534","steam_id":85568392924469994,"keywords":["cp","nocrits","nodmgspread","uncletopia"],"game_id":440,"stv_port":27026,"stv_name":"Uncletopia | New York City | 2 | All Maps | STV","players":[{"user_id":344,"name":"GAUGUIN","steam_id":76561198246193520,"connected_time":1973000000000,"state":"active","ping":45},{"user_id":327,"name":"MilesFireStorm","steam_id":76561198078642820,"connected_time":2589000000000,"state":"active","ping":68},{"user_id":346,"name":"Terribad","steam_id":76561198120844785,"connected_time":1607000000000,"state":"active","ping":117},{"user_id":353,"name":"NBtelethia","steam_id":76561198994219732,"connected_time":836000000000,"state":"active","ping":95},{"user_id":303,"name":"The Big","steam_id":76561198078572184,"connected_time":4222000000000,"state":"active","ping":73},{"user_id":368,"name":"somied","steam_id":76561198148357768,"connected_time":107000000000,"state":"active","ping":59},{"user_id":355,"name":"neet","steam_id":76561197968115168,"connected_time":808000000000,"state":"active","ping":45},{"user_id":351,"name":"nessie","steam_id":76561198010124074,"connected_time":932000000000,"state":"active","ping":44},{"user_id":362,"name":"Dad","steam_id":76561199091290729,"connected_time":499000000000,"state":"active","ping":94},{"user_id":366,"name":"toastman","steam_id":76561198207073088,"connected_time":250000000000,"state":"active","ping":70},{"user_id":357,"name":"king dedede","steam_id":76561198965562679,"connected_time":772000000000,"state":"active","ping":64},{"user_id":324,"name":"DazzlingMaggot","steam_id":76561197972716928,"connected_time":2662000000000,"state":"active","ping":66},{"user_id":338,"name":"Room","steam_id":76561199174579733,"connected_time":2098000000000,"state":"active","ping":55},{"user_id":323,"name":"CUM MAN","steam_id":76561198046852298,"connected_time":2723000000000,"state":"active","ping":58},{"user_id":350,"name":"GogsCrunchyNuts","steam_id":76561198150599213,"connected_time":1017000000000,"state":"active","ping":162},{"user_id":367,"name":"Millerâ„¢","steam_id":76561198085090516,"connected_time":187000000000,"state":"active","ping":73},{"user_id":310,"name":"AveraGeo","steam_id":76561198216949631,"connected_time":4103000000000,"state":"active","ping":78},{"user_id":359,"name":"mr.edderkopper","steam_id":76561198152614478,"connected_time":692000000000,"state":"active","ping":95},{"user_id":360,"name":"Savage","steam_id":76561198260358041,"connected_time":654000000000,"state":"active","ping":82},{"user_id":313,"name":"on that zaza?","steam_id":76561198038713198,"connected_time":3990000000000,"state":"active","ping":48},{"user_id":361,"name":"Zalafrizon","steam_id":76561198354513978,"connected_time":580000000000,"state":"active","ping":69},{"user_id":317,"name":"moodi catgirl","steam_id":76561198124028045,"connected_time":3771000000000,"state":"active","ping":61},{"user_id":363,"name":"Chase McCain","steam_id":76561198314538469,"connected_time":491000000000,"state":"active","ping":63},{"user_id":364,"name":"burpe_master","steam_id":76561198099613568,"connected_time":482000000000,"state":"active","ping":70}]},{"server_id":15,"name":"Uncletopia | New York City | 3 | Stopwatch Beta","name_short":"nyc-3","host":"nyc-1.us.uncletopia.com","port":27035,"enabled":true,"region":"us-east","cc":"us","latitude":40.73061,"longitude":-73.93524,"reserved":0,"last_update":"0001-01-01T00:00:00Z","name_a2s":"Uncletopia | New York City | 3 | Stopwatch Beta","protocol":17,"map":"workshop/pl_vigil_rc9.ugc1266210012","folder":"tf","game":"Team Fortress","app_id":440,"player_count":0,"max_players":24,"Bots":0,"server_type":"Dedicated","server_os":"Linux","password":true,"vac":true,"version":"7757534","steam_id":85568392924742820,"keywords":["nocrits","nodmgspread","payload","uncletopia"],"game_id":440,"stv_port":27036,"stv_name":"Uncletopia | New York City | 3 | Stopwatch Beta | STV","players":null},{"server_id":16,"name":"Uncletopia | New York City | 4 | Community","name_short":"nyc-4","host":"nyc-1.us.uncletopia.com","port":27045,"enabled":true,"region":"us-east","cc":"us","latitude":40.73061,"longitude":-73.93524,"reserved":0,"last_update":"0001-01-01T00:00:00Z","name_a2s":"Uncletopia | New York City | 4 | Community","protocol":17,"map":"workshop/cp_snowbase_b18.ugc2081770490","folder":"tf","game":"Team Fortress","app_id":440,"player_count":13,"max_players":24,"Bots":0,"server_type":"Dedicated","server_os":"Linux","password":true,"vac":true,"version":"7757534","steam_id":85568392924742821,"keywords":["cp","nocrits","nodmgspread","uncletopia"],"game_id":440,"stv_port":27046,"stv_name":"Uncletopia | New York City | 4 | Community | STV","players":[{"user_id":266,"name":"Karma's Camera","steam_id":76561198059385185,"connected_time":656000000000,"state":"active","ping":67},{"user_id":274,"name":"Jordyn","steam_id":76561198196220635,"connected_time":107000000000,"state":"active","ping":65},{"user_id":278,"name":"Dog Goggles","steam_id":76561197995233692,"connected_time":35000000000,"state":"active","ping":129},{"user_id":267,"name":"Cato Sicarius","steam_id":76561198185598330,"connected_time":592000000000,"state":"active","ping":99},{"user_id":265,"name":"Funny Street Legend","steam_id":76561198275625984,"connected_time":843000000000,"state":"active","ping":62},{"user_id":271,"name":"[PINGUâ„¢]Bella \u003c3","steam_id":76561198948479574,"connected_time":364000000000,"state":"active","ping":115},{"user_id":275,"name":"ShaqtusHD (She/Her)","steam_id":76561199138286233,"connected_time":105000000000,"state":"active","ping":57},{"user_id":268,"name":"[PINGUâ„¢] Tiny Tuna","steam_id":76561198193611579,"connected_time":526000000000,"state":"active","ping":81},{"user_id":276,"name":"chrischrischris3018@yahoo.com","steam_id":76561198137316053,"connected_time":85000000000,"state":"active","ping":61},{"user_id":270,"name":"cellogamer","steam_id":76561198016937098,"connected_time":446000000000,"state":"active","ping":49},{"user_id":277,"name":"TonziKKJ","steam_id":76561199083754942,"connected_time":83000000000,"state":"active","ping":54},{"user_id":255,"name":"Pinapley","steam_id":76561198063130298,"connected_time":1337000000000,"state":"active","ping":45},{"user_id":249,"name":"Nuen","steam_id":76561198936096111,"connected_time":1827000000000,"state":"active","ping":289}]},{"server_id":142,"name":"Uncletopia | SÃ£o Paulo | 1 | All Maps","name_short":"sao-1","host":"sao-1.br.uncletopia.com","port":27015,"enabled":true,"region":"sa","cc":"br","latitude":-23.533773,"longitude":-46.62529,"reserved":0,"last_update":"0001-01-01T00:00:00Z","name_a2s":"Uncletopia | SÃ£o Paulo | 1 | All Maps","protocol":17,"map":"koth_cascade","folder":"tf","game":"Team Fortress","app_id":440,"player_count":0,"max_players":24,"Bots":0,"server_type":"Dedicated","server_os":"Linux","password":true,"vac":true,"version":"7757534","steam_id":85568392924469996,"keywords":["cp","nocrits","nodmgspread","uncletopia"],"game_id":440,"stv_port":27016,"stv_name":"Uncletopia | SÃ£o Paulo | 1 | All Maps | STV","players":null},{"server_id":143,"name":"Uncletopia | SÃ£o Paulo | 2 | All Maps","name_short":"sao-2","host":"sao-2.br.uncletopia.com","port":27015,"enabled":true,"region":"sa","cc":"br","latitude":-23.533773,"longitude":-46.62529,"reserved":0,"last_update":"0001-01-01T00:00:00Z","name_a2s":"Uncletopia | SÃ£o Paulo | 2 | All Maps","protocol":17,"map":"pl_barnblitz","folder":"tf","game":"Team Fortress","app_id":440,"player_count":0,"max_players":24,"Bots":0,"server_type":"Dedicated","server_os":"Linux","password":true,"vac":true,"version":"7757534","steam_id":85568392924485349,"keywords":["nocrits","nodmgspread","payload","uncletopia"],"game_id":440,"stv_port":27016,"stv_name":"Uncletopia | SÃ£o Paulo | 2 | All Maps | STV","players":null},{"server_id":7,"name":"Uncletopia | Seattle | 1 | All Maps","name_short":"sea-1","host":"sea-1.us.uncletopia.com","port":27015,"enabled":true,"region":"us-west","cc":"us","latitude":47.608013,"longitude":-122.33517,"reserved":0,"last_update":"0001-01-01T00:00:00Z","name_a2s":"Uncletopia | Seattle | 1 | All Maps","protocol":17,"map":"pl_borneo","folder":"tf","game":"Team Fortress","app_id":440,"player_count":23,"max_players":24,"Bots":0,"server_type":"Dedicated","server_os":"Linux","password":true,"vac":true,"version":"7757534","steam_id":85568392924469997,"keywords":["nocrits","nodmgspread","payload","uncletopia"],"game_id":440,"stv_port":27016,"stv_name":"Uncletopia | Seattle | 1 | All Maps | STV","players":[{"user_id":651,"name":"Archimedes!","steam_id":76561199446023933,"connected_time":561000000000,"state":"active","ping":78},{"user_id":578,"name":"Mr.Thirteen","steam_id":76561198047468836,"connected_time":5128000000000,"state":"active","ping":68},{"user_id":597,"name":"Tylody","steam_id":76561198229690552,"connected_time":4411000000000,"state":"active","ping":76},{"user_id":647,"name":"average dreamlander","steam_id":76561198325306660,"connected_time":1051000000000,"state":"active","ping":56},{"user_id":639,"name":"the whoremonger","steam_id":76561198063970639,"connected_time":1729000000000,"state":"active","ping":121},{"user_id":640,"name":"ã€£dustã€£ -she/her-","steam_id":76561198045218909,"connected_time":1653000000000,"state":"active","ping":39},{"user_id":577,"name":"An old sandwich on the floor!","steam_id":76561198108791583,"connected_time":5505000000000,"state":"active","ping":46},{"user_id":645,"name":"A Cheesy Zed","steam_id":76561198376026672,"connected_time":1137000000000,"state":"active","ping":103},{"user_id":652,"name":"pablo.pro.minecraftplayer_2015","steam_id":76561198170669082,"connected_time":485000000000,"state":"active","ping":85},{"user_id":614,"name":"aon135","steam_id":76561197966931637,"connected_time":3495000000000,"state":"active","ping":66},{"user_id":615,"name":"flishko","steam_id":76561198326489802,"connected_time":3344000000000,"state":"active","ping":52},{"user_id":623,"name":"jorjor wells","steam_id":76561199073429082,"connected_time":2920000000000,"state":"active","ping":120},{"user_id":603,"name":"ender","steam_id":76561198092159728,"connected_time":4258000000000,"state":"active","ping":92},{"user_id":653,"name":"[Bandit]","steam_id":76561197986919852,"connected_time":408000000000,"state":"active","ping":50},{"user_id":646,"name":"rat gets the cheese","steam_id":76561198031234032,"connected_time":1137000000000,"state":"active","ping":103},{"user_id":655,"name":"Nebula she/her","steam_id":76561198094306627,"connected_time":236000000000,"state":"active","ping":76},{"user_id":650,"name":"Noah","steam_id":76561198059048749,"connected_time":874000000000,"state":"active","ping":71},{"user_id":654,"name":"Rocketface","steam_id":76561198043679540,"connected_time":390000000000,"state":"active","ping":86},{"user_id":630,"name":"jungus","steam_id":76561198129862008,"connected_time":2449000000000,"state":"active","ping":84},{"user_id":649,"name":"Username","steam_id":76561198855586261,"connected_time":1028000000000,"state":"active","ping":65},{"user_id":634,"name":"Daz","steam_id":76561198041431938,"connected_time":2325000000000,"state":"active","ping":126},{"user_id":609,"name":"Mignyanne :3","steam_id":76561198048754056,"connected_time":4026000000000,"state":"active","ping":69},{"user_id":644,"name":"Truffles","steam_id":76561198095868800,"connected_time":1242000000000,"state":"active","ping":112}]},{"server_id":119,"name":"Uncletopia | Seattle | 2 | All Maps","name_short":"sea-2","host":"sea-1.us.uncletopia.com","port":27025,"enabled":true,"region":"us-west","cc":"us","latitude":47.608013,"longitude":-122.33517,"reserved":0,"last_update":"0001-01-01T00:00:00Z","name_a2s":"Uncletopia | Seattle | 2 | All Maps","protocol":17,"map":"pl_pier","folder":"tf","game":"Team Fortress","app_id":440,"player_count":24,"max_players":24,"Bots":0,"server_type":"Dedicated","server_os":"Linux","password":true,"vac":true,"version":"7757534","steam_id":85568392924469998,"keywords":["nocrits","nodmgspread","payload","uncletopia"],"game_id":440,"stv_port":27026,"stv_name":"Uncletopia | Seattle | 2 | All Maps | STV","players":[{"user_id":353,"name":"scarecrow (evil)","steam_id":76561198082979347,"connected_time":2543000000000,"state":"active","ping":105},{"user_id":368,"name":"Phillip Jeffries","steam_id":76561198064052174,"connected_time":1030000000000,"state":"active","ping":113},{"user_id":337,"name":"FiddyFoMike","steam_id":76561198057072581,"connected_time":3238000000000,"state":"active","ping":61},{"user_id":358,"name":"Lavernius41","steam_id":76561198807274102,"connected_time":2212000000000,"state":"active","ping":78},{"user_id":369,"name":"Lime","steam_id":76561198080786408,"connected_time":945000000000,"state":"active","ping":55},{"user_id":291,"name":"Deku Scrublord","steam_id":76561198036602402,"connected_time":5371000000000,"state":"active","ping":104},{"user_id":362,"name":"gamer","steam_id":76561198201564074,"connected_time":1304000000000,"state":"active","ping":54},{"user_id":370,"name":"Scoron","steam_id":76561198062099305,"connected_time":913000000000,"state":"active","ping":78},{"user_id":351,"name":"slap cheeks","steam_id":76561198128285450,"connected_time":2675000000000,"state":"active","ping":105},{"user_id":363,"name":"MonteJT","steam_id":76561198055409360,"connected_time":1270000000000,"state":"active","ping":44},{"user_id":312,"name":"thunderous prophet","steam_id":76561198131166135,"connected_time":4746000000000,"state":"active","ping":39},{"user_id":364,"name":"germba","steam_id":76561198421591995,"connected_time":1252000000000,"state":"active","ping":71},{"user_id":330,"name":"Court Wizard, Sir Dr. Clydesdal","steam_id":76561198149267697,"connected_time":3453000000000,"state":"active","ping":69},{"user_id":365,"name":"Aunty Frazzle","steam_id":76561198145596626,"connected_time":1244000000000,"state":"active","ping":76},{"user_id":327,"name":"taco bell fire sauce","steam_id":76561198046073848,"connected_time":3473000000000,"state":"active","ping":57},{"user_id":338,"name":"Local","steam_id":76561198069537437,"connected_time":3222000000000,"state":"active","ping":85},{"user_id":366,"name":"ExplosiveGamer21","steam_id":76561198132370955,"connected_time":1234000000000,"state":"active","ping":114},{"user_id":361,"name":"CHIEF","steam_id":76561198011209422,"connected_time":1566000000000,"state":"active","ping":98},{"user_id":323,"name":"p9 Doctorâ„¢","steam_id":76561198134309750,"connected_time":3492000000000,"state":"active","ping":109},{"user_id":359,"name":"Swag5","steam_id":76561198065311356,"connected_time":2083000000000,"state":"active","ping":74},{"user_id":335,"name":"Willy Wonker","steam_id":76561198082944789,"connected_time":3345000000000,"state":"active","ping":70},{"user_id":371,"name":"The PepsiÂ® SuperbowlÂ®!","steam_id":76561198080828981,"connected_time":404000000000,"state":"active","ping":79},{"user_id":315,"name":"mooney","steam_id":76561199110622484,"connected_time":4567000000000,"state":"active","ping":77},{"user_id":345,"name":"Gr8butnotreally","steam_id":76561198133924450,"connected_time":3057000000000,"state":"active","ping":98}]},{"server_id":406,"name":"Uncletopia | Seattle | 3 | Stopwatch Beta","name_short":"sea-3","host":"sea-1.us.uncletopia.com","port":27035,"enabled":true,"region":"us-west","cc":"us","latitude":47.608013,"longitude":-122.33517,"reserved":0,"last_update":"0001-01-01T00:00:00Z","name_a2s":"Uncletopia | Seattle | 3 | Stopwatch Beta","protocol":17,"map":"cp_metalworks","folder":"tf","game":"Team Fortress","app_id":440,"player_count":24,"max_players":24,"Bots":0,"server_type":"Dedicated","server_os":"Linux","password":true,"vac":true,"version":"7757534","steam_id":85568392924515217,"keywords":["cp","nocrits","nodmgspread","uncletopia"],"game_id":440,"stv_port":27036,"stv_name":"Uncletopia | Seattle | 3 | Stopwatch Beta | STV","players":[{"user_id":15,"name":"January","steam_id":76561199100225735,"connected_time":2670000000000,"state":"active","ping":47},{"user_id":16,"name":"Homeless spy","steam_id":76561199242156853,"connected_time":2608000000000,"state":"active","ping":67},{"user_id":20,"name":"ç«ç‚Žç“¶","steam_id":76561198280400617,"connected_time":2305000000000,"state":"active","ping":71},{"user_id":21,"name":"Toothbrush","steam_id":76561199091907590,"connected_time":2289000000000,"state":"active","ping":58},{"user_id":22,"name":"starling","steam_id":76561199430316273,"connected_time":2282000000000,"state":"active","ping":73},{"user_id":50,"name":"jawnymac","steam_id":76561198179529599,"connected_time":869000000000,"state":"active","ping":77},{"user_id":26,"name":"1sambenn","steam_id":76561199220214593,"connected_time":1722000000000,"state":"active","ping":67},{"user_id":62,"name":"snowycoast enjoyer","steam_id":76561199153114723,"connected_time":501000000000,"state":"active","ping":69},{"user_id":60,"name":"ivan","steam_id":76561199017754044,"connected_time":625000000000,"state":"active","ping":60},{"user_id":42,"name":"Volkan","steam_id":76561198401314312,"connected_time":1107000000000,"state":"active","ping":91},{"user_id":66,"name":"MR.meeseeks","steam_id":76561198294943420,"connected_time":279000000000,"state":"active","ping":62},{"user_id":52,"name":"Steve Harvey","steam_id":76561198129988457,"connected_time":840000000000,"state":"active","ping":70},{"user_id":59,"name":"mmmBoyo","steam_id":76561198821360261,"connected_time":685000000000,"state":"active","ping":54},{"user_id":53,"name":"Fork_Knife","steam_id":76561199238093439,"connected_time":826000000000,"state":"active","ping":74},{"user_id":54,"name":"Venk","steam_id":76561198251131422,"connected_time":817000000000,"state":"active","ping":95},{"user_id":61,"name":"Merach","steam_id":76561197994544587,"connected_time":560000000000,"state":"active","ping":47},{"user_id":70,"name":"Recursive Gamer","steam_id":76561198042102952,"connected_time":63000000000,"state":"active","ping":90},{"user_id":71,"name":"Euphoria","steam_id":76561198187168787,"connected_time":50000000000,"state":"active","ping":72},{"user_id":63,"name":"SkaÃ°i","steam_id":76561198063949642,"connected_time":479000000000,"state":"active","ping":43},{"user_id":68,"name":"Pah-Wraith Cultist Gul Dukat","steam_id":76561198033918106,"connected_time":198000000000,"state":"active","ping":80},{"user_id":41,"name":"Sprucelass","steam_id":76561197998391724,"connected_time":1132000000000,"state":"active","ping":102},{"user_id":44,"name":"giltamage","steam_id":76561198053332291,"connected_time":1070000000000,"state":"active","ping":61},{"user_id":73,"name":"no vc no c","steam_id":76561197989503095,"connected_time":20000000000,"state":"active","ping":160},{"user_id":47,"name":"KnightOfGames","steam_id":76561198080460659,"connected_time":1041000000000,"state":"active","ping":124}]},{"server_id":17,"name":"Uncletopia | San Francisco | 1 | All Maps","name_short":"sfo-1","host":"sfo-1.us.uncletopia.com","port":27015,"enabled":true,"region":"us-west","cc":"us","latitude":37.77397,"longitude":-122.4313,"reserved":0,"last_update":"0001-01-01T00:00:00Z","name_a2s":"Uncletopia | San Francisco | 1 | All Maps","protocol":17,"map":"pl_upward","folder":"tf","game":"Team Fortress","app_id":440,"player_count":23,"max_players":24,"Bots":0,"server_type":"Dedicated","server_os":"Linux","password":true,"vac":true,"version":"7757534","steam_id":85568392924469999,"keywords":["nocrits","nodmgspread","payload","uncletopia"],"game_id":440,"stv_port":27016,"stv_name":"Uncletopia | San Francisco | 1 | All Maps | STV","players":[{"user_id":617,"name":"squidward's nose","steam_id":76561198986534519,"connected_time":1680000000000,"state":"active","ping":45},{"user_id":625,"name":"Furious George","steam_id":76561198405111646,"connected_time":1411000000000,"state":"active","ping":48},{"user_id":638,"name":"0xFUL","steam_id":76561198081684676,"connected_time":35000000000,"state":"active","ping":81},{"user_id":598,"name":"RedMustrd","steam_id":76561199246218857,"connected_time":2787000000000,"state":"active","ping":112},{"user_id":620,"name":"SkootyPatooty","steam_id":76561198054882519,"connected_time":1529000000000,"state":"active","ping":169},{"user_id":628,"name":"MasterGeek.MX","steam_id":76561198063355220,"connected_time":1280000000000,"state":"active","ping":141},{"user_id":606,"name":"ArX Neo","steam_id":76561199000474965,"connected_time":2338000000000,"state":"active","ping":66},{"user_id":599,"name":"dddumb510","steam_id":76561198030793492,"connected_time":2785000000000,"state":"active","ping":72},{"user_id":633,"name":"matto1120","steam_id":76561198201321499,"connected_time":681000000000,"state":"active","ping":68},{"user_id":619,"name":"robotgirl ronday","steam_id":76561198041844815,"connected_time":1602000000000,"state":"active","ping":72},{"user_id":636,"name":"Thatguythatplaysgames","steam_id":76561199100791496,"connected_time":214000000000,"state":"active","ping":130},{"user_id":631,"name":"The Macho Man","steam_id":76561198243714766,"connected_time":1258000000000,"state":"active","ping":74},{"user_id":508,"name":"(TTV) The_Astrum_Guardian","steam_id":76561198130134103,"connected_time":4833000000000,"state":"active","ping":95},{"user_id":616,"name":"Sir_Cheddar","steam_id":76561198132354554,"connected_time":1777000000000,"state":"active","ping":60},{"user_id":609,"name":"Berserk","steam_id":76561198000357361,"connected_time":2244000000000,"state":"active","ping":65},{"user_id":623,"name":"Emails","steam_id":76561198836919458,"connected_time":1494000000000,"state":"active","ping":120},{"user_id":595,"name":"Gordon Ramsay.","steam_id":76561199167165627,"connected_time":2995000000000,"state":"active","ping":75},{"user_id":632,"name":"Navigatxr","steam_id":76561199185153789,"connected_time":1058000000000,"state":"active","ping":41},{"user_id":615,"name":"DXbirdie","steam_id":76561198332243190,"connected_time":1979000000000,"state":"active","ping":94},{"user_id":626,"name":"NoNoWire","steam_id":76561198106308056,"connected_time":1316000000000,"state":"active","ping":60},{"user_id":602,"name":"Dali","steam_id":76561198077593486,"connected_time":2506000000000,"state":"active","ping":70},{"user_id":635,"name":"Murrdogg","steam_id":76561198210491188,"connected_time":604000000000,"state":"active","ping":113},{"user_id":604,"name":"Flyingcat9000","steam_id":76561198179561797,"connected_time":2450000000000,"state":"active","ping":31}]},{"server_id":18,"name":"Uncletopia | San Francisco | 2 | All Maps","name_short":"sfo-2","host":"sfo-1.us.uncletopia.com","port":27025,"enabled":true,"region":"us-west","cc":"us","latitude":37.77397,"longitude":-122.4313,"reserved":0,"last_update":"0001-01-01T00:00:00Z","name_a2s":"Uncletopia | San Francisco | 2 | All Maps","protocol":17,"map":"cp_altitude","folder":"tf","game":"Team Fortress","app_id":440,"player_count":0,"max_players":24,"Bots":0,"server_type":"Dedicated","server_os":"Linux","password":true,"vac":true,"version":"7757534","steam_id":85568392924470000,"keywords":["cp","nocrits","nodmgspread","uncletopia"],"game_id":440,"stv_port":27026,"stv_name":"Uncletopia | San Francisco | 2 | All Maps | STV","players":null},{"server_id":19,"name":"Uncletopia | San Francisco | 3 | Stopwatch Beta","name_short":"sfo-3","host":"sfo-1.us.uncletopia.com","port":27035,"enabled":true,"region":"us-west","cc":"us","latitude":37.77397,"longitude":-122.4313,"reserved":0,"last_update":"0001-01-01T00:00:00Z","name_a2s":"Uncletopia | San Francisco | 3 | Stopwatch Beta","protocol":17,"map":"pl_borneo","folder":"tf","game":"Team Fortress","app_id":440,"player_count":0,"max_players":24,"Bots":0,"server_type":"Dedicated","server_os":"Linux","password":true,"vac":true,"version":"7757534","steam_id":85568392924742824,"keywords":["nocrits","nodmgspread","payload","uncletopia"],"game_id":440,"stv_port":27036,"stv_name":"Uncletopia | San Francisco | 3 | Stopwatch Beta | STV","players":null},{"server_id":20,"name":"Uncletopia | San Francisco | 4 | Community","name_short":"sfo-4","host":"sfo-1.us.uncletopia.com","port":27045,"enabled":true,"region":"us-west","cc":"us","latitude":37.77397,"longitude":-122.4313,"reserved":0,"last_update":"0001-01-01T00:00:00Z","name_a2s":"Uncletopia | San Francisco | 4 | Community","protocol":17,"map":"koth_highpass","folder":"tf","game":"Team Fortress","app_id":440,"player_count":0,"max_players":24,"Bots":0,"server_type":"Dedicated","server_os":"Linux","password":true,"vac":true,"version":"7757534","steam_id":85568392924742826,"keywords":["cp","nocrits","nodmgspread","uncletopia"],"game_id":440,"stv_port":27046,"stv_name":"Uncletopia | San Francisco | 4 | Community | STV","players":null},{"server_id":141,"name":"Uncletopia | Sydney | 1 | All Maps","name_short":"syd-1","host":"syd-1.au.uncletopia.com","port":27015,"enabled":true,"region":"au","cc":"au","latitude":-33.865143,"longitude":151.2099,"reserved":0,"last_update":"0001-01-01T00:00:00Z","name_a2s":"Uncletopia | Sydney | 1 | All Maps","protocol":17,"map":"cp_altitude","folder":"tf","game":"Team Fortress","app_id":440,"player_count":10,"max_players":24,"Bots":0,"server_type":"Dedicated","server_os":"Linux","password":true,"vac":true,"version":"7757534","steam_id":85568392924470001,"keywords":["cp","nocrits","nodmgspread","uncletopia"],"game_id":440,"stv_port":27016,"stv_name":"Uncletopia | Sydney | 1 | All Maps | STV","players":[{"user_id":170,"name":"SpEnZeR","steam_id":76561199470854321,"connected_time":840000000000,"state":"active","ping":76},{"user_id":185,"name":"P'pot","steam_id":76561198117278590,"connected_time":152000000000,"state":"active","ping":56},{"user_id":171,"name":"elecctro knight","steam_id":76561198801552066,"connected_time":833000000000,"state":"active","ping":43},{"user_id":177,"name":"Ritsuto","steam_id":76561198354310786,"connected_time":466000000000,"state":"active","ping":143},{"user_id":168,"name":"s hhadi","steam_id":76561198073097952,"connected_time":1197000000000,"state":"active","ping":74},{"user_id":179,"name":"Quackers","steam_id":76561199446476670,"connected_time":412000000000,"state":"active","ping":68},{"user_id":152,"name":"Consolidated Fart","steam_id":76561198924101909,"connected_time":2013000000000,"state":"active","ping":65},{"user_id":182,"name":"miau","steam_id":76561198207578583,"connected_time":297000000000,"state":"active","ping":69},{"user_id":153,"name":"Raven","steam_id":76561198428025966,"connected_time":1980000000000,"state":"active","ping":58},{"user_id":134,"name":"The Bisoneer TF2","steam_id":76561199446773766,"connected_time":3234000000000,"state":"active","ping":85}]},{"server_id":123,"name":"Uncletopia | Sydney | 2 | All Maps","name_short":"syd-2","host":"syd-1.au.uncletopia.com","port":27025,"enabled":true,"region":"au","cc":"au","latitude":-33.865143,"longitude":151.2099,"reserved":0,"last_update":"0001-01-01T00:00:00Z","name_a2s":"Uncletopia | Sydney | 2 | All Maps","protocol":17,"map":"koth_viaduct","folder":"tf","game":"Team Fortress","app_id":440,"player_count":0,"max_players":24,"Bots":0,"server_type":"Dedicated","server_os":"Linux","password":true,"vac":true,"version":"7757534","steam_id":85568392924470002,"keywords":["cp","nocrits","nodmgspread","uncletopia"],"game_id":440,"stv_port":27026,"stv_name":"Uncletopia | Sydney | 2 | All Maps | STV","players":null},{"server_id":395,"name":"Uncletopia | Sydney | 3 | All Maps","name_short":"syd-3","host":"syd-1.au.uncletopia.com","port":27035,"enabled":true,"region":"au","cc":"au","latitude":-33.865143,"longitude":151.2099,"reserved":0,"last_update":"0001-01-01T00:00:00Z","name_a2s":"Uncletopia | Sydney | 3 | All Maps","protocol":17,"map":"koth_lakeside_final","folder":"tf","game":"Team Fortress","app_id":440,"player_count":0,"max_players":24,"Bots":0,"server_type":"Dedicated","server_os":"Linux","password":true,"vac":true,"version":"7757534","steam_id":85568392925194467,"keywords":["cp","nocrits","nodmgspread","uncletopia"],"game_id":440,"stv_port":27036,"stv_name":"Uncletopia | Sydney | 3 | All Maps | STV","players":null},{"server_id":396,"name":"Uncletopia | Sydney | 4 | All Maps","name_short":"syd-4","host":"syd-1.au.uncletopia.com","port":27045,"enabled":true,"region":"au","cc":"au","latitude":-33.865143,"longitude":151.2099,"reserved":0,"last_update":"0001-01-01T00:00:00Z","name_a2s":"Uncletopia | Sydney | 4 | All Maps","protocol":17,"map":"koth_lakeside_final","folder":"tf","game":"Team Fortress","app_id":440,"player_count":0,"max_players":24,"Bots":0,"server_type":"Dedicated","server_os":"Linux","password":true,"vac":true,"version":"7757534","steam_id":85568392925397958,"keywords":["cp","nocrits","nodmgspread","uncletopia"],"game_id":440,"stv_port":27046,"stv_name":"Uncletopia | Sydney | 4 | All Maps | STV","players":null},{"server_id":58,"name":"Uncletopia | Sydney | 5 | Stopwatch Beta","name_short":"syd-5","host":"syd-1.au.uncletopia.com","port":27055,"enabled":true,"region":"au","cc":"au","latitude":-33.865143,"longitude":151.2099,"reserved":0,"last_update":"0001-01-01T00:00:00Z","name_a2s":"Uncletopia | Sydney | 5 | Stopwatch Beta","protocol":17,"map":"koth_highpass","folder":"tf","game":"Team Fortress","app_id":440,"player_count":0,"max_players":24,"Bots":0,"server_type":"Dedicated","server_os":"Linux","password":true,"vac":true,"version":"7757534","steam_id":85568392925397959,"keywords":["cp","nocrits","nodmgspread","uncletopia"],"game_id":440,"stv_port":27056,"stv_name":"Uncletopia | Sydney | 5 | Stopwatch Beta | STV","players":null},{"server_id":59,"name":"Uncletopia | Sydney | 6 | Community","name_short":"syd-6","host":"syd-1.au.uncletopia.com","port":27065,"enabled":true,"region":"au","cc":"au","latitude":-33.865143,"longitude":151.2099,"reserved":0,"last_update":"0001-01-01T00:00:00Z","name_a2s":"Uncletopia | Sydney | 6 | Community","protocol":17,"map":"workshop/koth_product_final.ugc454272353","folder":"tf","game":"Team Fortress","app_id":440,"player_count":0,"max_players":24,"Bots":0,"server_type":"Dedicated","server_os":"Linux","password":true,"vac":true,"version":"7757534","steam_id":85568392925397960,"keywords":["cp","nocrits","nodmgspread","uncletopia"],"game_id":440,"stv_port":27066,"stv_name":"Uncletopia | Sydney | 6 | Community | STV","players":null},{"server_id":49,"name":"Uncletopia | Warsaw | 1 | All Maps","name_short":"waw-1","host":"waw-1.pl.uncletopia.com","port":27015,"enabled":true,"region":"eu","cc":"pl","latitude":52.2297,"longitude":21.017532,"reserved":0,"last_update":"0001-01-01T00:00:00Z","name_a2s":"","protocol":0,"map":"","folder":"","game":"","app_id":0,"player_count":0,"max_players":0,"Bots":0,"server_type":"","server_os":"","password":false,"vac":false,"version":"","steam_id":0,"keywords":null,"game_id":0,"stv_port":0,"stv_name":"","players":null},{"server_id":50,"name":"Uncletopia | Warsaw | 2 | All Maps","name_short":"waw-2","host":"waw-1.pl.uncletopia.com","port":27025,"enabled":true,"region":"eu","cc":"pl","latitude":52.2297,"longitude":21.017532,"reserved":0,"last_update":"0001-01-01T00:00:00Z","name_a2s":"Uncletopia | Warsaw | 2 | All Maps","protocol":17,"map":"pl_badwater","folder":"tf","game":"Team Fortress","app_id":440,"player_count":0,"max_players":24,"Bots":0,"server_type":"Dedicated","server_os":"Linux","password":true,"vac":true,"version":"7757534","steam_id":85568392925397851,"keywords":["nocrits","nodmgspread","payload","uncletopia"],"game_id":440,"stv_port":27026,"stv_name":"Uncletopia | Warsaw | 2 | All Maps | STV","players":null},{"server_id":51,"name":"Uncletopia | Warsaw | 3 | All Maps","name_short":"waw-3","host":"waw-1.pl.uncletopia.com","port":27035,"enabled":true,"region":"eu","cc":"pl","latitude":52.2297,"longitude":21.017532,"reserved":0,"last_update":"0001-01-01T00:00:00Z","name_a2s":"Uncletopia | Warsaw | 3 | All Maps","protocol":17,"map":"koth_lakeside_final","folder":"tf","game":"Team Fortress","app_id":440,"player_count":0,"max_players":24,"Bots":0,"server_type":"Dedicated","server_os":"Linux","password":true,"vac":true,"version":"7757534","steam_id":85568392925397852,"keywords":["cp","nocrits","nodmgspread","uncletopia"],"game_id":440,"stv_port":27036,"stv_name":"Uncletopia | Warsaw | 3 | All Maps | STV","players":null},{"server_id":52,"name":"Uncletopia | Warsaw | 4 | All Maps","name_short":"waw-4","host":"waw-1.pl.uncletopia.com","port":27045,"enabled":true,"region":"eu","cc":"pl","latitude":52.2297,"longitude":21.017532,"reserved":0,"last_update":"0001-01-01T00:00:00Z","name_a2s":"Uncletopia | Warsaw | 4 | All Maps","protocol":17,"map":"koth_highpass","folder":"tf","game":"Team Fortress","app_id":440,"player_count":0,"max_players":24,"Bots":0,"server_type":"Dedicated","server_os":"Linux","password":true,"vac":true,"version":"7757534","steam_id":85568392925397853,"keywords":["cp","nocrits","nodmgspread","uncletopia"],"game_id":440,"stv_port":27046,"stv_name":"Uncletopia | Warsaw | 4 | All Maps | STV","players":null},{"server_id":53,"name":"Uncletopia | Warsaw | 5 | Stopwatch Beta","name_short":"waw-5","host":"waw-1.pl.uncletopia.com","port":27055,"enabled":true,"region":"eu","cc":"pl","latitude":52.2297,"longitude":21.017532,"reserved":0,"last_update":"0001-01-01T00:00:00Z","name_a2s":"Uncletopia | Warsaw | 5 | Stopwatch Beta","protocol":17,"map":"pl_barnblitz","folder":"tf","game":"Team Fortress","app_id":440,"player_count":0,"max_players":24,"Bots":0,"server_type":"Dedicated","server_os":"Linux","password":true,"vac":true,"version":"7757534","steam_id":85568392925397854,"keywords":["nocrits","nodmgspread","payload","uncletopia"],"game_id":440,"stv_port":27056,"stv_name":"Uncletopia | Warsaw | 5 | Stopwatch Beta | STV","players":null},{"server_id":54,"name":"Uncletopia | Warsaw | 6 | Community","name_short":"waw-6","host":"waw-1.pl.uncletopia.com","port":27065,"enabled":true,"region":"eu","cc":"pl","latitude":52.2297,"longitude":21.017532,"reserved":0,"last_update":"0001-01-01T00:00:00Z","name_a2s":"Uncletopia | Warsaw | 6 | Community","protocol":17,"map":"workshop/pl_vigil_rc9.ugc1266210012","folder":"tf","game":"Team Fortress","app_id":440,"player_count":0,"max_players":24,"Bots":0,"server_type":"Dedicated","server_os":"Linux","password":true,"vac":true,"version":"7757534","steam_id":85568392925397856,"keywords":["nocrits","nodmgspread","payload","uncletopia"],"game_id":440,"stv_port":27066,"stv_name":"Uncletopia | Warsaw | 6 | Community | STV","players":null}]}