{"status":true,"message":"","result":[{"server_id":9,"name":"Uncletopia | Atlanta | 1 | All Maps","name_short":"atl-1","host":"atl-1.us.uncletopia.com","port":27015,"enabled":true,"region":"us-east","cc":"us","latitude":33.753746,"longitude":-84.38633,"reserved":0,"last_update":"0001-01-01T00:00:00Z","name_a2s":"Uncletopia | Atlanta | 1 | All Maps","protocol":17,"map":"pl_snowycoast","folder":"tf","game":"Team Fortress","app_id":440,"player_count":2,"max_players":24,"Bots":0,"server_type":"Dedicated","server_os":"Linux","password":true,"vac":true,"version":"7742253","steam_id":85568392924469982,"keywords":["nocrits","nodmgspread","payload","uncletopia"],"game_id":440,"stv_port":27016,"stv_name":"Uncletopia | Atlanta | 1 | All Maps | STV","players":[{"user_id":4,"name":"LUKS :3","steam_id":76561199178556785,"connected_time":525000000000,"state":"active","ping":93},{"user_id":5,"name":"The Horselords and Animal Gods","steam_id":76561197975094050,"connected_time":110000000000,"state":"active","ping":90}]},{"server_id":400,"name":"Uncletopia | Atlanta | 3 | Stopwatch Beta","name_short":"atl-3","host":"atl-1.us.uncletopia.com","port":27035,"enabled":true,"region":"us-east","cc":"us","latitude":33.753746,"longitude":-84.38633,"reserved":0,"last_update":"0001-01-01T00:00:00Z","name_a2s":"Uncletopia | Atlanta | 3 | Stopwatch Beta","protocol":17,"map":"pl_pier","folder":"tf","game":"Team Fortress","app_id":440,"player_count":0,"max_players":24,"Bots":0,"server_type":"Dedicated","server_os":"Linux","password":true,"vac":true,"version":"7742253","steam_id":85568392924515187,"keywords":["nocrits","nodmgspread","payload","uncletopia"],"game_id":440,"stv_port":27036,"stv_name":"Uncletopia | Atlanta | 3 | Stopwatch Beta | STV","players":null},{"server_id":401,"name":"Uncletopia | Atlanta | 4 | No Payload","name_short":"atl-4","host":"atl-1.us.uncletopia.com","port":27045,"enabled":true,"region":"us-east","cc":"us","latitude":33.753746,"longitude":-84.38633,"reserved":0,"last_update":"0001-01-01T00:00:00Z","name_a2s":"Uncletopia | Atlanta | 4 | No Payload","protocol":17,"map":"pl_pier","folder":"tf","game":"Team Fortress","app_id":440,"player_count":0,"max_players":24,"Bots":0,"server_type":"Dedicated","server_os":"Linux","password":true,"vac":true,"version":"7723704","steam_id":85568392924515188,"keywords":["nocrits","nodmgspread","payload","uncletopia"],"game_id":440,"stv_port":27046,"stv_name":"Uncletopia | Atlanta | 4 | No Payload | STV","players":null},{"server_id":2,"name":"Uncletopia | Chicago | 1 | All Maps","name_short":"chi-1","host":"chi-1.us.uncletopia.com","port":27015,"enabled":true,"region":"us-central","cc":"us","latitude":41.881832,"longitude":-87.62318,"reserved":0,"last_update":"0001-01-01T00:00:00Z","name_a2s":"Uncletopia | Chicago | 1 | All Maps","protocol":17,"map":"cp_altitude","folder":"tf","game":"Team Fortress","app_id":440,"player_count":22,"max_players":24,"Bots":0,"server_type":"Dedicated","server_os":"Linux","password":true,"vac":true,"version":"7742253","steam_id":85568392924469984,"keywords":["cp","nocrits","nodmgspread","uncletopia"],"game_id":440,"stv_port":27016,"stv_name":"Uncletopia | Chicago | 1 | All Maps | STV","players":[{"user_id":3,"name":"Tommy Pickles (Very Cool)","steam_id":76561198391261463,"connected_time":3489000000000,"state":"active","ping":75},{"user_id":4,"name":"Ralsei","steam_id":76561198023352750,"connected_time":3485000000000,"state":"active","ping":89},{"user_id":63,"name":"Tots","steam_id":76561198027485007,"connected_time":699000000000,"state":"active","ping":45},{"user_id":6,"name":"Lennu","steam_id":76561198060730154,"connected_time":3482000000000,"state":"active","ping":74},{"user_id":64,"name":"shokie","steam_id":76561197997961542,"connected_time":546000000000,"state":"active","ping":89},{"user_id":58,"name":"zippy longstockings","steam_id":76561198114603745,"connected_time":1032000000000,"state":"active","ping":87},{"user_id":55,"name":"bdkaine1","steam_id":76561198133545467,"connected_time":1214000000000,"state":"active","ping":61},{"user_id":74,"name":"jimbo","steam_id":76561198046059770,"connected_time":118000000000,"state":"active","ping":59},{"user_id":11,"name":"triangleman","steam_id":76561198972733542,"connected_time":3471000000000,"state":"active","ping":75},{"user_id":65,"name":"Captian Wobbs","steam_id":76561198142884936,"connected_time":525000000000,"state":"active","ping":78},{"user_id":56,"name":"regina george fanclub president","steam_id":76561198066812433,"connected_time":1207000000000,"state":"active","ping":53},{"user_id":61,"name":"Zippo","steam_id":76561198056773656,"connected_time":794000000000,"state":"active","ping":148},{"user_id":15,"name":"Kantamoe","steam_id":76561198046661611,"connected_time":3452000000000,"state":"active","ping":86},{"user_id":72,"name":"nnobi","steam_id":76561198878729277,"connected_time":124000000000,"state":"active","ping":77},{"user_id":18,"name":"stockhack","steam_id":76561198050220225,"connected_time":3436000000000,"state":"active","ping":70},{"user_id":51,"name":"Dewisor","steam_id":76561198230971472,"connected_time":1699000000000,"state":"active","ping":156},{"user_id":43,"name":"Inkspoot","steam_id":76561199047361730,"connected_time":2040000000000,"state":"active","ping":59},{"user_id":21,"name":"Kaiju4289","steam_id":76561198878179212,"connected_time":3421000000000,"state":"active","ping":94},{"user_id":66,"name":"Inpecular (Travis)","steam_id":76561198096571237,"connected_time":470000000000,"state":"active","ping":90},{"user_id":67,"name":"DarkWarlockofit","steam_id":76561198288791803,"connected_time":462000000000,"state":"active","ping":129},{"user_id":73,"name":"Tyler\u0026Fingers","steam_id":76561198085154485,"connected_time":123000000000,"state":"active","ping":82},{"user_id":71,"name":"Snow","steam_id":76561199012349950,"connected_time":269000000000,"state":"active","ping":88}]},{"server_id":106,"name":"Uncletopia | Chicago | 2 | All Maps","name_short":"chi-2","host":"chi-1.us.uncletopia.com","port":27025,"enabled":true,"region":"us-central","cc":"us","latitude":41.881832,"longitude":-87.62318,"reserved":0,"last_update":"0001-01-01T00:00:00Z","name_a2s":"Uncletopia | Chicago | 2 | All Maps","protocol":17,"map":"cp_sunshine","folder":"tf","game":"Team Fortress","app_id":440,"player_count":0,"max_players":24,"Bots":0,"server_type":"Dedicated","server_os":"Linux","password":true,"vac":true,"version":"7742253","steam_id":85568392924469985,"keywords":["cp","nocrits","nodmgspread","uncletopia"],"game_id":440,"stv_port":27026,"stv_name":"Uncletopia | Chicago | 2 | All Maps | STV","players":null},{"server_id":402,"name":"Uncletopia | Chicago | 3 | All Maps","name_short":"chi-3","host":"chi-1.us.uncletopia.com","port":27035,"enabled":true,"region":"us-central","cc":"us","latitude":41.881832,"longitude":-87.62318,"reserved":0,"last_update":"0001-01-01T00:00:00Z","name_a2s":"Uncletopia | Chicago | 3 | All Maps","protocol":17,"map":"koth_viaduct","folder":"tf","game":"Team Fortress","app_id":440,"player_count":0,"max_players":24,"Bots":0,"server_type":"Dedicated","server_os":"Linux","password":true,"vac":true,"version":"7742253","steam_id":85568392924515191,"keywords":["cp","nocrits","nodmgspread","uncletopia"],"game_id":440,"stv_port":27036,"stv_name":"Uncletopia | Chicago | 3 | All Maps | STV","players":null},{"server_id":403,"name":"Uncletopia | Chicago | 4 | All Maps","name_short":"chi-4","host":"chi-1.us.uncletopia.com","port":27045,"enabled":true,"region":"us-central","cc":"us","latitude":41.881832,"longitude":-87.62318,"reserved":0,"last_update":"0001-01-01T00:00:00Z","name_a2s":"Uncletopia | Chicago | 4 | All Maps","protocol":17,"map":"koth_lakeside_final","folder":"tf","game":"Team Fortress","app_id":440,"player_count":0,"max_players":24,"Bots":0,"server_type":"Dedicated","server_os":"Linux","password":true,"vac":true,"version":"7742253","steam_id":85568392924515193,"keywords":["cp","nocrits","nodmgspread","uncletopia"],"game_id":440,"stv_port":27046,"stv_name":"Uncletopia | Chicago | 4 | All Maps | STV","players":null},{"server_id":36,"name":"Uncletopia | Chicago | 5 | All Maps","name_short":"chi-5","host":"chi-2.us.uncletopia.com","port":27015,"enabled":true,"region":"us-central","cc":"us","latitude":41.881832,"longitude":-87.62318,"reserved":0,"last_update":"0001-01-01T00:00:00Z","name_a2s":"Uncletopia | Chicago | 5 | All Maps","protocol":17,"map":"pl_upward","folder":"tf","game":"Team Fortress","app_id":440,"player_count":0,"max_players":24,"Bots":0,"server_type":"Dedicated","server_os":"Linux","password":true,"vac":true,"version":"7742253","steam_id":85568392924866362,"keywords":["nocrits","nodmgspread","payload","uncletopia"],"game_id":440,"stv_port":27016,"stv_name":"Uncletopia | Chicago | 5 | All Maps | STV","players":null},{"server_id":37,"name":"Uncletopia | Chicago | 6 | All Maps","name_short":"chi-6","host":"chi-2.us.uncletopia.com","port":27025,"enabled":true,"region":"us-central","cc":"us","latitude":41.881832,"longitude":-87.62318,"reserved":0,"last_update":"0001-01-01T00:00:00Z","name_a2s":"Uncletopia | Chicago | 6 | All Maps","protocol":17,"map":"cp_sunshine","folder":"tf","game":"Team Fortress","app_id":440,"player_count":0,"max_players":24,"Bots":0,"server_type":"Dedicated","server_os":"Linux","password":true,"vac":true,"version":"7742253","steam_id":85568392924866363,"keywords":["cp","nocrits","nodmgspread","uncletopia"],"game_id":440,"stv_port":27026,"stv_name":"Uncletopia | Chicago | 6 | All Maps | STV","players":null},{"server_id":38,"name":"Uncletopia | Chicago | 7 | Stopwatch Beta","name_short":"chi-7","host":"chi-2.us.uncletopia.com","port":27035,"enabled":true,"region":"us-central","cc":"us","latitude":41.881832,"longitude":-87.62318,"reserved":0,"last_update":"0001-01-01T00:00:00Z","name_a2s":"Uncletopia | Chicago | 7 | Stopwatch Beta","protocol":17,"map":"koth_lakeside_final","folder":"tf","game":"Team Fortress","app_id":440,"player_count":0,"max_players":24,"Bots":0,"server_type":"Dedicated","server_os":"Linux","password":true,"vac":true,"version":"7742253","steam_id":85568392924866364,"keywords":["cp","nocrits","nodmgspread","uncletopia"],"game_id":440,"stv_port":27036,"stv_name":"Uncletopia | Chicago | 7 | Stopwatch Beta | STV","players":null},{"server_id":39,"name":"Uncletopia | Chicago | 8 | Community","name_short":"chi-8","host":"chi-2.us.uncletopia.com","port":27045,"enabled":true,"region":"us-central","cc":"us","latitude":41.881832,"longitude":-87.62318,"reserved":0,"last_update":"0001-01-01T00:00:00Z","name_a2s":"Uncletopia | Chicago | 8 | Community","protocol":17,"map":"koth_lakeside_final","folder":"tf","game":"Team Fortress","app_id":440,"player_count":0,"max_players":24,"Bots":0,"server_type":"Dedicated","server_os":"Linux","password":true,"vac":true,"version":"7742253","steam_id":85568392924866365,"keywords":["cp","nocrits","nodmgspread","uncletopia"],"game_id":440,"stv_port":27046,"stv_name":"Uncletopia | Chicago | 8 | Community | STV","players":null},{"server_id":8,"name":"Uncletopia | Dallas | 1 | All Maps","name_short":"dal-1","host":"dal-1.us.uncletopia.com","port":27015,"enabled":true,"region":"us-central","cc":"us","latitude":32.779167,"longitude":-96.80889,"reserved":0,"last_update":"0001-01-01T00:00:00Z","name_a2s":"Uncletopia | Dallas | 1 | All Maps","protocol":17,"map":"cp_mountainlab","folder":"tf","game":"Team Fortress","app_id":440,"player_count":0,"max_players":24,"Bots":0,"server_type":"Dedicated","server_os":"Linux","password":true,"vac":true,"version":"7742253","steam_id":85568392924469986,"keywords":["cp","nocrits","nodmgspread","uncletopia"],"game_id":440,"stv_port":27016,"stv_name":"Uncletopia | Dallas | 1 | All Maps | STV","players":null},{"server_id":108,"name":"Uncletopia | Dallas | 2 | All Maps","name_short":"dal-2","host":"dal-1.us.uncletopia.com","port":27025,"enabled":true,"region":"us-central","cc":"us","latitude":32.779167,"longitude":-96.80889,"reserved":0,"last_update":"0001-01-01T00:00:00Z","name_a2s":"Uncletopia | Dallas | 2 | All Maps","protocol":17,"map":"cp_process_final","folder":"tf","game":"Team Fortress","app_id":440,"player_count":0,"max_players":24,"Bots":0,"server_type":"Dedicated","server_os":"Linux","password":true,"vac":true,"version":"7742253","steam_id":85568392924469988,"keywords":["cp","nocrits","nodmgspread","uncletopia"],"game_id":440,"stv_port":27026,"stv_name":"Uncletopia | Dallas | 2 | All Maps | STV","players":null},{"server_id":5,"name":"Uncletopia | Frankfurt | 1 | All Maps","name_short":"frk-1","host":"frk-1.de.uncletopia.com","port":27015,"enabled":true,"region":"eu","cc":"de","latitude":50.110924,"longitude":8.682127,"reserved":0,"last_update":"0001-01-01T00:00:00Z","name_a2s":"Uncletopia | Frankfurt | 1 | All Maps","protocol":17,"map":"pl_borneo","folder":"tf","game":"Team Fortress","app_id":440,"player_count":0,"max_players":24,"Bots":0,"server_type":"Dedicated","server_os":"Linux","password":true,"vac":true,"version":"7742253","steam_id":85568392924469989,"keywords":["nocrits","nodmgspread","payload","uncletopia"],"game_id":440,"stv_port":27016,"stv_name":"Uncletopia | Frankfurt | 1 | All Maps | STV","players":null},{"server_id":110,"name":"Uncletopia | Frankfurt | 2 | All Maps","name_short":"frk-2","host":"frk-1.de.uncletopia.com","port":27025,"enabled":true,"region":"eu","cc":"de","latitude":50.110924,"longitude":8.682127,"reserved":0,"last_update":"0001-01-01T00:00:00Z","name_a2s":"Uncletopia | Frankfurt | 2 | All Maps","protocol":17,"map":"koth_brazil","folder":"tf","game":"Team Fortress","app_id":440,"player_count":18,"max_players":24,"Bots":0,"server_type":"Dedicated","server_os":"Linux","password":true,"vac":true,"version":"7742253","steam_id":85568392924469990,"keywords":["cp","nocrits","nodmgspread","uncletopia"],"game_id":440,"stv_port":27026,"stv_name":"Uncletopia | Frankfurt | 2 | All Maps | STV","players":[{"user_id":244,"name":"Hans","steam_id":76561198378766143,"connected_time":1200000000000,"state":"active","ping":72},{"user_id":225,"name":"stoppen","steam_id":76561197960281482,"connected_time":2831000000000,"state":"active","ping":68},{"user_id":251,"name":"I Find A Computer Indispensible","steam_id":76561198046152236,"connected_time":461000000000,"state":"active","ping":61},{"user_id":256,"name":"Waffel","steam_id":76561198137729291,"connected_time":163000000000,"state":"active","ping":88},{"user_id":208,"name":"catgirl (real)","steam_id":76561199045736884,"connected_time":4480000000000,"state":"active","ping":57},{"user_id":257,"name":"Asocial","steam_id":76561198328594578,"connected_time":150000000000,"state":"active","ping":96},{"user_id":198,"name":"r06u3","steam_id":76561198254099253,"connected_time":5641000000000,"state":"active","ping":165},{"user_id":259,"name":"Thoom Slayer","steam_id":76561198155010055,"connected_time":46000000000,"state":"active","ping":122},{"user_id":253,"name":"Deathpunch212","steam_id":76561198019767288,"connected_time":390000000000,"state":"active","ping":64},{"user_id":255,"name":"Hannü","steam_id":76561197969886128,"connected_time":263000000000,"state":"active","ping":61},{"user_id":241,"name":"Prusher","steam_id":76561198086173878,"connected_time":1329000000000,"state":"active","ping":99},{"user_id":250,"name":"Bonuxer","steam_id":76561198093098132,"connected_time":701000000000,"state":"active","ping":81},{"user_id":260,"name":"Acidpets","steam_id":76561198875421227,"connected_time":27000000000,"state":"active","ping":60},{"user_id":232,"name":"2fort enjoyer","steam_id":76561198350826913,"connected_time":2029000000000,"state":"active","ping":63},{"user_id":182,"name":"Dzan50","steam_id":76561198059758591,"connected_time":7320000000000,"state":"active","ping":79},{"user_id":187,"name":"Rose-Marie","steam_id":76561198055611092,"connected_time":6083000000000,"state":"active","ping":44},{"user_id":229,"name":"Buenos Días!","steam_id":76561198417999443,"connected_time":2397000000000,"state":"active","ping":99},{"user_id":238,"name":"Peter Cipher","steam_id":76561198078944963,"connected_time":1730000000000,"state":"active","ping":56}]},{"server_id":308,"name":"Uncletopia | Frankfurt | 3 | All Maps","name_short":"frk-3","host":"frk-1.de.uncletopia.com","port":27035,"enabled":true,"region":"eu","cc":"de","latitude":50.110924,"longitude":8.682127,"reserved":0,"last_update":"0001-01-01T00:00:00Z","name_a2s":"Uncletopia | Frankfurt | 3 | All Maps","protocol":17,"map":"pl_snowycoast","folder":"tf","game":"Team Fortress","app_id":440,"player_count":24,"max_players":24,"Bots":0,"server_type":"Dedicated","server_os":"Linux","password":true,"vac":true,"version":"7742253","steam_id":85568392924504274,"keywords":["nocrits","nodmgspread","payload","uncletopia"],"game_id":440,"stv_port":27036,"stv_name":"Uncletopia | Frankfurt | 3 | All Maps | STV","players":[{"user_id":236,"name":"DEANDEMOCRACY","steam_id":76561198141588857,"connected_time":1004000000000,"state":"active","ping":48},{"user_id":242,"name":"Echo of Abyss","steam_id":76561198981841782,"connected_time":611000000000,"state":"active","ping":66},{"user_id":243,"name":"PIF","steam_id":76561197994712966,"connected_time":599000000000,"state":"active","ping":121},{"user_id":238,"name":"Pastoss","steam_id":76561198379098260,"connected_time":708000000000,"state":"active","ping":54},{"user_id":255,"name":"vagos jhonny el sins","steam_id":76561198982787752,"connected_time":139000000000,"state":"active","ping":54},{"user_id":254,"name":"BingusDingus","steam_id":76561198310983903,"connected_time":169000000000,"state":"active","ping":61},{"user_id":252,"name":"Trollface [ᴙ-μ]","steam_id":76561198418538887,"connected_time":375000000000,"state":"active","ping":94},{"user_id":197,"name":"Mr.TEA","steam_id":76561198014381591,"connected_time":4758000000000,"state":"active","ping":54},{"user_id":247,"name":"Mal ★","steam_id":76561198262337669,"connected_time":563000000000,"state":"active","ping":65},{"user_id":222,"name":"AwterSix","steam_id":76561198042561678,"connected_time":2561000000000,"state":"active","ping":49},{"user_id":240,"name":"eeeeee","steam_id":76561198427092596,"connected_time":667000000000,"state":"active","ping":113},{"user_id":241,"name":"mr. bro","steam_id":76561198053394831,"connected_time":630000000000,"state":"active","ping":62},{"user_id":256,"name":"Пахомов","steam_id":76561198123122856,"connected_time":119000000000,"state":"active","ping":80},{"user_id":186,"name":"Jack Dickfister","steam_id":76561198145145810,"connected_time":5561000000000,"state":"active","ping":45},{"user_id":233,"name":"O=(‘-’Q)","steam_id":76561198069685870,"connected_time":1222000000000,"state":"active","ping":79},{"user_id":248,"name":"Dark_Prelate","steam_id":76561199065671442,"connected_time":543000000000,"state":"active","ping":53},{"user_id":187,"name":"Texi","steam_id":76561198292895810,"connected_time":5557000000000,"state":"active","ping":61},{"user_id":168,"name":"Mr.O #deletesniper","steam_id":76561198039567498,"connected_time":6849000000000,"state":"active","ping":61},{"user_id":260,"name":"Rachugh","steam_id":76561199235852578,"connected_time":0,"state":"spawning","ping":0},{"user_id":257,"name":"clusj","steam_id":76561198150459792,"connected_time":118000000000,"state":"active","ping":85},{"user_id":258,"name":"Krimmblz","steam_id":76561198326488448,"connected_time":116000000000,"state":"active","ping":69},{"user_id":184,"name":"Grimm","steam_id":76561198044684227,"connected_time":5807000000000,"state":"active","ping":63},{"user_id":259,"name":"murderwow","steam_id":76561198024566944,"connected_time":110000000000,"state":"active","ping":95},{"user_id":204,"name":"poshto;))","steam_id":76561198106182078,"connected_time":3601000000000,"state":"active","ping":99}]},{"server_id":309,"name":"Uncletopia | Frankfurt | 4 | All Maps","name_short":"frk-4","host":"frk-1.de.uncletopia.com","port":27045,"enabled":true,"region":"eu","cc":"de","latitude":50.110924,"longitude":8.682127,"reserved":0,"last_update":"0001-01-01T00:00:00Z","name_a2s":"Uncletopia | Frankfurt | 4 | All Maps","protocol":17,"map":"pl_swiftwater_final1","folder":"tf","game":"Team Fortress","app_id":440,"player_count":0,"max_players":24,"Bots":0,"server_type":"Dedicated","server_os":"Linux","password":true,"vac":true,"version":"7742253","steam_id":85568392924504275,"keywords":["nocrits","nodmgspread","payload","uncletopia"],"game_id":440,"stv_port":27046,"stv_name":"Uncletopia | Frankfurt | 4 | All Maps | STV","players":null},{"server_id":310,"name":"Uncletopia | Frankfurt | 5 | All Maps","name_short":"frk-5","host":"frk-1.de.uncletopia.com","port":27055,"enabled":true,"region":"eu","cc":"de","latitude":50.110924,"longitude":8.682127,"reserved":0,"last_update":"0001-01-01T00:00:00Z","name_a2s":"Uncletopia | Frankfurt | 5 | All Maps","protocol":17,"map":"koth_viaduct","folder":"tf","game":"Team Fortress","app_id":440,"player_count":0,"max_players":24,"Bots":0,"server_type":"Dedicated","server_os":"Linux","password":true,"vac":true,"version":"7742253","steam_id":85568392924504277,"keywords":["cp","nocrits","nodmgspread","uncletopia"],"game_id":440,"stv_port":27056,"stv_name":"Uncletopia | Frankfurt | 5 | All Maps | STV","players":null},{"server_id":311,"name":"Uncletopia | Frankfurt | 6 | All Maps","name_short":"frk-6","host":"frk-1.de.uncletopia.com","port":27065,"enabled":true,"region":"eu","cc":"de","latitude":50.110924,"longitude":8.682127,"reserved":0,"last_update":"0001-01-01T00:00:00Z","name_a2s":"Uncletopia | Frankfurt | 6 | All Maps","protocol":17,"map":"pl_frontier_final","folder":"tf","game":"Team Fortress","app_id":440,"player_count":24,"max_players":24,"Bots":0,"server_type":"Dedicated","server_os":"Linux","password":true,"vac":true,"version":"7742253","steam_id":85568392924504278,"keywords":["nocrits","nodmgspread","payload","uncletopia"],"game_id":440,"stv_port":27066,"stv_name":"Uncletopia | Frankfurt | 6 | All Maps | STV","players":[{"user_id":201,"name":"hannes","steam_id":76561198202485645,"connected_time":932000000000,"state":"active","ping":60},{"user_id":205,"name":"Z4p4d","steam_id":76561198011755675,"connected_time":544000000000,"state":"active","ping":66},{"user_id":170,"name":"Virgil","steam_id":76561198248786778,"connected_time":2770000000000,"state":"active","ping":114},{"user_id":206,"name":"Cobb Salads","steam_id":76561197971140507,"connected_time":525000000000,"state":"active","ping":62},{"user_id":174,"name":"YuraGreek","steam_id":76561198050182252,"connected_time":2640000000000,"state":"active","ping":75},{"user_id":208,"name":"gaming","steam_id":76561198054146505,"connected_time":510000000000,"state":"active","ping":58},{"user_id":202,"name":"tealoverr.190","steam_id":76561199028497703,"connected_time":782000000000,"state":"active","ping":93},{"user_id":210,"name":"Cippo95","steam_id":76561198255311582,"connected_time":453000000000,"state":"active","ping":67},{"user_id":196,"name":"nachtraaf","steam_id":76561197960473205,"connected_time":1745000000000,"state":"active","ping":62},{"user_id":211,"name":"Andy","steam_id":76561198136364381,"connected_time":405000000000,"state":"active","ping":76},{"user_id":168,"name":"InfamousAxe","steam_id":76561198099504739,"connected_time":2863000000000,"state":"active","ping":96},{"user_id":203,"name":"Wubba Lubba dub-dub","steam_id":76561198871342329,"connected_time":581000000000,"state":"active","ping":108},{"user_id":159,"name":"Psychicpie","steam_id":76561198126065206,"connected_time":3797000000000,"state":"active","ping":55},{"user_id":212,"name":"true","steam_id":76561198031145243,"connected_time":397000000000,"state":"active","ping":84},{"user_id":213,"name":"SpyCrab  Erik Twice","steam_id":76561198009710309,"connected_time":392000000000,"state":"active","ping":68},{"user_id":169,"name":"Optimist 50","steam_id":76561198039631442,"connected_time":2796000000000,"state":"active","ping":76},{"user_id":183,"name":"FUKAYU","steam_id":76561198380484033,"connected_time":2472000000000,"state":"active","ping":55},{"user_id":219,"name":"festry","steam_id":76561198873296090,"connected_time":51000000000,"state":"active","ping":75},{"user_id":215,"name":"Tresader","steam_id":76561198078421289,"connected_time":311000000000,"state":"active","ping":73},{"user_id":165,"name":"The Real Dirty Dan","steam_id":76561198075073104,"connected_time":3419000000000,"state":"active","ping":83},{"user_id":204,"name":"yasser","steam_id":76561198103973320,"connected_time":580000000000,"state":"active","ping":108},{"user_id":145,"name":"cosmetical","steam_id":76561198444036574,"connected_time":5422000000000,"state":"active","ping":74},{"user_id":216,"name":"Videogamer","steam_id":76561198106012909,"connected_time":295000000000,"state":"active","ping":66},{"user_id":199,"name":"ambatukam","steam_id":76561198175433731,"connected_time":1319000000000,"state":"active","ping":82}]},{"server_id":23,"name":"Uncletopia | Frankfurt | 7 | Stopwatch Beta","name_short":"frk-7","host":"frk-1.de.uncletopia.com","port":27075,"enabled":true,"region":"eu","cc":"de","latitude":50.110924,"longitude":8.682127,"reserved":0,"last_update":"0001-01-01T00:00:00Z","name_a2s":"Uncletopia | Frankfurt | 7 | Stopwatch Beta","protocol":17,"map":"cp_granary","folder":"tf","game":"Team Fortress","app_id":440,"player_count":19,"max_players":24,"Bots":0,"server_type":"Dedicated","server_os":"Linux","password":true,"vac":true,"version":"7742253","steam_id":85568392924742827,"keywords":["cp","nocrits","nodmgspread","uncletopia"],"game_id":440,"stv_port":27076,"stv_name":"Uncletopia | Frankfurt | 7 | Stopwatch Beta | STV","players":[{"user_id":131,"name":"kackboon","steam_id":76561198044189114,"connected_time":1459000000000,"state":"active","ping":56},{"user_id":114,"name":"Welder","steam_id":76561198355300561,"connected_time":2553000000000,"state":"active","ping":63},{"user_id":109,"name":"daidamuxa.6590","steam_id":76561198236773400,"connected_time":2673000000000,"state":"active","ping":120},{"user_id":145,"name":"Random Main \u003c3","steam_id":76561198341428449,"connected_time":810000000000,"state":"active","ping":59},{"user_id":133,"name":"Lieutenant Lead","steam_id":76561198336867604,"connected_time":1080000000000,"state":"active","ping":47},{"user_id":149,"name":"[RUS]SAREGA","steam_id":76561199338814184,"connected_time":447000000000,"state":"active","ping":120},{"user_id":128,"name":"UltimateAura","steam_id":76561198338361324,"connected_time":1680000000000,"state":"active","ping":46},{"user_id":141,"name":"Mr. Potato the 11th","steam_id":76561198163246758,"connected_time":893000000000,"state":"active","ping":56},{"user_id":108,"name":"5 noches con alfredo","steam_id":76561198420349969,"connected_time":2746000000000,"state":"active","ping":87},{"user_id":101,"name":"DrStudi","steam_id":76561198043449268,"connected_time":3114000000000,"state":"active","ping":83},{"user_id":110,"name":"andria","steam_id":76561198930247131,"connected_time":2643000000000,"state":"active","ping":119},{"user_id":135,"name":"Cago","steam_id":76561198372415006,"connected_time":1070000000000,"state":"active","ping":124},{"user_id":136,"name":"Abnormally stupid","steam_id":76561199364074118,"connected_time":1051000000000,"state":"active","ping":63},{"user_id":112,"name":"Wattoz","steam_id":76561198127779511,"connected_time":2617000000000,"state":"active","ping":61},{"user_id":151,"name":"TeaAndPancakes","steam_id":76561199039103507,"connected_time":189000000000,"state":"active","ping":71},{"user_id":142,"name":"Jannu","steam_id":76561198139067430,"connected_time":887000000000,"state":"active","ping":90},{"user_id":117,"name":"LasagnaLarry22","steam_id":76561198089478290,"connected_time":2513000000000,"state":"active","ping":57},{"user_id":140,"name":"Tank","steam_id":76561199059174576,"connected_time":985000000000,"state":"active","ping":170},{"user_id":120,"name":"Noodle","steam_id":76561197997208006,"connected_time":2481000000000,"state":"active","ping":59}]},{"server_id":24,"name":"Uncletopia | Frankfurt | 8 | Community","name_short":"frk-8","host":"frk-1.de.uncletopia.com","port":27085,"enabled":true,"region":"eu","cc":"de","latitude":50.110924,"longitude":8.682127,"reserved":0,"last_update":"0001-01-01T00:00:00Z","name_a2s":"Uncletopia | Frankfurt | 8 | Community","protocol":17,"map":"koth_cascade","folder":"tf","game":"Team Fortress","app_id":440,"player_count":0,"max_players":24,"Bots":0,"server_type":"Dedicated","server_os":"Linux","password":true,"vac":true,"version":"7742253","steam_id":85568392924742828,"keywords":["cp","nocrits","nodmgspread","uncletopia"],"game_id":440,"stv_port":27086,"stv_name":"Uncletopia | Frankfurt | 8 | Community | STV","players":null},{"server_id":202,"name":"Uncletopia | Hong Kong | 1 | All Maps","name_short":"hgk-1","host":"hgk-1.hk.uncletopia.com","port":27015,"enabled":true,"region":"asia","cc":"hk","latitude":22.302711,"longitude":114.177216,"reserved":0,"last_update":"0001-01-01T00:00:00Z","name_a2s":"Uncletopia | Hong Kong | 1 | All Maps","protocol":17,"map":"pl_barnblitz","folder":"tf","game":"Team Fortress","app_id":440,"player_count":24,"max_players":24,"Bots":0,"server_type":"Dedicated","server_os":"Linux","password":true,"vac":true,"version":"7742253","steam_id":85568392924494504,"keywords":["nocrits","nodmgspread","payload","uncletopia"],"game_id":440,"stv_port":27016,"stv_name":"Uncletopia | Hong Kong | 1 | All Maps | STV","players":[{"user_id":663,"name":"Kirov airship","steam_id":76561199024960087,"connected_time":5315000000000,"state":"active","ping":52},{"user_id":751,"name":"Mabok","steam_id":76561198010249658,"connected_time":933000000000,"state":"active","ping":88},{"user_id":750,"name":"LimitsUP_","steam_id":76561199104828789,"connected_time":961000000000,"state":"active","ping":101},{"user_id":769,"name":"weerez","steam_id":76561198405393811,"connected_time":157000000000,"state":"spawning","ping":186},{"user_id":201,"name":"Zacy","steam_id":76561198114841670,"connected_time":19540000000000,"state":"active","ping":65},{"user_id":677,"name":"TomCat","steam_id":76561198133744053,"connected_time":4207000000000,"state":"active","ping":108},{"user_id":755,"name":"afkingbot69","steam_id":76561199437258650,"connected_time":911000000000,"state":"active","ping":104},{"user_id":773,"name":"happyman","steam_id":76561198045585030,"connected_time":20000000000,"state":"active","ping":56},{"user_id":713,"name":"Teampangit","steam_id":76561198087774626,"connected_time":2243000000000,"state":"spawning","ping":371},{"user_id":772,"name":"qb","steam_id":76561198412329672,"connected_time":26000000000,"state":"active","ping":80},{"user_id":770,"name":"BOK","steam_id":76561198095872644,"connected_time":45000000000,"state":"active","ping":82},{"user_id":696,"name":"jerrybel","steam_id":76561198055553140,"connected_time":3294000000000,"state":"active","ping":77},{"user_id":771,"name":"Walking Ted.","steam_id":76561198008544426,"connected_time":43000000000,"state":"active","ping":54},{"user_id":682,"name":"Talkk More","steam_id":76561198305424433,"connected_time":3672000000000,"state":"active","ping":100},{"user_id":673,"name":"her","steam_id":76561198400698408,"connected_time":4360000000000,"state":"spawning","ping":93},{"user_id":767,"name":"j_rex","steam_id":76561198132473926,"connected_time":587000000000,"state":"active","ping":54},{"user_id":685,"name":"sterzun","steam_id":76561198300004922,"connected_time":3583000000000,"state":"active","ping":114},{"user_id":630,"name":"Bertengkar","steam_id":76561198213031155,"connected_time":6539000000000,"state":"active","ping":98},{"user_id":711,"name":"Mori","steam_id":76561198430817360,"connected_time":2301000000000,"state":"active","ping":38},{"user_id":567,"name":"pardo","steam_id":76561198230213828,"connected_time":7729000000000,"state":"active","ping":62},{"user_id":742,"name":":)","steam_id":76561198437941450,"connected_time":1348000000000,"state":"active","ping":79},{"user_id":675,"name":"can we get much higher","steam_id":76561199390507975,"connected_time":4322000000000,"state":"active","ping":42},{"user_id":760,"name":"SavingPrivateEpa","steam_id":76561199126651013,"connected_time":733000000000,"state":"active","ping":125},{"user_id":719,"name":"teq98","steam_id":76561198413116920,"connected_time":1880000000000,"state":"active","ping":79}]},{"server_id":1,"name":"Uncletopia | Los Angeles | 1 | All Maps","name_short":"lax-1","host":"lax-1.us.uncletopia.com","port":27015,"enabled":true,"region":"us-west","cc":"us","latitude":33.94279,"longitude":-118.41004,"reserved":0,"last_update":"0001-01-01T00:00:00Z","name_a2s":"Uncletopia | Los Angeles | 1 | All Maps","protocol":17,"map":"cp_process_final","folder":"tf","game":"Team Fortress","app_id":440,"player_count":0,"max_players":24,"Bots":0,"server_type":"Dedicated","server_os":"Linux","password":true,"vac":true,"version":"7742253","steam_id":85568392924469991,"keywords":["cp","nocrits","nodmgspread","uncletopia"],"game_id":440,"stv_port":27016,"stv_name":"Uncletopia | Los Angeles | 1 | All Maps | STV","players":null},{"server_id":112,"name":"Uncletopia | Los Angeles | 2 | All Maps","name_short":"lax-2","host":"lax-1.us.uncletopia.com","port":27025,"enabled":true,"region":"us-west","cc":"us","latitude":33.94279,"longitude":-118.41004,"reserved":0,"last_update":"0001-01-01T00:00:00Z","name_a2s":"Uncletopia | Los Angeles | 2 | All Maps","protocol":17,"map":"koth_cascade","folder":"tf","game":"Team Fortress","app_id":440,"player_count":0,"max_players":24,"Bots":0,"server_type":"Dedicated","server_os":"Linux","password":true,"vac":true,"version":"7742253","steam_id":85568392924469992,"keywords":["cp","nocrits","nodmgspread","uncletopia"],"game_id":440,"stv_port":27026,"stv_name":"Uncletopia | Los Angeles | 2 | All Maps | STV","players":null},{"server_id":324,"name":"Uncletopia | Los Angeles | 3 | All Maps","name_short":"lax-3","host":"lax-1.us.uncletopia.com","port":27035,"enabled":true,"region":"us-west","cc":"us","latitude":33.94279,"longitude":-118.41004,"reserved":0,"last_update":"0001-01-01T00:00:00Z","name_a2s":"Uncletopia | Los Angeles | 3 | All Maps","protocol":17,"map":"cp_mountainlab","folder":"tf","game":"Team Fortress","app_id":440,"player_count":0,"max_players":24,"Bots":0,"server_type":"Dedicated","server_os":"Linux","password":true,"vac":true,"version":"7742253","steam_id":85568392924510198,"keywords":["cp","nocrits","nodmgspread","uncletopia"],"game_id":440,"stv_port":27036,"stv_name":"Uncletopia | Los Angeles | 3 | All Maps | STV","players":null},{"server_id":25,"name":"Uncletopia | Los Angeles | 4 | Stopwatch Beta","name_short":"lax-4","host":"lax-1.us.uncletopia.com","port":27045,"enabled":true,"region":"us-west","cc":"us","latitude":33.94279,"longitude":-118.41004,"reserved":0,"last_update":"0001-01-01T00:00:00Z","name_a2s":"Uncletopia | Los Angeles | 4 | Stopwatch Beta","protocol":17,"map":"workshop/koth_clearcut_b15.ugc2107050255","folder":"tf","game":"Team Fortress","app_id":440,"player_count":0,"max_players":24,"Bots":0,"server_type":"Dedicated","server_os":"Linux","password":true,"vac":true,"version":"7742253","steam_id":85568392924510199,"keywords":["cp","nocrits","nodmgspread","uncletopia"],"game_id":440,"stv_port":27046,"stv_name":"Uncletopia | Los Angeles | 4 | Stopwatch Beta | STV","players":null},{"server_id":11,"name":"Uncletopia | London | 1 | All Maps","name_short":"lon-1","host":"lon-1.uk.uncletopia.com","port":27015,"enabled":true,"region":"eu","cc":"gb","latitude":51.509865,"longitude":-0.118092,"reserved":0,"last_update":"0001-01-01T00:00:00Z","name_a2s":"Uncletopia | London | 1 | All Maps","protocol":17,"map":"pl_frontier_final","folder":"tf","game":"Team Fortress","app_id":440,"player_count":24,"max_players":24,"Bots":0,"server_type":"Dedicated","server_os":"Linux","password":true,"vac":true,"version":"7742253","steam_id":85568392924367362,"keywords":["nocrits","nodmgspread","payload","uncletopia"],"game_id":440,"stv_port":27016,"stv_name":"Uncletopia | London | 1 | All Maps | STV","players":[{"user_id":349,"name":"Star in a pond","steam_id":76561198205501279,"connected_time":1182000000000,"state":"active","ping":97},{"user_id":339,"name":"Bumpin'Scrunts","steam_id":76561198069641252,"connected_time":2595000000000,"state":"active","ping":53},{"user_id":344,"name":"BrainLacking","steam_id":76561198965574196,"connected_time":2323000000000,"state":"active","ping":56},{"user_id":351,"name":"Nuuskis","steam_id":76561198084042012,"connected_time":1161000000000,"state":"active","ping":118},{"user_id":345,"name":"bert","steam_id":76561198156318293,"connected_time":2260000000000,"state":"active","ping":38},{"user_id":280,"name":"catboy trickster","steam_id":76561198075665211,"connected_time":6460000000000,"state":"active","ping":43},{"user_id":355,"name":"sigma female","steam_id":76561198298576765,"connected_time":686000000000,"state":"active","ping":66},{"user_id":297,"name":"Retard","steam_id":76561198217874317,"connected_time":4989000000000,"state":"active","ping":79},{"user_id":359,"name":"Pintarolas","steam_id":76561198124839451,"connected_time":399000000000,"state":"active","ping":109},{"user_id":356,"name":"MATIJA PRO GAMER 2","steam_id":76561199105950410,"connected_time":460000000000,"state":"active","ping":61},{"user_id":330,"name":"ducks","steam_id":76561198166148685,"connected_time":2977000000000,"state":"active","ping":30},{"user_id":290,"name":"999","steam_id":76561198306856753,"connected_time":5716000000000,"state":"active","ping":62},{"user_id":292,"name":"Dream (real)","steam_id":76561199013644069,"connected_time":5617000000000,"state":"active","ping":79},{"user_id":337,"name":"tactical783","steam_id":76561199051688560,"connected_time":2624000000000,"state":"active","ping":59},{"user_id":346,"name":"El Gato Volador","steam_id":76561198021296882,"connected_time":2174000000000,"state":"active","ping":70},{"user_id":350,"name":"Boyarishnik","steam_id":76561198986324207,"connected_time":1181000000000,"state":"active","ping":82},{"user_id":340,"name":"CosminSL","steam_id":76561198055827684,"connected_time":2549000000000,"state":"active","ping":77},{"user_id":338,"name":"The Cobbler","steam_id":76561198031573426,"connected_time":2615000000000,"state":"active","ping":67},{"user_id":324,"name":"Jaggy Snake","steam_id":76561197972779231,"connected_time":3441000000000,"state":"active","ping":52},{"user_id":353,"name":"Drndov","steam_id":76561198396009928,"connected_time":1125000000000,"state":"active","ping":80},{"user_id":234,"name":"GMsU | Rebikas","steam_id":76561198077053764,"connected_time":9746000000000,"state":"active","ping":56},{"user_id":343,"name":"JOHN GAMING (based)","steam_id":76561199085822219,"connected_time":2456000000000,"state":"active","ping":82},{"user_id":295,"name":"janvaljen","steam_id":76561198017781450,"connected_time":5487000000000,"state":"active","ping":106},{"user_id":238,"name":"Bob.","steam_id":76561198330093822,"connected_time":9637000000000,"state":"active","ping":88}]},{"server_id":114,"name":"Uncletopia | London | 2 | All Maps","name_short":"lon-2","host":"lon-1.uk.uncletopia.com","port":27025,"enabled":true,"region":"eu","cc":"gb","latitude":51.509865,"longitude":-0.118092,"reserved":0,"last_update":"0001-01-01T00:00:00Z","name_a2s":"Uncletopia | London | 2 | All Maps","protocol":17,"map":"pl_barnblitz","folder":"tf","game":"Team Fortress","app_id":440,"player_count":6,"max_players":24,"Bots":0,"server_type":"Dedicated","server_os":"Linux","password":true,"vac":true,"version":"7742253","steam_id":85568392924470941,"keywords":["nocrits","nodmgspread","payload","uncletopia"],"game_id":440,"stv_port":27026,"stv_name":"Uncletopia | London | 2 | All Maps | STV","players":[{"user_id":13,"name":"ToxicBlonde","steam_id":76561198136633815,"connected_time":684000000000,"state":"active","ping":47},{"user_id":11,"name":"LustigFurzMeisterZwei­tausend","steam_id":76561198052088053,"connected_time":1366000000000,"state":"active","ping":47},{"user_id":12,"name":"Bonbon Rosechu","steam_id":76561198045039038,"connected_time":1348000000000,"state":"active","ping":85},{"user_id":16,"name":"AlDI_mac","steam_id":76561199416218763,"connected_time":194000000000,"state":"active","ping":210},{"user_id":15,"name":"thenoobplayer","steam_id":76561199134229191,"connected_time":473000000000,"state":"active","ping":104},{"user_id":17,"name":"BOT Jeremus","steam_id":76561198072981684,"connected_time":143000000000,"state":"active","ping":47}]},{"server_id":320,"name":"Uncletopia | London | 3 | All Maps","name_short":"lon-3","host":"lon-1.uk.uncletopia.com","port":27035,"enabled":true,"region":"eu","cc":"gb","latitude":51.509865,"longitude":-0.118092,"reserved":0,"last_update":"0001-01-01T00:00:00Z","name_a2s":"Uncletopia | London | 3 | All Maps","protocol":17,"map":"pl_swiftwater_final1","folder":"tf","game":"Team Fortress","app_id":440,"player_count":24,"max_players":24,"Bots":0,"server_type":"Dedicated","server_os":"Linux","password":true,"vac":true,"version":"7742253","steam_id":85568392924510192,"keywords":["nocrits","nodmgspread","payload","uncletopia"],"game_id":440,"stv_port":27036,"stv_name":"Uncletopia | London | 3 | All Maps | STV","players":[{"user_id":131,"name":"Smuggs","steam_id":76561197999456003,"connected_time":68000000000,"state":"active","ping":45},{"user_id":118,"name":"alphareroooo","steam_id":76561198380799823,"connected_time":938000000000,"state":"active","ping":67},{"user_id":112,"name":"El`Capitano Flex","steam_id":76561198061813730,"connected_time":1505000000000,"state":"active","ping":72},{"user_id":113,"name":"DocTwoEight","steam_id":76561198153488940,"connected_time":1143000000000,"state":"active","ping":73},{"user_id":121,"name":"Zhong Xina","steam_id":76561198228064312,"connected_time":651000000000,"state":"active","ping":79},{"user_id":108,"name":"fume.","steam_id":76561197960476801,"connected_time":1636000000000,"state":"active","ping":48},{"user_id":120,"name":"jim","steam_id":76561198172003783,"connected_time":846000000000,"state":"active","ping":98},{"user_id":115,"name":"squo -pivzavod-","steam_id":76561198324357479,"connected_time":1076000000000,"state":"active","ping":81},{"user_id":129,"name":"Dude Time","steam_id":76561198092991160,"connected_time":257000000000,"state":"active","ping":150},{"user_id":122,"name":"ye","steam_id":76561198110452167,"connected_time":638000000000,"state":"active","ping":80},{"user_id":80,"name":"azzy","steam_id":76561198061293740,"connected_time":3165000000000,"state":"active","ping":78},{"user_id":95,"name":"KingTubbaFlubba","steam_id":76561198203917424,"connected_time":2414000000000,"state":"active","ping":50},{"user_id":94,"name":"ninjadogs14","steam_id":76561198144983985,"connected_time":2423000000000,"state":"active","ping":42},{"user_id":111,"name":"MaeStro","steam_id":76561198046513151,"connected_time":1527000000000,"state":"active","ping":106},{"user_id":123,"name":"Juanj4448","steam_id":76561199017163696,"connected_time":625000000000,"state":"active","ping":65},{"user_id":124,"name":"Vic maher","steam_id":76561198097523768,"connected_time":608000000000,"state":"active","ping":60},{"user_id":128,"name":"akeno best waifu","steam_id":76561198267167505,"connected_time":423000000000,"state":"active","ping":75},{"user_id":133,"name":"RiX","steam_id":76561197969053733,"connected_time":35000000000,"state":"active","ping":54},{"user_id":110,"name":"Sem","steam_id":76561198157315119,"connected_time":1595000000000,"state":"active","ping":69},{"user_id":126,"name":"Steven Universe ♦","steam_id":76561198162858633,"connected_time":580000000000,"state":"active","ping":67},{"user_id":98,"name":"SadnessTrain","steam_id":76561198051934482,"connected_time":2300000000000,"state":"active","ping":66},{"user_id":130,"name":"DARK SOULS™ III","steam_id":76561198045296812,"connected_time":210000000000,"state":"active","ping":58},{"user_id":47,"name":"Lawliet","steam_id":76561198846232981,"connected_time":4949000000000,"state":"active","ping":171},{"user_id":85,"name":"BostontEA","steam_id":76561198232318512,"connected_time":3150000000000,"state":"active","ping":65}]},{"server_id":321,"name":"Uncletopia | London | 4 | All Maps","name_short":"lon-4","host":"lon-1.uk.uncletopia.com","port":27045,"enabled":true,"region":"eu","cc":"gb","latitude":51.509865,"longitude":-0.118092,"reserved":0,"last_update":"0001-01-01T00:00:00Z","name_a2s":"Uncletopia | London | 4 | All Maps","protocol":17,"map":"koth_highpass","folder":"tf","game":"Team Fortress","app_id":440,"player_count":0,"max_players":24,"Bots":0,"server_type":"Dedicated","server_os":"Linux","password":true,"vac":true,"version":"7742253","steam_id":85568392924510193,"keywords":["cp","nocrits","nodmgspread","uncletopia"],"game_id":440,"stv_port":27046,"stv_name":"Uncletopia | London | 4 | All Maps | STV","players":null},{"server_id":21,"name":"Uncletopia | London | 5 | All Maps","name_short":"lon-5","host":"lon-1.uk.uncletopia.com","port":27055,"enabled":true,"region":"eu","cc":"gb","latitude":51.509865,"longitude":-0.118092,"reserved":0,"last_update":"0001-01-01T00:00:00Z","name_a2s":"Uncletopia | London | 5 | All Maps","protocol":17,"map":"koth_highpass","folder":"tf","game":"Team Fortress","app_id":440,"player_count":0,"max_players":24,"Bots":0,"server_type":"Dedicated","server_os":"Linux","password":true,"vac":true,"version":"7742253","steam_id":85568392924742829,"keywords":["cp","nocrits","nodmgspread","uncletopia"],"game_id":440,"stv_port":27056,"stv_name":"Uncletopia | London | 5 | All Maps | STV","players":null},{"server_id":22,"name":"Uncletopia | London | 6 | All Maps","name_short":"lon-6","host":"lon-1.uk.uncletopia.com","port":27065,"enabled":true,"region":"eu","cc":"gb","latitude":51.509865,"longitude":-0.118092,"reserved":0,"last_update":"0001-01-01T00:00:00Z","name_a2s":"Uncletopia | London | 6 | All Maps","protocol":17,"map":"pl_barnblitz","folder":"tf","game":"Team Fortress","app_id":440,"player_count":24,"max_players":24,"Bots":0,"server_type":"Dedicated","server_os":"Linux","password":true,"vac":true,"version":"7742253","steam_id":85568392924742830,"keywords":["nocrits","nodmgspread","payload","uncletopia"],"game_id":440,"stv_port":27066,"stv_name":"Uncletopia | London | 6 | All Maps | STV","players":[{"user_id":78,"name":"Dopa","steam_id":76561198048257558,"connected_time":648000000000,"state":"active","ping":43},{"user_id":63,"name":"sesw","steam_id":76561198057332404,"connected_time":1315000000000,"state":"active","ping":58},{"user_id":82,"name":"Amon Gus","steam_id":76561199094540960,"connected_time":498000000000,"state":"active","ping":62},{"user_id":86,"name":"Akirus","steam_id":76561198369831090,"connected_time":250000000000,"state":"active","ping":107},{"user_id":71,"name":"sak pase","steam_id":76561198095572159,"connected_time":1138000000000,"state":"active","ping":43},{"user_id":72,"name":"burger","steam_id":76561198203486600,"connected_time":1087000000000,"state":"active","ping":57},{"user_id":65,"name":"aura","steam_id":76561197991687793,"connected_time":1293000000000,"state":"active","ping":72},{"user_id":66,"name":"nacho cheese","steam_id":76561198097683109,"connected_time":1289000000000,"state":"active","ping":43},{"user_id":79,"name":"The Wolf Leader","steam_id":76561198038007462,"connected_time":616000000000,"state":"active","ping":71},{"user_id":80,"name":"B0rеаl","steam_id":76561198268369013,"connected_time":593000000000,"state":"active","ping":87},{"user_id":46,"name":"Stümpy","steam_id":76561198255904077,"connected_time":3420000000000,"state":"active","ping":65},{"user_id":81,"name":"VillCo","steam_id":76561198121897322,"connected_time":573000000000,"state":"active","ping":78},{"user_id":34,"name":"Osmo","steam_id":76561199286764992,"connected_time":3975000000000,"state":"active","ping":87},{"user_id":70,"name":"Motley_","steam_id":76561198116057976,"connected_time":1197000000000,"state":"active","ping":31},{"user_id":50,"name":"Asgaard","steam_id":76561198026516905,"connected_time":3092000000000,"state":"active","ping":120},{"user_id":59,"name":"hulluheppu1","steam_id":76561198093458326,"connected_time":1908000000000,"state":"active","ping":75},{"user_id":26,"name":"Data-0","steam_id":76561198440962067,"connected_time":4193000000000,"state":"active","ping":54},{"user_id":73,"name":"Plumpkin","steam_id":76561198215768201,"connected_time":1085000000000,"state":"active","ping":61},{"user_id":28,"name":"Michał","steam_id":76561198320346362,"connected_time":4156000000000,"state":"active","ping":73},{"user_id":74,"name":"Sleepycoffyn","steam_id":76561199278648379,"connected_time":1072000000000,"state":"active","ping":59},{"user_id":84,"name":"DeadlyFish","steam_id":76561198144617521,"connected_time":343000000000,"state":"active","ping":74},{"user_id":57,"name":"juni","steam_id":76561198036504214,"connected_time":2039000000000,"state":"active","ping":55},{"user_id":75,"name":"wolfgang","steam_id":76561199111818670,"connected_time":1063000000000,"state":"active","ping":94},{"user_id":45,"name":"donal rump","steam_id":76561198136239861,"connected_time":3448000000000,"state":"active","ping":45}]},{"server_id":40,"name":"Uncletopia | London | 7 | No Payload","name_short":"lon-7","host":"lon-1.uk.uncletopia.com","port":27075,"enabled":true,"region":"eu","cc":"gb","latitude":51.509865,"longitude":-0.118092,"reserved":0,"last_update":"0001-01-01T00:00:00Z","name_a2s":"Uncletopia | London | 7 | No Payload","protocol":17,"map":"koth_viaduct","folder":"tf","game":"Team Fortress","app_id":440,"player_count":4,"max_players":24,"Bots":0,"server_type":"Dedicated","server_os":"Linux","password":true,"vac":true,"version":"7742253","steam_id":85568392924964314,"keywords":["cp","nocrits","nodmgspread","uncletopia"],"game_id":440,"stv_port":27076,"stv_name":"Uncletopia | London | 7 | No Payload | STV","players":[{"user_id":10,"name":"John Daly","steam_id":76561197993849325,"connected_time":212000000000,"state":"active","ping":65},{"user_id":6,"name":"Nik1","steam_id":76561198970762992,"connected_time":1805000000000,"state":"active","ping":71},{"user_id":7,"name":"drekil","steam_id":76561199042469605,"connected_time":1801000000000,"state":"active","ping":81},{"user_id":8,"name":"Dmitry Kerman","steam_id":76561198300020540,"connected_time":1393000000000,"state":"active","ping":103}]},{"server_id":41,"name":"Uncletopia | London | 8 | Community","name_short":"lon-8","host":"lon-1.uk.uncletopia.com","port":27085,"enabled":true,"region":"eu","cc":"gb","latitude":51.509865,"longitude":-0.118092,"reserved":0,"last_update":"0001-01-01T00:00:00Z","name_a2s":"Uncletopia | London | 8 | Community","protocol":17,"map":"workshop/koth_ramjam_rc1.ugc459778887","folder":"tf","game":"Team Fortress","app_id":440,"player_count":0,"max_players":24,"Bots":0,"server_type":"Dedicated","server_os":"Linux","password":true,"vac":true,"version":"7742253","steam_id":85568392924964315,"keywords":["cp","nocrits","nodmgspread","uncletopia"],"game_id":440,"stv_port":27086,"stv_name":"Uncletopia | London | 8 | Community | STV","players":null},{"server_id":300,"name":"Uncletopia | Montréal | 1 | All Maps","name_short":"mtl-1","host":"mtl-1.ca.uncletopia.com","port":27015,"enabled":true,"region":"us-east","cc":"ca","latitude":45.50889,"longitude":-73.56167,"reserved":0,"last_update":"0001-01-01T00:00:00Z","name_a2s":"Uncletopia | Montréal | 1 | All Maps","protocol":17,"map":"cp_snakewater_final1","folder":"tf","game":"Team Fortress","app_id":440,"player_count":0,"max_players":24,"Bots":0,"server_type":"Dedicated","server_os":"Linux","password":true,"vac":true,"version":"7742253","steam_id":85568392924500087,"keywords":["cp","nocrits","nodmgspread","uncletopia"],"game_id":440,"stv_port":27016,"stv_name":"Uncletopia | Montréal | 1 | All Maps | STV","players":null},{"server_id":301,"name":"Uncletopia | Montréal | 2 | All Maps","name_short":"mtl-2","host":"mtl-1.ca.uncletopia.com","port":27025,"enabled":true,"region":"us-east","cc":"ca","latitude":45.50889,"longitude":-73.56167,"reserved":0,"last_update":"0001-01-01T00:00:00Z","name_a2s":"Uncletopia | Montréal | 2 | All Maps","protocol":17,"map":"koth_highpass","folder":"tf","game":"Team Fortress","app_id":440,"player_count":0,"max_players":24,"Bots":0,"server_type":"Dedicated","server_os":"Linux","password":true,"vac":true,"version":"7742253","steam_id":85568392924500088,"keywords":["cp","nocrits","nodmgspread","uncletopia"],"game_id":440,"stv_port":27026,"stv_name":"Uncletopia | Montréal | 2 | All Maps | STV","players":null},{"server_id":302,"name":"Uncletopia | Montréal | 3 | All Maps","name_short":"mtl-3","host":"mtl-1.ca.uncletopia.com","port":27035,"enabled":true,"region":"us-east","cc":"ca","latitude":45.50889,"longitude":-73.56167,"reserved":0,"last_update":"0001-01-01T00:00:00Z","name_a2s":"Uncletopia | Montréal | 3 | All Maps","protocol":17,"map":"cp_mountainlab","folder":"tf","game":"Team Fortress","app_id":440,"player_count":0,"max_players":24,"Bots":0,"server_type":"Dedicated","server_os":"Linux","password":true,"vac":true,"version":"7742253","steam_id":85568392924500089,"keywords":["cp","nocrits","nodmgspread","uncletopia"],"game_id":440,"stv_port":27036,"stv_name":"Uncletopia | Montréal | 3 | All Maps | STV","players":null},{"server_id":303,"name":"Uncletopia | Montréal | 4 | No Payload","name_short":"mtl-4","host":"mtl-1.ca.uncletopia.com","port":27045,"enabled":true,"region":"us-east","cc":"ca","latitude":45.50889,"longitude":-73.56167,"reserved":0,"last_update":"0001-01-01T00:00:00Z","name_a2s":"Uncletopia | Montréal | 4 | No Payload","protocol":17,"map":"cp_snakewater_final1","folder":"tf","game":"Team Fortress","app_id":440,"player_count":0,"max_players":24,"Bots":0,"server_type":"Dedicated","server_os":"Linux","password":true,"vac":true,"version":"7742253","steam_id":85568392924500090,"keywords":["cp","nocrits","nodmgspread","uncletopia"],"game_id":440,"stv_port":27046,"stv_name":"Uncletopia | Montréal | 4 | No Payload | STV","players":null},{"server_id":13,"name":"Uncletopia | New York City | 1 | All Maps","name_short":"nyc-1","host":"nyc-1.us.uncletopia.com","port":27015,"enabled":true,"region":"us-east","cc":"us","latitude":40.73061,"longitude":-73.93524,"reserved":0,"last_update":"0001-01-01T00:00:00Z","name_a2s":"Uncletopia | New York City | 1 | All Maps","protocol":17,"map":"cp_mountainlab","folder":"tf","game":"Team Fortress","app_id":440,"player_count":0,"max_players":24,"Bots":0,"server_type":"Dedicated","server_os":"Linux","password":true,"vac":true,"version":"7742253","steam_id":85568392924469993,"keywords":["cp","nocrits","nodmgspread","uncletopia"],"game_id":440,"stv_port":27016,"stv_name":"Uncletopia | New York City | 1 | All Maps | STV","players":null},{"server_id":14,"name":"Uncletopia | New York City | 2 | All Maps","name_short":"nyc-2","host":"nyc-1.us.uncletopia.com","port":27025,"enabled":true,"region":"us-east","cc":"us","latitude":40.73061,"longitude":-73.93524,"reserved":0,"last_update":"0001-01-01T00:00:00Z","name_a2s":"Uncletopia | New York City | 2 | All Maps","protocol":17,"map":"cp_altitude","folder":"tf","game":"Team Fortress","app_id":440,"player_count":0,"max_players":24,"Bots":0,"server_type":"Dedicated","server_os":"Linux","password":true,"vac":true,"version":"7742253","steam_id":85568392924469994,"keywords":["cp","nocrits","nodmgspread","uncletopia"],"game_id":440,"stv_port":27026,"stv_name":"Uncletopia | New York City | 2 | All Maps | STV","players":null},{"server_id":15,"name":"Uncletopia | New York City | 3 | Stopwatch Beta","name_short":"nyc-3","host":"nyc-1.us.uncletopia.com","port":27035,"enabled":true,"region":"us-east","cc":"us","latitude":40.73061,"longitude":-73.93524,"reserved":0,"last_update":"0001-01-01T00:00:00Z","name_a2s":"Uncletopia | New York City | 3 | Stopwatch Beta","protocol":17,"map":"pl_pier","folder":"tf","game":"Team Fortress","app_id":440,"player_count":0,"max_players":24,"Bots":0,"server_type":"Dedicated","server_os":"Linux","password":true,"vac":true,"version":"7742253","steam_id":85568392924742820,"keywords":["nocrits","nodmgspread","payload","uncletopia"],"game_id":440,"stv_port":27036,"stv_name":"Uncletopia | New York City | 3 | Stopwatch Beta | STV","players":null},{"server_id":16,"name":"Uncletopia | New York City | 4 | Community","name_short":"nyc-4","host":"nyc-1.us.uncletopia.com","port":27045,"enabled":true,"region":"us-east","cc":"us","latitude":40.73061,"longitude":-73.93524,"reserved":0,"last_update":"0001-01-01T00:00:00Z","name_a2s":"Uncletopia | New York City | 4 | Community","protocol":17,"map":"koth_viaduct","folder":"tf","game":"Team Fortress","app_id":440,"player_count":0,"max_players":24,"Bots":0,"server_type":"Dedicated","server_os":"Linux","password":true,"vac":true,"version":"7742253","steam_id":85568392924742821,"keywords":["cp","nocrits","nodmgspread","uncletopia"],"game_id":440,"stv_port":27046,"stv_name":"Uncletopia | New York City | 4 | Community | STV","players":null},{"server_id":142,"name":"Uncletopia | São Paulo | 1 | All Maps","name_short":"sao-1","host":"sao-1.br.uncletopia.com","port":27015,"enabled":true,"region":"sa","cc":"br","latitude":-23.533773,"longitude":-46.62529,"reserved":0,"last_update":"0001-01-01T00:00:00Z","name_a2s":"Uncletopia | São Paulo | 1 | All Maps","protocol":17,"map":"koth_viaduct","folder":"tf","game":"Team Fortress","app_id":440,"player_count":0,"max_players":24,"Bots":0,"server_type":"Dedicated","server_os":"Linux","password":true,"vac":true,"version":"7742253","steam_id":85568392924469996,"keywords":["cp","nocrits","nodmgspread","uncletopia"],"game_id":440,"stv_port":27016,"stv_name":"Uncletopia | São Paulo | 1 | All Maps | STV","players":null},{"server_id":143,"name":"Uncletopia | São Paulo | 2 | All Maps","name_short":"sao-2","host":"sao-2.br.uncletopia.com","port":27015,"enabled":true,"region":"sa","cc":"br","latitude":-23.533773,"longitude":-46.62529,"reserved":0,"last_update":"0001-01-01T00:00:00Z","name_a2s":"Uncletopia | São Paulo | 2 | All Maps","protocol":17,"map":"koth_viaduct","folder":"tf","game":"Team Fortress","app_id":440,"player_count":0,"max_players":24,"Bots":0,"server_type":"Dedicated","server_os":"Linux","password":true,"vac":true,"version":"7742253","steam_id":85568392924485349,"keywords":["cp","nocrits","nodmgspread","uncletopia"],"game_id":440,"stv_port":27016,"stv_name":"Uncletopia | São Paulo | 2 | All Maps | STV","players":null},{"server_id":7,"name":"Uncletopia | Seattle | 1 | All Maps","name_short":"sea-1","host":"sea-1.us.uncletopia.com","port":27015,"enabled":true,"region":"us-west","cc":"us","latitude":47.608013,"longitude":-122.33517,"reserved":0,"last_update":"0001-01-01T00:00:00Z","name_a2s":"Uncletopia | Seattle | 1 | All Maps","protocol":17,"map":"cp_mountainlab","folder":"tf","game":"Team Fortress","app_id":440,"player_count":0,"max_players":24,"Bots":0,"server_type":"Dedicated","server_os":"Linux","password":true,"vac":true,"version":"7742253","steam_id":85568392924469997,"keywords":["cp","nocrits","nodmgspread","uncletopia"],"game_id":440,"stv_port":27016,"stv_name":"Uncletopia | Seattle | 1 | All Maps | STV","players":null},{"server_id":119,"name":"Uncletopia | Seattle | 2 | All Maps","name_short":"sea-2","host":"sea-1.us.uncletopia.com","port":27025,"enabled":true,"region":"us-west","cc":"us","latitude":47.608013,"longitude":-122.33517,"reserved":0,"last_update":"0001-01-01T00:00:00Z","name_a2s":"Uncletopia | Seattle | 2 | All Maps","protocol":17,"map":"koth_sawmill","folder":"tf","game":"Team Fortress","app_id":440,"player_count":19,"max_players":24,"Bots":0,"server_type":"Dedicated","server_os":"Linux","password":true,"vac":true,"version":"7742253","steam_id":85568392924469998,"keywords":["cp","nocrits","nodmgspread","uncletopia"],"game_id":440,"stv_port":27026,"stv_name":"Uncletopia | Seattle | 2 | All Maps | STV","players":[{"user_id":622,"name":"Omega","steam_id":76561198961009900,"connected_time":1944000000000,"state":"active","ping":81},{"user_id":586,"name":"ENA","steam_id":76561198046524916,"connected_time":4056000000000,"state":"active","ping":78},{"user_id":607,"name":"Doctor Fat Balls","steam_id":76561198060418001,"connected_time":2828000000000,"state":"active","ping":103},{"user_id":644,"name":"facecheck","steam_id":76561198115269587,"connected_time":52000000000,"state":"active","ping":110},{"user_id":625,"name":"Drunk 3","steam_id":76561198069100779,"connected_time":1477000000000,"state":"active","ping":104},{"user_id":636,"name":"Soap Man","steam_id":76561198000490235,"connected_time":766000000000,"state":"active","ping":62},{"user_id":641,"name":"e doctor","steam_id":76561198081851446,"connected_time":230000000000,"state":"active","ping":90},{"user_id":615,"name":"Slug Johnson","steam_id":76561198062402220,"connected_time":2438000000000,"state":"active","ping":61},{"user_id":606,"name":"-TL- swarm","steam_id":76561198019435762,"connected_time":3050000000000,"state":"active","ping":87},{"user_id":631,"name":"CropFarmer","steam_id":76561198173712581,"connected_time":1154000000000,"state":"active","ping":59},{"user_id":616,"name":"vertexdaniel","steam_id":76561198297016780,"connected_time":2430000000000,"state":"active","ping":73},{"user_id":633,"name":"Xenan11","steam_id":76561198164637487,"connected_time":1126000000000,"state":"active","ping":113},{"user_id":643,"name":"The Great Eagle Scourge of 1822","steam_id":76561198325086209,"connected_time":166000000000,"state":"active","ping":73},{"user_id":594,"name":"rat gets a little more baklava","steam_id":76561198031234032,"connected_time":3560000000000,"state":"active","ping":94},{"user_id":637,"name":"banana101asdf","steam_id":76561198213367064,"connected_time":680000000000,"state":"active","ping":51},{"user_id":617,"name":"Christopher","steam_id":76561198311614407,"connected_time":2429000000000,"state":"active","ping":80},{"user_id":597,"name":"Daz","steam_id":76561198041431938,"connected_time":3478000000000,"state":"active","ping":121},{"user_id":548,"name":"Bagaboned","steam_id":76561198043761335,"connected_time":8879000000000,"state":"active","ping":47},{"user_id":533,"name":"Dad Rock Deluxe","steam_id":76561198051224819,"connected_time":10348000000000,"state":"active","ping":89}]},{"server_id":406,"name":"Uncletopia | Seattle | 3 | Stopwatch Beta","name_short":"sea-3","host":"sea-1.us.uncletopia.com","port":27035,"enabled":true,"region":"us-west","cc":"us","latitude":47.608013,"longitude":-122.33517,"reserved":0,"last_update":"0001-01-01T00:00:00Z","name_a2s":"Uncletopia | Seattle | 3 | Stopwatch Beta","protocol":17,"map":"pl_swiftwater_final1","folder":"tf","game":"Team Fortress","app_id":440,"player_count":0,"max_players":24,"Bots":0,"server_type":"Dedicated","server_os":"Linux","password":true,"vac":true,"version":"7742253","steam_id":85568392924515217,"keywords":["nocrits","nodmgspread","payload","uncletopia"],"game_id":440,"stv_port":27036,"stv_name":"Uncletopia | Seattle | 3 | Stopwatch Beta | STV","players":null},{"server_id":17,"name":"Uncletopia | San Francisco | 1 | All Maps","name_short":"sfo-1","host":"sfo-1.us.uncletopia.com","port":27015,"enabled":true,"region":"us-west","cc":"us","latitude":37.77397,"longitude":-122.4313,"reserved":0,"last_update":"0001-01-01T00:00:00Z","name_a2s":"Uncletopia | San Francisco | 1 | All Maps","protocol":17,"map":"pl_badwater","folder":"tf","game":"Team Fortress","app_id":440,"player_count":0,"max_players":24,"Bots":0,"server_type":"Dedicated","server_os":"Linux","password":true,"vac":true,"version":"7742253","steam_id":85568392924469999,"keywords":["nocrits","nodmgspread","payload","uncletopia"],"game_id":440,"stv_port":27016,"stv_name":"Uncletopia | San Francisco | 1 | All Maps | STV","players":null},{"server_id":18,"name":"Uncletopia | San Francisco | 2 | All Maps","name_short":"sfo-2","host":"sfo-1.us.uncletopia.com","port":27025,"enabled":true,"region":"us-west","cc":"us","latitude":37.77397,"longitude":-122.4313,"reserved":0,"last_update":"0001-01-01T00:00:00Z","name_a2s":"Uncletopia | San Francisco | 2 | All Maps","protocol":17,"map":"pl_badwater","folder":"tf","game":"Team Fortress","app_id":440,"player_count":0,"max_players":24,"Bots":0,"server_type":"Dedicated","server_os":"Linux","password":true,"vac":true,"version":"7742253","steam_id":85568392924470000,"keywords":["nocrits","nodmgspread","payload","uncletopia"],"game_id":440,"stv_port":27026,"stv_name":"Uncletopia | San Francisco | 2 | All Maps | STV","players":null},{"server_id":19,"name":"Uncletopia | San Francisco | 3 | Stopwatch Beta","name_short":"sfo-3","host":"sfo-1.us.uncletopia.com","port":27035,"enabled":true,"region":"us-west","cc":"us","latitude":37.77397,"longitude":-122.4313,"reserved":0,"last_update":"0001-01-01T00:00:00Z","name_a2s":"Uncletopia | San Francisco | 3 | Stopwatch Beta","protocol":17,"map":"workshop/koth_ashville_final.ugc2130459942","folder":"tf","game":"Team Fortress","app_id":440,"player_count":0,"max_players":24,"Bots":0,"server_type":"Dedicated","server_os":"Linux","password":true,"vac":true,"version":"7742253","steam_id":85568392924742824,"keywords":["cp","nocrits","nodmgspread","uncletopia"],"game_id":440,"stv_port":27036,"stv_name":"Uncletopia | San Francisco | 3 | Stopwatch Beta | STV","players":null},{"server_id":20,"name":"Uncletopia | San Francisco | 4 | Community","name_short":"sfo-4","host":"sfo-1.us.uncletopia.com","port":27045,"enabled":true,"region":"us-west","cc":"us","latitude":37.77397,"longitude":-122.4313,"reserved":0,"last_update":"0001-01-01T00:00:00Z","name_a2s":"Uncletopia | San Francisco | 4 | Community","protocol":17,"map":"workshop/koth_synthetic_rc6a.ugc1549817316","folder":"tf","game":"Team Fortress","app_id":440,"player_count":0,"max_players":24,"Bots":0,"server_type":"Dedicated","server_os":"Linux","password":true,"vac":true,"version":"7742253","steam_id":85568392924742826,"keywords":["cp","nocrits","nodmgspread","uncletopia"],"game_id":440,"stv_port":27046,"stv_name":"Uncletopia | San Francisco | 4 | Community | STV","players":null},{"server_id":141,"name":"Uncletopia | Sydney | 1 | All Maps","name_short":"syd-1","host":"syd-1.au.uncletopia.com","port":27015,"enabled":true,"region":"au","cc":"au","latitude":-33.865143,"longitude":151.2099,"reserved":0,"last_update":"0001-01-01T00:00:00Z","name_a2s":"Uncletopia | Sydney | 1 | All Maps","protocol":17,"map":"cp_dustbowl","folder":"tf","game":"Team Fortress","app_id":440,"player_count":24,"max_players":24,"Bots":0,"server_type":"Dedicated","server_os":"Linux","password":true,"vac":true,"version":"7742253","steam_id":85568392924470001,"keywords":["cp","nocrits","nodmgspread","uncletopia"],"game_id":440,"stv_port":27016,"stv_name":"Uncletopia | Sydney | 1 | All Maps | STV","players":[{"user_id":416,"name":"Del Davis","steam_id":76561199365669004,"connected_time":7266000000000,"state":"active","ping":59},{"user_id":487,"name":"VectorLT","steam_id":76561198124850292,"connected_time":810000000000,"state":"active","ping":76},{"user_id":496,"name":"L0g","steam_id":76561198127648718,"connected_time":587000000000,"state":"active","ping":50},{"user_id":467,"name":"...","steam_id":76561198309750355,"connected_time":3308000000000,"state":"active","ping":45},{"user_id":493,"name":"krandlez` (Any/All)","steam_id":76561198044839726,"connected_time":681000000000,"state":"active","ping":36},{"user_id":455,"name":"Wake'n'Bake'n'Make'n'Bacon","steam_id":76561198061960926,"connected_time":4279000000000,"state":"active","ping":95},{"user_id":417,"name":"(1)Del Davis","steam_id":76561199009189725,"connected_time":7020000000000,"state":"active","ping":140},{"user_id":456,"name":"CatRageQuitz","steam_id":76561198207662955,"connected_time":3867000000000,"state":"active","ping":69},{"user_id":500,"name":"sadgasm","steam_id":76561198008230563,"connected_time":30000000000,"state":"active","ping":45},{"user_id":478,"name":"foooooooooooooooooooooooooood","steam_id":76561198315892104,"connected_time":2162000000000,"state":"active","ping":74},{"user_id":489,"name":"tN|Floyd The Barber","steam_id":76561198025676460,"connected_time":787000000000,"state":"active","ping":45},{"user_id":474,"name":"jv","steam_id":76561198267475132,"connected_time":2493000000000,"state":"active","ping":56},{"user_id":418,"name":"deldavisables","steam_id":76561198954911129,"connected_time":6967000000000,"state":"active","ping":81},{"user_id":464,"name":"Chronic Feeder","steam_id":76561198086465847,"connected_time":3348000000000,"state":"active","ping":48},{"user_id":495,"name":"Macca","steam_id":76561198010207998,"connected_time":634000000000,"state":"active","ping":55},{"user_id":485,"name":"Wampy","steam_id":76561199211235248,"connected_time":1861000000000,"state":"active","ping":56},{"user_id":459,"name":"HAND BANANA","steam_id":76561197960279341,"connected_time":3638000000000,"state":"active","ping":60},{"user_id":433,"name":"Tнûи∂уяѕ∂","steam_id":76561197992346511,"connected_time":5376000000000,"state":"active","ping":54},{"user_id":479,"name":"I Told the Judge im not guilty","steam_id":76561198139990966,"connected_time":2145000000000,"state":"active","ping":46},{"user_id":490,"name":"engineer gaming","steam_id":76561199218582893,"connected_time":773000000000,"state":"active","ping":178},{"user_id":492,"name":"bird","steam_id":76561198258514103,"connected_time":730000000000,"state":"active","ping":62},{"user_id":497,"name":"KILLER WHALES","steam_id":76561198012422705,"connected_time":457000000000,"state":"active","ping":56},{"user_id":491,"name":"GunMan","steam_id":76561199394159452,"connected_time":756000000000,"state":"active","ping":52},{"user_id":499,"name":"Radwimps","steam_id":76561198076455032,"connected_time":331000000000,"state":"active","ping":63}]},{"server_id":123,"name":"Uncletopia | Sydney | 2 | All Maps","name_short":"syd-2","host":"syd-1.au.uncletopia.com","port":27025,"enabled":true,"region":"au","cc":"au","latitude":-33.865143,"longitude":151.2099,"reserved":0,"last_update":"0001-01-01T00:00:00Z","name_a2s":"Uncletopia | Sydney | 2 | All Maps","protocol":17,"map":"pl_badwater","folder":"tf","game":"Team Fortress","app_id":440,"player_count":6,"max_players":24,"Bots":0,"server_type":"Dedicated","server_os":"Linux","password":true,"vac":true,"version":"7742253","steam_id":85568392924470002,"keywords":["nocrits","nodmgspread","payload","uncletopia"],"game_id":440,"stv_port":27026,"stv_name":"Uncletopia | Sydney | 2 | All Maps | STV","players":[{"user_id":782,"name":"Dr Crazii","steam_id":76561198067775226,"connected_time":545000000000,"state":"active","ping":77},{"user_id":786,"name":"blicky","steam_id":76561198029829077,"connected_time":336000000000,"state":"active","ping":101},{"user_id":788,"name":"i wish i was elvis","steam_id":76561199231458047,"connected_time":248000000000,"state":"active","ping":158},{"user_id":789,"name":"Lv 9 Reborn Nubblet","steam_id":76561198069483103,"connected_time":161000000000,"state":"active","ping":77},{"user_id":769,"name":"Borgooskulleater","steam_id":76561198347646513,"connected_time":1813000000000,"state":"active","ping":46},{"user_id":780,"name":"Extra Exotic","steam_id":76561198045191981,"connected_time":838000000000,"state":"active","ping":58}]},{"server_id":395,"name":"Uncletopia | Sydney | 3 | All Maps","name_short":"syd-3","host":"syd-1.au.uncletopia.com","port":27035,"enabled":true,"region":"au","cc":"au","latitude":-33.865143,"longitude":151.2099,"reserved":0,"last_update":"0001-01-01T00:00:00Z","name_a2s":"Uncletopia | Sydney | 3 | All Maps","protocol":17,"map":"koth_sawmill","folder":"tf","game":"Team Fortress","app_id":440,"player_count":5,"max_players":24,"Bots":0,"server_type":"Dedicated","server_os":"Linux","password":true,"vac":true,"version":"7742253","steam_id":85568392925194467,"keywords":["cp","nocrits","nodmgspread","uncletopia"],"game_id":440,"stv_port":27036,"stv_name":"Uncletopia | Sydney | 3 | All Maps | STV","players":[{"user_id":174,"name":"PanMan","steam_id":76561199027390996,"connected_time":6201000000000,"state":"active","ping":61},{"user_id":213,"name":"Branko","steam_id":76561199262196710,"connected_time":522000000000,"state":"active","ping":42},{"user_id":214,"name":"chilling","steam_id":76561197962198183,"connected_time":387000000000,"state":"active","ping":40},{"user_id":211,"name":"egocer","steam_id":76561199092009043,"connected_time":1324000000000,"state":"active","ping":319},{"user_id":179,"name":"SoundlessPlum","steam_id":76561198077872547,"connected_time":5467000000000,"state":"active","ping":53}]},{"server_id":396,"name":"Uncletopia | Sydney | 4 | All Maps","name_short":"syd-4","host":"syd-1.au.uncletopia.com","port":27045,"enabled":true,"region":"au","cc":"au","latitude":-33.865143,"longitude":151.2099,"reserved":0,"last_update":"0001-01-01T00:00:00Z","name_a2s":"Uncletopia | Sydney | 4 | All Maps","protocol":17,"map":"koth_lakeside_final","folder":"tf","game":"Team Fortress","app_id":440,"player_count":0,"max_players":24,"Bots":0,"server_type":"Dedicated","server_os":"Linux","password":true,"vac":true,"version":"7742253","steam_id":85568392925397958,"keywords":["cp","nocrits","nodmgspread","uncletopia"],"game_id":440,"stv_port":27046,"stv_name":"Uncletopia | Sydney | 4 | All Maps | STV","players":null},{"server_id":58,"name":"Uncletopia | Sydney | 5 | Stopwatch Beta","name_short":"syd-5","host":"syd-1.au.uncletopia.com","port":27055,"enabled":true,"region":"au","cc":"au","latitude":-33.865143,"longitude":151.2099,"reserved":0,"last_update":"0001-01-01T00:00:00Z","name_a2s":"Uncletopia | Sydney | 5 | Stopwatch Beta","protocol":17,"map":"workshop/koth_bagel_rc5.ugc2514036946","folder":"tf","game":"Team Fortress","app_id":440,"player_count":0,"max_players":24,"Bots":0,"server_type":"Dedicated","server_os":"Linux","password":true,"vac":true,"version":"7742253","steam_id":85568392925397959,"keywords":["cp","nocrits","nodmgspread","uncletopia"],"game_id":440,"stv_port":27056,"stv_name":"Uncletopia | Sydney | 5 | Stopwatch Beta | STV","players":null},{"server_id":59,"name":"Uncletopia | Sydney | 6 | Community","name_short":"syd-6","host":"syd-1.au.uncletopia.com","port":27065,"enabled":true,"region":"au","cc":"au","latitude":-33.865143,"longitude":151.2099,"reserved":0,"last_update":"0001-01-01T00:00:00Z","name_a2s":"Uncletopia | Sydney | 6 | Community","protocol":17,"map":"workshop/koth_ramjam_rc1.ugc459778887","folder":"tf","game":"Team Fortress","app_id":440,"player_count":0,"max_players":24,"Bots":0,"server_type":"Dedicated","server_os":"Linux","password":true,"vac":true,"version":"7742253","steam_id":85568392925397960,"keywords":["cp","nocrits","nodmgspread","uncletopia"],"game_id":440,"stv_port":27066,"stv_name":"Uncletopia | Sydney | 6 | Community | STV","players":null},{"server_id":49,"name":"Uncletopia | Warsaw | 1 | All Maps","name_short":"waw-1","host":"waw-1.pl.uncletopia.com","port":27015,"enabled":true,"region":"eu","cc":"pl","latitude":52.2297,"longitude":21.017532,"reserved":0,"last_update":"0001-01-01T00:00:00Z","name_a2s":"","protocol":0,"map":"","folder":"","game":"","app_id":0,"player_count":0,"max_players":0,"Bots":0,"server_type":"","server_os":"","password":false,"vac":false,"version":"","steam_id":0,"keywords":null,"game_id":0,"stv_port":0,"stv_name":"","players":null},{"server_id":50,"name":"Uncletopia | Warsaw | 2 | All Maps","name_short":"waw-2","host":"waw-1.pl.uncletopia.com","port":27025,"enabled":true,"region":"eu","cc":"pl","latitude":52.2297,"longitude":21.017532,"reserved":0,"last_update":"0001-01-01T00:00:00Z","name_a2s":"Uncletopia | Warsaw | 2 | All Maps","protocol":17,"map":"cp_process_final","folder":"tf","game":"Team Fortress","app_id":440,"player_count":0,"max_players":24,"Bots":0,"server_type":"Dedicated","server_os":"Linux","password":true,"vac":true,"version":"7742253","steam_id":85568392925397851,"keywords":["cp","nocrits","nodmgspread","uncletopia"],"game_id":440,"stv_port":27026,"stv_name":"Uncletopia | Warsaw | 2 | All Maps | STV","players":null},{"server_id":51,"name":"Uncletopia | Warsaw | 3 | All Maps","name_short":"waw-3","host":"waw-1.pl.uncletopia.com","port":27035,"enabled":true,"region":"eu","cc":"pl","latitude":52.2297,"longitude":21.017532,"reserved":0,"last_update":"0001-01-01T00:00:00Z","name_a2s":"Uncletopia | Warsaw | 3 | All Maps","protocol":17,"map":"koth_lakeside_final","folder":"tf","game":"Team Fortress","app_id":440,"player_count":0,"max_players":24,"Bots":0,"server_type":"Dedicated","server_os":"Linux","password":true,"vac":true,"version":"7742253","steam_id":85568392925397852,"keywords":["cp","nocrits","nodmgspread","uncletopia"],"game_id":440,"stv_port":27036,"stv_name":"Uncletopia | Warsaw | 3 | All Maps | STV","players":null},{"server_id":52,"name":"Uncletopia | Warsaw | 4 | All Maps","name_short":"waw-4","host":"waw-1.pl.uncletopia.com","port":27045,"enabled":true,"region":"eu","cc":"pl","latitude":52.2297,"longitude":21.017532,"reserved":0,"last_update":"0001-01-01T00:00:00Z","name_a2s":"Uncletopia | Warsaw | 4 | All Maps","protocol":17,"map":"pl_frontier_final","folder":"tf","game":"Team Fortress","app_id":440,"player_count":0,"max_players":24,"Bots":0,"server_type":"Dedicated","server_os":"Linux","password":true,"vac":true,"version":"7742253","steam_id":85568392925397853,"keywords":["nocrits","nodmgspread","payload","uncletopia"],"game_id":440,"stv_port":27046,"stv_name":"Uncletopia | Warsaw | 4 | All Maps | STV","players":null},{"server_id":53,"name":"Uncletopia | Warsaw | 5 | Stopwatch Beta","name_short":"waw-5","host":"waw-1.pl.uncletopia.com","port":27055,"enabled":true,"region":"eu","cc":"pl","latitude":52.2297,"longitude":21.017532,"reserved":0,"last_update":"0001-01-01T00:00:00Z","name_a2s":"Uncletopia | Warsaw | 5 | Stopwatch Beta","protocol":17,"map":"pl_swiftwater_final1","folder":"tf","game":"Team Fortress","app_id":440,"player_count":0,"max_players":24,"Bots":0,"server_type":"Dedicated","server_os":"Linux","password":true,"vac":true,"version":"7742253","steam_id":85568392925397854,"keywords":["nocrits","nodmgspread","payload","uncletopia"],"game_id":440,"stv_port":27056,"stv_name":"Uncletopia | Warsaw | 5 | Stopwatch Beta | STV","players":null},{"server_id":54,"name":"Uncletopia | Warsaw | 6 | Community","name_short":"waw-6","host":"waw-1.pl.uncletopia.com","port":27065,"enabled":true,"region":"eu","cc":"pl","latitude":52.2297,"longitude":21.017532,"reserved":0,"last_update":"0001-01-01T00:00:00Z","name_a2s":"Uncletopia | Warsaw | 6 | Community","protocol":17,"map":"koth_highpass","folder":"tf","game":"Team Fortress","app_id":440,"player_count":0,"max_players":24,"Bots":0,"server_type":"Dedicated","server_os":"Linux","password":true,"vac":true,"version":"7742253","steam_id":85568392925397856,"keywords":["cp","nocrits","nodmgspread","uncletopia"],"game_id":440,"stv_port":27066,"stv_name":"Uncletopia | Warsaw | 6 | Community | STV","players":null}]}