{"status":true,"message":"","result":[{"server_id":9,"name":"Uncletopia | Atlanta | 1 | All Maps","name_short":"atl-1","host":"atl-1.us.uncletopia.com","port":27015,"enabled":true,"region":"us-east","cc":"us","latitude":33.753746,"longitude":-84.38633,"reserved":0,"last_update":"0001-01-01T00:00:00Z","name_a2s":"Uncletopia | Atlanta | 1 | All Maps","protocol":17,"map":"pl_borneo","folder":"tf","game":"Team Fortress","app_id":440,"player_count":24,"max_players":24,"Bots":0,"server_type":"Dedicated","server_os":"Linux","password":true,"vac":true,"version":"7757534","steam_id":85568392924469982,"keywords":["nocrits","nodmgspread","payload","uncletopia"],"game_id":440,"stv_port":27016,"stv_name":"Uncletopia | Atlanta | 1 | All Maps | STV","players":[{"user_id":466,"name":"squaggles!","steam_id":76561197994995011,"connected_time":2005000000000,"state":"active","ping":33},{"user_id":483,"name":"Troy","steam_id":76561198005572722,"connected_time":675000000000,"state":"active","ping":69},{"user_id":364,"name":"quality_ch3ck","steam_id":76561198361132101,"connected_time":10240000000000,"state":"active","ping":86},{"user_id":467,"name":"Alkivo","steam_id":76561198315999766,"connected_time":1887000000000,"state":"active","ping":77},{"user_id":484,"name":"ATL1 | Lylith","steam_id":76561198386687546,"connected_time":674000000000,"state":"active","ping":49},{"user_id":437,"name":"ATL1 | deus sex","steam_id":76561198419509249,"connected_time":4491000000000,"state":"active","ping":72},{"user_id":445,"name":"Luucyf3r","steam_id":76561198141820085,"connected_time":3487000000000,"state":"active","ping":56},{"user_id":480,"name":"DFR Le4n!!!","steam_id":76561198045522596,"connected_time":1118000000000,"state":"active","ping":72},{"user_id":481,"name":"シGaso㋡","steam_id":76561198099466934,"connected_time":991000000000,"state":"active","ping":127},{"user_id":473,"name":"You Want Me","steam_id":76561198135492119,"connected_time":1696000000000,"state":"active","ping":74},{"user_id":485,"name":"Spy_Is_Pye","steam_id":76561199439622967,"connected_time":666000000000,"state":"active","ping":72},{"user_id":431,"name":"Chub","steam_id":76561198132710768,"connected_time":4900000000000,"state":"active","ping":73},{"user_id":393,"name":"Saber","steam_id":76561198012624420,"connected_time":7066000000000,"state":"active","ping":118},{"user_id":425,"name":"PerpetuaForever","steam_id":76561198347444353,"connected_time":5235000000000,"state":"active","ping":69},{"user_id":482,"name":"Sparx","steam_id":76561198102182937,"connected_time":713000000000,"state":"active","ping":54},{"user_id":355,"name":"cola","steam_id":76561198374390458,"connected_time":11369000000000,"state":"active","ping":61},{"user_id":469,"name":"hamal cine","steam_id":76561198079619374,"connected_time":1732000000000,"state":"active","ping":67},{"user_id":450,"name":"pab","steam_id":76561198156915999,"connected_time":3417000000000,"state":"active","ping":55},{"user_id":486,"name":"Goblin","steam_id":76561198338245497,"connected_time":631000000000,"state":"active","ping":67},{"user_id":477,"name":"Tyrone","steam_id":76561198189429665,"connected_time":1341000000000,"state":"active","ping":56},{"user_id":471,"name":"Tay1Qr","steam_id":76561198082809935,"connected_time":1719000000000,"state":"active","ping":73},{"user_id":441,"name":"G_Bob","steam_id":76561198098133233,"connected_time":3739000000000,"state":"active","ping":55},{"user_id":476,"name":"HE’S IN THE GODDAMN WALLS","steam_id":76561198363267009,"connected_time":1378000000000,"state":"active","ping":64},{"user_id":479,"name":"goober","steam_id":76561198943598378,"connected_time":1165000000000,"state":"active","ping":57}]},{"server_id":400,"name":"Uncletopia | Atlanta | 3 | Stopwatch Beta","name_short":"atl-3","host":"atl-1.us.uncletopia.com","port":27035,"enabled":true,"region":"us-east","cc":"us","latitude":33.753746,"longitude":-84.38633,"reserved":0,"last_update":"0001-01-01T00:00:00Z","name_a2s":"Uncletopia | Atlanta | 3 | Stopwatch Beta","protocol":17,"map":"pl_upward","folder":"tf","game":"Team Fortress","app_id":440,"player_count":0,"max_players":24,"Bots":0,"server_type":"Dedicated","server_os":"Linux","password":true,"vac":true,"version":"7757534","steam_id":85568392924515187,"keywords":["nocrits","nodmgspread","payload","uncletopia"],"game_id":440,"stv_port":27036,"stv_name":"Uncletopia | Atlanta | 3 | Stopwatch Beta | STV","players":null},{"server_id":401,"name":"Uncletopia | Atlanta | 4 | No Payload","name_short":"atl-4","host":"atl-1.us.uncletopia.com","port":27045,"enabled":true,"region":"us-east","cc":"us","latitude":33.753746,"longitude":-84.38633,"reserved":0,"last_update":"0001-01-01T00:00:00Z","name_a2s":"Uncletopia | Atlanta | 4 | No Payload","protocol":17,"map":"pl_pier","folder":"tf","game":"Team Fortress","app_id":440,"player_count":0,"max_players":24,"Bots":0,"server_type":"Dedicated","server_os":"Linux","password":true,"vac":true,"version":"7723704","steam_id":85568392924515188,"keywords":["nocrits","nodmgspread","payload","uncletopia"],"game_id":440,"stv_port":27046,"stv_name":"Uncletopia | Atlanta | 4 | No Payload | STV","players":null},{"server_id":2,"name":"Uncletopia | Chicago | 1 | All Maps","name_short":"chi-1","host":"chi-1.us.uncletopia.com","port":27015,"enabled":true,"region":"us-central","cc":"us","latitude":41.881832,"longitude":-87.62318,"reserved":0,"last_update":"0001-01-01T00:00:00Z","name_a2s":"Uncletopia | Chicago | 1 | All Maps","protocol":17,"map":"pl_swiftwater_final1","folder":"tf","game":"Team Fortress","app_id":440,"player_count":24,"max_players":24,"Bots":0,"server_type":"Dedicated","server_os":"Linux","password":true,"vac":true,"version":"7757534","steam_id":85568392924469984,"keywords":["nocrits","nodmgspread","payload","uncletopia"],"game_id":440,"stv_port":27016,"stv_name":"Uncletopia | Chicago | 1 | All Maps | STV","players":[{"user_id":535,"name":"KevCraft","steam_id":76561199000622939,"connected_time":1605000000000,"state":"active","ping":72},{"user_id":561,"name":"Silly Scientist","steam_id":76561199199886079,"connected_time":255000000000,"state":"active","ping":95},{"user_id":511,"name":"Owl Pacino","steam_id":76561197979970666,"connected_time":3163000000000,"state":"active","ping":54},{"user_id":537,"name":"Kretim","steam_id":76561199204273483,"connected_time":1434000000000,"state":"active","ping":70},{"user_id":559,"name":"OneBrickMan","steam_id":76561198335262877,"connected_time":582000000000,"state":"active","ping":113},{"user_id":539,"name":"deugan","steam_id":76561199177279139,"connected_time":1204000000000,"state":"active","ping":76},{"user_id":531,"name":"SomeScuffedKid","steam_id":76561198086113234,"connected_time":1705000000000,"state":"active","ping":69},{"user_id":540,"name":"God Robert's Cousin","steam_id":76561198022189909,"connected_time":1202000000000,"state":"active","ping":52},{"user_id":548,"name":"ExplosiveGamer21","steam_id":76561198132370955,"connected_time":773000000000,"state":"active","ping":115},{"user_id":541,"name":"a footnote in sounding history","steam_id":76561198063064857,"connected_time":1191000000000,"state":"active","ping":73},{"user_id":542,"name":"The Hermit Spycrab","steam_id":76561198046370290,"connected_time":1118000000000,"state":"active","ping":84},{"user_id":549,"name":"Magneto","steam_id":76561199151206130,"connected_time":764000000000,"state":"active","ping":59},{"user_id":543,"name":"hot twinks","steam_id":76561198004541426,"connected_time":1103000000000,"state":"active","ping":66},{"user_id":544,"name":"Sol Goodman","steam_id":76561198289164442,"connected_time":971000000000,"state":"active","ping":70},{"user_id":545,"name":"lil bro","steam_id":76561198031675881,"connected_time":959000000000,"state":"active","ping":68},{"user_id":546,"name":"the deadliest pyroshark","steam_id":76561198374227766,"connected_time":959000000000,"state":"active","ping":75},{"user_id":556,"name":"LynxGamerLife","steam_id":76561199125742844,"connected_time":638000000000,"state":"active","ping":82},{"user_id":550,"name":"WannaSeeA","steam_id":76561198097701042,"connected_time":727000000000,"state":"active","ping":78},{"user_id":551,"name":"lyra","steam_id":76561198200002859,"connected_time":716000000000,"state":"active","ping":61},{"user_id":560,"name":"Neophyte","steam_id":76561198027183394,"connected_time":520000000000,"state":"active","ping":92},{"user_id":555,"name":"TomTheF00l","steam_id":76561198829932650,"connected_time":680000000000,"state":"active","ping":99},{"user_id":529,"name":"Ion{M}","steam_id":76561197993457435,"connected_time":1979000000000,"state":"active","ping":84},{"user_id":554,"name":"Ren","steam_id":76561198118018038,"connected_time":682000000000,"state":"active","ping":92},{"user_id":557,"name":"Sad Relations","steam_id":76561199084185709,"connected_time":637000000000,"state":"active","ping":117}]},{"server_id":106,"name":"Uncletopia | Chicago | 2 | All Maps","name_short":"chi-2","host":"chi-1.us.uncletopia.com","port":27025,"enabled":true,"region":"us-central","cc":"us","latitude":41.881832,"longitude":-87.62318,"reserved":0,"last_update":"0001-01-01T00:00:00Z","name_a2s":"Uncletopia | Chicago | 2 | All Maps","protocol":17,"map":"pl_upward","folder":"tf","game":"Team Fortress","app_id":440,"player_count":24,"max_players":24,"Bots":0,"server_type":"Dedicated","server_os":"Linux","password":true,"vac":true,"version":"7757534","steam_id":85568392924469985,"keywords":["nocrits","nodmgspread","payload","uncletopia"],"game_id":440,"stv_port":27026,"stv_name":"Uncletopia | Chicago | 2 | All Maps | STV","players":[{"user_id":911,"name":"Guy_zer","steam_id":76561198159014728,"connected_time":2991000000000,"state":"active","ping":69},{"user_id":925,"name":"ilMoose","steam_id":76561198827275420,"connected_time":2150000000000,"state":"active","ping":83},{"user_id":933,"name":"The Goose","steam_id":76561199006093549,"connected_time":1197000000000,"state":"active","ping":71},{"user_id":913,"name":"Archer","steam_id":76561198132860299,"connected_time":2790000000000,"state":"active","ping":57},{"user_id":928,"name":"wida","steam_id":76561198036119899,"connected_time":2026000000000,"state":"active","ping":100},{"user_id":942,"name":"Donnie Blasto","steam_id":76561198043432005,"connected_time":459000000000,"state":"active","ping":49},{"user_id":905,"name":"Starman","steam_id":76561198030375684,"connected_time":4695000000000,"state":"active","ping":94},{"user_id":926,"name":"Lost (15)","steam_id":76561198093713427,"connected_time":2145000000000,"state":"active","ping":76},{"user_id":882,"name":"trappy","steam_id":76561198402801140,"connected_time":7049000000000,"state":"active","ping":66},{"user_id":900,"name":"Oli B\u003eQS/BP/Bulk w/ 500+ keys","steam_id":76561198140316312,"connected_time":5143000000000,"state":"active","ping":50},{"user_id":955,"name":"--_Cook_--","steam_id":76561198080855748,"connected_time":93000000000,"state":"active","ping":47},{"user_id":912,"name":"hoboways","steam_id":76561198168035195,"connected_time":2989000000000,"state":"active","ping":97},{"user_id":906,"name":"jpuck","steam_id":76561198025018960,"connected_time":4684000000000,"state":"active","ping":70},{"user_id":883,"name":"Vladikr1","steam_id":76561198401495362,"connected_time":7044000000000,"state":"active","ping":59},{"user_id":919,"name":"!!","steam_id":76561198174021898,"connected_time":2642000000000,"state":"active","ping":83},{"user_id":908,"name":"Adam (Cursed Confetti Creature)","steam_id":76561198317690197,"connected_time":3625000000000,"state":"active","ping":45},{"user_id":866,"name":"Rappitor","steam_id":76561198105613110,"connected_time":8774000000000,"state":"active","ping":51},{"user_id":914,"name":"kametro4","steam_id":76561198835430429,"connected_time":2742000000000,"state":"active","ping":75},{"user_id":871,"name":"ඞ","steam_id":76561198027779564,"connected_time":8288000000000,"state":"active","ping":59},{"user_id":937,"name":"Patrick Star Bed","steam_id":76561199059079507,"connected_time":1077000000000,"state":"active","ping":76},{"user_id":938,"name":"Bully Maguire","steam_id":76561199081621029,"connected_time":1069000000000,"state":"active","ping":96},{"user_id":889,"name":"Bliztank | RGL.gg","steam_id":76561198019252798,"connected_time":6916000000000,"state":"active","ping":60},{"user_id":944,"name":"[chef] iron","steam_id":76561197970888616,"connected_time":416000000000,"state":"active","ping":45},{"user_id":947,"name":"lemon","steam_id":76561198329179651,"connected_time":342000000000,"state":"active","ping":107}]},{"server_id":402,"name":"Uncletopia | Chicago | 3 | All Maps","name_short":"chi-3","host":"chi-1.us.uncletopia.com","port":27035,"enabled":true,"region":"us-central","cc":"us","latitude":41.881832,"longitude":-87.62318,"reserved":0,"last_update":"0001-01-01T00:00:00Z","name_a2s":"Uncletopia | Chicago | 3 | All Maps","protocol":17,"map":"pl_badwater","folder":"tf","game":"Team Fortress","app_id":440,"player_count":24,"max_players":24,"Bots":0,"server_type":"Dedicated","server_os":"Linux","password":true,"vac":true,"version":"7757534","steam_id":85568392924515191,"keywords":["nocrits","nodmgspread","payload","uncletopia"],"game_id":440,"stv_port":27036,"stv_name":"Uncletopia | Chicago | 3 | All Maps | STV","players":[{"user_id":538,"name":"Shia Surprise","steam_id":76561198081945804,"connected_time":2094000000000,"state":"active","ping":83},{"user_id":568,"name":"Fredrick","steam_id":76561197981419964,"connected_time":92000000000,"state":"active","ping":70},{"user_id":552,"name":"Ze_Über_Nerd","steam_id":76561198091148675,"connected_time":1312000000000,"state":"active","ping":67},{"user_id":477,"name":"the real babytron","steam_id":76561197989627918,"connected_time":6412000000000,"state":"active","ping":87},{"user_id":537,"name":"Cyber Cylon","steam_id":76561198048972781,"connected_time":2110000000000,"state":"active","ping":60},{"user_id":544,"name":"DRPIELZ","steam_id":76561198816135253,"connected_time":2019000000000,"state":"active","ping":119},{"user_id":539,"name":"Cuck_it","steam_id":76561198287432299,"connected_time":2091000000000,"state":"active","ping":90},{"user_id":570,"name":"Robert Builder","steam_id":76561198012067863,"connected_time":37000000000,"state":"active","ping":107},{"user_id":550,"name":"atserc","steam_id":76561197997570349,"connected_time":1707000000000,"state":"active","ping":95},{"user_id":493,"name":"Predicta","steam_id":76561198017630616,"connected_time":5947000000000,"state":"active","ping":48},{"user_id":569,"name":"Dieu-Sama","steam_id":76561198002075862,"connected_time":53000000000,"state":"active","ping":76},{"user_id":565,"name":"Satan","steam_id":76561198049821475,"connected_time":525000000000,"state":"active","ping":86},{"user_id":561,"name":"ethanol","steam_id":76561198252600202,"connected_time":1150000000000,"state":"active","ping":52},{"user_id":467,"name":"JesusLovesYouYAY","steam_id":76561199146362676,"connected_time":7199000000000,"state":"active","ping":109},{"user_id":556,"name":"totoro","steam_id":76561198210420871,"connected_time":1246000000000,"state":"active","ping":46},{"user_id":541,"name":"FALRayne","steam_id":76561198113348816,"connected_time":2064000000000,"state":"active","ping":54},{"user_id":514,"name":"dbelow_","steam_id":76561198056148853,"connected_time":3670000000000,"state":"active","ping":66},{"user_id":557,"name":"wonkey","steam_id":76561198073071290,"connected_time":1237000000000,"state":"active","ping":91},{"user_id":566,"name":"1 zeptosecond no za","steam_id":76561198325549536,"connected_time":504000000000,"state":"active","ping":76},{"user_id":560,"name":"Koi","steam_id":76561198064411172,"connected_time":1157000000000,"state":"active","ping":63},{"user_id":504,"name":"A Hard Boiled Egg","steam_id":76561197979078330,"connected_time":4830000000000,"state":"active","ping":60},{"user_id":503,"name":"Fuzzy Toast","steam_id":76561198028067781,"connected_time":5290000000000,"state":"active","ping":45},{"user_id":548,"name":"Pierce","steam_id":76561198043747953,"connected_time":1852000000000,"state":"active","ping":54},{"user_id":567,"name":"SIG","steam_id":76561198047910996,"connected_time":477000000000,"state":"active","ping":136}]},{"server_id":403,"name":"Uncletopia | Chicago | 4 | All Maps","name_short":"chi-4","host":"chi-1.us.uncletopia.com","port":27045,"enabled":true,"region":"us-central","cc":"us","latitude":41.881832,"longitude":-87.62318,"reserved":0,"last_update":"0001-01-01T00:00:00Z","name_a2s":"Uncletopia | Chicago | 4 | All Maps","protocol":17,"map":"pl_pier","folder":"tf","game":"Team Fortress","app_id":440,"player_count":23,"max_players":24,"Bots":0,"server_type":"Dedicated","server_os":"Linux","password":true,"vac":true,"version":"7757534","steam_id":85568392924515193,"keywords":["nocrits","nodmgspread","payload","uncletopia"],"game_id":440,"stv_port":27046,"stv_name":"Uncletopia | Chicago | 4 | All Maps | STV","players":[{"user_id":447,"name":"AAAAAAAAAAAAAAAAAAAAAAAAAAAAAAA","steam_id":76561198817866879,"connected_time":8197000000000,"state":"active","ping":76},{"user_id":542,"name":"YungKeet","steam_id":76561198293854963,"connected_time":175000000000,"state":"active","ping":77},{"user_id":541,"name":"Nani?","steam_id":76561198130982692,"connected_time":235000000000,"state":"active","ping":57},{"user_id":305,"name":"Daz","steam_id":76561198041431938,"connected_time":15750000000000,"state":"active","ping":73},{"user_id":528,"name":"Rex","steam_id":76561198138365053,"connected_time":1356000000000,"state":"active","ping":121},{"user_id":543,"name":"nalezinik","steam_id":76561198030026119,"connected_time":168000000000,"state":"active","ping":69},{"user_id":533,"name":"Tilted ;)","steam_id":76561198241106268,"connected_time":1132000000000,"state":"active","ping":85},{"user_id":530,"name":"The guilty gear","steam_id":76561198055650145,"connected_time":1332000000000,"state":"active","ping":102},{"user_id":534,"name":"Decot","steam_id":76561198042016967,"connected_time":1084000000000,"state":"active","ping":85},{"user_id":544,"name":"Im totally a hacker","steam_id":76561198888005736,"connected_time":157000000000,"state":"active","ping":75},{"user_id":495,"name":"edwinbrood","steam_id":76561198044848769,"connected_time":3590000000000,"state":"active","ping":51},{"user_id":545,"name":"火星 | Marsy","steam_id":76561198014979892,"connected_time":122000000000,"state":"active","ping":70},{"user_id":546,"name":"Phillip Jeffries","steam_id":76561198064052174,"connected_time":93000000000,"state":"active","ping":59},{"user_id":391,"name":"WhoIsFrosty","steam_id":76561198880588117,"connected_time":11769000000000,"state":"active","ping":57},{"user_id":536,"name":"monke","steam_id":76561198035138859,"connected_time":1059000000000,"state":"active","ping":79},{"user_id":487,"name":"Jojoker","steam_id":76561198049833406,"connected_time":5110000000000,"state":"active","ping":76},{"user_id":539,"name":"PoopJohnson","steam_id":76561199075478803,"connected_time":757000000000,"state":"active","ping":72},{"user_id":523,"name":"Bobbn","steam_id":76561198876124683,"connected_time":1765000000000,"state":"active","ping":81},{"user_id":509,"name":"Kat","steam_id":76561198032533803,"connected_time":2401000000000,"state":"active","ping":70},{"user_id":547,"name":"soas","steam_id":76561198128440470,"connected_time":71000000000,"state":"active","ping":103},{"user_id":532,"name":"Pvt. Parts","steam_id":76561198262622418,"connected_time":1297000000000,"state":"active","ping":87},{"user_id":517,"name":"Sir, this is a Wendy's","steam_id":76561198983656317,"connected_time":2240000000000,"state":"active","ping":108},{"user_id":548,"name":"Definitely Not A Replicant.","steam_id":76561198087464370,"connected_time":55000000000,"state":"active","ping":106}]},{"server_id":36,"name":"Uncletopia | Chicago | 5 | All Maps","name_short":"chi-5","host":"chi-2.us.uncletopia.com","port":27015,"enabled":true,"region":"us-central","cc":"us","latitude":41.881832,"longitude":-87.62318,"reserved":0,"last_update":"0001-01-01T00:00:00Z","name_a2s":"Uncletopia | Chicago | 5 | All Maps","protocol":17,"map":"pl_snowycoast","folder":"tf","game":"Team Fortress","app_id":440,"player_count":24,"max_players":24,"Bots":0,"server_type":"Dedicated","server_os":"Linux","password":true,"vac":true,"version":"7757534","steam_id":85568392924866362,"keywords":["nocrits","nodmgspread","payload","uncletopia"],"game_id":440,"stv_port":27016,"stv_name":"Uncletopia | Chicago | 5 | All Maps | STV","players":[{"user_id":670,"name":"Pebbles","steam_id":76561197985155770,"connected_time":556000000000,"state":"active","ping":69},{"user_id":671,"name":"/","steam_id":76561198009818412,"connected_time":370000000000,"state":"active","ping":72},{"user_id":635,"name":"★CamLikesCow★","steam_id":76561198140812640,"connected_time":2254000000000,"state":"active","ping":73},{"user_id":675,"name":"pseudonym","steam_id":76561198018564445,"connected_time":205000000000,"state":"active","ping":75},{"user_id":673,"name":"Dan Flashes Rewards Card Holder","steam_id":76561199215811448,"connected_time":280000000000,"state":"active","ping":90},{"user_id":672,"name":"Cheech and Chungus","steam_id":76561198126999599,"connected_time":309000000000,"state":"active","ping":73},{"user_id":651,"name":"Fuegan Ra","steam_id":76561198287923849,"connected_time":1597000000000,"state":"active","ping":52},{"user_id":625,"name":"Theory-ZaZa","steam_id":76561198116419931,"connected_time":3091000000000,"state":"active","ping":110},{"user_id":674,"name":"crs22","steam_id":76561198120149196,"connected_time":246000000000,"state":"active","ping":66},{"user_id":636,"name":"Lord Mayo S\u003e Unusuals","steam_id":76561198183634774,"connected_time":2249000000000,"state":"active","ping":68},{"user_id":621,"name":"Stormz64 (but festive)","steam_id":76561198239036482,"connected_time":3307000000000,"state":"active","ping":68},{"user_id":669,"name":"PizzaPasta","steam_id":76561199125109082,"connected_time":640000000000,"state":"active","ping":81},{"user_id":645,"name":"daxter4hire","steam_id":76561198250722116,"connected_time":1844000000000,"state":"active","ping":69},{"user_id":629,"name":"Jitters","steam_id":76561198078898336,"connected_time":2815000000000,"state":"active","ping":46},{"user_id":616,"name":"III","steam_id":76561198976434426,"connected_time":3646000000000,"state":"active","ping":56},{"user_id":676,"name":"Wise Mystical Tree","steam_id":76561198377835843,"connected_time":96000000000,"state":"active","ping":44},{"user_id":664,"name":"witch","steam_id":76561198151071386,"connected_time":799000000000,"state":"active","ping":87},{"user_id":666,"name":"mah dood","steam_id":76561198970102360,"connected_time":758000000000,"state":"active","ping":162},{"user_id":665,"name":"Soonbear","steam_id":76561198116264327,"connected_time":780000000000,"state":"active","ping":67},{"user_id":656,"name":"its me, im here!","steam_id":76561198387571809,"connected_time":1306000000000,"state":"active","ping":71},{"user_id":653,"name":"Foyboy™","steam_id":76561198072305817,"connected_time":1553000000000,"state":"active","ping":79},{"user_id":667,"name":"guero","steam_id":76561198150382695,"connected_time":754000000000,"state":"active","ping":81},{"user_id":570,"name":"Relatable","steam_id":76561198441669772,"connected_time":6397000000000,"state":"active","ping":99},{"user_id":658,"name":"DAMM BRO","steam_id":76561198984762462,"connected_time":1260000000000,"state":"active","ping":105}]},{"server_id":37,"name":"Uncletopia | Chicago | 6 | All Maps","name_short":"chi-6","host":"chi-2.us.uncletopia.com","port":27025,"enabled":true,"region":"us-central","cc":"us","latitude":41.881832,"longitude":-87.62318,"reserved":0,"last_update":"0001-01-01T00:00:00Z","name_a2s":"Uncletopia | Chicago | 6 | All Maps","protocol":17,"map":"cp_dustbowl","folder":"tf","game":"Team Fortress","app_id":440,"player_count":24,"max_players":24,"Bots":0,"server_type":"Dedicated","server_os":"Linux","password":true,"vac":true,"version":"7757534","steam_id":85568392924866363,"keywords":["cp","nocrits","nodmgspread","uncletopia"],"game_id":440,"stv_port":27026,"stv_name":"Uncletopia | Chicago | 6 | All Maps | STV","players":[{"user_id":617,"name":"kairOs.fk","steam_id":76561197972421260,"connected_time":7842000000000,"state":"active","ping":58},{"user_id":693,"name":"Daasanach","steam_id":76561199056614751,"connected_time":1569000000000,"state":"active","ping":126},{"user_id":677,"name":"Fishman_200","steam_id":76561198152455167,"connected_time":2815000000000,"state":"active","ping":78},{"user_id":711,"name":"Dug","steam_id":76561198017691029,"connected_time":673000000000,"state":"active","ping":54},{"user_id":656,"name":"Uncle Majic the Hip Hop Magicia","steam_id":76561198107924303,"connected_time":4250000000000,"state":"active","ping":62},{"user_id":683,"name":"Filthy Hobo","steam_id":76561198174373015,"connected_time":2334000000000,"state":"active","ping":115},{"user_id":709,"name":"Moonflower ✦","steam_id":76561198191782483,"connected_time":895000000000,"state":"active","ping":77},{"user_id":690,"name":"Wildfire005","steam_id":76561198428025829,"connected_time":1805000000000,"state":"active","ping":82},{"user_id":660,"name":"Oberon72","steam_id":76561198311446636,"connected_time":4029000000000,"state":"active","ping":62},{"user_id":714,"name":"warewarewa","steam_id":76561197965022076,"connected_time":163000000000,"state":"active","ping":58},{"user_id":715,"name":"BowlzingShoes","steam_id":76561199127110073,"connected_time":160000000000,"state":"active","ping":61},{"user_id":631,"name":"you are loved","steam_id":76561198108524571,"connected_time":6672000000000,"state":"active","ping":75},{"user_id":662,"name":"DeadErebus","steam_id":76561198286117045,"connected_time":4003000000000,"state":"active","ping":33},{"user_id":589,"name":"Spazzls","steam_id":76561198075224361,"connected_time":9477000000000,"state":"active","ping":90},{"user_id":717,"name":"Jermas Stinky Mario Pajamas","steam_id":76561198259096033,"connected_time":75000000000,"state":"active","ping":78},{"user_id":696,"name":"Kaypo","steam_id":76561198262420097,"connected_time":1524000000000,"state":"active","ping":62},{"user_id":716,"name":"trusty man","steam_id":76561198353463585,"connected_time":146000000000,"state":"active","ping":74},{"user_id":674,"name":"DAG","steam_id":76561198219508244,"connected_time":2894000000000,"state":"active","ping":71},{"user_id":705,"name":"Garry","steam_id":76561198070584586,"connected_time":1177000000000,"state":"active","ping":55},{"user_id":701,"name":"Billy Shears","steam_id":76561199002125668,"connected_time":1424000000000,"state":"active","ping":54},{"user_id":704,"name":"Pizza Party","steam_id":76561198165730754,"connected_time":1380000000000,"state":"active","ping":82},{"user_id":645,"name":"Heropon","steam_id":76561198105224481,"connected_time":5582000000000,"state":"active","ping":84},{"user_id":703,"name":"elso","steam_id":76561198058209902,"connected_time":1401000000000,"state":"active","ping":91},{"user_id":718,"name":"coolkid","steam_id":76561198072600034,"connected_time":69000000000,"state":"connecting","ping":0}]},{"server_id":38,"name":"Uncletopia | Chicago | 7 | Stopwatch Beta","name_short":"chi-7","host":"chi-2.us.uncletopia.com","port":27035,"enabled":true,"region":"us-central","cc":"us","latitude":41.881832,"longitude":-87.62318,"reserved":0,"last_update":"0001-01-01T00:00:00Z","name_a2s":"Uncletopia | Chicago | 7 | Stopwatch Beta","protocol":17,"map":"workshop/pl_badwater_pro_v12.ugc2142942074","folder":"tf","game":"Team Fortress","app_id":440,"player_count":0,"max_players":24,"Bots":0,"server_type":"Dedicated","server_os":"Linux","password":true,"vac":true,"version":"7757534","steam_id":85568392924866364,"keywords":["nocrits","nodmgspread","payload","uncletopia"],"game_id":440,"stv_port":27036,"stv_name":"Uncletopia | Chicago | 7 | Stopwatch Beta | STV","players":null},{"server_id":39,"name":"Uncletopia | Chicago | 8 | Community","name_short":"chi-8","host":"chi-2.us.uncletopia.com","port":27045,"enabled":true,"region":"us-central","cc":"us","latitude":41.881832,"longitude":-87.62318,"reserved":0,"last_update":"0001-01-01T00:00:00Z","name_a2s":"Uncletopia | Chicago | 8 | Community","protocol":17,"map":"workshop/pl_eruption_b9a.ugc2807898013","folder":"tf","game":"Team Fortress","app_id":440,"player_count":19,"max_players":24,"Bots":0,"server_type":"Dedicated","server_os":"Linux","password":true,"vac":true,"version":"7757534","steam_id":85568392924866365,"keywords":["nocrits","nodmgspread","payload","uncletopia"],"game_id":440,"stv_port":27046,"stv_name":"Uncletopia | Chicago | 8 | Community | STV","players":[{"user_id":216,"name":"SSBM Pelican","steam_id":76561198040697907,"connected_time":328000000000,"state":"active","ping":74},{"user_id":222,"name":"Resistance","steam_id":76561198146782074,"connected_time":56000000000,"state":"active","ping":52},{"user_id":214,"name":"Lepo","steam_id":76561198383509659,"connected_time":424000000000,"state":"active","ping":97},{"user_id":217,"name":"Aeris","steam_id":76561198287271028,"connected_time":293000000000,"state":"active","ping":56},{"user_id":215,"name":"liquid bread","steam_id":76561198012441419,"connected_time":422000000000,"state":"active","ping":54},{"user_id":223,"name":"fritz","steam_id":76561198275715824,"connected_time":39000000000,"state":"spawning","ping":137},{"user_id":170,"name":"guap master smelvin (no mic)","steam_id":76561198058209703,"connected_time":4199000000000,"state":"active","ping":47},{"user_id":129,"name":"Zubats |TAOZ|","steam_id":76561198041819445,"connected_time":7563000000000,"state":"active","ping":46},{"user_id":151,"name":"Ozzyrockin","steam_id":76561198094899868,"connected_time":5434000000000,"state":"active","ping":59},{"user_id":208,"name":"Gram Tokers Count Doinkula","steam_id":76561198112811565,"connected_time":1151000000000,"state":"active","ping":72},{"user_id":190,"name":"DEEP sxl","steam_id":76561198150627999,"connected_time":2133000000000,"state":"active","ping":79},{"user_id":195,"name":"CSeraphym","steam_id":76561198074010736,"connected_time":2095000000000,"state":"active","ping":140},{"user_id":191,"name":"Brotalium","steam_id":76561198055439054,"connected_time":2114000000000,"state":"active","ping":74},{"user_id":197,"name":"Doinnoid","steam_id":76561198262276139,"connected_time":1932000000000,"state":"active","ping":68},{"user_id":220,"name":"Ramix","steam_id":76561198120419206,"connected_time":214000000000,"state":"active","ping":73},{"user_id":112,"name":"kangaroo wife","steam_id":76561198040455711,"connected_time":8309000000000,"state":"active","ping":94},{"user_id":32,"name":"Bimba","steam_id":76561198006883248,"connected_time":12209000000000,"state":"active","ping":77},{"user_id":218,"name":"Lord Scrubling","steam_id":76561198263744445,"connected_time":246000000000,"state":"active","ping":74},{"user_id":144,"name":"SlimGrady","steam_id":76561198451231329,"connected_time":6397000000000,"state":"active","ping":65}]},{"server_id":8,"name":"Uncletopia | Dallas | 1 | All Maps","name_short":"dal-1","host":"dal-1.us.uncletopia.com","port":27015,"enabled":true,"region":"us-central","cc":"us","latitude":32.779167,"longitude":-96.80889,"reserved":0,"last_update":"0001-01-01T00:00:00Z","name_a2s":"Uncletopia | Dallas | 1 | All Maps","protocol":17,"map":"pl_barnblitz","folder":"tf","game":"Team Fortress","app_id":440,"player_count":23,"max_players":24,"Bots":0,"server_type":"Dedicated","server_os":"Linux","password":true,"vac":true,"version":"7757534","steam_id":85568392924469986,"keywords":["nocrits","nodmgspread","payload","uncletopia"],"game_id":440,"stv_port":27016,"stv_name":"Uncletopia | Dallas | 1 | All Maps | STV","players":[{"user_id":639,"name":"Emma","steam_id":76561198318093783,"connected_time":31000000000,"state":"active","ping":50},{"user_id":573,"name":"todd","steam_id":76561198140689842,"connected_time":4865000000000,"state":"active","ping":49},{"user_id":631,"name":"SUPER SAMUARI","steam_id":76561198196793754,"connected_time":274000000000,"state":"active","ping":62},{"user_id":632,"name":"KritzKow","steam_id":76561198086164003,"connected_time":272000000000,"state":"active","ping":83},{"user_id":607,"name":"Stapler","steam_id":76561198099295077,"connected_time":2572000000000,"state":"active","ping":90},{"user_id":633,"name":"Grand Wizard Autismo","steam_id":76561198069834979,"connected_time":264000000000,"state":"active","ping":56},{"user_id":629,"name":"Protoshake","steam_id":76561198840276176,"connected_time":370000000000,"state":"active","ping":40},{"user_id":597,"name":"damiankiller1243","steam_id":76561198868885090,"connected_time":2898000000000,"state":"active","ping":67},{"user_id":623,"name":"schwicky shwag","steam_id":76561198037921140,"connected_time":1108000000000,"state":"active","ping":68},{"user_id":630,"name":"BlackOrion","steam_id":76561199120828395,"connected_time":354000000000,"state":"active","ping":80},{"user_id":634,"name":"girthmilk","steam_id":76561198054799782,"connected_time":263000000000,"state":"active","ping":92},{"user_id":583,"name":"Only One Jhakobi","steam_id":76561197993641141,"connected_time":4036000000000,"state":"active","ping":78},{"user_id":608,"name":"Nagol","steam_id":76561198125274726,"connected_time":2299000000000,"state":"active","ping":64},{"user_id":615,"name":"UpDawg","steam_id":76561199095607635,"connected_time":1937000000000,"state":"active","ping":82},{"user_id":550,"name":"Caoticaos","steam_id":76561198114800227,"connected_time":6550000000000,"state":"active","ping":144},{"user_id":638,"name":"mr ploobmeister","steam_id":76561198128908529,"connected_time":48000000000,"state":"active","ping":60},{"user_id":588,"name":"Intruder","steam_id":76561198799578901,"connected_time":3918000000000,"state":"active","ping":125},{"user_id":598,"name":"viscodolante","steam_id":76561198013650292,"connected_time":2889000000000,"state":"active","ping":104},{"user_id":604,"name":"+","steam_id":76561198262422184,"connected_time":2783000000000,"state":"active","ping":43},{"user_id":624,"name":"plink","steam_id":76561198057829889,"connected_time":931000000000,"state":"active","ping":113},{"user_id":640,"name":"Brother Beer","steam_id":76561198024001880,"connected_time":7000000000,"state":"spawning","ping":55},{"user_id":482,"name":"Foomfa","steam_id":76561198007033616,"connected_time":13363000000000,"state":"active","ping":53},{"user_id":620,"name":"webaline","steam_id":76561199052450127,"connected_time":1483000000000,"state":"active","ping":78}]},{"server_id":108,"name":"Uncletopia | Dallas | 2 | All Maps","name_short":"dal-2","host":"dal-1.us.uncletopia.com","port":27025,"enabled":true,"region":"us-central","cc":"us","latitude":32.779167,"longitude":-96.80889,"reserved":0,"last_update":"0001-01-01T00:00:00Z","name_a2s":"Uncletopia | Dallas | 2 | All Maps","protocol":17,"map":"pl_badwater","folder":"tf","game":"Team Fortress","app_id":440,"player_count":24,"max_players":24,"Bots":0,"server_type":"Dedicated","server_os":"Linux","password":true,"vac":true,"version":"7757534","steam_id":85568392924469988,"keywords":["nocrits","nodmgspread","payload","uncletopia"],"game_id":440,"stv_port":27026,"stv_name":"Uncletopia | Dallas | 2 | All Maps | STV","players":[{"user_id":149,"name":"マット9ムーン[EMEA$]","steam_id":76561198111982890,"connected_time":2330000000000,"state":"active","ping":44},{"user_id":153,"name":"veemdya yaymign :)","steam_id":76561199175434022,"connected_time":1771000000000,"state":"active","ping":97},{"user_id":126,"name":"Limasio","steam_id":76561198198176191,"connected_time":4232000000000,"state":"active","ping":72},{"user_id":164,"name":"Zornplays","steam_id":76561199175292302,"connected_time":1447000000000,"state":"active","ping":117},{"user_id":165,"name":"wow","steam_id":76561198131400543,"connected_time":1244000000000,"state":"active","ping":63},{"user_id":147,"name":"Wowzers","steam_id":76561198841712864,"connected_time":2709000000000,"state":"active","ping":88},{"user_id":102,"name":"lemony","steam_id":76561199158847498,"connected_time":4656000000000,"state":"active","ping":98},{"user_id":168,"name":"MerkyWaters","steam_id":76561197998853063,"connected_time":927000000000,"state":"active","ping":81},{"user_id":171,"name":"FakeBot","steam_id":76561197961193303,"connected_time":364000000000,"state":"active","ping":100},{"user_id":156,"name":"Pinto","steam_id":76561199105386998,"connected_time":1702000000000,"state":"active","ping":57},{"user_id":112,"name":"Chaitea2424(EMEA$)","steam_id":76561198143112277,"connected_time":4430000000000,"state":"active","ping":45},{"user_id":172,"name":"Tinker","steam_id":76561198271981179,"connected_time":349000000000,"state":"active","ping":74},{"user_id":113,"name":"Chaosmonkey [EMEA$]","steam_id":76561198079109669,"connected_time":4426000000000,"state":"active","ping":55},{"user_id":177,"name":"Nahvee","steam_id":76561198119759695,"connected_time":73000000000,"state":"active","ping":66},{"user_id":170,"name":"LuciD","steam_id":76561198242842394,"connected_time":468000000000,"state":"active","ping":64},{"user_id":173,"name":"Phil Collins","steam_id":76561198068868644,"connected_time":348000000000,"state":"active","ping":84},{"user_id":162,"name":"deadpixel","steam_id":76561198150249843,"connected_time":1541000000000,"state":"active","ping":71},{"user_id":131,"name":"jturner1nm","steam_id":76561198344493652,"connected_time":3868000000000,"state":"active","ping":136},{"user_id":158,"name":"linus","steam_id":76561198106196691,"connected_time":1686000000000,"state":"active","ping":90},{"user_id":167,"name":"flipnote hatena frog","steam_id":76561198096334078,"connected_time":1177000000000,"state":"active","ping":75},{"user_id":175,"name":"Chicken Blow Job","steam_id":76561198086185071,"connected_time":280000000000,"state":"active","ping":53},{"user_id":176,"name":"Goob","steam_id":76561198326469586,"connected_time":273000000000,"state":"active","ping":67},{"user_id":160,"name":"MaryJaneee","steam_id":76561198072200952,"connected_time":1643000000000,"state":"active","ping":76},{"user_id":163,"name":"worm","steam_id":76561198277144112,"connected_time":1501000000000,"state":"active","ping":107}]},{"server_id":5,"name":"Uncletopia | Frankfurt | 1 | All Maps","name_short":"frk-1","host":"frk-1.de.uncletopia.com","port":27015,"enabled":true,"region":"eu","cc":"de","latitude":50.110924,"longitude":8.682127,"reserved":0,"last_update":"0001-01-01T00:00:00Z","name_a2s":"Uncletopia | Frankfurt | 1 | All Maps","protocol":17,"map":"pl_pier","folder":"tf","game":"Team Fortress","app_id":440,"player_count":0,"max_players":24,"Bots":0,"server_type":"Dedicated","server_os":"Linux","password":true,"vac":true,"version":"7757534","steam_id":85568392924469989,"keywords":["nocrits","nodmgspread","payload","uncletopia"],"game_id":440,"stv_port":27016,"stv_name":"Uncletopia | Frankfurt | 1 | All Maps | STV","players":null},{"server_id":110,"name":"Uncletopia | Frankfurt | 2 | All Maps","name_short":"frk-2","host":"frk-1.de.uncletopia.com","port":27025,"enabled":true,"region":"eu","cc":"de","latitude":50.110924,"longitude":8.682127,"reserved":0,"last_update":"0001-01-01T00:00:00Z","name_a2s":"Uncletopia | Frankfurt | 2 | All Maps","protocol":17,"map":"cp_altitude","folder":"tf","game":"Team Fortress","app_id":440,"player_count":0,"max_players":24,"Bots":0,"server_type":"Dedicated","server_os":"Linux","password":true,"vac":true,"version":"7757534","steam_id":85568392924469990,"keywords":["cp","nocrits","nodmgspread","uncletopia"],"game_id":440,"stv_port":27026,"stv_name":"Uncletopia | Frankfurt | 2 | All Maps | STV","players":null},{"server_id":308,"name":"Uncletopia | Frankfurt | 3 | All Maps","name_short":"frk-3","host":"frk-1.de.uncletopia.com","port":27035,"enabled":true,"region":"eu","cc":"de","latitude":50.110924,"longitude":8.682127,"reserved":0,"last_update":"0001-01-01T00:00:00Z","name_a2s":"Uncletopia | Frankfurt | 3 | All Maps","protocol":17,"map":"pl_barnblitz","folder":"tf","game":"Team Fortress","app_id":440,"player_count":0,"max_players":24,"Bots":0,"server_type":"Dedicated","server_os":"Linux","password":true,"vac":true,"version":"7757534","steam_id":85568392924504274,"keywords":["nocrits","nodmgspread","payload","uncletopia"],"game_id":440,"stv_port":27036,"stv_name":"Uncletopia | Frankfurt | 3 | All Maps | STV","players":null},{"server_id":309,"name":"Uncletopia | Frankfurt | 4 | All Maps","name_short":"frk-4","host":"frk-1.de.uncletopia.com","port":27045,"enabled":true,"region":"eu","cc":"de","latitude":50.110924,"longitude":8.682127,"reserved":0,"last_update":"0001-01-01T00:00:00Z","name_a2s":"Uncletopia | Frankfurt | 4 | All Maps","protocol":17,"map":"pl_snowycoast","folder":"tf","game":"Team Fortress","app_id":440,"player_count":0,"max_players":24,"Bots":0,"server_type":"Dedicated","server_os":"Linux","password":true,"vac":true,"version":"7757534","steam_id":85568392924504275,"keywords":["nocrits","nodmgspread","payload","uncletopia"],"game_id":440,"stv_port":27046,"stv_name":"Uncletopia | Frankfurt | 4 | All Maps | STV","players":null},{"server_id":310,"name":"Uncletopia | Frankfurt | 5 | All Maps","name_short":"frk-5","host":"frk-1.de.uncletopia.com","port":27055,"enabled":true,"region":"eu","cc":"de","latitude":50.110924,"longitude":8.682127,"reserved":0,"last_update":"0001-01-01T00:00:00Z","name_a2s":"Uncletopia | Frankfurt | 5 | All Maps","protocol":17,"map":"cp_altitude","folder":"tf","game":"Team Fortress","app_id":440,"player_count":0,"max_players":24,"Bots":0,"server_type":"Dedicated","server_os":"Linux","password":true,"vac":true,"version":"7757534","steam_id":85568392924504277,"keywords":["cp","nocrits","nodmgspread","uncletopia"],"game_id":440,"stv_port":27056,"stv_name":"Uncletopia | Frankfurt | 5 | All Maps | STV","players":null},{"server_id":311,"name":"Uncletopia | Frankfurt | 6 | All Maps","name_short":"frk-6","host":"frk-1.de.uncletopia.com","port":27065,"enabled":true,"region":"eu","cc":"de","latitude":50.110924,"longitude":8.682127,"reserved":0,"last_update":"0001-01-01T00:00:00Z","name_a2s":"Uncletopia | Frankfurt | 6 | All Maps","protocol":17,"map":"koth_highpass","folder":"tf","game":"Team Fortress","app_id":440,"player_count":0,"max_players":24,"Bots":0,"server_type":"Dedicated","server_os":"Linux","password":true,"vac":true,"version":"7757534","steam_id":85568392924504278,"keywords":["cp","nocrits","nodmgspread","uncletopia"],"game_id":440,"stv_port":27066,"stv_name":"Uncletopia | Frankfurt | 6 | All Maps | STV","players":null},{"server_id":23,"name":"Uncletopia | Frankfurt | 7 | Stopwatch Beta","name_short":"frk-7","host":"frk-1.de.uncletopia.com","port":27075,"enabled":true,"region":"eu","cc":"de","latitude":50.110924,"longitude":8.682127,"reserved":0,"last_update":"0001-01-01T00:00:00Z","name_a2s":"Uncletopia | Frankfurt | 7 | Stopwatch Beta","protocol":17,"map":"pl_borneo","folder":"tf","game":"Team Fortress","app_id":440,"player_count":0,"max_players":24,"Bots":0,"server_type":"Dedicated","server_os":"Linux","password":true,"vac":true,"version":"7757534","steam_id":85568392924742827,"keywords":["nocrits","nodmgspread","payload","uncletopia"],"game_id":440,"stv_port":27076,"stv_name":"Uncletopia | Frankfurt | 7 | Stopwatch Beta | STV","players":null},{"server_id":24,"name":"Uncletopia | Frankfurt | 8 | Community","name_short":"frk-8","host":"frk-1.de.uncletopia.com","port":27085,"enabled":true,"region":"eu","cc":"de","latitude":50.110924,"longitude":8.682127,"reserved":0,"last_update":"0001-01-01T00:00:00Z","name_a2s":"Uncletopia | Frankfurt | 8 | Community","protocol":17,"map":"koth_cascade","folder":"tf","game":"Team Fortress","app_id":440,"player_count":0,"max_players":24,"Bots":0,"server_type":"Dedicated","server_os":"Linux","password":true,"vac":true,"version":"7757534","steam_id":85568392924742828,"keywords":["cp","nocrits","nodmgspread","uncletopia"],"game_id":440,"stv_port":27086,"stv_name":"Uncletopia | Frankfurt | 8 | Community | STV","players":null},{"server_id":202,"name":"Uncletopia | Hong Kong | 1 | All Maps","name_short":"hgk-1","host":"hgk-1.hk.uncletopia.com","port":27015,"enabled":true,"region":"asia","cc":"hk","latitude":22.302711,"longitude":114.177216,"reserved":0,"last_update":"0001-01-01T00:00:00Z","name_a2s":"Uncletopia | Hong Kong | 1 | All Maps","protocol":17,"map":"koth_harvest_final","folder":"tf","game":"Team Fortress","app_id":440,"player_count":24,"max_players":24,"Bots":0,"server_type":"Dedicated","server_os":"Linux","password":true,"vac":true,"version":"7757534","steam_id":85568392924494504,"keywords":["cp","nocrits","nodmgspread","uncletopia"],"game_id":440,"stv_port":27016,"stv_name":"Uncletopia | Hong Kong | 1 | All Maps | STV","players":[{"user_id":103,"name":"flibbity jibbity jibber jabber","steam_id":76561199158853202,"connected_time":1543000000000,"state":"active","ping":55},{"user_id":106,"name":"existix","steam_id":76561199171636601,"connected_time":996000000000,"state":"active","ping":57},{"user_id":125,"name":"TomProPlayer","steam_id":76561199223292521,"connected_time":278000000000,"state":"active","ping":70},{"user_id":107,"name":"Zacy","steam_id":76561198114841670,"connected_time":890000000000,"state":"active","ping":63},{"user_id":108,"name":"Sev","steam_id":76561198864660173,"connected_time":752000000000,"state":"active","ping":165},{"user_id":112,"name":"donchezdonta","steam_id":76561198835851582,"connected_time":661000000000,"state":"active","ping":70},{"user_id":77,"name":"Booyah!","steam_id":76561199216778383,"connected_time":3091000000000,"state":"active","ping":120},{"user_id":110,"name":"Lym0n","steam_id":76561199192420260,"connected_time":687000000000,"state":"active","ping":114},{"user_id":111,"name":"Bepo","steam_id":76561198136685157,"connected_time":676000000000,"state":"active","ping":60},{"user_id":128,"name":"tf2 gaymer","steam_id":76561198080108480,"connected_time":121000000000,"state":"active","ping":54},{"user_id":69,"name":"timmy.1366","steam_id":76561199065433547,"connected_time":3491000000000,"state":"active","ping":75},{"user_id":114,"name":"Pow","steam_id":76561198323735075,"connected_time":633000000000,"state":"active","ping":127},{"user_id":115,"name":"p1st0n","steam_id":76561198992723983,"connected_time":625000000000,"state":"active","ping":98},{"user_id":126,"name":"JayJ","steam_id":76561198324008555,"connected_time":221000000000,"state":"active","ping":51},{"user_id":118,"name":"Mentally stable. Can be trusted","steam_id":76561199221531190,"connected_time":571000000000,"state":"active","ping":117},{"user_id":119,"name":"Totally a real lvl 3 sentry","steam_id":76561198979802944,"connected_time":567000000000,"state":"active","ping":63},{"user_id":82,"name":"TonXD","steam_id":76561199024372559,"connected_time":2967000000000,"state":"active","ping":106},{"user_id":120,"name":"UltraFat","steam_id":76561198253918132,"connected_time":529000000000,"state":"active","ping":86},{"user_id":121,"name":"Spy Crab F2P","steam_id":76561199090200486,"connected_time":390000000000,"state":"active","ping":160},{"user_id":122,"name":"Rachugh","steam_id":76561199235852578,"connected_time":362000000000,"state":"active","ping":186},{"user_id":123,"name":"SoggyMuffins","steam_id":76561199298434024,"connected_time":351000000000,"state":"active","ping":128},{"user_id":124,"name":"gunslinger? i hardly know er!","steam_id":76561198834445483,"connected_time":310000000000,"state":"active","ping":63},{"user_id":127,"name":"8091573212","steam_id":76561198968776439,"connected_time":158000000000,"state":"active","ping":88},{"user_id":129,"name":"Rikka Lulu","steam_id":76561199142377164,"connected_time":66000000000,"state":"active","ping":86}]},{"server_id":1,"name":"Uncletopia | Los Angeles | 1 | All Maps","name_short":"lax-1","host":"lax-1.us.uncletopia.com","port":27015,"enabled":true,"region":"us-west","cc":"us","latitude":33.94279,"longitude":-118.41004,"reserved":0,"last_update":"0001-01-01T00:00:00Z","name_a2s":"Uncletopia | Los Angeles | 1 | All Maps","protocol":17,"map":"pl_snowycoast","folder":"tf","game":"Team Fortress","app_id":440,"player_count":24,"max_players":24,"Bots":0,"server_type":"Dedicated","server_os":"Linux","password":true,"vac":true,"version":"7757534","steam_id":85568392924469991,"keywords":["nocrits","nodmgspread","payload","uncletopia"],"game_id":440,"stv_port":27016,"stv_name":"Uncletopia | Los Angeles | 1 | All Maps | STV","players":[{"user_id":399,"name":"(1)jimbo","steam_id":76561199052822567,"connected_time":1483000000000,"state":"active","ping":57},{"user_id":414,"name":"Plant","steam_id":76561198892328663,"connected_time":370000000000,"state":"active","ping":51},{"user_id":377,"name":"Pog","steam_id":76561198957479336,"connected_time":3020000000000,"state":"active","ping":97},{"user_id":374,"name":"ุ","steam_id":76561198084134025,"connected_time":3107000000000,"state":"active","ping":103},{"user_id":412,"name":"Owl_eyes","steam_id":76561198066199203,"connected_time":448000000000,"state":"active","ping":56},{"user_id":411,"name":"dndplayer2000","steam_id":76561199187895660,"connected_time":545000000000,"state":"active","ping":55},{"user_id":393,"name":"Ogre Commander","steam_id":76561198124066405,"connected_time":1583000000000,"state":"active","ping":49},{"user_id":347,"name":"jimbo","steam_id":76561198067867292,"connected_time":5306000000000,"state":"active","ping":101},{"user_id":409,"name":"primordialheath","steam_id":76561199386942638,"connected_time":633000000000,"state":"active","ping":130},{"user_id":386,"name":"THIRDPIERCE","steam_id":76561198405366314,"connected_time":1910000000000,"state":"active","ping":95},{"user_id":415,"name":"potatoes","steam_id":76561197975080641,"connected_time":90000000000,"state":"active","ping":51},{"user_id":413,"name":"Dr. Professor PJ, Ph.D","steam_id":76561198004429398,"connected_time":447000000000,"state":"active","ping":83},{"user_id":394,"name":"walrooos ✿","steam_id":76561198024521839,"connected_time":1572000000000,"state":"active","ping":58},{"user_id":407,"name":"TF2_Class.mp4","steam_id":76561198362954269,"connected_time":696000000000,"state":"active","ping":46},{"user_id":400,"name":"SpottedRuby","steam_id":76561198871250632,"connected_time":1474000000000,"state":"active","ping":70},{"user_id":378,"name":"Doctor X (Michiko Daemon)","steam_id":76561199106264424,"connected_time":2973000000000,"state":"active","ping":108},{"user_id":398,"name":"Halston","steam_id":76561198354801978,"connected_time":1524000000000,"state":"active","ping":120},{"user_id":379,"name":"Reem0h","steam_id":76561198169848690,"connected_time":2239000000000,"state":"active","ping":117},{"user_id":410,"name":"Lily Thorn","steam_id":76561198305488625,"connected_time":610000000000,"state":"active","ping":88},{"user_id":390,"name":"Chafn","steam_id":76561197969386702,"connected_time":1793000000000,"state":"active","ping":61},{"user_id":372,"name":"FESTIVE SQU1RRELLY","steam_id":76561197961279983,"connected_time":3215000000000,"state":"active","ping":75},{"user_id":295,"name":"h20verdrive","steam_id":76561198115957085,"connected_time":8601000000000,"state":"active","ping":49},{"user_id":405,"name":"tN|SpiritofLight","steam_id":76561197967936643,"connected_time":1169000000000,"state":"active","ping":60},{"user_id":406,"name":"raspy","steam_id":76561198027298961,"connected_time":836000000000,"state":"active","ping":118}]},{"server_id":112,"name":"Uncletopia | Los Angeles | 2 | All Maps","name_short":"lax-2","host":"lax-1.us.uncletopia.com","port":27025,"enabled":true,"region":"us-west","cc":"us","latitude":33.94279,"longitude":-118.41004,"reserved":0,"last_update":"0001-01-01T00:00:00Z","name_a2s":"Uncletopia | Los Angeles | 2 | All Maps","protocol":17,"map":"koth_cascade","folder":"tf","game":"Team Fortress","app_id":440,"player_count":0,"max_players":24,"Bots":0,"server_type":"Dedicated","server_os":"Linux","password":true,"vac":true,"version":"7757534","steam_id":85568392924469992,"keywords":["cp","nocrits","nodmgspread","uncletopia"],"game_id":440,"stv_port":27026,"stv_name":"Uncletopia | Los Angeles | 2 | All Maps | STV","players":null},{"server_id":324,"name":"Uncletopia | Los Angeles | 3 | All Maps","name_short":"lax-3","host":"lax-1.us.uncletopia.com","port":27035,"enabled":true,"region":"us-west","cc":"us","latitude":33.94279,"longitude":-118.41004,"reserved":0,"last_update":"0001-01-01T00:00:00Z","name_a2s":"Uncletopia | Los Angeles | 3 | All Maps","protocol":17,"map":"pl_borneo","folder":"tf","game":"Team Fortress","app_id":440,"player_count":23,"max_players":24,"Bots":0,"server_type":"Dedicated","server_os":"Linux","password":true,"vac":true,"version":"7757534","steam_id":85568392924510198,"keywords":["nocrits","nodmgspread","payload","uncletopia"],"game_id":440,"stv_port":27036,"stv_name":"Uncletopia | Los Angeles | 3 | All Maps | STV","players":[{"user_id":94,"name":"ForAPessimistImPrettyOptimistic","steam_id":76561198170128009,"connected_time":2091000000000,"state":"active","ping":59},{"user_id":75,"name":"DiscoTraveler","steam_id":76561199240168088,"connected_time":4349000000000,"state":"active","ping":98},{"user_id":110,"name":"FATHER","steam_id":76561198041308977,"connected_time":176000000000,"state":"active","ping":63},{"user_id":103,"name":"TheBrocklobster","steam_id":76561198039682984,"connected_time":643000000000,"state":"active","ping":64},{"user_id":104,"name":"dual since aimer","steam_id":76561198042826477,"connected_time":599000000000,"state":"active","ping":79},{"user_id":99,"name":"Fungus","steam_id":76561198390297486,"connected_time":1670000000000,"state":"active","ping":33},{"user_id":105,"name":"well i'll be","steam_id":76561198272092906,"connected_time":533000000000,"state":"active","ping":68},{"user_id":81,"name":"Speve Bobs","steam_id":76561198349908268,"connected_time":3248000000000,"state":"active","ping":56},{"user_id":73,"name":"Scampy","steam_id":76561198001506924,"connected_time":4383000000000,"state":"active","ping":81},{"user_id":95,"name":"scrapheap","steam_id":76561198202407087,"connected_time":2083000000000,"state":"active","ping":136},{"user_id":97,"name":"car gas is yummy","steam_id":76561199045901994,"connected_time":2060000000000,"state":"active","ping":62},{"user_id":63,"name":"Jonatello","steam_id":76561198045699189,"connected_time":5538000000000,"state":"active","ping":74},{"user_id":78,"name":"Livin' Like Larry","steam_id":76561198313360974,"connected_time":3321000000000,"state":"active","ping":45},{"user_id":93,"name":"Re:ZeroCultLeader","steam_id":76561198214899655,"connected_time":2106000000000,"state":"active","ping":74},{"user_id":106,"name":"{ᴛʀ_ᴄᴇʀᴘ} shullers","steam_id":76561198889997809,"connected_time":531000000000,"state":"active","ping":45},{"user_id":111,"name":"John Wick's puppy","steam_id":76561198064662875,"connected_time":145000000000,"state":"active","ping":57},{"user_id":112,"name":"Indigolake","steam_id":76561198202215807,"connected_time":46000000000,"state":"active","ping":131},{"user_id":90,"name":"Big Meaty Frogs","steam_id":76561198068328470,"connected_time":2415000000000,"state":"active","ping":63},{"user_id":98,"name":"Bdresser","steam_id":76561198283663543,"connected_time":2044000000000,"state":"active","ping":111},{"user_id":108,"name":"Grungus","steam_id":76561198047700230,"connected_time":455000000000,"state":"active","ping":60},{"user_id":66,"name":"MinusSoup918","steam_id":76561198060902773,"connected_time":5450000000000,"state":"active","ping":68},{"user_id":67,"name":"Frongus","steam_id":76561197979056451,"connected_time":5422000000000,"state":"active","ping":76},{"user_id":92,"name":"AKKAWI","steam_id":76561198203159952,"connected_time":2272000000000,"state":"active","ping":56}]},{"server_id":25,"name":"Uncletopia | Los Angeles | 4 | Stopwatch Beta","name_short":"lax-4","host":"lax-1.us.uncletopia.com","port":27045,"enabled":true,"region":"us-west","cc":"us","latitude":33.94279,"longitude":-118.41004,"reserved":0,"last_update":"0001-01-01T00:00:00Z","name_a2s":"Uncletopia | Los Angeles | 4 | Stopwatch Beta","protocol":17,"map":"koth_viaduct","folder":"tf","game":"Team Fortress","app_id":440,"player_count":0,"max_players":24,"Bots":0,"server_type":"Dedicated","server_os":"Linux","password":true,"vac":true,"version":"7757534","steam_id":85568392924510199,"keywords":["cp","nocrits","nodmgspread","uncletopia"],"game_id":440,"stv_port":27046,"stv_name":"Uncletopia | Los Angeles | 4 | Stopwatch Beta | STV","players":null},{"server_id":11,"name":"Uncletopia | London | 1 | All Maps","name_short":"lon-1","host":"lon-1.uk.uncletopia.com","port":27015,"enabled":true,"region":"eu","cc":"gb","latitude":51.509865,"longitude":-0.118092,"reserved":0,"last_update":"0001-01-01T00:00:00Z","name_a2s":"Uncletopia | London | 1 | All Maps","protocol":17,"map":"plr_hightower","folder":"tf","game":"Team Fortress","app_id":440,"player_count":19,"max_players":24,"Bots":0,"server_type":"Dedicated","server_os":"Linux","password":true,"vac":true,"version":"7757534","steam_id":85568392924367362,"keywords":["nocrits","nodmgspread","payload","uncletopia"],"game_id":440,"stv_port":27016,"stv_name":"Uncletopia | London | 1 | All Maps | STV","players":[{"user_id":930,"name":"Sneaky boi","steam_id":76561199195985387,"connected_time":801000000000,"state":"active","ping":89},{"user_id":916,"name":"Bupster","steam_id":76561199077027065,"connected_time":1102000000000,"state":"active","ping":74},{"user_id":915,"name":"jonbob","steam_id":76561197963506620,"connected_time":1355000000000,"state":"active","ping":53},{"user_id":897,"name":"IKARUS","steam_id":76561198850898422,"connected_time":2966000000000,"state":"active","ping":72},{"user_id":937,"name":"[SpA]Junco","steam_id":76561198035732305,"connected_time":287000000000,"state":"active","ping":56},{"user_id":920,"name":"Pan Pan","steam_id":76561199074670515,"connected_time":930000000000,"state":"active","ping":90},{"user_id":925,"name":"kisatsutai","steam_id":76561198354926388,"connected_time":862000000000,"state":"active","ping":121},{"user_id":939,"name":"In the flesh","steam_id":76561198061248547,"connected_time":208000000000,"state":"active","ping":47},{"user_id":922,"name":"Sakari","steam_id":76561197997811299,"connected_time":922000000000,"state":"active","ping":60},{"user_id":923,"name":"Choruptian","steam_id":76561198017686366,"connected_time":906000000000,"state":"active","ping":63},{"user_id":924,"name":"DrunkHungarian","steam_id":76561198853346540,"connected_time":895000000000,"state":"active","ping":57},{"user_id":932,"name":"Быдло","steam_id":76561198838085062,"connected_time":731000000000,"state":"active","ping":169},{"user_id":933,"name":"vroom doom","steam_id":76561198192671475,"connected_time":731000000000,"state":"active","ping":65},{"user_id":896,"name":"Fred","steam_id":76561198107137362,"connected_time":2969000000000,"state":"active","ping":47},{"user_id":934,"name":"Fmow!","steam_id":76561198805834759,"connected_time":678000000000,"state":"active","ping":118},{"user_id":935,"name":"20 fps bot","steam_id":76561199277727142,"connected_time":620000000000,"state":"active","ping":113},{"user_id":936,"name":"Stotty","steam_id":76561198042158211,"connected_time":377000000000,"state":"active","ping":67},{"user_id":869,"name":"EdSuedi","steam_id":76561199387956486,"connected_time":4924000000000,"state":"active","ping":59},{"user_id":942,"name":"Love Machine","steam_id":76561198040569265,"connected_time":121000000000,"state":"active","ping":59}]},{"server_id":114,"name":"Uncletopia | London | 2 | All Maps","name_short":"lon-2","host":"lon-1.uk.uncletopia.com","port":27025,"enabled":true,"region":"eu","cc":"gb","latitude":51.509865,"longitude":-0.118092,"reserved":0,"last_update":"0001-01-01T00:00:00Z","name_a2s":"Uncletopia | London | 2 | All Maps","protocol":17,"map":"pl_frontier_final","folder":"tf","game":"Team Fortress","app_id":440,"player_count":0,"max_players":24,"Bots":0,"server_type":"Dedicated","server_os":"Linux","password":true,"vac":true,"version":"7757534","steam_id":85568392924470941,"keywords":["nocrits","nodmgspread","payload","uncletopia"],"game_id":440,"stv_port":27026,"stv_name":"Uncletopia | London | 2 | All Maps | STV","players":null},{"server_id":320,"name":"Uncletopia | London | 3 | All Maps","name_short":"lon-3","host":"lon-1.uk.uncletopia.com","port":27035,"enabled":true,"region":"eu","cc":"gb","latitude":51.509865,"longitude":-0.118092,"reserved":0,"last_update":"0001-01-01T00:00:00Z","name_a2s":"Uncletopia | London | 3 | All Maps","protocol":17,"map":"cp_mountainlab","folder":"tf","game":"Team Fortress","app_id":440,"player_count":0,"max_players":24,"Bots":0,"server_type":"Dedicated","server_os":"Linux","password":true,"vac":true,"version":"7757534","steam_id":85568392924510192,"keywords":["cp","nocrits","nodmgspread","uncletopia"],"game_id":440,"stv_port":27036,"stv_name":"Uncletopia | London | 3 | All Maps | STV","players":null},{"server_id":321,"name":"Uncletopia | London | 4 | All Maps","name_short":"lon-4","host":"lon-1.uk.uncletopia.com","port":27045,"enabled":true,"region":"eu","cc":"gb","latitude":51.509865,"longitude":-0.118092,"reserved":0,"last_update":"0001-01-01T00:00:00Z","name_a2s":"Uncletopia | London | 4 | All Maps","protocol":17,"map":"pl_upward","folder":"tf","game":"Team Fortress","app_id":440,"player_count":24,"max_players":24,"Bots":0,"server_type":"Dedicated","server_os":"Linux","password":true,"vac":true,"version":"7757534","steam_id":85568392924510193,"keywords":["nocrits","nodmgspread","payload","uncletopia"],"game_id":440,"stv_port":27046,"stv_name":"Uncletopia | London | 4 | All Maps | STV","players":[{"user_id":750,"name":"LordTrap.exe","steam_id":76561198318089716,"connected_time":1815000000000,"state":"connecting","ping":59},{"user_id":751,"name":"zigg","steam_id":76561198149501776,"connected_time":1254000000000,"state":"connecting","ping":48},{"user_id":752,"name":"drew","steam_id":76561198012304706,"connected_time":1197000000000,"state":"connecting","ping":113},{"user_id":762,"name":"Melon","steam_id":76561198150893860,"connected_time":30000000000,"state":"connecting","ping":92},{"user_id":753,"name":"Hexabit","steam_id":76561198028625661,"connected_time":1153000000000,"state":"connecting","ping":81},{"user_id":735,"name":"im just clicking mouse","steam_id":76561198164723910,"connected_time":2947000000000,"state":"connecting","ping":90},{"user_id":738,"name":"SuntanPikachu","steam_id":76561198121242476,"connected_time":2880000000000,"state":"connecting","ping":62},{"user_id":726,"name":"uhmazn","steam_id":76561198014204225,"connected_time":3495000000000,"state":"connecting","ping":79},{"user_id":754,"name":"Subnet001","steam_id":76561198029163028,"connected_time":1115000000000,"state":"connecting","ping":71},{"user_id":704,"name":"MATLAB R2021b","steam_id":76561198053440695,"connected_time":5380000000000,"state":"connecting","ping":54},{"user_id":736,"name":"vani","steam_id":76561197991778291,"connected_time":2928000000000,"state":"spawning","ping":101},{"user_id":757,"name":"rat performance","steam_id":76561198065854668,"connected_time":1012000000000,"state":"connecting","ping":47},{"user_id":759,"name":"Hati","steam_id":76561198135520039,"connected_time":548000000000,"state":"connecting","ping":90},{"user_id":746,"name":"Autoexec","steam_id":76561198155581421,"connected_time":2358000000000,"state":"connecting","ping":53},{"user_id":720,"name":"It's all good, man","steam_id":76561198134724746,"connected_time":4080000000000,"state":"connecting","ping":144},{"user_id":761,"name":"truly.rizzley bear","steam_id":76561198890409949,"connected_time":383000000000,"state":"connecting","ping":118},{"user_id":737,"name":"fogings","steam_id":76561198044165284,"connected_time":2916000000000,"state":"spawning","ping":78},{"user_id":728,"name":"FNF","steam_id":76561199151422826,"connected_time":3377000000000,"state":"connecting","ping":133},{"user_id":675,"name":"steakman10","steam_id":76561198152584691,"connected_time":7589000000000,"state":"connecting","ping":84},{"user_id":745,"name":"ErakTheBrave","steam_id":76561198041198994,"connected_time":2549000000000,"state":"connecting","ping":66},{"user_id":749,"name":"DocTwoEight","steam_id":76561198153488940,"connected_time":1894000000000,"state":"connecting","ping":95},{"user_id":741,"name":"Odin8890","steam_id":76561197993044361,"connected_time":2720000000000,"state":"connecting","ping":61},{"user_id":763,"name":"🃔 Nugg1t(sme/lly)","steam_id":76561198065652251,"connected_time":30000000000,"state":"connecting","ping":73}]},{"server_id":21,"name":"Uncletopia | London | 5 | All Maps","name_short":"lon-5","host":"lon-1.uk.uncletopia.com","port":27055,"enabled":true,"region":"eu","cc":"gb","latitude":51.509865,"longitude":-0.118092,"reserved":0,"last_update":"0001-01-01T00:00:00Z","name_a2s":"Uncletopia | London | 5 | All Maps","protocol":17,"map":"koth_lakeside_final","folder":"tf","game":"Team Fortress","app_id":440,"player_count":0,"max_players":24,"Bots":0,"server_type":"Dedicated","server_os":"Linux","password":true,"vac":true,"version":"7757534","steam_id":85568392924742829,"keywords":["cp","nocrits","nodmgspread","uncletopia"],"game_id":440,"stv_port":27056,"stv_name":"Uncletopia | London | 5 | All Maps | STV","players":null},{"server_id":22,"name":"Uncletopia | London | 6 | All Maps","name_short":"lon-6","host":"lon-1.uk.uncletopia.com","port":27065,"enabled":true,"region":"eu","cc":"gb","latitude":51.509865,"longitude":-0.118092,"reserved":0,"last_update":"0001-01-01T00:00:00Z","name_a2s":"Uncletopia | London | 6 | All Maps","protocol":17,"map":"koth_highpass","folder":"tf","game":"Team Fortress","app_id":440,"player_count":0,"max_players":24,"Bots":0,"server_type":"Dedicated","server_os":"Linux","password":true,"vac":true,"version":"7757534","steam_id":85568392924742830,"keywords":["cp","nocrits","nodmgspread","uncletopia"],"game_id":440,"stv_port":27066,"stv_name":"Uncletopia | London | 6 | All Maps | STV","players":null},{"server_id":40,"name":"Uncletopia | London | 7 | No Payload","name_short":"lon-7","host":"lon-1.uk.uncletopia.com","port":27075,"enabled":true,"region":"eu","cc":"gb","latitude":51.509865,"longitude":-0.118092,"reserved":0,"last_update":"0001-01-01T00:00:00Z","name_a2s":"Uncletopia | London | 7 | No Payload","protocol":17,"map":"koth_lazarus","folder":"tf","game":"Team Fortress","app_id":440,"player_count":0,"max_players":24,"Bots":0,"server_type":"Dedicated","server_os":"Linux","password":true,"vac":true,"version":"7757534","steam_id":85568392924964314,"keywords":["cp","nocrits","nodmgspread","uncletopia"],"game_id":440,"stv_port":27076,"stv_name":"Uncletopia | London | 7 | No Payload | STV","players":null},{"server_id":41,"name":"Uncletopia | London | 8 | Community","name_short":"lon-8","host":"lon-1.uk.uncletopia.com","port":27085,"enabled":true,"region":"eu","cc":"gb","latitude":51.509865,"longitude":-0.118092,"reserved":0,"last_update":"0001-01-01T00:00:00Z","name_a2s":"Uncletopia | London | 8 | Community","protocol":17,"map":"workshop/koth_ashville_final.ugc2130459942","folder":"tf","game":"Team Fortress","app_id":440,"player_count":0,"max_players":24,"Bots":0,"server_type":"Dedicated","server_os":"Linux","password":true,"vac":true,"version":"7757534","steam_id":85568392924964315,"keywords":["cp","nocrits","nodmgspread","uncletopia"],"game_id":440,"stv_port":27086,"stv_name":"Uncletopia | London | 8 | Community | STV","players":null},{"server_id":300,"name":"Uncletopia | Montréal | 1 | All Maps","name_short":"mtl-1","host":"mtl-1.ca.uncletopia.com","port":27015,"enabled":true,"region":"us-east","cc":"ca","latitude":45.50889,"longitude":-73.56167,"reserved":0,"last_update":"0001-01-01T00:00:00Z","name_a2s":"Uncletopia | Montréal | 1 | All Maps","protocol":17,"map":"pl_badwater","folder":"tf","game":"Team Fortress","app_id":440,"player_count":14,"max_players":24,"Bots":0,"server_type":"Dedicated","server_os":"Linux","password":true,"vac":true,"version":"7757534","steam_id":85568392924500087,"keywords":["nocrits","nodmgspread","payload","uncletopia"],"game_id":440,"stv_port":27016,"stv_name":"Uncletopia | Montréal | 1 | All Maps | STV","players":[{"user_id":127,"name":"uVeins","steam_id":76561198067445528,"connected_time":568000000000,"state":"active","ping":35},{"user_id":121,"name":"Bait","steam_id":76561198336489647,"connected_time":2151000000000,"state":"active","ping":56},{"user_id":133,"name":"slugrunner[|874","steam_id":76561198880491582,"connected_time":30000000000,"state":"active","ping":140},{"user_id":131,"name":"Roz257","steam_id":76561198842844532,"connected_time":50000000000,"state":"spawning","ping":48},{"user_id":132,"name":"Savaqa","steam_id":76561198158016688,"connected_time":49000000000,"state":"active","ping":111},{"user_id":98,"name":"Fobby #Savetf2","steam_id":76561198047681469,"connected_time":4232000000000,"state":"active","ping":62},{"user_id":129,"name":"Retro","steam_id":76561199245375089,"connected_time":268000000000,"state":"active","ping":174},{"user_id":125,"name":"Yada #savetf2","steam_id":76561199103981181,"connected_time":729000000000,"state":"active","ping":54},{"user_id":122,"name":"Nady","steam_id":76561198383096917,"connected_time":1494000000000,"state":"active","ping":70},{"user_id":123,"name":"susquis","steam_id":76561199220869794,"connected_time":1487000000000,"state":"active","ping":68},{"user_id":71,"name":"IggyYT","steam_id":76561198317980567,"connected_time":5464000000000,"state":"active","ping":86},{"user_id":95,"name":"[ £Ÿ,Đ ] Not AirmanBlueJay","steam_id":76561198030901346,"connected_time":4289000000000,"state":"active","ping":68},{"user_id":58,"name":"The Drunk Clown","steam_id":76561197986850426,"connected_time":6926000000000,"state":"active","ping":57},{"user_id":106,"name":"pickled head","steam_id":76561198052571208,"connected_time":3325000000000,"state":"active","ping":52}]},{"server_id":301,"name":"Uncletopia | Montréal | 2 | All Maps","name_short":"mtl-2","host":"mtl-1.ca.uncletopia.com","port":27025,"enabled":true,"region":"us-east","cc":"ca","latitude":45.50889,"longitude":-73.56167,"reserved":0,"last_update":"0001-01-01T00:00:00Z","name_a2s":"Uncletopia | Montréal | 2 | All Maps","protocol":17,"map":"koth_cascade","folder":"tf","game":"Team Fortress","app_id":440,"player_count":0,"max_players":24,"Bots":0,"server_type":"Dedicated","server_os":"Linux","password":true,"vac":true,"version":"7757534","steam_id":85568392924500088,"keywords":["cp","nocrits","nodmgspread","uncletopia"],"game_id":440,"stv_port":27026,"stv_name":"Uncletopia | Montréal | 2 | All Maps | STV","players":null},{"server_id":302,"name":"Uncletopia | Montréal | 3 | All Maps","name_short":"mtl-3","host":"mtl-1.ca.uncletopia.com","port":27035,"enabled":true,"region":"us-east","cc":"ca","latitude":45.50889,"longitude":-73.56167,"reserved":0,"last_update":"0001-01-01T00:00:00Z","name_a2s":"Uncletopia | Montréal | 3 | All Maps","protocol":17,"map":"pl_frontier_final","folder":"tf","game":"Team Fortress","app_id":440,"player_count":0,"max_players":24,"Bots":0,"server_type":"Dedicated","server_os":"Linux","password":true,"vac":true,"version":"7757534","steam_id":85568392924500089,"keywords":["nocrits","nodmgspread","payload","uncletopia"],"game_id":440,"stv_port":27036,"stv_name":"Uncletopia | Montréal | 3 | All Maps | STV","players":null},{"server_id":303,"name":"Uncletopia | Montréal | 4 | No Payload","name_short":"mtl-4","host":"mtl-1.ca.uncletopia.com","port":27045,"enabled":true,"region":"us-east","cc":"ca","latitude":45.50889,"longitude":-73.56167,"reserved":0,"last_update":"0001-01-01T00:00:00Z","name_a2s":"Uncletopia | Montréal | 4 | No Payload","protocol":17,"map":"koth_lakeside_final","folder":"tf","game":"Team Fortress","app_id":440,"player_count":0,"max_players":24,"Bots":0,"server_type":"Dedicated","server_os":"Linux","password":true,"vac":true,"version":"7757534","steam_id":85568392924500090,"keywords":["cp","nocrits","nodmgspread","uncletopia"],"game_id":440,"stv_port":27046,"stv_name":"Uncletopia | Montréal | 4 | No Payload | STV","players":null},{"server_id":13,"name":"Uncletopia | New York City | 1 | All Maps","name_short":"nyc-1","host":"nyc-1.us.uncletopia.com","port":27015,"enabled":true,"region":"us-east","cc":"us","latitude":40.73061,"longitude":-73.93524,"reserved":0,"last_update":"0001-01-01T00:00:00Z","name_a2s":"Uncletopia | New York City | 1 | All Maps","protocol":17,"map":"pl_upward","folder":"tf","game":"Team Fortress","app_id":440,"player_count":24,"max_players":24,"Bots":0,"server_type":"Dedicated","server_os":"Linux","password":true,"vac":true,"version":"7757534","steam_id":85568392924469993,"keywords":["nocrits","nodmgspread","payload","uncletopia"],"game_id":440,"stv_port":27016,"stv_name":"Uncletopia | New York City | 1 | All Maps | STV","players":[{"user_id":624,"name":"Tax Evasion Wario","steam_id":76561198049563704,"connected_time":728000000000,"state":"active","ping":85},{"user_id":616,"name":"Sudo","steam_id":76561198123714026,"connected_time":1205000000000,"state":"active","ping":127},{"user_id":605,"name":"lightingd619","steam_id":76561198374758113,"connected_time":1854000000000,"state":"active","ping":60},{"user_id":638,"name":"Geloman","steam_id":76561198005501322,"connected_time":194000000000,"state":"active","ping":57},{"user_id":639,"name":"a grade 6 fixer","steam_id":76561198132031026,"connected_time":14000000000,"state":"active","ping":50},{"user_id":627,"name":"A Crack Head","steam_id":76561198353465442,"connected_time":631000000000,"state":"active","ping":119},{"user_id":621,"name":"ルーディ","steam_id":76561198228893896,"connected_time":849000000000,"state":"active","ping":63},{"user_id":626,"name":"drugsmoker117289","steam_id":76561198079009899,"connected_time":669000000000,"state":"active","ping":77},{"user_id":628,"name":"lyanide","steam_id":76561198311704368,"connected_time":620000000000,"state":"active","ping":63},{"user_id":622,"name":"Pancreas Enjoyer","steam_id":76561199438598904,"connected_time":839000000000,"state":"active","ping":104},{"user_id":609,"name":"Ribbered","steam_id":76561198242118240,"connected_time":1742000000000,"state":"active","ping":73},{"user_id":629,"name":"Kaizoku","steam_id":76561198123017274,"connected_time":610000000000,"state":"active","ping":41},{"user_id":619,"name":"Sire Salty","steam_id":76561198079639072,"connected_time":945000000000,"state":"active","ping":57},{"user_id":620,"name":"Clownster","steam_id":76561198147390252,"connected_time":870000000000,"state":"active","ping":114},{"user_id":613,"name":"Vaude","steam_id":76561198369187511,"connected_time":1574000000000,"state":"active","ping":63},{"user_id":623,"name":"Banes","steam_id":76561198083485876,"connected_time":805000000000,"state":"active","ping":68},{"user_id":630,"name":"drain.pablo.2005","steam_id":76561198303963691,"connected_time":580000000000,"state":"active","ping":79},{"user_id":612,"name":"Shaunhan","steam_id":76561198386596938,"connected_time":1693000000000,"state":"active","ping":51},{"user_id":631,"name":"Nihilism","steam_id":76561198232646232,"connected_time":579000000000,"state":"active","ping":63},{"user_id":635,"name":"nut the dude","steam_id":76561199204451552,"connected_time":395000000000,"state":"active","ping":81},{"user_id":615,"name":"StrangeSaus","steam_id":76561198147790758,"connected_time":1398000000000,"state":"active","ping":64},{"user_id":633,"name":"100 sunshine girl","steam_id":76561198385802500,"connected_time":553000000000,"state":"active","ping":112},{"user_id":634,"name":"[Deep]GooeyGapedGrannys","steam_id":76561198089731303,"connected_time":481000000000,"state":"active","ping":56},{"user_id":637,"name":"christopherschafer0714","steam_id":76561199375962567,"connected_time":251000000000,"state":"active","ping":66}]},{"server_id":14,"name":"Uncletopia | New York City | 2 | All Maps","name_short":"nyc-2","host":"nyc-1.us.uncletopia.com","port":27025,"enabled":true,"region":"us-east","cc":"us","latitude":40.73061,"longitude":-73.93524,"reserved":0,"last_update":"0001-01-01T00:00:00Z","name_a2s":"Uncletopia | New York City | 2 | All Maps","protocol":17,"map":"pl_upward","folder":"tf","game":"Team Fortress","app_id":440,"player_count":0,"max_players":24,"Bots":0,"server_type":"Dedicated","server_os":"Linux","password":true,"vac":true,"version":"7757534","steam_id":85568392924469994,"keywords":["nocrits","nodmgspread","payload","uncletopia"],"game_id":440,"stv_port":27026,"stv_name":"Uncletopia | New York City | 2 | All Maps | STV","players":null},{"server_id":15,"name":"Uncletopia | New York City | 3 | Stopwatch Beta","name_short":"nyc-3","host":"nyc-1.us.uncletopia.com","port":27035,"enabled":true,"region":"us-east","cc":"us","latitude":40.73061,"longitude":-73.93524,"reserved":0,"last_update":"0001-01-01T00:00:00Z","name_a2s":"Uncletopia | New York City | 3 | Stopwatch Beta","protocol":17,"map":"workshop/koth_ramjam_rc1.ugc459778887","folder":"tf","game":"Team Fortress","app_id":440,"player_count":4,"max_players":24,"Bots":0,"server_type":"Dedicated","server_os":"Linux","password":true,"vac":true,"version":"7757534","steam_id":85568392924742820,"keywords":["cp","nocrits","nodmgspread","uncletopia"],"game_id":440,"stv_port":27036,"stv_name":"Uncletopia | New York City | 3 | Stopwatch Beta | STV","players":[{"user_id":46,"name":"kort","steam_id":76561198340550331,"connected_time":281000000000,"state":"active","ping":75},{"user_id":47,"name":"Alriar","steam_id":76561198955490221,"connected_time":271000000000,"state":"active","ping":76},{"user_id":49,"name":"TapelessTiger","steam_id":76561198313023256,"connected_time":110000000000,"state":"active","ping":72},{"user_id":48,"name":"Rat","steam_id":76561198299243370,"connected_time":214000000000,"state":"active","ping":73}]},{"server_id":16,"name":"Uncletopia | New York City | 4 | Community","name_short":"nyc-4","host":"nyc-1.us.uncletopia.com","port":27045,"enabled":true,"region":"us-east","cc":"us","latitude":40.73061,"longitude":-73.93524,"reserved":0,"last_update":"0001-01-01T00:00:00Z","name_a2s":"Uncletopia | New York City | 4 | Community","protocol":17,"map":"workshop/cp_reckoner_rc6.ugc674719999","folder":"tf","game":"Team Fortress","app_id":440,"player_count":20,"max_players":24,"Bots":0,"server_type":"Dedicated","server_os":"Linux","password":true,"vac":true,"version":"7757534","steam_id":85568392924742821,"keywords":["cp","nocrits","nodmgspread","uncletopia"],"game_id":440,"stv_port":27046,"stv_name":"Uncletopia | New York City | 4 | Community | STV","players":[{"user_id":130,"name":"Ninty","steam_id":76561199364725776,"connected_time":1326000000000,"state":"active","ping":89},{"user_id":63,"name":"remarK","steam_id":76561198868375800,"connected_time":5788000000000,"state":"active","ping":83},{"user_id":132,"name":"MagikarpEX","steam_id":76561198166172279,"connected_time":1077000000000,"state":"active","ping":47},{"user_id":87,"name":"Viking Seagull","steam_id":76561198806994127,"connected_time":4817000000000,"state":"active","ping":63},{"user_id":114,"name":"Cheeki-Breekinator","steam_id":76561198040120806,"connected_time":3059000000000,"state":"active","ping":111},{"user_id":133,"name":"北 (Hoku)","steam_id":76561198156541138,"connected_time":448000000000,"state":"active","ping":36},{"user_id":134,"name":"bobbyreinman2009","steam_id":76561198804763186,"connected_time":370000000000,"state":"active","ping":46},{"user_id":135,"name":"StuartBell511","steam_id":76561198060931721,"connected_time":235000000000,"state":"active","ping":49},{"user_id":107,"name":"Moshi Man","steam_id":76561198038249762,"connected_time":3764000000000,"state":"active","ping":63},{"user_id":86,"name":"Nightfall","steam_id":76561198169718867,"connected_time":4877000000000,"state":"active","ping":118},{"user_id":136,"name":"Aristotle Voulton","steam_id":76561198100174923,"connected_time":214000000000,"state":"active","ping":82},{"user_id":137,"name":"LW | [wrd]HaloLagann","steam_id":76561198047561568,"connected_time":124000000000,"state":"active","ping":45},{"user_id":123,"name":"EmeraldCola","steam_id":76561198066663687,"connected_time":1929000000000,"state":"active","ping":52},{"user_id":121,"name":"DJ Absolute Garbage","steam_id":76561198068000747,"connected_time":2377000000000,"state":"active","ping":45},{"user_id":138,"name":"Inevitable","steam_id":76561198210050169,"connected_time":58000000000,"state":"active","ping":48},{"user_id":139,"name":"BB Lorexav","steam_id":76561198207565988,"connected_time":45000000000,"state":"active","ping":65},{"user_id":106,"name":"Egyptian Lazer Tag","steam_id":76561198040640081,"connected_time":3834000000000,"state":"active","ping":84},{"user_id":140,"name":"The PriceMaster","steam_id":76561198034552198,"connected_time":40000000000,"state":"active","ping":75},{"user_id":127,"name":"Iron Sheik","steam_id":76561198069980923,"connected_time":1514000000000,"state":"active","ping":49},{"user_id":141,"name":"ThisBeeSparta18","steam_id":76561198174023582,"connected_time":10000000000,"state":"spawning","ping":106}]},{"server_id":142,"name":"Uncletopia | São Paulo | 1 | All Maps","name_short":"sao-1","host":"sao-1.br.uncletopia.com","port":27015,"enabled":true,"region":"sa","cc":"br","latitude":-23.533773,"longitude":-46.62529,"reserved":0,"last_update":"0001-01-01T00:00:00Z","name_a2s":"Uncletopia | São Paulo | 1 | All Maps","protocol":17,"map":"cp_altitude","folder":"tf","game":"Team Fortress","app_id":440,"player_count":0,"max_players":24,"Bots":0,"server_type":"Dedicated","server_os":"Linux","password":true,"vac":true,"version":"7757534","steam_id":85568392924469996,"keywords":["cp","nocrits","nodmgspread","uncletopia"],"game_id":440,"stv_port":27016,"stv_name":"Uncletopia | São Paulo | 1 | All Maps | STV","players":null},{"server_id":143,"name":"Uncletopia | São Paulo | 2 | All Maps","name_short":"sao-2","host":"sao-2.br.uncletopia.com","port":27015,"enabled":true,"region":"sa","cc":"br","latitude":-23.533773,"longitude":-46.62529,"reserved":0,"last_update":"0001-01-01T00:00:00Z","name_a2s":"Uncletopia | São Paulo | 2 | All Maps","protocol":17,"map":"koth_highpass","folder":"tf","game":"Team Fortress","app_id":440,"player_count":0,"max_players":24,"Bots":0,"server_type":"Dedicated","server_os":"Linux","password":true,"vac":true,"version":"7757534","steam_id":85568392924485349,"keywords":["cp","nocrits","nodmgspread","uncletopia"],"game_id":440,"stv_port":27016,"stv_name":"Uncletopia | São Paulo | 2 | All Maps | STV","players":null},{"server_id":7,"name":"Uncletopia | Seattle | 1 | All Maps","name_short":"sea-1","host":"sea-1.us.uncletopia.com","port":27015,"enabled":true,"region":"us-west","cc":"us","latitude":47.608013,"longitude":-122.33517,"reserved":0,"last_update":"0001-01-01T00:00:00Z","name_a2s":"Uncletopia | Seattle | 1 | All Maps","protocol":17,"map":"pl_badwater","folder":"tf","game":"Team Fortress","app_id":440,"player_count":24,"max_players":24,"Bots":0,"server_type":"Dedicated","server_os":"Linux","password":true,"vac":true,"version":"7757534","steam_id":85568392924469997,"keywords":["nocrits","nodmgspread","payload","uncletopia"],"game_id":440,"stv_port":27016,"stv_name":"Uncletopia | Seattle | 1 | All Maps | STV","players":[{"user_id":418,"name":"Mico (Insert Text Here)","steam_id":76561198125462953,"connected_time":1238000000000,"state":"active","ping":55},{"user_id":398,"name":"William P. Ennis","steam_id":76561198073464877,"connected_time":2732000000000,"state":"active","ping":90},{"user_id":431,"name":"surrealist neophyte","steam_id":76561198325306660,"connected_time":418000000000,"state":"active","ping":52},{"user_id":373,"name":"Tom Skirrett","steam_id":76561198014600788,"connected_time":3998000000000,"state":"active","ping":71},{"user_id":432,"name":"float","steam_id":76561198363371528,"connected_time":400000000000,"state":"active","ping":48},{"user_id":410,"name":"rat gets the cheese","steam_id":76561198031234032,"connected_time":2031000000000,"state":"active","ping":99},{"user_id":423,"name":"Morse","steam_id":76561198039944542,"connected_time":761000000000,"state":"active","ping":56},{"user_id":335,"name":"soup","steam_id":76561198043209046,"connected_time":6949000000000,"state":"active","ping":81},{"user_id":429,"name":"Cpt. Dingle","steam_id":76561198025720199,"connected_time":461000000000,"state":"active","ping":93},{"user_id":428,"name":"Michael scom GUNGA ䷱","steam_id":76561198137221516,"connected_time":692000000000,"state":"active","ping":44},{"user_id":424,"name":"Tcmano","steam_id":76561198057233847,"connected_time":747000000000,"state":"active","ping":77},{"user_id":339,"name":"Mr.Thirteen","steam_id":76561198047468836,"connected_time":6501000000000,"state":"active","ping":66},{"user_id":394,"name":"Mignyanne :3","steam_id":76561198048754056,"connected_time":2944000000000,"state":"active","ping":69},{"user_id":420,"name":"Flowey","steam_id":76561198442304406,"connected_time":1067000000000,"state":"active","ping":58},{"user_id":413,"name":"Aardappel","steam_id":76561198030894676,"connected_time":1558000000000,"state":"active","ping":77},{"user_id":425,"name":"Spiffle","steam_id":76561199089811047,"connected_time":739000000000,"state":"active","ping":74},{"user_id":419,"name":"Penjamin Franklin","steam_id":76561198059313367,"connected_time":1191000000000,"state":"active","ping":44},{"user_id":426,"name":"OQU","steam_id":76561199151441749,"connected_time":725000000000,"state":"active","ping":74},{"user_id":396,"name":"jungus","steam_id":76561198129862008,"connected_time":2888000000000,"state":"active","ping":83},{"user_id":427,"name":"der","steam_id":76561198060762287,"connected_time":722000000000,"state":"active","ping":51},{"user_id":433,"name":"stoned jester","steam_id":76561198079609974,"connected_time":381000000000,"state":"active","ping":95},{"user_id":430,"name":"WACKY JIM","steam_id":76561198961641122,"connected_time":449000000000,"state":"active","ping":60},{"user_id":393,"name":"NoNoWire","steam_id":76561198106308056,"connected_time":3019000000000,"state":"active","ping":79},{"user_id":435,"name":"video game director cuts","steam_id":76561198038142791,"connected_time":338000000000,"state":"active","ping":71}]},{"server_id":119,"name":"Uncletopia | Seattle | 2 | All Maps","name_short":"sea-2","host":"sea-1.us.uncletopia.com","port":27025,"enabled":true,"region":"us-west","cc":"us","latitude":47.608013,"longitude":-122.33517,"reserved":0,"last_update":"0001-01-01T00:00:00Z","name_a2s":"Uncletopia | Seattle | 2 | All Maps","protocol":17,"map":"koth_viaduct","folder":"tf","game":"Team Fortress","app_id":440,"player_count":23,"max_players":24,"Bots":0,"server_type":"Dedicated","server_os":"Linux","password":true,"vac":true,"version":"7757534","steam_id":85568392924469998,"keywords":["cp","nocrits","nodmgspread","uncletopia"],"game_id":440,"stv_port":27026,"stv_name":"Uncletopia | Seattle | 2 | All Maps | STV","players":[{"user_id":507,"name":"mynameisatif1","steam_id":76561199062993493,"connected_time":1220000000000,"state":"active","ping":46},{"user_id":492,"name":"CumBob","steam_id":76561198168693975,"connected_time":2999000000000,"state":"active","ping":53},{"user_id":523,"name":"Professor Cuthbert Calculus","steam_id":76561198003257461,"connected_time":229000000000,"state":"active","ping":55},{"user_id":526,"name":"Wormy wants to RTV","steam_id":76561198054539200,"connected_time":189000000000,"state":"active","ping":47},{"user_id":522,"name":"brobtlcehc","steam_id":76561198043558709,"connected_time":263000000000,"state":"active","ping":48},{"user_id":500,"name":"elmajiccarpo","steam_id":76561198854939391,"connected_time":1463000000000,"state":"active","ping":65},{"user_id":528,"name":"Chicken Xanwich","steam_id":76561199386363103,"connected_time":93000000000,"state":"active","ping":67},{"user_id":467,"name":"Pooryoungfrog","steam_id":76561199174779667,"connected_time":3800000000000,"state":"active","ping":113},{"user_id":519,"name":"cheese enjoyer","steam_id":76561199361674112,"connected_time":511000000000,"state":"active","ping":57},{"user_id":529,"name":"The Panda Knight","steam_id":76561198150282587,"connected_time":48000000000,"state":"active","ping":157},{"user_id":469,"name":"DarthJiggles","steam_id":76561198088383875,"connected_time":3764000000000,"state":"active","ping":60},{"user_id":511,"name":"biggus dickus","steam_id":76561198330096760,"connected_time":896000000000,"state":"active","ping":49},{"user_id":495,"name":"Vagrant","steam_id":76561198242536886,"connected_time":2256000000000,"state":"active","ping":63},{"user_id":525,"name":"Alset","steam_id":76561197993820174,"connected_time":220000000000,"state":"active","ping":113},{"user_id":518,"name":"headshotez678","steam_id":76561199443854170,"connected_time":700000000000,"state":"active","ping":52},{"user_id":496,"name":"cheesebro","steam_id":76561198002072852,"connected_time":2254000000000,"state":"active","ping":70},{"user_id":514,"name":"Username","steam_id":76561198855586261,"connected_time":838000000000,"state":"active","ping":70},{"user_id":527,"name":"Luffa Rigno","steam_id":76561197998700507,"connected_time":160000000000,"state":"active","ping":59},{"user_id":455,"name":"Ironlenny","steam_id":76561197977278066,"connected_time":4503000000000,"state":"active","ping":57},{"user_id":530,"name":"Hifumi Togo","steam_id":76561198074930636,"connected_time":41000000000,"state":"active","ping":92},{"user_id":506,"name":"orange tic tacs","steam_id":76561198124603261,"connected_time":1315000000000,"state":"active","ping":59},{"user_id":510,"name":"Big99bboy","steam_id":76561199083203532,"connected_time":1014000000000,"state":"active","ping":91},{"user_id":531,"name":"MCman","steam_id":76561198412110305,"connected_time":28000000000,"state":"active","ping":81}]},{"server_id":406,"name":"Uncletopia | Seattle | 3 | Stopwatch Beta","name_short":"sea-3","host":"sea-1.us.uncletopia.com","port":27035,"enabled":true,"region":"us-west","cc":"us","latitude":47.608013,"longitude":-122.33517,"reserved":0,"last_update":"0001-01-01T00:00:00Z","name_a2s":"Uncletopia | Seattle | 3 | Stopwatch Beta","protocol":17,"map":"workshop/pl_badwater_pro_v12.ugc2142942074","folder":"tf","game":"Team Fortress","app_id":440,"player_count":0,"max_players":24,"Bots":0,"server_type":"Dedicated","server_os":"Linux","password":true,"vac":true,"version":"7757534","steam_id":85568392924515217,"keywords":["nocrits","nodmgspread","payload","uncletopia"],"game_id":440,"stv_port":27036,"stv_name":"Uncletopia | Seattle | 3 | Stopwatch Beta | STV","players":null},{"server_id":17,"name":"Uncletopia | San Francisco | 1 | All Maps","name_short":"sfo-1","host":"sfo-1.us.uncletopia.com","port":27015,"enabled":true,"region":"us-west","cc":"us","latitude":37.77397,"longitude":-122.4313,"reserved":0,"last_update":"0001-01-01T00:00:00Z","name_a2s":"Uncletopia | San Francisco | 1 | All Maps","protocol":17,"map":"koth_cascade","folder":"tf","game":"Team Fortress","app_id":440,"player_count":0,"max_players":24,"Bots":0,"server_type":"Dedicated","server_os":"Linux","password":true,"vac":true,"version":"7757534","steam_id":85568392924469999,"keywords":["cp","nocrits","nodmgspread","uncletopia"],"game_id":440,"stv_port":27016,"stv_name":"Uncletopia | San Francisco | 1 | All Maps | STV","players":null},{"server_id":18,"name":"Uncletopia | San Francisco | 2 | All Maps","name_short":"sfo-2","host":"sfo-1.us.uncletopia.com","port":27025,"enabled":true,"region":"us-west","cc":"us","latitude":37.77397,"longitude":-122.4313,"reserved":0,"last_update":"0001-01-01T00:00:00Z","name_a2s":"Uncletopia | San Francisco | 2 | All Maps","protocol":17,"map":"koth_viaduct","folder":"tf","game":"Team Fortress","app_id":440,"player_count":9,"max_players":24,"Bots":0,"server_type":"Dedicated","server_os":"Linux","password":true,"vac":true,"version":"7757534","steam_id":85568392924470000,"keywords":["cp","nocrits","nodmgspread","uncletopia"],"game_id":440,"stv_port":27026,"stv_name":"Uncletopia | San Francisco | 2 | All Maps | STV","players":[{"user_id":12,"name":"Architect","steam_id":76561198015242016,"connected_time":668000000000,"state":"active","ping":104},{"user_id":17,"name":"Yoyo-Wo","steam_id":76561198880520205,"connected_time":284000000000,"state":"active","ping":79},{"user_id":9,"name":"SvicidalBug","steam_id":76561198221390504,"connected_time":828000000000,"state":"active","ping":77},{"user_id":10,"name":"dodecadron","steam_id":76561198027397222,"connected_time":754000000000,"state":"active","ping":82},{"user_id":11,"name":"coffee","steam_id":76561198141061142,"connected_time":743000000000,"state":"active","ping":86},{"user_id":14,"name":"Veritox","steam_id":76561198075778026,"connected_time":535000000000,"state":"active","ping":56},{"user_id":15,"name":"MAK","steam_id":76561198089361823,"connected_time":460000000000,"state":"active","ping":90},{"user_id":16,"name":"squid","steam_id":76561198070236972,"connected_time":382000000000,"state":"active","ping":65},{"user_id":18,"name":"westward","steam_id":76561198805512350,"connected_time":222000000000,"state":"active","ping":72}]},{"server_id":19,"name":"Uncletopia | San Francisco | 3 | Stopwatch Beta","name_short":"sfo-3","host":"sfo-1.us.uncletopia.com","port":27035,"enabled":true,"region":"us-west","cc":"us","latitude":37.77397,"longitude":-122.4313,"reserved":0,"last_update":"0001-01-01T00:00:00Z","name_a2s":"Uncletopia | San Francisco | 3 | Stopwatch Beta","protocol":17,"map":"koth_viaduct","folder":"tf","game":"Team Fortress","app_id":440,"player_count":0,"max_players":24,"Bots":0,"server_type":"Dedicated","server_os":"Linux","password":true,"vac":true,"version":"7757534","steam_id":85568392924742824,"keywords":["cp","nocrits","nodmgspread","uncletopia"],"game_id":440,"stv_port":27036,"stv_name":"Uncletopia | San Francisco | 3 | Stopwatch Beta | STV","players":null},{"server_id":20,"name":"Uncletopia | San Francisco | 4 | Community","name_short":"sfo-4","host":"sfo-1.us.uncletopia.com","port":27045,"enabled":true,"region":"us-west","cc":"us","latitude":37.77397,"longitude":-122.4313,"reserved":0,"last_update":"0001-01-01T00:00:00Z","name_a2s":"Uncletopia | San Francisco | 4 | Community","protocol":17,"map":"workshop/koth_synthetic_rc6a.ugc1549817316","folder":"tf","game":"Team Fortress","app_id":440,"player_count":1,"max_players":24,"Bots":0,"server_type":"Dedicated","server_os":"Linux","password":true,"vac":true,"version":"7757534","steam_id":85568392924742826,"keywords":["cp","nocrits","nodmgspread","uncletopia"],"game_id":440,"stv_port":27046,"stv_name":"Uncletopia | San Francisco | 4 | Community | STV","players":[{"user_id":20,"name":"bing chillin goofy ahhh remix","steam_id":76561198319442494,"connected_time":104000000000,"state":"active","ping":48}]},{"server_id":141,"name":"Uncletopia | Sydney | 1 | All Maps","name_short":"syd-1","host":"syd-1.au.uncletopia.com","port":27015,"enabled":true,"region":"au","cc":"au","latitude":-33.865143,"longitude":151.2099,"reserved":0,"last_update":"0001-01-01T00:00:00Z","name_a2s":"Uncletopia | Sydney | 1 | All Maps","protocol":17,"map":"pl_swiftwater_final1","folder":"tf","game":"Team Fortress","app_id":440,"player_count":0,"max_players":24,"Bots":0,"server_type":"Dedicated","server_os":"Linux","password":true,"vac":true,"version":"7757534","steam_id":85568392924470001,"keywords":["nocrits","nodmgspread","payload","uncletopia"],"game_id":440,"stv_port":27016,"stv_name":"Uncletopia | Sydney | 1 | All Maps | STV","players":null},{"server_id":123,"name":"Uncletopia | Sydney | 2 | All Maps","name_short":"syd-2","host":"syd-1.au.uncletopia.com","port":27025,"enabled":true,"region":"au","cc":"au","latitude":-33.865143,"longitude":151.2099,"reserved":0,"last_update":"0001-01-01T00:00:00Z","name_a2s":"Uncletopia | Sydney | 2 | All Maps","protocol":17,"map":"pl_badwater","folder":"tf","game":"Team Fortress","app_id":440,"player_count":24,"max_players":24,"Bots":0,"server_type":"Dedicated","server_os":"Linux","password":true,"vac":true,"version":"7757534","steam_id":85568392924470002,"keywords":["nocrits","nodmgspread","payload","uncletopia"],"game_id":440,"stv_port":27026,"stv_name":"Uncletopia | Sydney | 2 | All Maps | STV","players":[{"user_id":138,"name":"Del Davis","steam_id":76561199365669004,"connected_time":912000000000,"state":"active","ping":59},{"user_id":114,"name":"pos1tve","steam_id":76561199087124672,"connected_time":2149000000000,"state":"active","ping":60},{"user_id":144,"name":"andthatsFALSE","steam_id":76561197996932788,"connected_time":122000000000,"state":"active","ping":84},{"user_id":139,"name":"Detergent Burger","steam_id":76561198362462506,"connected_time":676000000000,"state":"active","ping":49},{"user_id":130,"name":"Jacob","steam_id":76561198059341907,"connected_time":1321000000000,"state":"active","ping":54},{"user_id":131,"name":"Jambi","steam_id":76561198310550094,"connected_time":1313000000000,"state":"active","ping":52},{"user_id":111,"name":"Luc-Assess","steam_id":76561198141809909,"connected_time":2385000000000,"state":"active","ping":48},{"user_id":116,"name":"ben","steam_id":76561198223331996,"connected_time":1815000000000,"state":"active","ping":63},{"user_id":112,"name":"PS6 controller yents","steam_id":76561198229941432,"connected_time":2368000000000,"state":"active","ping":53},{"user_id":143,"name":"nfdl","steam_id":76561198340730741,"connected_time":127000000000,"state":"active","ping":60},{"user_id":118,"name":"Cup","steam_id":76561198038485845,"connected_time":1710000000000,"state":"active","ping":34},{"user_id":119,"name":"Lv 9 Reborn Nubblet","steam_id":76561198069483103,"connected_time":1706000000000,"state":"active","ping":90},{"user_id":121,"name":"Caractacus Potts","steam_id":76561199027836608,"connected_time":1638000000000,"state":"active","ping":79},{"user_id":132,"name":"Adolf-Rizzler","steam_id":76561198884774033,"connected_time":1312000000000,"state":"active","ping":53},{"user_id":125,"name":"Twelvie","steam_id":76561198164240795,"connected_time":1462000000000,"state":"active","ping":54},{"user_id":148,"name":"StarFraud96","steam_id":76561198351146153,"connected_time":40000000000,"state":"active","ping":71},{"user_id":133,"name":"Buggy","steam_id":76561198428251111,"connected_time":1247000000000,"state":"active","ping":78},{"user_id":127,"name":"1ocalTechSuppor1","steam_id":76561198175547093,"connected_time":1396000000000,"state":"active","ping":89},{"user_id":128,"name":"mickenpox","steam_id":76561198095840327,"connected_time":1378000000000,"state":"active","ping":43},{"user_id":140,"name":"Angel Sherling","steam_id":76561198374293303,"connected_time":554000000000,"state":"active","ping":55},{"user_id":134,"name":"Chips","steam_id":76561198235129872,"connected_time":1242000000000,"state":"active","ping":70},{"user_id":136,"name":"ADUCK","steam_id":76561198249887912,"connected_time":1203000000000,"state":"active","ping":70},{"user_id":137,"name":"hendog","steam_id":76561198063477445,"connected_time":1193000000000,"state":"active","ping":69},{"user_id":142,"name":"dingo","steam_id":76561198315774295,"connected_time":513000000000,"state":"active","ping":55}]},{"server_id":395,"name":"Uncletopia | Sydney | 3 | All Maps","name_short":"syd-3","host":"syd-1.au.uncletopia.com","port":27035,"enabled":true,"region":"au","cc":"au","latitude":-33.865143,"longitude":151.2099,"reserved":0,"last_update":"0001-01-01T00:00:00Z","name_a2s":"Uncletopia | Sydney | 3 | All Maps","protocol":17,"map":"ctf_turbine","folder":"tf","game":"Team Fortress","app_id":440,"player_count":0,"max_players":24,"Bots":0,"server_type":"Dedicated","server_os":"Linux","password":true,"vac":true,"version":"7757534","steam_id":85568392925194467,"keywords":["ctf","nocrits","nodmgspread","uncletopia"],"game_id":440,"stv_port":27036,"stv_name":"Uncletopia | Sydney | 3 | All Maps | STV","players":null},{"server_id":396,"name":"Uncletopia | Sydney | 4 | All Maps","name_short":"syd-4","host":"syd-1.au.uncletopia.com","port":27045,"enabled":true,"region":"au","cc":"au","latitude":-33.865143,"longitude":151.2099,"reserved":0,"last_update":"0001-01-01T00:00:00Z","name_a2s":"Uncletopia | Sydney | 4 | All Maps","protocol":17,"map":"cp_process_final","folder":"tf","game":"Team Fortress","app_id":440,"player_count":0,"max_players":24,"Bots":0,"server_type":"Dedicated","server_os":"Linux","password":true,"vac":true,"version":"7757534","steam_id":85568392925397958,"keywords":["cp","nocrits","nodmgspread","uncletopia"],"game_id":440,"stv_port":27046,"stv_name":"Uncletopia | Sydney | 4 | All Maps | STV","players":null},{"server_id":58,"name":"Uncletopia | Sydney | 5 | Stopwatch Beta","name_short":"syd-5","host":"syd-1.au.uncletopia.com","port":27055,"enabled":true,"region":"au","cc":"au","latitude":-33.865143,"longitude":151.2099,"reserved":0,"last_update":"0001-01-01T00:00:00Z","name_a2s":"Uncletopia | Sydney | 5 | Stopwatch Beta","protocol":17,"map":"pl_barnblitz","folder":"tf","game":"Team Fortress","app_id":440,"player_count":0,"max_players":24,"Bots":0,"server_type":"Dedicated","server_os":"Linux","password":true,"vac":true,"version":"7757534","steam_id":85568392925397959,"keywords":["nocrits","nodmgspread","payload","uncletopia"],"game_id":440,"stv_port":27056,"stv_name":"Uncletopia | Sydney | 5 | Stopwatch Beta | STV","players":null},{"server_id":59,"name":"Uncletopia | Sydney | 6 | Community","name_short":"syd-6","host":"syd-1.au.uncletopia.com","port":27065,"enabled":true,"region":"au","cc":"au","latitude":-33.865143,"longitude":151.2099,"reserved":0,"last_update":"0001-01-01T00:00:00Z","name_a2s":"Uncletopia | Sydney | 6 | Community","protocol":17,"map":"workshop/koth_ashville_final.ugc2130459942","folder":"tf","game":"Team Fortress","app_id":440,"player_count":0,"max_players":24,"Bots":0,"server_type":"Dedicated","server_os":"Linux","password":true,"vac":true,"version":"7757534","steam_id":85568392925397960,"keywords":["cp","nocrits","nodmgspread","uncletopia"],"game_id":440,"stv_port":27066,"stv_name":"Uncletopia | Sydney | 6 | Community | STV","players":null},{"server_id":49,"name":"Uncletopia | Warsaw | 1 | All Maps","name_short":"waw-1","host":"waw-1.pl.uncletopia.com","port":27015,"enabled":true,"region":"eu","cc":"pl","latitude":52.2297,"longitude":21.017532,"reserved":0,"last_update":"0001-01-01T00:00:00Z","name_a2s":"","protocol":0,"map":"","folder":"","game":"","app_id":0,"player_count":0,"max_players":0,"Bots":0,"server_type":"","server_os":"","password":false,"vac":false,"version":"","steam_id":0,"keywords":null,"game_id":0,"stv_port":0,"stv_name":"","players":null},{"server_id":50,"name":"Uncletopia | Warsaw | 2 | All Maps","name_short":"waw-2","host":"waw-1.pl.uncletopia.com","port":27025,"enabled":true,"region":"eu","cc":"pl","latitude":52.2297,"longitude":21.017532,"reserved":0,"last_update":"0001-01-01T00:00:00Z","name_a2s":"Uncletopia | Warsaw | 2 | All Maps","protocol":17,"map":"koth_viaduct","folder":"tf","game":"Team Fortress","app_id":440,"player_count":0,"max_players":24,"Bots":0,"server_type":"Dedicated","server_os":"Linux","password":true,"vac":true,"version":"7757534","steam_id":85568392925397851,"keywords":["cp","nocrits","nodmgspread","uncletopia"],"game_id":440,"stv_port":27026,"stv_name":"Uncletopia | Warsaw | 2 | All Maps | STV","players":null},{"server_id":51,"name":"Uncletopia | Warsaw | 3 | All Maps","name_short":"waw-3","host":"waw-1.pl.uncletopia.com","port":27035,"enabled":true,"region":"eu","cc":"pl","latitude":52.2297,"longitude":21.017532,"reserved":0,"last_update":"0001-01-01T00:00:00Z","name_a2s":"Uncletopia | Warsaw | 3 | All Maps","protocol":17,"map":"koth_highpass","folder":"tf","game":"Team Fortress","app_id":440,"player_count":0,"max_players":24,"Bots":0,"server_type":"Dedicated","server_os":"Linux","password":true,"vac":true,"version":"7757534","steam_id":85568392925397852,"keywords":["cp","nocrits","nodmgspread","uncletopia"],"game_id":440,"stv_port":27036,"stv_name":"Uncletopia | Warsaw | 3 | All Maps | STV","players":null},{"server_id":52,"name":"Uncletopia | Warsaw | 4 | All Maps","name_short":"waw-4","host":"waw-1.pl.uncletopia.com","port":27045,"enabled":true,"region":"eu","cc":"pl","latitude":52.2297,"longitude":21.017532,"reserved":0,"last_update":"0001-01-01T00:00:00Z","name_a2s":"Uncletopia | Warsaw | 4 | All Maps","protocol":17,"map":"pl_frontier_final","folder":"tf","game":"Team Fortress","app_id":440,"player_count":0,"max_players":24,"Bots":0,"server_type":"Dedicated","server_os":"Linux","password":true,"vac":true,"version":"7757534","steam_id":85568392925397853,"keywords":["nocrits","nodmgspread","payload","uncletopia"],"game_id":440,"stv_port":27046,"stv_name":"Uncletopia | Warsaw | 4 | All Maps | STV","players":null},{"server_id":53,"name":"Uncletopia | Warsaw | 5 | Stopwatch Beta","name_short":"waw-5","host":"waw-1.pl.uncletopia.com","port":27055,"enabled":true,"region":"eu","cc":"pl","latitude":52.2297,"longitude":21.017532,"reserved":0,"last_update":"0001-01-01T00:00:00Z","name_a2s":"Uncletopia | Warsaw | 5 | Stopwatch Beta","protocol":17,"map":"pl_upward","folder":"tf","game":"Team Fortress","app_id":440,"player_count":0,"max_players":24,"Bots":0,"server_type":"Dedicated","server_os":"Linux","password":true,"vac":true,"version":"7757534","steam_id":85568392925397854,"keywords":["nocrits","nodmgspread","payload","uncletopia"],"game_id":440,"stv_port":27056,"stv_name":"Uncletopia | Warsaw | 5 | Stopwatch Beta | STV","players":null},{"server_id":54,"name":"Uncletopia | Warsaw | 6 | Community","name_short":"waw-6","host":"waw-1.pl.uncletopia.com","port":27065,"enabled":true,"region":"eu","cc":"pl","latitude":52.2297,"longitude":21.017532,"reserved":0,"last_update":"0001-01-01T00:00:00Z","name_a2s":"Uncletopia | Warsaw | 6 | Community","protocol":17,"map":"workshop/koth_synthetic_rc6a.ugc1549817316","folder":"tf","game":"Team Fortress","app_id":440,"player_count":0,"max_players":24,"Bots":0,"server_type":"Dedicated","server_os":"Linux","password":true,"vac":true,"version":"7757534","steam_id":85568392925397856,"keywords":["cp","nocrits","nodmgspread","uncletopia"],"game_id":440,"stv_port":27066,"stv_name":"Uncletopia | Warsaw | 6 | Community | STV","players":null}]}