{"status":true,"message":"","result":[{"server_id":9,"name":"Uncletopia | Atlanta | 1 | All Maps","name_short":"atl-1","host":"atl-1.us.uncletopia.com","port":27015,"enabled":true,"region":"us-east","cc":"us","latitude":33.753746,"longitude":-84.38633,"reserved":0,"last_update":"0001-01-01T00:00:00Z","name_a2s":"Uncletopia | Atlanta | 1 | All Maps","protocol":17,"map":"pl_frontier_final","folder":"tf","game":"Team Fortress","app_id":440,"player_count":24,"max_players":24,"Bots":0,"server_type":"Dedicated","server_os":"Linux","password":true,"vac":true,"version":"7757534","steam_id":85568392924469982,"keywords":["nocrits","nodmgspread","payload","uncletopia"],"game_id":440,"stv_port":27016,"stv_name":"Uncletopia | Atlanta | 1 | All Maps | STV","players":[{"user_id":615,"name":"ATL1 | cola","steam_id":76561198374390458,"connected_time":1159000000000,"state":"active","ping":49},{"user_id":602,"name":"ash","steam_id":76561198127890645,"connected_time":2207000000000,"state":"active","ping":61},{"user_id":579,"name":"fus ro dah","steam_id":76561198089638718,"connected_time":4702000000000,"state":"active","ping":57},{"user_id":599,"name":"snoops","steam_id":76561197986760351,"connected_time":2280000000000,"state":"active","ping":75},{"user_id":621,"name":"portos bakery and cafe","steam_id":76561198319442494,"connected_time":767000000000,"state":"active","ping":109},{"user_id":426,"name":"Albino Jellyfish","steam_id":76561198208561097,"connected_time":19822000000000,"state":"active","ping":66},{"user_id":581,"name":"Aircraft Carrier Princess","steam_id":76561198348354629,"connected_time":4687000000000,"state":"active","ping":97},{"user_id":616,"name":"Bandicario","steam_id":76561198432036026,"connected_time":1126000000000,"state":"active","ping":51},{"user_id":598,"name":"xX_HimboSwallower_Xx","steam_id":76561198016029965,"connected_time":2282000000000,"state":"active","ping":65},{"user_id":569,"name":"gods eepiest medic","steam_id":76561198326987939,"connected_time":5659000000000,"state":"active","ping":73},{"user_id":590,"name":"brain so big i ate an ikea","steam_id":76561198099431543,"connected_time":3445000000000,"state":"active","ping":70},{"user_id":618,"name":"chubbbo","steam_id":76561198943598378,"connected_time":804000000000,"state":"active","ping":42},{"user_id":623,"name":"Toonice","steam_id":76561198402994885,"connected_time":445000000000,"state":"active","ping":80},{"user_id":600,"name":"skogg PulseDog","steam_id":76561198966277057,"connected_time":2259000000000,"state":"active","ping":118},{"user_id":607,"name":"ATL1 | Pango","steam_id":76561198069811545,"connected_time":1556000000000,"state":"active","ping":53},{"user_id":624,"name":"G6 habib","steam_id":76561198053621664,"connected_time":380000000000,"state":"active","ping":62},{"user_id":591,"name":"Javelin","steam_id":76561198068782818,"connected_time":3444000000000,"state":"active","ping":58},{"user_id":550,"name":"Nox(She/They)","steam_id":76561198141950842,"connected_time":8191000000000,"state":"active","ping":50},{"user_id":619,"name":"Monkey Mode","steam_id":76561197961267543,"connected_time":798000000000,"state":"active","ping":122},{"user_id":613,"name":"ATL 1 | Save your wifi","steam_id":76561198286147372,"connected_time":1259000000000,"state":"active","ping":56},{"user_id":622,"name":"iCarly Lore Expert","steam_id":76561198111902910,"connected_time":540000000000,"state":"active","ping":74},{"user_id":625,"name":"Johaun","steam_id":76561198296328253,"connected_time":38000000000,"state":"active","ping":75},{"user_id":558,"name":"Onyx","steam_id":76561198275349640,"connected_time":6774000000000,"state":"active","ping":77},{"user_id":617,"name":"slurp","steam_id":76561198323497535,"connected_time":1125000000000,"state":"active","ping":69}]},{"server_id":104,"name":"Uncletopia | Atlanta | 2 | All Maps","name_short":"atl-2","host":"atl-1.us.uncletopia.com","port":27025,"enabled":true,"region":"us-east","cc":"us","latitude":33.753746,"longitude":-84.38633,"reserved":0,"last_update":"0001-01-01T00:00:00Z","name_a2s":"Uncletopia | Atlanta | 2 | All Maps","protocol":17,"map":"pl_pier","folder":"tf","game":"Team Fortress","app_id":440,"player_count":24,"max_players":24,"Bots":0,"server_type":"Dedicated","server_os":"Linux","password":true,"vac":true,"version":"7757534","steam_id":85568392924469983,"keywords":["nocrits","nodmgspread","payload","uncletopia"],"game_id":440,"stv_port":27026,"stv_name":"Uncletopia | Atlanta | 2 | All Maps | STV","players":[{"user_id":587,"name":"Natan","steam_id":76561198100123309,"connected_time":2132000000000,"state":"active","ping":63},{"user_id":607,"name":"coolman","steam_id":76561199112321873,"connected_time":637000000000,"state":"active","ping":74},{"user_id":577,"name":"steggy","steam_id":76561198000564263,"connected_time":2418000000000,"state":"active","ping":47},{"user_id":600,"name":"spaghetti","steam_id":76561198010019214,"connected_time":1389000000000,"state":"active","ping":43},{"user_id":612,"name":"Lily","steam_id":76561198348941784,"connected_time":422000000000,"state":"active","ping":84},{"user_id":594,"name":"Munky","steam_id":76561197993491054,"connected_time":1482000000000,"state":"active","ping":103},{"user_id":602,"name":"The Builder","steam_id":76561198093432863,"connected_time":1128000000000,"state":"active","ping":72},{"user_id":603,"name":"Armpit!","steam_id":76561197978095727,"connected_time":1025000000000,"state":"active","ping":130},{"user_id":591,"name":"\u003e:3 Muiramme εїз","steam_id":76561197994458543,"connected_time":1585000000000,"state":"active","ping":121},{"user_id":610,"name":"Catgirlified By My Own Gun","steam_id":76561198124311404,"connected_time":461000000000,"state":"active","ping":75},{"user_id":608,"name":"BurningPride","steam_id":76561198080592800,"connected_time":561000000000,"state":"active","ping":119},{"user_id":551,"name":"lanoc","steam_id":76561198055415367,"connected_time":4550000000000,"state":"active","ping":43},{"user_id":596,"name":"The Gender Bender","steam_id":76561198851233001,"connected_time":1428000000000,"state":"active","ping":64},{"user_id":609,"name":"Senna","steam_id":76561198115830949,"connected_time":554000000000,"state":"active","ping":102},{"user_id":604,"name":"él bean","steam_id":76561198073658111,"connected_time":990000000000,"state":"active","ping":56},{"user_id":597,"name":"NovaSc6ut","steam_id":76561198277163301,"connected_time":1417000000000,"state":"active","ping":87},{"user_id":562,"name":"Jack and Diane's Divorce Papers","steam_id":76561198381923138,"connected_time":3524000000000,"state":"active","ping":100},{"user_id":593,"name":"pear","steam_id":76561198070392966,"connected_time":1546000000000,"state":"active","ping":66},{"user_id":601,"name":"Ludcmorais","steam_id":76561198359217809,"connected_time":1338000000000,"state":"active","ping":190},{"user_id":542,"name":"Darkdrake","steam_id":76561198107200600,"connected_time":4970000000000,"state":"active","ping":61},{"user_id":589,"name":"tweedy","steam_id":76561198307164675,"connected_time":1998000000000,"state":"active","ping":61},{"user_id":540,"name":"java","steam_id":76561198030276792,"connected_time":5238000000000,"state":"active","ping":56},{"user_id":569,"name":"A Cuddly Bunny","steam_id":76561198062791613,"connected_time":3166000000000,"state":"active","ping":80},{"user_id":614,"name":"shamu","steam_id":76561198217582907,"connected_time":243000000000,"state":"active","ping":77}]},{"server_id":400,"name":"Uncletopia | Atlanta | 3 | Community","name_short":"atl-3","host":"atl-1.us.uncletopia.com","port":27035,"enabled":true,"region":"us-east","cc":"us","latitude":33.753746,"longitude":-84.38633,"reserved":0,"last_update":"0001-01-01T00:00:00Z","name_a2s":"Uncletopia | Atlanta | 3 | Community","protocol":17,"map":"workshop/pl_cashworks_final1.ugc2904065412","folder":"tf","game":"Team Fortress","app_id":440,"player_count":0,"max_players":24,"Bots":0,"server_type":"Dedicated","server_os":"Linux","password":true,"vac":true,"version":"7757534","steam_id":85568392924515187,"keywords":["nocrits","nodmgspread","payload","uncletopia"],"game_id":440,"stv_port":27036,"stv_name":"Uncletopia | Atlanta | 3 | Community | STV","players":null},{"server_id":401,"name":"Uncletopia | Atlanta | 4 | No Payload","name_short":"atl-4","host":"atl-1.us.uncletopia.com","port":27045,"enabled":true,"region":"us-east","cc":"us","latitude":33.753746,"longitude":-84.38633,"reserved":0,"last_update":"0001-01-01T00:00:00Z","name_a2s":"","protocol":0,"map":"","folder":"","game":"","app_id":0,"player_count":0,"max_players":0,"Bots":0,"server_type":"","server_os":"","password":false,"vac":false,"version":"","steam_id":0,"keywords":null,"game_id":0,"stv_port":0,"stv_name":"","players":null},{"server_id":2,"name":"Uncletopia | Chicago | 1 | All Maps","name_short":"chi-1","host":"chi-1.us.uncletopia.com","port":27015,"enabled":true,"region":"us-central","cc":"us","latitude":41.881832,"longitude":-87.62318,"reserved":0,"last_update":"0001-01-01T00:00:00Z","name_a2s":"Uncletopia | Chicago | 1 | All Maps","protocol":17,"map":"pl_snowycoast","folder":"tf","game":"Team Fortress","app_id":440,"player_count":24,"max_players":24,"Bots":0,"server_type":"Dedicated","server_os":"Linux","password":true,"vac":true,"version":"7757534","steam_id":85568392924469984,"keywords":["nocrits","nodmgspread","payload","uncletopia"],"game_id":440,"stv_port":27016,"stv_name":"Uncletopia | Chicago | 1 | All Maps | STV","players":[{"user_id":828,"name":"Anita Hanjaab","steam_id":76561199307270490,"connected_time":1557000000000,"state":"active","ping":82},{"user_id":806,"name":"DonoC","steam_id":76561198274473338,"connected_time":2956000000000,"state":"active","ping":76},{"user_id":805,"name":"elyktsorb","steam_id":76561198158964488,"connected_time":3080000000000,"state":"active","ping":58},{"user_id":835,"name":"toast","steam_id":76561197991622585,"connected_time":371000000000,"state":"active","ping":88},{"user_id":802,"name":"WillieMakit","steam_id":76561197985391684,"connected_time":3282000000000,"state":"active","ping":119},{"user_id":825,"name":"BTS | sat","steam_id":76561198084311006,"connected_time":1897000000000,"state":"active","ping":86},{"user_id":836,"name":"soultheori","steam_id":76561198065538342,"connected_time":366000000000,"state":"active","ping":80},{"user_id":829,"name":"Doublebagel47","steam_id":76561198832021744,"connected_time":1538000000000,"state":"active","ping":75},{"user_id":816,"name":"Maxley","steam_id":76561198148602225,"connected_time":2645000000000,"state":"active","ping":87},{"user_id":830,"name":"Frontier Psychiatrist","steam_id":76561198038689088,"connected_time":1521000000000,"state":"active","ping":88},{"user_id":811,"name":"Vladikr1","steam_id":76561198401495362,"connected_time":2675000000000,"state":"active","ping":61},{"user_id":824,"name":"ChefMike","steam_id":76561198414034069,"connected_time":1987000000000,"state":"active","ping":59},{"user_id":826,"name":"dulg","steam_id":76561198127640309,"connected_time":1692000000000,"state":"active","ping":77},{"user_id":810,"name":"Thundermonkey (SMOKE)","steam_id":76561198017631728,"connected_time":2739000000000,"state":"active","ping":68},{"user_id":840,"name":"liquidnads","steam_id":76561198153748839,"connected_time":166000000000,"state":"active","ping":61},{"user_id":831,"name":"porfer","steam_id":76561199118049168,"connected_time":1506000000000,"state":"active","ping":100},{"user_id":838,"name":"Aeterna Victrix","steam_id":76561198067701236,"connected_time":334000000000,"state":"active","ping":51},{"user_id":801,"name":"DatFluffyPancake","steam_id":76561198271958697,"connected_time":3464000000000,"state":"active","ping":75},{"user_id":833,"name":"ARGON soweli","steam_id":76561198044363630,"connected_time":1440000000000,"state":"active","ping":62},{"user_id":792,"name":"rock lee","steam_id":76561198054070811,"connected_time":4217000000000,"state":"active","ping":106},{"user_id":812,"name":"DuckKey","steam_id":76561198904477889,"connected_time":2669000000000,"state":"active","ping":60},{"user_id":786,"name":"C Papi","steam_id":76561198027779564,"connected_time":4889000000000,"state":"active","ping":60},{"user_id":783,"name":"trappy (soggy)","steam_id":76561198402801140,"connected_time":5703000000000,"state":"active","ping":63},{"user_id":839,"name":"solace","steam_id":76561198077902438,"connected_time":331000000000,"state":"active","ping":75}]},{"server_id":106,"name":"Uncletopia | Chicago | 2 | All Maps","name_short":"chi-2","host":"chi-1.us.uncletopia.com","port":27025,"enabled":true,"region":"us-central","cc":"us","latitude":41.881832,"longitude":-87.62318,"reserved":0,"last_update":"0001-01-01T00:00:00Z","name_a2s":"Uncletopia | Chicago | 2 | All Maps","protocol":17,"map":"pl_swiftwater_final1","folder":"tf","game":"Team Fortress","app_id":440,"player_count":24,"max_players":24,"Bots":0,"server_type":"Dedicated","server_os":"Linux","password":true,"vac":true,"version":"7757534","steam_id":85568392924469985,"keywords":["nocrits","nodmgspread","payload","uncletopia"],"game_id":440,"stv_port":27026,"stv_name":"Uncletopia | Chicago | 2 | All Maps | STV","players":[{"user_id":984,"name":"WalrusNyetheBonkGuy","steam_id":76561197995626774,"connected_time":1594000000000,"state":"active","ping":111},{"user_id":963,"name":"Hardline Mike","steam_id":76561197993265034,"connected_time":3805000000000,"state":"active","ping":103},{"user_id":1000,"name":":(failure(:","steam_id":76561198144909435,"connected_time":546000000000,"state":"active","ping":106},{"user_id":998,"name":"hahafunnygaming","steam_id":76561198904087936,"connected_time":980000000000,"state":"active","ping":80},{"user_id":992,"name":"Hidden Phantom","steam_id":76561198115531799,"connected_time":1383000000000,"state":"active","ping":79},{"user_id":990,"name":"chiswola","steam_id":76561198046920142,"connected_time":1460000000000,"state":"active","ping":76},{"user_id":965,"name":"Joe","steam_id":76561198061349482,"connected_time":3780000000000,"state":"active","ping":123},{"user_id":966,"name":"MagicKing27ttv","steam_id":76561198276953046,"connected_time":3779000000000,"state":"active","ping":71},{"user_id":986,"name":"Zetelica","steam_id":76561199005527389,"connected_time":1542000000000,"state":"active","ping":105},{"user_id":987,"name":"Metapod","steam_id":76561198008725465,"connected_time":1539000000000,"state":"active","ping":76},{"user_id":999,"name":"enotown","steam_id":76561198109901138,"connected_time":878000000000,"state":"active","ping":77},{"user_id":977,"name":"BlastOff","steam_id":76561199191631199,"connected_time":2202000000000,"state":"active","ping":89},{"user_id":993,"name":"Brian D","steam_id":76561198074638559,"connected_time":1371000000000,"state":"active","ping":77},{"user_id":947,"name":"Venk","steam_id":76561198251131422,"connected_time":5273000000000,"state":"active","ping":70},{"user_id":994,"name":"NightlySoul","steam_id":76561198819819537,"connected_time":1350000000000,"state":"active","ping":91},{"user_id":1001,"name":"Plasmoklo","steam_id":76561199071571167,"connected_time":506000000000,"state":"active","ping":82},{"user_id":1003,"name":"Lipton","steam_id":76561198135397441,"connected_time":318000000000,"state":"active","ping":80},{"user_id":995,"name":"Scum F*ck Flower Boi","steam_id":76561198397009880,"connected_time":1342000000000,"state":"active","ping":61},{"user_id":982,"name":"Muffin","steam_id":76561198050715053,"connected_time":1636000000000,"state":"active","ping":77},{"user_id":974,"name":"Soup","steam_id":76561198002803602,"connected_time":2693000000000,"state":"active","ping":74},{"user_id":968,"name":"Yubi Yubi Yeet!","steam_id":76561197999285373,"connected_time":3752000000000,"state":"active","ping":114},{"user_id":925,"name":"Casual Costanza","steam_id":76561198024409325,"connected_time":6293000000000,"state":"active","ping":65},{"user_id":969,"name":"cris","steam_id":76561198048052937,"connected_time":3743000000000,"state":"active","ping":50},{"user_id":996,"name":"The Horselords and Animal Gods","steam_id":76561197975094050,"connected_time":1312000000000,"state":"active","ping":116}]},{"server_id":402,"name":"Uncletopia | Chicago | 3 | All Maps","name_short":"chi-3","host":"chi-1.us.uncletopia.com","port":27035,"enabled":true,"region":"us-central","cc":"us","latitude":41.881832,"longitude":-87.62318,"reserved":0,"last_update":"0001-01-01T00:00:00Z","name_a2s":"Uncletopia | Chicago | 3 | All Maps","protocol":17,"map":"koth_lakeside_final","folder":"tf","game":"Team Fortress","app_id":440,"player_count":23,"max_players":24,"Bots":0,"server_type":"Dedicated","server_os":"Linux","password":true,"vac":true,"version":"7757534","steam_id":85568392924515191,"keywords":["cp","nocrits","nodmgspread","uncletopia"],"game_id":440,"stv_port":27036,"stv_name":"Uncletopia | Chicago | 3 | All Maps | STV","players":[{"user_id":480,"name":"munch","steam_id":76561198086615208,"connected_time":6424000000000,"state":"active","ping":60},{"user_id":553,"name":"ultralisk52","steam_id":76561198051666604,"connected_time":90000000000,"state":"active","ping":62},{"user_id":554,"name":"skag","steam_id":76561198016157051,"connected_time":78000000000,"state":"active","ping":75},{"user_id":547,"name":"Xx-CostcoShopper-xX","steam_id":76561198066429444,"connected_time":254000000000,"state":"active","ping":60},{"user_id":539,"name":"SN0W","steam_id":76561198153665468,"connected_time":1064000000000,"state":"active","ping":60},{"user_id":528,"name":"Hot Pink Millie","steam_id":76561198006259725,"connected_time":1306000000000,"state":"active","ping":78},{"user_id":529,"name":"noah","steam_id":76561198173310157,"connected_time":1270000000000,"state":"active","ping":51},{"user_id":531,"name":"Shadowsona","steam_id":76561199224873444,"connected_time":1241000000000,"state":"active","ping":123},{"user_id":555,"name":"Brocklee","steam_id":76561198073953768,"connected_time":63000000000,"state":"active","ping":59},{"user_id":551,"name":"psychburst","steam_id":76561198116903731,"connected_time":151000000000,"state":"active","ping":72},{"user_id":556,"name":"beefaroni","steam_id":76561198126489501,"connected_time":43000000000,"state":"active","ping":52},{"user_id":521,"name":"Creme","steam_id":76561198034166729,"connected_time":2226000000000,"state":"active","ping":77},{"user_id":557,"name":"The Duggler","steam_id":76561199005778478,"connected_time":21000000000,"state":"spawning","ping":156},{"user_id":535,"name":"Frank (#ripJimmyCarter)","steam_id":76561198126681511,"connected_time":1132000000000,"state":"active","ping":121},{"user_id":536,"name":"the stallion","steam_id":76561198212242403,"connected_time":1130000000000,"state":"active","ping":90},{"user_id":544,"name":"Lord Ballsack of Cum Castle","steam_id":76561198285996788,"connected_time":536000000000,"state":"active","ping":100},{"user_id":538,"name":"bengy","steam_id":76561198264288798,"connected_time":1089000000000,"state":"active","ping":95},{"user_id":558,"name":"☹","steam_id":76561198804763186,"connected_time":9000000000,"state":"active","ping":82},{"user_id":508,"name":"Weebmcgee","steam_id":76561198081231557,"connected_time":4513000000000,"state":"active","ping":62},{"user_id":542,"name":"DO NOT call me BART SIMPSON!!","steam_id":76561198069113375,"connected_time":913000000000,"state":"active","ping":76},{"user_id":548,"name":"Scam Likely","steam_id":76561198084422657,"connected_time":251000000000,"state":"active","ping":85},{"user_id":497,"name":"Rose","steam_id":76561198955581861,"connected_time":6170000000000,"state":"active","ping":92},{"user_id":466,"name":"i really like this dog :)","steam_id":76561198882404753,"connected_time":8104000000000,"state":"active","ping":74}]},{"server_id":403,"name":"Uncletopia | Chicago | 4 | All Maps","name_short":"chi-4","host":"chi-1.us.uncletopia.com","port":27045,"enabled":true,"region":"us-central","cc":"us","latitude":41.881832,"longitude":-87.62318,"reserved":0,"last_update":"0001-01-01T00:00:00Z","name_a2s":"Uncletopia | Chicago | 4 | All Maps","protocol":17,"map":"cp_sunshine","folder":"tf","game":"Team Fortress","app_id":440,"player_count":24,"max_players":24,"Bots":0,"server_type":"Dedicated","server_os":"Linux","password":true,"vac":true,"version":"7757534","steam_id":85568392924515193,"keywords":["cp","nocrits","nodmgspread","uncletopia"],"game_id":440,"stv_port":27046,"stv_name":"Uncletopia | Chicago | 4 | All Maps | STV","players":[{"user_id":709,"name":"Achy_Blitz","steam_id":76561198090433209,"connected_time":4005000000000,"state":"active","ping":89},{"user_id":704,"name":"Speedy","steam_id":76561198080761661,"connected_time":4209000000000,"state":"active","ping":81},{"user_id":744,"name":"bobbymcbobington","steam_id":76561199089411172,"connected_time":832000000000,"state":"active","ping":128},{"user_id":753,"name":"bird is the word #familyguy","steam_id":76561198042600523,"connected_time":39000000000,"state":"spawning","ping":68},{"user_id":726,"name":"threethree","steam_id":76561198177354155,"connected_time":2622000000000,"state":"active","ping":72},{"user_id":684,"name":"Dr Smeggman","steam_id":76561197966614845,"connected_time":5623000000000,"state":"active","ping":129},{"user_id":743,"name":"BigBear","steam_id":76561198105227261,"connected_time":838000000000,"state":"active","ping":93},{"user_id":719,"name":"wokky bin laddn","steam_id":76561198265200834,"connected_time":3321000000000,"state":"active","ping":73},{"user_id":745,"name":"MysticFanDubs","steam_id":76561198092968742,"connected_time":810000000000,"state":"active","ping":89},{"user_id":685,"name":"Magnus Rex","steam_id":76561197987091236,"connected_time":5608000000000,"state":"active","ping":79},{"user_id":737,"name":"moist priest","steam_id":76561198066823778,"connected_time":2161000000000,"state":"active","ping":81},{"user_id":752,"name":"ᕕ(⌐■_■)ᕗ ♪♬","steam_id":76561197965022076,"connected_time":294000000000,"state":"active","ping":57},{"user_id":750,"name":"Snickey","steam_id":76561198049469531,"connected_time":700000000000,"state":"active","ping":81},{"user_id":751,"name":"Average BMW Owner","steam_id":76561198083535106,"connected_time":469000000000,"state":"active","ping":93},{"user_id":739,"name":"ShadBad","steam_id":76561198248287390,"connected_time":1246000000000,"state":"active","ping":105},{"user_id":734,"name":"enbr","steam_id":76561198118211523,"connected_time":2492000000000,"state":"active","ping":60},{"user_id":741,"name":"Seller of Waffles","steam_id":76561198296018138,"connected_time":858000000000,"state":"active","ping":55},{"user_id":731,"name":"drevott74","steam_id":76561199262592779,"connected_time":2546000000000,"state":"active","ping":131},{"user_id":732,"name":"Dongus","steam_id":76561197979056451,"connected_time":2546000000000,"state":"active","ping":93},{"user_id":649,"name":"Mono","steam_id":76561198108284925,"connected_time":8407000000000,"state":"active","ping":115},{"user_id":746,"name":"OverPowered64","steam_id":76561198291027287,"connected_time":801000000000,"state":"active","ping":72},{"user_id":724,"name":"Chinese \"Weather\" Balloon","steam_id":76561198031675881,"connected_time":3215000000000,"state":"active","ping":46},{"user_id":747,"name":"CherriKat (She/Her)","steam_id":76561198821297512,"connected_time":790000000000,"state":"active","ping":93},{"user_id":749,"name":"percyjackoff69","steam_id":76561198298005217,"connected_time":726000000000,"state":"active","ping":92}]},{"server_id":36,"name":"Uncletopia | Chicago | 5 | All Maps","name_short":"chi-5","host":"chi-2.us.uncletopia.com","port":27015,"enabled":true,"region":"us-central","cc":"us","latitude":41.881832,"longitude":-87.62318,"reserved":0,"last_update":"0001-01-01T00:00:00Z","name_a2s":"Uncletopia | Chicago | 5 | All Maps","protocol":17,"map":"koth_suijin","folder":"tf","game":"Team Fortress","app_id":440,"player_count":24,"max_players":24,"Bots":0,"server_type":"Dedicated","server_os":"Linux","password":true,"vac":true,"version":"7757534","steam_id":85568392924866362,"keywords":["cp","nocrits","nodmgspread","uncletopia"],"game_id":440,"stv_port":27016,"stv_name":"Uncletopia | Chicago | 5 | All Maps | STV","players":[{"user_id":425,"name":"A Big Clump of Pink Stuff","steam_id":76561198183657870,"connected_time":2354000000000,"state":"active","ping":72},{"user_id":445,"name":"huh","steam_id":76561198272057200,"connected_time":1003000000000,"state":"active","ping":97},{"user_id":430,"name":"Sybil","steam_id":76561198042533062,"connected_time":2048000000000,"state":"active","ping":92},{"user_id":448,"name":"Goober","steam_id":76561198988863807,"connected_time":978000000000,"state":"active","ping":76},{"user_id":392,"name":"Jerry","steam_id":76561198847369985,"connected_time":4267000000000,"state":"active","ping":68},{"user_id":450,"name":"aprilian","steam_id":76561198388123421,"connected_time":945000000000,"state":"active","ping":107},{"user_id":427,"name":"Aura","steam_id":76561198010021047,"connected_time":2078000000000,"state":"active","ping":90},{"user_id":415,"name":"highmechs","steam_id":76561198013650292,"connected_time":2988000000000,"state":"active","ping":115},{"user_id":449,"name":"Cosmic Torgue","steam_id":76561198828724945,"connected_time":963000000000,"state":"active","ping":82},{"user_id":451,"name":"EddyQTooReal","steam_id":76561198088480679,"connected_time":941000000000,"state":"active","ping":59},{"user_id":429,"name":"Miro","steam_id":76561198936412406,"connected_time":2069000000000,"state":"active","ping":90},{"user_id":435,"name":"Coratorium","steam_id":76561198031603804,"connected_time":1604000000000,"state":"active","ping":88},{"user_id":413,"name":"Wibis428","steam_id":76561198058249141,"connected_time":3016000000000,"state":"active","ping":63},{"user_id":455,"name":"Jiffy","steam_id":76561198043338415,"connected_time":324000000000,"state":"active","ping":75},{"user_id":456,"name":"Spike Bones","steam_id":76561198234926120,"connected_time":318000000000,"state":"active","ping":86},{"user_id":409,"name":"SoWhich","steam_id":76561198237125842,"connected_time":3102000000000,"state":"active","ping":53},{"user_id":414,"name":"Rat_king","steam_id":76561199465689129,"connected_time":3008000000000,"state":"active","ping":83},{"user_id":431,"name":"SomeRandomCat","steam_id":76561199107044061,"connected_time":2021000000000,"state":"active","ping":61},{"user_id":457,"name":"Squubles #SaveTF2","steam_id":76561198315128664,"connected_time":259000000000,"state":"active","ping":75},{"user_id":442,"name":"Jamrag","steam_id":76561199031241776,"connected_time":1282000000000,"state":"active","ping":77},{"user_id":436,"name":"Fuse","steam_id":76561198047018079,"connected_time":1598000000000,"state":"active","ping":74},{"user_id":353,"name":"coxen","steam_id":76561198095125557,"connected_time":8477000000000,"state":"active","ping":60},{"user_id":422,"name":"Wizard Raccoon","steam_id":76561198072562591,"connected_time":2653000000000,"state":"active","ping":83},{"user_id":454,"name":"chikimoco","steam_id":76561198145320480,"connected_time":735000000000,"state":"active","ping":94}]},{"server_id":37,"name":"Uncletopia | Chicago | 6 | All Maps","name_short":"chi-6","host":"chi-2.us.uncletopia.com","port":27025,"enabled":true,"region":"us-central","cc":"us","latitude":41.881832,"longitude":-87.62318,"reserved":0,"last_update":"0001-01-01T00:00:00Z","name_a2s":"Uncletopia | Chicago | 6 | All Maps","protocol":17,"map":"koth_highpass","folder":"tf","game":"Team Fortress","app_id":440,"player_count":24,"max_players":24,"Bots":0,"server_type":"Dedicated","server_os":"Linux","password":true,"vac":true,"version":"7757534","steam_id":85568392924866363,"keywords":["cp","nocrits","nodmgspread","uncletopia"],"game_id":440,"stv_port":27026,"stv_name":"Uncletopia | Chicago | 6 | All Maps | STV","players":[{"user_id":405,"name":"Klitz Penischmidt","steam_id":76561198050582941,"connected_time":633000000000,"state":"active","ping":62},{"user_id":416,"name":"The Final Terminus","steam_id":76561197964985183,"connected_time":106000000000,"state":"active","ping":63},{"user_id":388,"name":"scooterre","steam_id":76561198055068182,"connected_time":1868000000000,"state":"active","ping":61},{"user_id":389,"name":"recovering osrs addict","steam_id":76561198079632514,"connected_time":1849000000000,"state":"active","ping":51},{"user_id":391,"name":"jeremimi","steam_id":76561198818225102,"connected_time":1831000000000,"state":"active","ping":120},{"user_id":392,"name":"Average Chip Damage Enjoyer","steam_id":76561198280189120,"connected_time":1827000000000,"state":"active","ping":61},{"user_id":393,"name":"Meh","steam_id":76561198078187920,"connected_time":1816000000000,"state":"active","ping":86},{"user_id":399,"name":"GreekGoat_Coffee","steam_id":76561198129331088,"connected_time":953000000000,"state":"active","ping":45},{"user_id":354,"name":"Magiclama","steam_id":76561199438818425,"connected_time":5084000000000,"state":"active","ping":77},{"user_id":396,"name":"reanimator","steam_id":76561198085830470,"connected_time":1586000000000,"state":"active","ping":61},{"user_id":397,"name":"StatesideSnake","steam_id":76561198272957048,"connected_time":1103000000000,"state":"active","ping":91},{"user_id":402,"name":"pooter9","steam_id":76561198357077029,"connected_time":732000000000,"state":"active","ping":61},{"user_id":400,"name":"manbearswineflu","steam_id":76561198083945137,"connected_time":926000000000,"state":"active","ping":67},{"user_id":403,"name":"HideOnTate","steam_id":76561198209880837,"connected_time":711000000000,"state":"active","ping":86},{"user_id":415,"name":"JGatsby","steam_id":76561198023307584,"connected_time":289000000000,"state":"active","ping":51},{"user_id":406,"name":"*****setget","steam_id":76561198118824188,"connected_time":610000000000,"state":"active","ping":119},{"user_id":407,"name":"Kaprinae","steam_id":76561199260109617,"connected_time":545000000000,"state":"active","ping":73},{"user_id":408,"name":"FoodzAreGoodz","steam_id":76561198309262052,"connected_time":529000000000,"state":"active","ping":102},{"user_id":409,"name":"Sprinklingmydoughnut","steam_id":76561198168009092,"connected_time":529000000000,"state":"active","ping":92},{"user_id":410,"name":"Tick","steam_id":76561198184161214,"connected_time":507000000000,"state":"active","ping":43},{"user_id":411,"name":"EpicGamer48484","steam_id":76561199230935031,"connected_time":498000000000,"state":"active","ping":69},{"user_id":412,"name":"The Sydney Sleeper Itself","steam_id":76561198180251763,"connected_time":418000000000,"state":"active","ping":66},{"user_id":413,"name":"miner","steam_id":76561198073035221,"connected_time":398000000000,"state":"active","ping":64},{"user_id":414,"name":"Mocanthl","steam_id":76561198043778324,"connected_time":350000000000,"state":"active","ping":67}]},{"server_id":38,"name":"Uncletopia | Chicago | 7 | Stopwatch Beta","name_short":"chi-7","host":"chi-2.us.uncletopia.com","port":27035,"enabled":true,"region":"us-central","cc":"us","latitude":41.881832,"longitude":-87.62318,"reserved":0,"last_update":"0001-01-01T00:00:00Z","name_a2s":"Uncletopia | Chicago | 7 | Stopwatch Beta","protocol":17,"map":"cp_process_final","folder":"tf","game":"Team Fortress","app_id":440,"player_count":4,"max_players":24,"Bots":0,"server_type":"Dedicated","server_os":"Linux","password":true,"vac":true,"version":"7757534","steam_id":85568392924866364,"keywords":["cp","nocrits","nodmgspread","uncletopia"],"game_id":440,"stv_port":27036,"stv_name":"Uncletopia | Chicago | 7 | Stopwatch Beta | STV","players":[{"user_id":305,"name":"internetmoneyscam.com","steam_id":76561198294873192,"connected_time":51000000000,"state":"active","ping":67},{"user_id":301,"name":"Sizzler","steam_id":76561198382470186,"connected_time":324000000000,"state":"active","ping":42},{"user_id":304,"name":"xXur_m0m_g3yXx","steam_id":76561198061488151,"connected_time":96000000000,"state":"active","ping":57},{"user_id":293,"name":"The Unknown","steam_id":76561198270013890,"connected_time":1200000000000,"state":"active","ping":95}]},{"server_id":39,"name":"Uncletopia | Chicago | 8 | Community","name_short":"chi-8","host":"chi-2.us.uncletopia.com","port":27045,"enabled":true,"region":"us-central","cc":"us","latitude":41.881832,"longitude":-87.62318,"reserved":0,"last_update":"0001-01-01T00:00:00Z","name_a2s":"Uncletopia | Chicago | 8 | Community","protocol":17,"map":"workshop/pl_boundary_final1.ugc456799153","folder":"tf","game":"Team Fortress","app_id":440,"player_count":24,"max_players":24,"Bots":0,"server_type":"Dedicated","server_os":"Linux","password":true,"vac":true,"version":"7757534","steam_id":85568392924866365,"keywords":["nocrits","nodmgspread","payload","uncletopia"],"game_id":440,"stv_port":27046,"stv_name":"Uncletopia | Chicago | 8 | Community | STV","players":[{"user_id":387,"name":"ChozoChorizo","steam_id":76561198272609196,"connected_time":931000000000,"state":"active","ping":62},{"user_id":388,"name":"Rain","steam_id":76561198022607401,"connected_time":903000000000,"state":"active","ping":79},{"user_id":389,"name":"whats fizzin","steam_id":76561198230670996,"connected_time":872000000000,"state":"active","ping":74},{"user_id":382,"name":"Knight","steam_id":76561198154529952,"connected_time":1192000000000,"state":"active","ping":88},{"user_id":360,"name":"HumFreY","steam_id":76561198076639682,"connected_time":2727000000000,"state":"active","ping":74},{"user_id":393,"name":"bug o1","steam_id":76561198126386686,"connected_time":725000000000,"state":"active","ping":45},{"user_id":404,"name":"Sqiddwr","steam_id":76561197998071622,"connected_time":73000000000,"state":"active","ping":75},{"user_id":392,"name":"Emizip","steam_id":76561198162532286,"connected_time":789000000000,"state":"active","ping":91},{"user_id":394,"name":"FRUZZE (tacoman)","steam_id":76561199455335173,"connected_time":615000000000,"state":"active","ping":74},{"user_id":395,"name":"Unt0astedToast","steam_id":76561199018636989,"connected_time":607000000000,"state":"active","ping":81},{"user_id":396,"name":"aware of your location","steam_id":76561198106704927,"connected_time":553000000000,"state":"active","ping":70},{"user_id":397,"name":"bopob","steam_id":76561198177092939,"connected_time":539000000000,"state":"active","ping":64},{"user_id":398,"name":"sc67","steam_id":76561199302471485,"connected_time":433000000000,"state":"active","ping":44},{"user_id":399,"name":"LayZ","steam_id":76561198096129611,"connected_time":365000000000,"state":"active","ping":52},{"user_id":340,"name":"I am a mooshroom","steam_id":76561198104198295,"connected_time":3856000000000,"state":"active","ping":88},{"user_id":401,"name":"Cosmic sR","steam_id":76561198081738675,"connected_time":194000000000,"state":"active","ping":80},{"user_id":402,"name":"PEPSI POWERED MAN","steam_id":76561198362668431,"connected_time":185000000000,"state":"active","ping":120},{"user_id":361,"name":"remote_tenor","steam_id":76561198102941724,"connected_time":2523000000000,"state":"active","ping":83},{"user_id":408,"name":"Plank","steam_id":76561198092413032,"connected_time":12000000000,"state":"spawning","ping":260},{"user_id":403,"name":"Lo-Pan","steam_id":76561198085670133,"connected_time":132000000000,"state":"active","ping":79},{"user_id":372,"name":"slimjim557","steam_id":76561199094710853,"connected_time":2028000000000,"state":"active","ping":72},{"user_id":406,"name":"mEch114","steam_id":76561198236936060,"connected_time":57000000000,"state":"spawning","ping":227},{"user_id":407,"name":"Persona404","steam_id":76561198109635077,"connected_time":52000000000,"state":"active","ping":77},{"user_id":353,"name":"Scoundrel","steam_id":76561198056672372,"connected_time":3224000000000,"state":"active","ping":72}]},{"server_id":8,"name":"Uncletopia | Dallas | 1 | All Maps","name_short":"dal-1","host":"dal-1.us.uncletopia.com","port":27015,"enabled":true,"region":"us-central","cc":"us","latitude":32.779167,"longitude":-96.80889,"reserved":0,"last_update":"0001-01-01T00:00:00Z","name_a2s":"Uncletopia | Dallas | 1 | All Maps","protocol":17,"map":"pl_badwater","folder":"tf","game":"Team Fortress","app_id":440,"player_count":24,"max_players":24,"Bots":0,"server_type":"Dedicated","server_os":"Linux","password":true,"vac":true,"version":"7757534","steam_id":85568392924469986,"keywords":["nocrits","nodmgspread","payload","uncletopia"],"game_id":440,"stv_port":27016,"stv_name":"Uncletopia | Dallas | 1 | All Maps | STV","players":[{"user_id":485,"name":"aidan long","steam_id":76561198073022833,"connected_time":5107000000000,"state":"active","ping":41},{"user_id":529,"name":"Gandalf's Old Man Farts","steam_id":76561198058300151,"connected_time":1443000000000,"state":"active","ping":56},{"user_id":577,"name":"for the king","steam_id":76561197973488858,"connected_time":29000000000,"state":"active","ping":67},{"user_id":521,"name":"Miss Pauling Gaming","steam_id":76561198078479083,"connected_time":1836000000000,"state":"active","ping":65},{"user_id":528,"name":"bigboyhans","steam_id":76561199222215108,"connected_time":1578000000000,"state":"active","ping":91},{"user_id":419,"name":"Ballista","steam_id":76561197983182562,"connected_time":10224000000000,"state":"active","ping":42},{"user_id":546,"name":"Xranth","steam_id":76561198040827689,"connected_time":660000000000,"state":"active","ping":69},{"user_id":508,"name":"*_*","steam_id":76561198937717599,"connected_time":2624000000000,"state":"active","ping":64},{"user_id":518,"name":"wheresgeorge","steam_id":76561198986281248,"connected_time":2476000000000,"state":"active","ping":98},{"user_id":578,"name":"Bogey","steam_id":76561198096227944,"connected_time":25000000000,"state":"active","ping":37},{"user_id":524,"name":"01000101","steam_id":76561198027981956,"connected_time":1659000000000,"state":"active","ping":62},{"user_id":549,"name":"GL00MZ","steam_id":76561198283785778,"connected_time":631000000000,"state":"active","ping":93},{"user_id":556,"name":"Moonflower ✦","steam_id":76561198191782483,"connected_time":468000000000,"state":"active","ping":48},{"user_id":579,"name":"Bigfoot ate my ass","steam_id":76561198071605190,"connected_time":11000000000,"state":"active","ping":74},{"user_id":513,"name":"MarcoPolow","steam_id":76561198128044316,"connected_time":2587000000000,"state":"active","ping":85},{"user_id":547,"name":"Warmind Delta","steam_id":76561198297683024,"connected_time":660000000000,"state":"active","ping":54},{"user_id":500,"name":"Dylan","steam_id":76561198265522923,"connected_time":3537000000000,"state":"active","ping":47},{"user_id":483,"name":"owen","steam_id":76561198121517871,"connected_time":5376000000000,"state":"active","ping":48},{"user_id":522,"name":"sfoster","steam_id":76561197993895857,"connected_time":1778000000000,"state":"active","ping":99},{"user_id":525,"name":"IsaacJon03","steam_id":76561199246649735,"connected_time":1651000000000,"state":"active","ping":101},{"user_id":520,"name":"BaRs","steam_id":76561198981717009,"connected_time":2256000000000,"state":"active","ping":49},{"user_id":488,"name":"Moshi Man","steam_id":76561198038249762,"connected_time":4714000000000,"state":"active","ping":76},{"user_id":535,"name":"EquinoxFox","steam_id":76561198011459492,"connected_time":1149000000000,"state":"active","ping":85},{"user_id":537,"name":"Joneatshorts","steam_id":76561199233449550,"connected_time":1108000000000,"state":"active","ping":94}]},{"server_id":108,"name":"Uncletopia | Dallas | 2 | All Maps","name_short":"dal-2","host":"dal-1.us.uncletopia.com","port":27025,"enabled":true,"region":"us-central","cc":"us","latitude":32.779167,"longitude":-96.80889,"reserved":0,"last_update":"0001-01-01T00:00:00Z","name_a2s":"Uncletopia | Dallas | 2 | All Maps","protocol":17,"map":"pl_snowycoast","folder":"tf","game":"Team Fortress","app_id":440,"player_count":24,"max_players":24,"Bots":0,"server_type":"Dedicated","server_os":"Linux","password":true,"vac":true,"version":"7757534","steam_id":85568392924469988,"keywords":["nocrits","nodmgspread","payload","uncletopia"],"game_id":440,"stv_port":27026,"stv_name":"Uncletopia | Dallas | 2 | All Maps | STV","players":[{"user_id":419,"name":"pipeline","steam_id":76561198212263380,"connected_time":2079000000000,"state":"active","ping":45},{"user_id":363,"name":"UnkownGamerLOL","steam_id":76561198225902368,"connected_time":6974000000000,"state":"active","ping":90},{"user_id":424,"name":"reclaim gaming","steam_id":76561198301019618,"connected_time":748000000000,"state":"active","ping":101},{"user_id":375,"name":"moe5x","steam_id":76561198316877833,"connected_time":6150000000000,"state":"active","ping":78},{"user_id":411,"name":"barker bill","steam_id":76561198018451994,"connected_time":2524000000000,"state":"active","ping":57},{"user_id":409,"name":"pleasehelpidonthavefingers","steam_id":76561199367935846,"connected_time":2542000000000,"state":"active","ping":74},{"user_id":422,"name":"fred durst rolling","steam_id":76561198057561955,"connected_time":767000000000,"state":"active","ping":83},{"user_id":435,"name":"❤ Ashley ❤","steam_id":76561198056428303,"connected_time":616000000000,"state":"active","ping":76},{"user_id":440,"name":"Notation","steam_id":76561198119509319,"connected_time":529000000000,"state":"active","ping":60},{"user_id":426,"name":"Zoro","steam_id":76561199074189172,"connected_time":739000000000,"state":"active","ping":91},{"user_id":416,"name":"Superman123389","steam_id":76561198267472539,"connected_time":2295000000000,"state":"active","ping":82},{"user_id":446,"name":"Lord Pretty Flocko Jordye","steam_id":76561198962880749,"connected_time":17000000000,"state":"active","ping":114},{"user_id":330,"name":"Dr. drippenstein","steam_id":76561198209380493,"connected_time":10253000000000,"state":"active","ping":82},{"user_id":417,"name":"Iron","steam_id":76561198247918478,"connected_time":2225000000000,"state":"active","ping":71},{"user_id":393,"name":"basil","steam_id":76561198075758026,"connected_time":4917000000000,"state":"active","ping":83},{"user_id":438,"name":"redzach","steam_id":76561198444094359,"connected_time":552000000000,"state":"active","ping":80},{"user_id":425,"name":"JellyParrot","steam_id":76561199190990163,"connected_time":746000000000,"state":"active","ping":75},{"user_id":441,"name":"Sarbanes-Oxley","steam_id":76561197975898479,"connected_time":491000000000,"state":"active","ping":55},{"user_id":442,"name":"wizard","steam_id":76561197974871380,"connected_time":438000000000,"state":"active","ping":105},{"user_id":437,"name":"Doc{MDW}","steam_id":76561198075049640,"connected_time":594000000000,"state":"active","ping":79},{"user_id":328,"name":"momb","steam_id":76561198142234038,"connected_time":10516000000000,"state":"active","ping":89},{"user_id":443,"name":"DotA Psychologist","steam_id":76561198052171640,"connected_time":428000000000,"state":"active","ping":84},{"user_id":444,"name":"CartNip","steam_id":76561198290916628,"connected_time":427000000000,"state":"active","ping":67},{"user_id":445,"name":"everyrockstar!","steam_id":76561198272094975,"connected_time":365000000000,"state":"active","ping":117}]},{"server_id":5,"name":"Uncletopia | Frankfurt | 1 | All Maps","name_short":"frk-1","host":"frk-1.de.uncletopia.com","port":27015,"enabled":true,"region":"eu","cc":"de","latitude":50.110924,"longitude":8.682127,"reserved":0,"last_update":"0001-01-01T00:00:00Z","name_a2s":"Uncletopia | Frankfurt | 1 | All Maps","protocol":17,"map":"koth_highpass","folder":"tf","game":"Team Fortress","app_id":440,"player_count":0,"max_players":24,"Bots":0,"server_type":"Dedicated","server_os":"Linux","password":true,"vac":true,"version":"7757534","steam_id":85568392924469989,"keywords":["cp","nocrits","nodmgspread","uncletopia"],"game_id":440,"stv_port":27016,"stv_name":"Uncletopia | Frankfurt | 1 | All Maps | STV","players":null},{"server_id":110,"name":"Uncletopia | Frankfurt | 2 | All Maps","name_short":"frk-2","host":"frk-1.de.uncletopia.com","port":27025,"enabled":true,"region":"eu","cc":"de","latitude":50.110924,"longitude":8.682127,"reserved":0,"last_update":"0001-01-01T00:00:00Z","name_a2s":"Uncletopia | Frankfurt | 2 | All Maps","protocol":17,"map":"koth_cascade","folder":"tf","game":"Team Fortress","app_id":440,"player_count":0,"max_players":24,"Bots":0,"server_type":"Dedicated","server_os":"Linux","password":true,"vac":true,"version":"7757534","steam_id":85568392924469990,"keywords":["cp","nocrits","nodmgspread","uncletopia"],"game_id":440,"stv_port":27026,"stv_name":"Uncletopia | Frankfurt | 2 | All Maps | STV","players":null},{"server_id":308,"name":"Uncletopia | Frankfurt | 3 | All Maps","name_short":"frk-3","host":"frk-1.de.uncletopia.com","port":27035,"enabled":true,"region":"eu","cc":"de","latitude":50.110924,"longitude":8.682127,"reserved":0,"last_update":"0001-01-01T00:00:00Z","name_a2s":"Uncletopia | Frankfurt | 3 | All Maps","protocol":17,"map":"cp_sunshine","folder":"tf","game":"Team Fortress","app_id":440,"player_count":0,"max_players":24,"Bots":0,"server_type":"Dedicated","server_os":"Linux","password":true,"vac":true,"version":"7757534","steam_id":85568392924504274,"keywords":["cp","nocrits","nodmgspread","uncletopia"],"game_id":440,"stv_port":27036,"stv_name":"Uncletopia | Frankfurt | 3 | All Maps | STV","players":null},{"server_id":309,"name":"Uncletopia | Frankfurt | 4 | All Maps","name_short":"frk-4","host":"frk-1.de.uncletopia.com","port":27045,"enabled":true,"region":"eu","cc":"de","latitude":50.110924,"longitude":8.682127,"reserved":0,"last_update":"0001-01-01T00:00:00Z","name_a2s":"Uncletopia | Frankfurt | 4 | All Maps","protocol":17,"map":"pl_barnblitz","folder":"tf","game":"Team Fortress","app_id":440,"player_count":0,"max_players":24,"Bots":0,"server_type":"Dedicated","server_os":"Linux","password":true,"vac":true,"version":"7757534","steam_id":85568392924504275,"keywords":["nocrits","nodmgspread","payload","uncletopia"],"game_id":440,"stv_port":27046,"stv_name":"Uncletopia | Frankfurt | 4 | All Maps | STV","players":null},{"server_id":310,"name":"Uncletopia | Frankfurt | 5 | All Maps","name_short":"frk-5","host":"frk-1.de.uncletopia.com","port":27055,"enabled":true,"region":"eu","cc":"de","latitude":50.110924,"longitude":8.682127,"reserved":0,"last_update":"0001-01-01T00:00:00Z","name_a2s":"Uncletopia | Frankfurt | 5 | All Maps","protocol":17,"map":"koth_cascade","folder":"tf","game":"Team Fortress","app_id":440,"player_count":0,"max_players":24,"Bots":0,"server_type":"Dedicated","server_os":"Linux","password":true,"vac":true,"version":"7757534","steam_id":85568392924504277,"keywords":["cp","nocrits","nodmgspread","uncletopia"],"game_id":440,"stv_port":27056,"stv_name":"Uncletopia | Frankfurt | 5 | All Maps | STV","players":null},{"server_id":311,"name":"Uncletopia | Frankfurt | 6 | All Maps","name_short":"frk-6","host":"frk-1.de.uncletopia.com","port":27065,"enabled":true,"region":"eu","cc":"de","latitude":50.110924,"longitude":8.682127,"reserved":0,"last_update":"0001-01-01T00:00:00Z","name_a2s":"Uncletopia | Frankfurt | 6 | All Maps","protocol":17,"map":"cp_dustbowl","folder":"tf","game":"Team Fortress","app_id":440,"player_count":0,"max_players":24,"Bots":0,"server_type":"Dedicated","server_os":"Linux","password":true,"vac":true,"version":"7757534","steam_id":85568392924504278,"keywords":["cp","nocrits","nodmgspread","uncletopia"],"game_id":440,"stv_port":27066,"stv_name":"Uncletopia | Frankfurt | 6 | All Maps | STV","players":null},{"server_id":23,"name":"Uncletopia | Frankfurt | 7 | Stopwatch Beta","name_short":"frk-7","host":"frk-1.de.uncletopia.com","port":27075,"enabled":true,"region":"eu","cc":"de","latitude":50.110924,"longitude":8.682127,"reserved":0,"last_update":"0001-01-01T00:00:00Z","name_a2s":"Uncletopia | Frankfurt | 7 | Stopwatch Beta","protocol":17,"map":"workshop/koth_bagel_rc6.ugc2514036946","folder":"tf","game":"Team Fortress","app_id":440,"player_count":0,"max_players":24,"Bots":0,"server_type":"Dedicated","server_os":"Linux","password":true,"vac":true,"version":"7757534","steam_id":85568392924742827,"keywords":["cp","nocrits","nodmgspread","uncletopia"],"game_id":440,"stv_port":27076,"stv_name":"Uncletopia | Frankfurt | 7 | Stopwatch Beta | STV","players":null},{"server_id":24,"name":"Uncletopia | Frankfurt | 8 | Community","name_short":"frk-8","host":"frk-1.de.uncletopia.com","port":27085,"enabled":true,"region":"eu","cc":"de","latitude":50.110924,"longitude":8.682127,"reserved":0,"last_update":"0001-01-01T00:00:00Z","name_a2s":"Uncletopia | Frankfurt | 8 | Community","protocol":17,"map":"workshop/cp_hazyfort_rc6.ugc1365963729","folder":"tf","game":"Team Fortress","app_id":440,"player_count":0,"max_players":24,"Bots":0,"server_type":"Dedicated","server_os":"Linux","password":true,"vac":true,"version":"7757534","steam_id":85568392924742828,"keywords":["cp","nocrits","nodmgspread","uncletopia"],"game_id":440,"stv_port":27086,"stv_name":"Uncletopia | Frankfurt | 8 | Community | STV","players":null},{"server_id":202,"name":"Uncletopia | Hong Kong | 1 | All Maps","name_short":"hgk-1","host":"hgk-1.hk.uncletopia.com","port":27015,"enabled":true,"region":"asia","cc":"hk","latitude":22.302711,"longitude":114.177216,"reserved":0,"last_update":"0001-01-01T00:00:00Z","name_a2s":"Uncletopia | Hong Kong | 1 | All Maps","protocol":17,"map":"cp_altitude","folder":"tf","game":"Team Fortress","app_id":440,"player_count":0,"max_players":24,"Bots":0,"server_type":"Dedicated","server_os":"Linux","password":true,"vac":true,"version":"7757534","steam_id":85568392924494504,"keywords":["cp","nocrits","nodmgspread","uncletopia"],"game_id":440,"stv_port":27016,"stv_name":"Uncletopia | Hong Kong | 1 | All Maps | STV","players":null},{"server_id":1,"name":"Uncletopia | Los Angeles | 1 | All Maps","name_short":"lax-1","host":"lax-1.us.uncletopia.com","port":27015,"enabled":true,"region":"us-west","cc":"us","latitude":33.94279,"longitude":-118.41004,"reserved":0,"last_update":"0001-01-01T00:00:00Z","name_a2s":"Uncletopia | Los Angeles | 1 | All Maps","protocol":17,"map":"cp_dustbowl","folder":"tf","game":"Team Fortress","app_id":440,"player_count":24,"max_players":24,"Bots":0,"server_type":"Dedicated","server_os":"Linux","password":true,"vac":true,"version":"7757534","steam_id":85568392924469991,"keywords":["cp","nocrits","nodmgspread","uncletopia"],"game_id":440,"stv_port":27016,"stv_name":"Uncletopia | Los Angeles | 1 | All Maps | STV","players":[{"user_id":368,"name":"Sol","steam_id":76561198121500201,"connected_time":10768000000000,"state":"active","ping":46},{"user_id":482,"name":"An00bis","steam_id":76561198044084508,"connected_time":151000000000,"state":"active","ping":45},{"user_id":451,"name":"Harold","steam_id":76561198057317770,"connected_time":3126000000000,"state":"active","ping":46},{"user_id":488,"name":"Ozyruz","steam_id":76561197998785161,"connected_time":28000000000,"state":"spawning","ping":47},{"user_id":401,"name":"Shamrock Shake Oct.10.2020 @8pm","steam_id":76561198833313201,"connected_time":9241000000000,"state":"active","ping":70},{"user_id":434,"name":"NFL.com","steam_id":76561198113405376,"connected_time":3874000000000,"state":"active","ping":48},{"user_id":456,"name":"Mighty","steam_id":76561198166803166,"connected_time":2869000000000,"state":"active","ping":76},{"user_id":464,"name":"PeptoBismol","steam_id":76561198082669076,"connected_time":2428000000000,"state":"active","ping":58},{"user_id":474,"name":"HOT SOUP","steam_id":76561199077389918,"connected_time":1071000000000,"state":"active","ping":120},{"user_id":483,"name":"bim bardaway","steam_id":76561198325557240,"connected_time":133000000000,"state":"active","ping":47},{"user_id":485,"name":"The Assistant Regional Manager","steam_id":76561199221484936,"connected_time":98000000000,"state":"active","ping":64},{"user_id":452,"name":"Ellen Baker","steam_id":76561198065712435,"connected_time":3003000000000,"state":"active","ping":70},{"user_id":480,"name":"Ghoulbreath","steam_id":76561198062517442,"connected_time":165000000000,"state":"active","ping":69},{"user_id":486,"name":"Melon","steam_id":76561199202306398,"connected_time":86000000000,"state":"active","ping":53},{"user_id":466,"name":"The Great Eagle Scourge of 1822","steam_id":76561198325086209,"connected_time":1970000000000,"state":"active","ping":58},{"user_id":476,"name":"Sasha Waybright (real)","steam_id":76561198063076753,"connected_time":1042000000000,"state":"active","ping":57},{"user_id":479,"name":"MonkeyNobody","steam_id":76561199451266605,"connected_time":166000000000,"state":"active","ping":57},{"user_id":447,"name":"STUPID DUMBASS BABY","steam_id":76561199112576615,"connected_time":3222000000000,"state":"active","ping":73},{"user_id":416,"name":"werolat","steam_id":76561197960544784,"connected_time":6686000000000,"state":"active","ping":55},{"user_id":469,"name":"beblonski","steam_id":76561198067053408,"connected_time":1668000000000,"state":"active","ping":56},{"user_id":457,"name":"Icarus the legend","steam_id":76561199013250091,"connected_time":2861000000000,"state":"active","ping":68},{"user_id":481,"name":"bean drinker","steam_id":76561198044004639,"connected_time":165000000000,"state":"active","ping":85},{"user_id":487,"name":"stinker","steam_id":76561198295640486,"connected_time":82000000000,"state":"active","ping":48},{"user_id":477,"name":"Prime","steam_id":76561198218218705,"connected_time":178000000000,"state":"active","ping":86}]},{"server_id":112,"name":"Uncletopia | Los Angeles | 2 | All Maps","name_short":"lax-2","host":"lax-1.us.uncletopia.com","port":27025,"enabled":true,"region":"us-west","cc":"us","latitude":33.94279,"longitude":-118.41004,"reserved":0,"last_update":"0001-01-01T00:00:00Z","name_a2s":"Uncletopia | Los Angeles | 2 | All Maps","protocol":17,"map":"pl_upward","folder":"tf","game":"Team Fortress","app_id":440,"player_count":5,"max_players":24,"Bots":0,"server_type":"Dedicated","server_os":"Linux","password":true,"vac":true,"version":"7757534","steam_id":85568392924469992,"keywords":["nocrits","nodmgspread","payload","uncletopia"],"game_id":440,"stv_port":27026,"stv_name":"Uncletopia | Los Angeles | 2 | All Maps | STV","players":[{"user_id":255,"name":"Cosmic Visor","steam_id":76561197990817172,"connected_time":1011000000000,"state":"active","ping":74},{"user_id":263,"name":"Approx. $3.15","steam_id":76561198296867197,"connected_time":688000000000,"state":"active","ping":106},{"user_id":269,"name":"SunnySideDown","steam_id":76561199259111611,"connected_time":365000000000,"state":"active","ping":63},{"user_id":173,"name":"Renz","steam_id":76561198118995036,"connected_time":7786000000000,"state":"active","ping":82},{"user_id":206,"name":"MechanizedContortion","steam_id":76561199146092247,"connected_time":5616000000000,"state":"active","ping":57}]},{"server_id":324,"name":"Uncletopia | Los Angeles | 3 | All Maps","name_short":"lax-3","host":"lax-1.us.uncletopia.com","port":27035,"enabled":true,"region":"us-west","cc":"us","latitude":33.94279,"longitude":-118.41004,"reserved":0,"last_update":"0001-01-01T00:00:00Z","name_a2s":"Uncletopia | Los Angeles | 3 | All Maps","protocol":17,"map":"pl_snowycoast","folder":"tf","game":"Team Fortress","app_id":440,"player_count":24,"max_players":24,"Bots":0,"server_type":"Dedicated","server_os":"Linux","password":true,"vac":true,"version":"7757534","steam_id":85568392924510198,"keywords":["nocrits","nodmgspread","payload","uncletopia"],"game_id":440,"stv_port":27036,"stv_name":"Uncletopia | Los Angeles | 3 | All Maps | STV","players":[{"user_id":328,"name":"El Super Monkey Ball","steam_id":76561198135634819,"connected_time":850000000000,"state":"active","ping":52},{"user_id":317,"name":"doog2112","steam_id":76561198272336282,"connected_time":1881000000000,"state":"active","ping":66},{"user_id":324,"name":"Stapler","steam_id":76561198099295077,"connected_time":884000000000,"state":"active","ping":46},{"user_id":323,"name":"ConiferCarver(#SaveTF2)","steam_id":76561198195875845,"connected_time":1003000000000,"state":"spawning","ping":64},{"user_id":301,"name":"Four Monkeys on a Computer","steam_id":76561198871081291,"connected_time":2628000000000,"state":"active","ping":110},{"user_id":337,"name":"Isn't Water","steam_id":76561199253511650,"connected_time":17000000000,"state":"spawning","ping":98},{"user_id":329,"name":"tekan","steam_id":76561199077174231,"connected_time":850000000000,"state":"active","ping":71},{"user_id":330,"name":"UUUURT","steam_id":76561198047468140,"connected_time":840000000000,"state":"active","ping":82},{"user_id":292,"name":"A pack of feral hogs","steam_id":76561198374279594,"connected_time":3197000000000,"state":"active","ping":52},{"user_id":313,"name":"weed","steam_id":76561199128192017,"connected_time":1999000000000,"state":"active","ping":93},{"user_id":318,"name":"blueskyjav","steam_id":76561199192188828,"connected_time":1761000000000,"state":"active","ping":88},{"user_id":303,"name":"Balengu Deez","steam_id":76561198217680027,"connected_time":2496000000000,"state":"active","ping":96},{"user_id":304,"name":"Lyeloh","steam_id":76561198795645656,"connected_time":2342000000000,"state":"active","ping":46},{"user_id":305,"name":"ExplosiveGamer21","steam_id":76561198132370955,"connected_time":2333000000000,"state":"active","ping":59},{"user_id":321,"name":"LordKirby","steam_id":76561198006938286,"connected_time":1232000000000,"state":"active","ping":67},{"user_id":234,"name":"Crazy Hungarian","steam_id":76561198025498172,"connected_time":6396000000000,"state":"active","ping":66},{"user_id":306,"name":"Ultimate Prinny Battle God!","steam_id":76561198087574100,"connected_time":2303000000000,"state":"active","ping":90},{"user_id":290,"name":"Valentín Elizalde Gaming","steam_id":76561198199051589,"connected_time":3552000000000,"state":"active","ping":103},{"user_id":287,"name":"John Coltrane","steam_id":76561198037789297,"connected_time":3623000000000,"state":"active","ping":118},{"user_id":314,"name":"HeavenHearst","steam_id":76561198066083947,"connected_time":1995000000000,"state":"active","ping":198},{"user_id":336,"name":"Deku","steam_id":76561198192323878,"connected_time":222000000000,"state":"active","ping":45},{"user_id":327,"name":"TeriyakiDynamite","steam_id":76561198050049346,"connected_time":854000000000,"state":"active","ping":53},{"user_id":308,"name":"bonk schnoffer","steam_id":76561198301598124,"connected_time":2250000000000,"state":"active","ping":96},{"user_id":334,"name":"IV","steam_id":76561198208996573,"connected_time":335000000000,"state":"active","ping":47}]},{"server_id":25,"name":"Uncletopia | Los Angeles | 4 | Stopwatch Beta","name_short":"lax-4","host":"lax-1.us.uncletopia.com","port":27045,"enabled":true,"region":"us-west","cc":"us","latitude":33.94279,"longitude":-118.41004,"reserved":0,"last_update":"0001-01-01T00:00:00Z","name_a2s":"Uncletopia | Los Angeles | 4 | Stopwatch Beta","protocol":17,"map":"workshop/koth_bagel_rc6.ugc2514036946","folder":"tf","game":"Team Fortress","app_id":440,"player_count":0,"max_players":24,"Bots":0,"server_type":"Dedicated","server_os":"Linux","password":true,"vac":true,"version":"7757534","steam_id":85568392924510199,"keywords":["cp","nocrits","nodmgspread","uncletopia"],"game_id":440,"stv_port":27046,"stv_name":"Uncletopia | Los Angeles | 4 | Stopwatch Beta | STV","players":null},{"server_id":11,"name":"Uncletopia | London | 1 | All Maps","name_short":"lon-1","host":"lon-1.uk.uncletopia.com","port":27015,"enabled":true,"region":"eu","cc":"gb","latitude":51.509865,"longitude":-0.118092,"reserved":0,"last_update":"0001-01-01T00:00:00Z","name_a2s":"Uncletopia | London | 1 | All Maps","protocol":17,"map":"cp_dustbowl","folder":"tf","game":"Team Fortress","app_id":440,"player_count":0,"max_players":24,"Bots":0,"server_type":"Dedicated","server_os":"Linux","password":true,"vac":true,"version":"7757534","steam_id":85568392924367362,"keywords":["cp","nocrits","nodmgspread","uncletopia"],"game_id":440,"stv_port":27016,"stv_name":"Uncletopia | London | 1 | All Maps | STV","players":null},{"server_id":114,"name":"Uncletopia | London | 2 | All Maps","name_short":"lon-2","host":"lon-1.uk.uncletopia.com","port":27025,"enabled":true,"region":"eu","cc":"gb","latitude":51.509865,"longitude":-0.118092,"reserved":0,"last_update":"0001-01-01T00:00:00Z","name_a2s":"Uncletopia | London | 2 | All Maps","protocol":17,"map":"koth_cascade","folder":"tf","game":"Team Fortress","app_id":440,"player_count":0,"max_players":24,"Bots":0,"server_type":"Dedicated","server_os":"Linux","password":true,"vac":true,"version":"7757534","steam_id":85568392924470941,"keywords":["cp","nocrits","nodmgspread","uncletopia"],"game_id":440,"stv_port":27026,"stv_name":"Uncletopia | London | 2 | All Maps | STV","players":null},{"server_id":320,"name":"Uncletopia | London | 3 | All Maps","name_short":"lon-3","host":"lon-1.uk.uncletopia.com","port":27035,"enabled":true,"region":"eu","cc":"gb","latitude":51.509865,"longitude":-0.118092,"reserved":0,"last_update":"0001-01-01T00:00:00Z","name_a2s":"Uncletopia | London | 3 | All Maps","protocol":17,"map":"pl_badwater","folder":"tf","game":"Team Fortress","app_id":440,"player_count":0,"max_players":24,"Bots":0,"server_type":"Dedicated","server_os":"Linux","password":true,"vac":true,"version":"7757534","steam_id":85568392924510192,"keywords":["nocrits","nodmgspread","payload","uncletopia"],"game_id":440,"stv_port":27036,"stv_name":"Uncletopia | London | 3 | All Maps | STV","players":null},{"server_id":321,"name":"Uncletopia | London | 4 | All Maps","name_short":"lon-4","host":"lon-1.uk.uncletopia.com","port":27045,"enabled":true,"region":"eu","cc":"gb","latitude":51.509865,"longitude":-0.118092,"reserved":0,"last_update":"0001-01-01T00:00:00Z","name_a2s":"Uncletopia | London | 4 | All Maps","protocol":17,"map":"koth_lakeside_final","folder":"tf","game":"Team Fortress","app_id":440,"player_count":0,"max_players":24,"Bots":0,"server_type":"Dedicated","server_os":"Linux","password":true,"vac":true,"version":"7757534","steam_id":85568392924510193,"keywords":["cp","nocrits","nodmgspread","uncletopia"],"game_id":440,"stv_port":27046,"stv_name":"Uncletopia | London | 4 | All Maps | STV","players":null},{"server_id":21,"name":"Uncletopia | London | 5 | All Maps","name_short":"lon-5","host":"lon-1.uk.uncletopia.com","port":27055,"enabled":true,"region":"eu","cc":"gb","latitude":51.509865,"longitude":-0.118092,"reserved":0,"last_update":"0001-01-01T00:00:00Z","name_a2s":"Uncletopia | London | 5 | All Maps","protocol":17,"map":"cp_sunshine","folder":"tf","game":"Team Fortress","app_id":440,"player_count":0,"max_players":24,"Bots":0,"server_type":"Dedicated","server_os":"Linux","password":true,"vac":true,"version":"7757534","steam_id":85568392924742829,"keywords":["cp","nocrits","nodmgspread","uncletopia"],"game_id":440,"stv_port":27056,"stv_name":"Uncletopia | London | 5 | All Maps | STV","players":null},{"server_id":22,"name":"Uncletopia | London | 6 | All Maps","name_short":"lon-6","host":"lon-1.uk.uncletopia.com","port":27065,"enabled":true,"region":"eu","cc":"gb","latitude":51.509865,"longitude":-0.118092,"reserved":0,"last_update":"0001-01-01T00:00:00Z","name_a2s":"Uncletopia | London | 6 | All Maps","protocol":17,"map":"koth_cascade","folder":"tf","game":"Team Fortress","app_id":440,"player_count":0,"max_players":24,"Bots":0,"server_type":"Dedicated","server_os":"Linux","password":true,"vac":true,"version":"7757534","steam_id":85568392924742830,"keywords":["cp","nocrits","nodmgspread","uncletopia"],"game_id":440,"stv_port":27066,"stv_name":"Uncletopia | London | 6 | All Maps | STV","players":null},{"server_id":40,"name":"Uncletopia | London | 7 | No Payload","name_short":"lon-7","host":"lon-1.uk.uncletopia.com","port":27075,"enabled":true,"region":"eu","cc":"gb","latitude":51.509865,"longitude":-0.118092,"reserved":0,"last_update":"0001-01-01T00:00:00Z","name_a2s":"Uncletopia | London | 7 | No Payload","protocol":17,"map":"cp_foundry","folder":"tf","game":"Team Fortress","app_id":440,"player_count":0,"max_players":24,"Bots":0,"server_type":"Dedicated","server_os":"Linux","password":true,"vac":true,"version":"7757534","steam_id":85568392924964314,"keywords":["cp","nocrits","nodmgspread","uncletopia"],"game_id":440,"stv_port":27076,"stv_name":"Uncletopia | London | 7 | No Payload | STV","players":null},{"server_id":41,"name":"Uncletopia | London | 8 | Community","name_short":"lon-8","host":"lon-1.uk.uncletopia.com","port":27085,"enabled":true,"region":"eu","cc":"gb","latitude":51.509865,"longitude":-0.118092,"reserved":0,"last_update":"0001-01-01T00:00:00Z","name_a2s":"Uncletopia | London | 8 | Community","protocol":17,"map":"pl_barnblitz","folder":"tf","game":"Team Fortress","app_id":440,"player_count":0,"max_players":24,"Bots":0,"server_type":"Dedicated","server_os":"Linux","password":true,"vac":true,"version":"7757534","steam_id":85568392924964315,"keywords":["nocrits","nodmgspread","payload","uncletopia"],"game_id":440,"stv_port":27086,"stv_name":"Uncletopia | London | 8 | Community | STV","players":null},{"server_id":300,"name":"Uncletopia | Montréal | 1 | All Maps","name_short":"mtl-1","host":"mtl-1.ca.uncletopia.com","port":27015,"enabled":true,"region":"us-east","cc":"ca","latitude":45.50889,"longitude":-73.56167,"reserved":0,"last_update":"0001-01-01T00:00:00Z","name_a2s":"Uncletopia | Montréal | 1 | All Maps","protocol":17,"map":"pl_pier","folder":"tf","game":"Team Fortress","app_id":440,"player_count":0,"max_players":24,"Bots":0,"server_type":"Dedicated","server_os":"Linux","password":true,"vac":true,"version":"7757534","steam_id":85568392924500087,"keywords":["nocrits","nodmgspread","payload","uncletopia"],"game_id":440,"stv_port":27016,"stv_name":"Uncletopia | Montréal | 1 | All Maps | STV","players":null},{"server_id":301,"name":"Uncletopia | Montréal | 2 | All Maps","name_short":"mtl-2","host":"mtl-1.ca.uncletopia.com","port":27025,"enabled":true,"region":"us-east","cc":"ca","latitude":45.50889,"longitude":-73.56167,"reserved":0,"last_update":"0001-01-01T00:00:00Z","name_a2s":"Uncletopia | Montréal | 2 | All Maps","protocol":17,"map":"koth_cascade","folder":"tf","game":"Team Fortress","app_id":440,"player_count":4,"max_players":24,"Bots":0,"server_type":"Dedicated","server_os":"Linux","password":true,"vac":true,"version":"7757534","steam_id":85568392924500088,"keywords":["cp","nocrits","nodmgspread","uncletopia"],"game_id":440,"stv_port":27026,"stv_name":"Uncletopia | Montréal | 2 | All Maps | STV","players":[{"user_id":241,"name":"pete_the_cat_2014","steam_id":76561198199266047,"connected_time":1660000000000,"state":"active","ping":45},{"user_id":245,"name":"weewa","steam_id":76561198064876090,"connected_time":1299000000000,"state":"active","ping":59},{"user_id":246,"name":"Captain Bug","steam_id":76561198137763878,"connected_time":1293000000000,"state":"active","ping":68},{"user_id":251,"name":"TwinAirplane959","steam_id":76561198866756840,"connected_time":58000000000,"state":"active","ping":106}]},{"server_id":302,"name":"Uncletopia | Montréal | 3 | All Maps","name_short":"mtl-3","host":"mtl-1.ca.uncletopia.com","port":27035,"enabled":true,"region":"us-east","cc":"ca","latitude":45.50889,"longitude":-73.56167,"reserved":0,"last_update":"0001-01-01T00:00:00Z","name_a2s":"Uncletopia | Montréal | 3 | All Maps","protocol":17,"map":"pl_snowycoast","folder":"tf","game":"Team Fortress","app_id":440,"player_count":0,"max_players":24,"Bots":0,"server_type":"Dedicated","server_os":"Linux","password":true,"vac":true,"version":"7757534","steam_id":85568392924500089,"keywords":["nocrits","nodmgspread","payload","uncletopia"],"game_id":440,"stv_port":27036,"stv_name":"Uncletopia | Montréal | 3 | All Maps | STV","players":null},{"server_id":303,"name":"Uncletopia | Montréal | 4 | No Payload","name_short":"mtl-4","host":"mtl-1.ca.uncletopia.com","port":27045,"enabled":true,"region":"us-east","cc":"ca","latitude":45.50889,"longitude":-73.56167,"reserved":0,"last_update":"0001-01-01T00:00:00Z","name_a2s":"Uncletopia | Montréal | 4 | No Payload","protocol":17,"map":"ctf_well","folder":"tf","game":"Team Fortress","app_id":440,"player_count":0,"max_players":24,"Bots":0,"server_type":"Dedicated","server_os":"Linux","password":true,"vac":true,"version":"7757534","steam_id":85568392924500090,"keywords":["ctf","nocrits","nodmgspread","uncletopia"],"game_id":440,"stv_port":27046,"stv_name":"Uncletopia | Montréal | 4 | No Payload | STV","players":null},{"server_id":13,"name":"Uncletopia | New York City | 1 | All Maps","name_short":"nyc-1","host":"nyc-1.us.uncletopia.com","port":27015,"enabled":true,"region":"us-east","cc":"us","latitude":40.73061,"longitude":-73.93524,"reserved":0,"last_update":"0001-01-01T00:00:00Z","name_a2s":"Uncletopia | New York City | 1 | All Maps","protocol":17,"map":"pl_borneo","folder":"tf","game":"Team Fortress","app_id":440,"player_count":24,"max_players":24,"Bots":0,"server_type":"Dedicated","server_os":"Linux","password":true,"vac":true,"version":"7757534","steam_id":85568392924469993,"keywords":["nocrits","nodmgspread","payload","uncletopia"],"game_id":440,"stv_port":27016,"stv_name":"Uncletopia | New York City | 1 | All Maps | STV","players":[{"user_id":629,"name":"Ricky Dicky Doo Dah Grimes","steam_id":76561198143221900,"connected_time":338000000000,"state":"active","ping":57},{"user_id":597,"name":"ticklemytush","steam_id":76561199206080182,"connected_time":2450000000000,"state":"active","ping":66},{"user_id":613,"name":"Reed.Dook","steam_id":76561198046625664,"connected_time":1902000000000,"state":"active","ping":69},{"user_id":617,"name":"cannibalistic rival archetype.","steam_id":76561198294013916,"connected_time":1160000000000,"state":"active","ping":42},{"user_id":598,"name":"canid","steam_id":76561198103496593,"connected_time":2410000000000,"state":"active","ping":62},{"user_id":532,"name":"Aegis","steam_id":76561198272052750,"connected_time":8753000000000,"state":"active","ping":61},{"user_id":622,"name":"The big broski","steam_id":76561198347675302,"connected_time":1065000000000,"state":"active","ping":93},{"user_id":599,"name":"cake","steam_id":76561198406252824,"connected_time":2408000000000,"state":"active","ping":121},{"user_id":609,"name":"st","steam_id":76561198173047169,"connected_time":2120000000000,"state":"active","ping":46},{"user_id":600,"name":"diabolical dipshit","steam_id":76561198273411260,"connected_time":2385000000000,"state":"active","ping":63},{"user_id":623,"name":"Larry Feinberg","steam_id":76561199215811448,"connected_time":1003000000000,"state":"active","ping":66},{"user_id":601,"name":"Nespreco","steam_id":76561198252035336,"connected_time":2358000000000,"state":"active","ping":44},{"user_id":615,"name":"Chicken Joe","steam_id":76561198278185182,"connected_time":1736000000000,"state":"active","ping":56},{"user_id":604,"name":"Auld","steam_id":76561198013180268,"connected_time":2312000000000,"state":"active","ping":124},{"user_id":484,"name":"cheers2x","steam_id":76561198366299848,"connected_time":13196000000000,"state":"active","ping":60},{"user_id":627,"name":"Wumps","steam_id":76561198207226825,"connected_time":574000000000,"state":"active","ping":73},{"user_id":591,"name":"ApertureCity","steam_id":76561198004153607,"connected_time":2909000000000,"state":"active","ping":69},{"user_id":624,"name":"Nixl","steam_id":76561198889717595,"connected_time":942000000000,"state":"active","ping":101},{"user_id":621,"name":"Gay Cowboy","steam_id":76561198151549658,"connected_time":1131000000000,"state":"active","ping":104},{"user_id":614,"name":"Tuchpi","steam_id":76561197967581205,"connected_time":1816000000000,"state":"active","ping":76},{"user_id":628,"name":"Jojō","steam_id":76561198864691307,"connected_time":458000000000,"state":"active","ping":71},{"user_id":606,"name":"Gilgamesh","steam_id":76561198317113179,"connected_time":2295000000000,"state":"active","ping":81},{"user_id":611,"name":"Lore","steam_id":76561198098407538,"connected_time":1959000000000,"state":"active","ping":60},{"user_id":630,"name":"WibbyOne","steam_id":76561198052843846,"connected_time":126000000000,"state":"active","ping":33}]},{"server_id":14,"name":"Uncletopia | New York City | 2 | All Maps","name_short":"nyc-2","host":"nyc-1.us.uncletopia.com","port":27025,"enabled":true,"region":"us-east","cc":"us","latitude":40.73061,"longitude":-73.93524,"reserved":0,"last_update":"0001-01-01T00:00:00Z","name_a2s":"Uncletopia | New York City | 2 | All Maps","protocol":17,"map":"pl_swiftwater_final1","folder":"tf","game":"Team Fortress","app_id":440,"player_count":24,"max_players":24,"Bots":0,"server_type":"Dedicated","server_os":"Linux","password":true,"vac":true,"version":"7757534","steam_id":85568392924469994,"keywords":["nocrits","nodmgspread","payload","uncletopia"],"game_id":440,"stv_port":27026,"stv_name":"Uncletopia | New York City | 2 | All Maps | STV","players":[{"user_id":902,"name":"Nerrrd_","steam_id":76561198870129960,"connected_time":4333000000000,"state":"active","ping":39},{"user_id":724,"name":"精液Blev Blev精液","steam_id":76561198208972565,"connected_time":17457000000000,"state":"active","ping":89},{"user_id":924,"name":"Fishman_200","steam_id":76561198152455167,"connected_time":3182000000000,"state":"active","ping":61},{"user_id":960,"name":"boop","steam_id":76561198043787598,"connected_time":312000000000,"state":"active","ping":43},{"user_id":942,"name":"super-oofio64","steam_id":76561198954052123,"connected_time":1699000000000,"state":"active","ping":160},{"user_id":856,"name":"Jin","steam_id":76561198119873148,"connected_time":7309000000000,"state":"active","ping":71},{"user_id":948,"name":"bojack from the show bojack hor","steam_id":76561198053006712,"connected_time":1539000000000,"state":"active","ping":42},{"user_id":933,"name":"Ferguson","steam_id":76561198121349387,"connected_time":2653000000000,"state":"active","ping":82},{"user_id":944,"name":"nutslicker","steam_id":76561197999663001,"connected_time":1671000000000,"state":"active","ping":83},{"user_id":953,"name":"Eden Hazard","steam_id":76561198089241053,"connected_time":873000000000,"state":"active","ping":42},{"user_id":954,"name":"American Gamer","steam_id":76561198142292188,"connected_time":872000000000,"state":"active","ping":80},{"user_id":955,"name":"Asanez3","steam_id":76561198037381436,"connected_time":834000000000,"state":"active","ping":60},{"user_id":940,"name":"Bronze Age Furvert","steam_id":76561198859118263,"connected_time":1739000000000,"state":"active","ping":82},{"user_id":958,"name":"如願","steam_id":76561198038486613,"connected_time":602000000000,"state":"active","ping":46},{"user_id":947,"name":"Squid","steam_id":76561198092753658,"connected_time":1630000000000,"state":"active","ping":97},{"user_id":959,"name":"Better Call Saul TF2 (Real)","steam_id":76561198347286009,"connected_time":489000000000,"state":"active","ping":59},{"user_id":897,"name":"Hell's Reindeer","steam_id":76561198065310364,"connected_time":4454000000000,"state":"active","ping":67},{"user_id":898,"name":"BrokeBack","steam_id":76561198053603531,"connected_time":4441000000000,"state":"active","ping":44},{"user_id":956,"name":"pg13","steam_id":76561198313032934,"connected_time":723000000000,"state":"active","ping":43},{"user_id":957,"name":"`o2","steam_id":76561197992030936,"connected_time":702000000000,"state":"active","ping":48},{"user_id":922,"name":"ndvr","steam_id":76561199379200102,"connected_time":3342000000000,"state":"active","ping":53},{"user_id":718,"name":"unsafequeen","steam_id":76561199088126900,"connected_time":17779000000000,"state":"active","ping":89},{"user_id":951,"name":"PJL725","steam_id":76561198241220274,"connected_time":962000000000,"state":"active","ping":69}]},{"server_id":15,"name":"Uncletopia | New York City | 3 | Stopwatch Beta","name_short":"nyc-3","host":"nyc-1.us.uncletopia.com","port":27035,"enabled":true,"region":"us-east","cc":"us","latitude":40.73061,"longitude":-73.93524,"reserved":0,"last_update":"0001-01-01T00:00:00Z","name_a2s":"Uncletopia | New York City | 3 | Stopwatch Beta","protocol":17,"map":"koth_highpass","folder":"tf","game":"Team Fortress","app_id":440,"player_count":7,"max_players":24,"Bots":0,"server_type":"Dedicated","server_os":"Linux","password":true,"vac":true,"version":"7757534","steam_id":85568392924742820,"keywords":["cp","nocrits","nodmgspread","uncletopia"],"game_id":440,"stv_port":27036,"stv_name":"Uncletopia | New York City | 3 | Stopwatch Beta | STV","players":[{"user_id":337,"name":"Kinnu","steam_id":76561198080091386,"connected_time":378000000000,"state":"active","ping":155},{"user_id":338,"name":"Mualeka","steam_id":76561198096711410,"connected_time":329000000000,"state":"active","ping":212},{"user_id":339,"name":"Super Nintendo Chalmers","steam_id":76561198119803015,"connected_time":300000000000,"state":"active","ping":177},{"user_id":322,"name":"Yume","steam_id":76561198018060136,"connected_time":1627000000000,"state":"active","ping":98},{"user_id":305,"name":"evdoke","steam_id":76561198044555219,"connected_time":2734000000000,"state":"active","ping":45},{"user_id":309,"name":"DaMultiversalist","steam_id":76561198239552412,"connected_time":2702000000000,"state":"active","ping":81},{"user_id":333,"name":"dysesthesia","steam_id":76561198027159018,"connected_time":793000000000,"state":"active","ping":93}]},{"server_id":16,"name":"Uncletopia | New York City | 4 | Community","name_short":"nyc-4","host":"nyc-1.us.uncletopia.com","port":27045,"enabled":true,"region":"us-east","cc":"us","latitude":40.73061,"longitude":-73.93524,"reserved":0,"last_update":"0001-01-01T00:00:00Z","name_a2s":"Uncletopia | New York City | 4 | Community","protocol":17,"map":"workshop/cp_glassworks_rc6a.ugc454118349","folder":"tf","game":"Team Fortress","app_id":440,"player_count":0,"max_players":24,"Bots":0,"server_type":"Dedicated","server_os":"Linux","password":true,"vac":true,"version":"7757534","steam_id":85568392924742821,"keywords":["cp","nocrits","nodmgspread","uncletopia"],"game_id":440,"stv_port":27046,"stv_name":"Uncletopia | New York City | 4 | Community | STV","players":null},{"server_id":142,"name":"Uncletopia | São Paulo | 1 | All Maps","name_short":"sao-1","host":"sao-1.br.uncletopia.com","port":27015,"enabled":true,"region":"sa","cc":"br","latitude":-23.533773,"longitude":-46.62529,"reserved":0,"last_update":"0001-01-01T00:00:00Z","name_a2s":"Uncletopia | São Paulo | 1 | All Maps","protocol":17,"map":"cp_sunshine","folder":"tf","game":"Team Fortress","app_id":440,"player_count":0,"max_players":24,"Bots":0,"server_type":"Dedicated","server_os":"Linux","password":true,"vac":true,"version":"7757534","steam_id":85568392924469996,"keywords":["cp","nocrits","nodmgspread","uncletopia"],"game_id":440,"stv_port":27016,"stv_name":"Uncletopia | São Paulo | 1 | All Maps | STV","players":null},{"server_id":143,"name":"Uncletopia | São Paulo | 2 | All Maps","name_short":"sao-2","host":"sao-2.br.uncletopia.com","port":27015,"enabled":true,"region":"sa","cc":"br","latitude":-23.533773,"longitude":-46.62529,"reserved":0,"last_update":"0001-01-01T00:00:00Z","name_a2s":"Uncletopia | São Paulo | 2 | All Maps","protocol":17,"map":"koth_highpass","folder":"tf","game":"Team Fortress","app_id":440,"player_count":0,"max_players":24,"Bots":0,"server_type":"Dedicated","server_os":"Linux","password":true,"vac":true,"version":"7757534","steam_id":85568392924485349,"keywords":["cp","nocrits","nodmgspread","uncletopia"],"game_id":440,"stv_port":27016,"stv_name":"Uncletopia | São Paulo | 2 | All Maps | STV","players":null},{"server_id":7,"name":"Uncletopia | Seattle | 1 | All Maps","name_short":"sea-1","host":"sea-1.us.uncletopia.com","port":27015,"enabled":true,"region":"us-west","cc":"us","latitude":47.608013,"longitude":-122.33517,"reserved":0,"last_update":"0001-01-01T00:00:00Z","name_a2s":"Uncletopia | Seattle | 1 | All Maps","protocol":17,"map":"pl_barnblitz","folder":"tf","game":"Team Fortress","app_id":440,"player_count":24,"max_players":24,"Bots":0,"server_type":"Dedicated","server_os":"Linux","password":true,"vac":true,"version":"7757534","steam_id":85568392924469997,"keywords":["nocrits","nodmgspread","payload","uncletopia"],"game_id":440,"stv_port":27016,"stv_name":"Uncletopia | Seattle | 1 | All Maps | STV","players":[{"user_id":616,"name":"Grammaring","steam_id":76561198867366139,"connected_time":1222000000000,"state":"active","ping":74},{"user_id":620,"name":"enzo gorlami","steam_id":76561198107941274,"connected_time":22000000000,"state":"active","ping":79},{"user_id":587,"name":"TROY","steam_id":76561197983852176,"connected_time":4040000000000,"state":"active","ping":74},{"user_id":561,"name":"Reb","steam_id":76561198144756713,"connected_time":5909000000000,"state":"active","ping":75},{"user_id":604,"name":"ikuyo","steam_id":76561198996950205,"connected_time":2453000000000,"state":"active","ping":68},{"user_id":570,"name":"BLU3","steam_id":76561198059652670,"connected_time":5773000000000,"state":"active","ping":46},{"user_id":619,"name":"stoned jester","steam_id":76561198079609974,"connected_time":114000000000,"state":"active","ping":75},{"user_id":584,"name":"Tom Skirrett","steam_id":76561198014600788,"connected_time":4075000000000,"state":"active","ping":71},{"user_id":578,"name":"Saikyo","steam_id":76561198212461467,"connected_time":4891000000000,"state":"active","ping":106},{"user_id":571,"name":"♥haunti","steam_id":76561199235580556,"connected_time":5568000000000,"state":"active","ping":45},{"user_id":612,"name":"Juuichi11","steam_id":76561198141955085,"connected_time":2266000000000,"state":"active","ping":45},{"user_id":588,"name":"toes","steam_id":76561198221151676,"connected_time":4033000000000,"state":"active","ping":59},{"user_id":556,"name":"ORANGE","steam_id":76561198000401769,"connected_time":6595000000000,"state":"active","ping":53},{"user_id":558,"name":"soda","steam_id":76561198105924953,"connected_time":6261000000000,"state":"active","ping":80},{"user_id":614,"name":"Skabbety","steam_id":76561198168044257,"connected_time":1339000000000,"state":"active","ping":35},{"user_id":594,"name":"Apollo","steam_id":76561198162364702,"connected_time":3132000000000,"state":"active","ping":45},{"user_id":586,"name":"mega","steam_id":76561198089520959,"connected_time":4058000000000,"state":"active","ping":98},{"user_id":611,"name":"Sniff","steam_id":76561198010270922,"connected_time":2280000000000,"state":"active","ping":43},{"user_id":579,"name":"bloodhail","steam_id":76561198121633820,"connected_time":4776000000000,"state":"active","ping":83},{"user_id":613,"name":"Thanks Ants","steam_id":76561197966221018,"connected_time":1677000000000,"state":"active","ping":55},{"user_id":581,"name":"Username","steam_id":76561198855586261,"connected_time":4270000000000,"state":"active","ping":64},{"user_id":606,"name":"Lochness_monster","steam_id":76561198417831973,"connected_time":2436000000000,"state":"active","ping":65},{"user_id":573,"name":"exephur","steam_id":76561198135763234,"connected_time":5177000000000,"state":"active","ping":65},{"user_id":608,"name":"Frodo T Baggins","steam_id":76561198048090297,"connected_time":2415000000000,"state":"active","ping":103}]},{"server_id":119,"name":"Uncletopia | Seattle | 2 | All Maps","name_short":"sea-2","host":"sea-1.us.uncletopia.com","port":27025,"enabled":true,"region":"us-west","cc":"us","latitude":47.608013,"longitude":-122.33517,"reserved":0,"last_update":"0001-01-01T00:00:00Z","name_a2s":"Uncletopia | Seattle | 2 | All Maps","protocol":17,"map":"pl_upward","folder":"tf","game":"Team Fortress","app_id":440,"player_count":24,"max_players":24,"Bots":0,"server_type":"Dedicated","server_os":"Linux","password":true,"vac":true,"version":"7757534","steam_id":85568392924469998,"keywords":["nocrits","nodmgspread","payload","uncletopia"],"game_id":440,"stv_port":27026,"stv_name":"Uncletopia | Seattle | 2 | All Maps | STV","players":[{"user_id":720,"name":"I deepfried my penis","steam_id":76561198848858223,"connected_time":1782000000000,"state":"active","ping":46},{"user_id":733,"name":"Autism the clown","steam_id":76561198973190030,"connected_time":335000000000,"state":"active","ping":113},{"user_id":728,"name":"The_Skull_boy","steam_id":76561198227692664,"connected_time":970000000000,"state":"active","ping":94},{"user_id":727,"name":"DoctorHa","steam_id":76561198044026008,"connected_time":1099000000000,"state":"active","ping":93},{"user_id":738,"name":"Lonlily","steam_id":76561198130418647,"connected_time":169000000000,"state":"active","ping":84},{"user_id":736,"name":"lonelyRsn","steam_id":76561198071285078,"connected_time":176000000000,"state":"active","ping":85},{"user_id":659,"name":"aoka","steam_id":76561198838294547,"connected_time":5692000000000,"state":"active","ping":87},{"user_id":740,"name":"Psychromaniac","steam_id":76561198012215214,"connected_time":132000000000,"state":"active","ping":57},{"user_id":737,"name":"Sinn","steam_id":76561199013434543,"connected_time":170000000000,"state":"active","ping":70},{"user_id":700,"name":"Strikerbolt","steam_id":76561199095622897,"connected_time":3221000000000,"state":"active","ping":75},{"user_id":741,"name":"ts","steam_id":76561198119826352,"connected_time":124000000000,"state":"active","ping":97},{"user_id":712,"name":"Piro_agua","steam_id":76561199041880779,"connected_time":2540000000000,"state":"active","ping":48},{"user_id":742,"name":"chilis baby back ribs","steam_id":76561198813516435,"connected_time":124000000000,"state":"active","ping":70},{"user_id":730,"name":"R5-D4","steam_id":76561198025196439,"connected_time":452000000000,"state":"active","ping":57},{"user_id":735,"name":"Your kinky Onee-san","steam_id":76561199146582356,"connected_time":239000000000,"state":"active","ping":63},{"user_id":706,"name":"Mr.Chuckles","steam_id":76561198012038520,"connected_time":2961000000000,"state":"active","ping":56},{"user_id":713,"name":"SanitysEdge","steam_id":76561198130732813,"connected_time":2485000000000,"state":"active","ping":72},{"user_id":743,"name":"Rude Dog","steam_id":76561197980385816,"connected_time":121000000000,"state":"active","ping":54},{"user_id":739,"name":"Lunk Alarm","steam_id":76561198055480452,"connected_time":168000000000,"state":"active","ping":66},{"user_id":710,"name":"Rat","steam_id":76561198330059340,"connected_time":2715000000000,"state":"active","ping":62},{"user_id":732,"name":"KitofKats","steam_id":76561198137242573,"connected_time":389000000000,"state":"active","ping":57},{"user_id":724,"name":"JON","steam_id":76561198057971005,"connected_time":1347000000000,"state":"active","ping":40},{"user_id":744,"name":"trackpad gaming | f2p","steam_id":76561198840414371,"connected_time":119000000000,"state":"active","ping":53},{"user_id":734,"name":"Dosario","steam_id":76561198298095535,"connected_time":321000000000,"state":"active","ping":69}]},{"server_id":406,"name":"Uncletopia | Seattle | 3 | Stopwatch Beta","name_short":"sea-3","host":"sea-1.us.uncletopia.com","port":27035,"enabled":true,"region":"us-west","cc":"us","latitude":47.608013,"longitude":-122.33517,"reserved":0,"last_update":"0001-01-01T00:00:00Z","name_a2s":"Uncletopia | Seattle | 3 | Stopwatch Beta","protocol":17,"map":"workshop/pl_badwater_pro_v12.ugc2142942074","folder":"tf","game":"Team Fortress","app_id":440,"player_count":0,"max_players":24,"Bots":0,"server_type":"Dedicated","server_os":"Linux","password":true,"vac":true,"version":"7757534","steam_id":85568392924515217,"keywords":["nocrits","nodmgspread","payload","uncletopia"],"game_id":440,"stv_port":27036,"stv_name":"Uncletopia | Seattle | 3 | Stopwatch Beta | STV","players":null},{"server_id":17,"name":"Uncletopia | San Francisco | 1 | All Maps","name_short":"sfo-1","host":"sfo-1.us.uncletopia.com","port":27015,"enabled":true,"region":"us-west","cc":"us","latitude":37.77397,"longitude":-122.4313,"reserved":0,"last_update":"0001-01-01T00:00:00Z","name_a2s":"Uncletopia | San Francisco | 1 | All Maps","protocol":17,"map":"koth_nucleus","folder":"tf","game":"Team Fortress","app_id":440,"player_count":20,"max_players":24,"Bots":0,"server_type":"Dedicated","server_os":"Linux","password":true,"vac":true,"version":"7757534","steam_id":85568392924469999,"keywords":["cp","nocrits","nodmgspread","uncletopia"],"game_id":440,"stv_port":27016,"stv_name":"Uncletopia | San Francisco | 1 | All Maps | STV","players":[{"user_id":346,"name":"blue_tristan03","steam_id":76561199468377688,"connected_time":919000000000,"state":"active","ping":47},{"user_id":348,"name":"great1photo","steam_id":76561198085481933,"connected_time":746000000000,"state":"active","ping":130},{"user_id":349,"name":"DustyPinhead","steam_id":76561198022228156,"connected_time":679000000000,"state":"active","ping":80},{"user_id":350,"name":"Surfing Garchomp","steam_id":76561199107236884,"connected_time":503000000000,"state":"active","ping":83},{"user_id":362,"name":"Chad the Sex Haver","steam_id":76561198058236528,"connected_time":181000000000,"state":"active","ping":60},{"user_id":352,"name":"GRAPE","steam_id":76561198150447896,"connected_time":491000000000,"state":"active","ping":59},{"user_id":344,"name":"DJ Sheeve","steam_id":76561198095910139,"connected_time":1188000000000,"state":"active","ping":114},{"user_id":353,"name":"A Streetcar Named McQueen","steam_id":76561198162903805,"connected_time":488000000000,"state":"active","ping":38},{"user_id":318,"name":"Literally Roxy's Wife Tsuyu","steam_id":76561198175421763,"connected_time":2693000000000,"state":"active","ping":108},{"user_id":358,"name":"evil jesus 05","steam_id":76561198419315893,"connected_time":313000000000,"state":"active","ping":60},{"user_id":366,"name":"TrinnerToast","steam_id":76561199026887450,"connected_time":9000000000,"state":"spawning","ping":54},{"user_id":365,"name":"Yosh","steam_id":76561198027078899,"connected_time":53000000000,"state":"active","ping":91},{"user_id":313,"name":"Green_GarBear","steam_id":76561199468912415,"connected_time":2795000000000,"state":"active","ping":54},{"user_id":357,"name":"rE_d0","steam_id":76561198975450630,"connected_time":354000000000,"state":"active","ping":65},{"user_id":359,"name":"Jack","steam_id":76561199135213338,"connected_time":257000000000,"state":"active","ping":74},{"user_id":257,"name":"Amogous Supreme","steam_id":76561198025476774,"connected_time":7331000000000,"state":"active","ping":54},{"user_id":360,"name":"Crafty","steam_id":76561199217624073,"connected_time":250000000000,"state":"active","ping":55},{"user_id":361,"name":"pt","steam_id":76561198143023330,"connected_time":234000000000,"state":"active","ping":49},{"user_id":363,"name":"prd2srv1","steam_id":76561198332791822,"connected_time":164000000000,"state":"active","ping":52},{"user_id":364,"name":"steb","steam_id":76561198089217389,"connected_time":122000000000,"state":"active","ping":93}]},{"server_id":18,"name":"Uncletopia | San Francisco | 2 | All Maps","name_short":"sfo-2","host":"sfo-1.us.uncletopia.com","port":27025,"enabled":true,"region":"us-west","cc":"us","latitude":37.77397,"longitude":-122.4313,"reserved":0,"last_update":"0001-01-01T00:00:00Z","name_a2s":"Uncletopia | San Francisco | 2 | All Maps","protocol":17,"map":"pl_borneo","folder":"tf","game":"Team Fortress","app_id":440,"player_count":24,"max_players":24,"Bots":0,"server_type":"Dedicated","server_os":"Linux","password":true,"vac":true,"version":"7757534","steam_id":85568392924470000,"keywords":["nocrits","nodmgspread","payload","uncletopia"],"game_id":440,"stv_port":27026,"stv_name":"Uncletopia | San Francisco | 2 | All Maps | STV","players":[{"user_id":469,"name":"Woodstock","steam_id":76561198041442667,"connected_time":564000000000,"state":"active","ping":63},{"user_id":432,"name":"FauxSho' ʕ '•' ʔ","steam_id":76561197988233611,"connected_time":2507000000000,"state":"active","ping":97},{"user_id":433,"name":"Valkyrie","steam_id":76561198057725176,"connected_time":2501000000000,"state":"active","ping":92},{"user_id":458,"name":"WrongKeyo360","steam_id":76561198346752693,"connected_time":1217000000000,"state":"active","ping":142},{"user_id":457,"name":"Escher","steam_id":76561198045058061,"connected_time":1265000000000,"state":"active","ping":60},{"user_id":428,"name":"Crab Shack #savetf2","steam_id":76561198187973071,"connected_time":2938000000000,"state":"active","ping":121},{"user_id":467,"name":"dinocoder","steam_id":76561198311038263,"connected_time":588000000000,"state":"active","ping":46},{"user_id":459,"name":"Lemonade Juice","steam_id":76561198402892608,"connected_time":1064000000000,"state":"active","ping":47},{"user_id":435,"name":"Farmaloo","steam_id":76561198220618020,"connected_time":2486000000000,"state":"active","ping":101},{"user_id":436,"name":"MRVN","steam_id":76561199103120314,"connected_time":2476000000000,"state":"active","ping":68},{"user_id":419,"name":"cactus eater","steam_id":76561199107499844,"connected_time":3480000000000,"state":"active","ping":72},{"user_id":473,"name":"slowdance","steam_id":76561198097427947,"connected_time":306000000000,"state":"active","ping":364},{"user_id":475,"name":"Vladimir Chirgin","steam_id":76561198170035235,"connected_time":120000000000,"state":"active","ping":89},{"user_id":393,"name":"A Shiny Meat Bicycle","steam_id":76561198358757709,"connected_time":6084000000000,"state":"active","ping":126},{"user_id":460,"name":"Aiko","steam_id":76561198262395873,"connected_time":992000000000,"state":"active","ping":64},{"user_id":313,"name":"t","steam_id":76561198175988929,"connected_time":10878000000000,"state":"active","ping":75},{"user_id":461,"name":"vanillain","steam_id":76561198058617608,"connected_time":977000000000,"state":"active","ping":63},{"user_id":429,"name":"wormhole unboxing video","steam_id":76561198318881968,"connected_time":2932000000000,"state":"active","ping":75},{"user_id":476,"name":"selvhat","steam_id":76561198114225509,"connected_time":106000000000,"state":"active","ping":59},{"user_id":468,"name":"dust | she/it","steam_id":76561198045218909,"connected_time":583000000000,"state":"active","ping":61},{"user_id":463,"name":"NOOT","steam_id":76561199060432770,"connected_time":723000000000,"state":"active","ping":59},{"user_id":471,"name":"_Meme","steam_id":76561199125571082,"connected_time":525000000000,"state":"active","ping":80},{"user_id":474,"name":"Deathkillsme","steam_id":76561198059468746,"connected_time":306000000000,"state":"active","ping":53},{"user_id":478,"name":"Project_Counter","steam_id":76561198152786076,"connected_time":90000000000,"state":"active","ping":89}]},{"server_id":19,"name":"Uncletopia | San Francisco | 3 | Stopwatch Beta","name_short":"sfo-3","host":"sfo-1.us.uncletopia.com","port":27035,"enabled":true,"region":"us-west","cc":"us","latitude":37.77397,"longitude":-122.4313,"reserved":0,"last_update":"0001-01-01T00:00:00Z","name_a2s":"Uncletopia | San Francisco | 3 | Stopwatch Beta","protocol":17,"map":"workshop/cp_process_f12.ugc2302948105","folder":"tf","game":"Team Fortress","app_id":440,"player_count":17,"max_players":24,"Bots":0,"server_type":"Dedicated","server_os":"Linux","password":true,"vac":true,"version":"7757534","steam_id":85568392924742824,"keywords":["cp","nocrits","nodmgspread","uncletopia"],"game_id":440,"stv_port":27036,"stv_name":"Uncletopia | San Francisco | 3 | Stopwatch Beta | STV","players":[{"user_id":229,"name":"Clumsy","steam_id":76561198056345245,"connected_time":3631000000000,"state":"active","ping":97},{"user_id":282,"name":"chaychaypae","steam_id":76561198357563566,"connected_time":402000000000,"state":"active","ping":102},{"user_id":267,"name":"Camohno","steam_id":76561198283519918,"connected_time":1449000000000,"state":"active","ping":54},{"user_id":268,"name":"Recreation Start of a 54","steam_id":76561198220582011,"connected_time":1411000000000,"state":"active","ping":66},{"user_id":281,"name":"Escapist Robot","steam_id":76561198121501913,"connected_time":478000000000,"state":"active","ping":60},{"user_id":286,"name":"MrLeftTurn","steam_id":76561198856743969,"connected_time":76000000000,"state":"active","ping":102},{"user_id":266,"name":"SolarusD","steam_id":76561198029279861,"connected_time":1740000000000,"state":"active","ping":43},{"user_id":269,"name":"big fish","steam_id":76561198186479818,"connected_time":1296000000000,"state":"active","ping":68},{"user_id":287,"name":"Grizzakk","steam_id":76561198115821923,"connected_time":10000000000,"state":"spawning","ping":116},{"user_id":262,"name":"Hindmost","steam_id":76561199081837220,"connected_time":1933000000000,"state":"active","ping":110},{"user_id":279,"name":"Lambchop","steam_id":76561198043900363,"connected_time":552000000000,"state":"active","ping":60},{"user_id":211,"name":".Cassius.","steam_id":76561199181383832,"connected_time":4332000000000,"state":"active","ping":109},{"user_id":272,"name":"MR MODE","steam_id":76561198046775352,"connected_time":1228000000000,"state":"active","ping":46},{"user_id":216,"name":"Ghwhaine","steam_id":76561199045414702,"connected_time":4064000000000,"state":"active","ping":116},{"user_id":264,"name":"Rubberbandinho","steam_id":76561198012188197,"connected_time":1876000000000,"state":"active","ping":75},{"user_id":284,"name":"awesomebrololo","steam_id":76561198374283489,"connected_time":395000000000,"state":"active","ping":101},{"user_id":278,"name":"John Wick's puppy","steam_id":76561198064662875,"connected_time":846000000000,"state":"active","ping":53}]},{"server_id":20,"name":"Uncletopia | San Francisco | 4 | Community","name_short":"sfo-4","host":"sfo-1.us.uncletopia.com","port":27045,"enabled":true,"region":"us-west","cc":"us","latitude":37.77397,"longitude":-122.4313,"reserved":0,"last_update":"0001-01-01T00:00:00Z","name_a2s":"Uncletopia | San Francisco | 4 | Community","protocol":17,"map":"workshop/pl_barnblitz_pro7.ugc582280235","folder":"tf","game":"Team Fortress","app_id":440,"player_count":0,"max_players":24,"Bots":0,"server_type":"Dedicated","server_os":"Linux","password":true,"vac":true,"version":"7757534","steam_id":85568392924742826,"keywords":["nocrits","nodmgspread","payload","uncletopia"],"game_id":440,"stv_port":27046,"stv_name":"Uncletopia | San Francisco | 4 | Community | STV","players":null},{"server_id":141,"name":"Uncletopia | Sydney | 1 | All Maps","name_short":"syd-1","host":"syd-1.au.uncletopia.com","port":27015,"enabled":true,"region":"au","cc":"au","latitude":-33.865143,"longitude":151.2099,"reserved":0,"last_update":"0001-01-01T00:00:00Z","name_a2s":"Uncletopia | Sydney | 1 | All Maps","protocol":17,"map":"pl_borneo","folder":"tf","game":"Team Fortress","app_id":440,"player_count":24,"max_players":24,"Bots":0,"server_type":"Dedicated","server_os":"Linux","password":true,"vac":true,"version":"7757534","steam_id":85568392924470001,"keywords":["nocrits","nodmgspread","payload","uncletopia"],"game_id":440,"stv_port":27016,"stv_name":"Uncletopia | Sydney | 1 | All Maps | STV","players":[{"user_id":464,"name":"whiteshaq","steam_id":76561198131988811,"connected_time":1048000000000,"state":"active","ping":48},{"user_id":462,"name":"HeyHeyItsGreyGrey","steam_id":76561198047955263,"connected_time":1083000000000,"state":"active","ping":68},{"user_id":459,"name":"Grazer","steam_id":76561198024446790,"connected_time":1097000000000,"state":"active","ping":62},{"user_id":349,"name":"itsjustmarvin77","steam_id":76561199375656301,"connected_time":5952000000000,"state":"active","ping":73},{"user_id":406,"name":"frog","steam_id":76561198300661780,"connected_time":4314000000000,"state":"active","ping":40},{"user_id":465,"name":"Mr Doctor","steam_id":76561198081415999,"connected_time":1029000000000,"state":"active","ping":68},{"user_id":457,"name":"Consolidated Fart","steam_id":76561198924101909,"connected_time":1639000000000,"state":"active","ping":64},{"user_id":439,"name":"WOLHAIKSONG","steam_id":76561198025225448,"connected_time":2501000000000,"state":"active","ping":77},{"user_id":336,"name":"YeahJJ","steam_id":76561198838332365,"connected_time":6718000000000,"state":"active","ping":81},{"user_id":470,"name":"Sherpa","steam_id":76561198018913829,"connected_time":713000000000,"state":"active","ping":52},{"user_id":446,"name":"Pug","steam_id":76561198136794372,"connected_time":2318000000000,"state":"active","ping":52},{"user_id":454,"name":"GreyTheWolf","steam_id":76561198275621886,"connected_time":1778000000000,"state":"active","ping":63},{"user_id":456,"name":"Ganome Chilled","steam_id":76561198064898965,"connected_time":1702000000000,"state":"active","ping":76},{"user_id":460,"name":"Lord Oink","steam_id":76561198125237921,"connected_time":1092000000000,"state":"active","ping":42},{"user_id":471,"name":"Sparky","steam_id":76561198117687688,"connected_time":490000000000,"state":"active","ping":66},{"user_id":436,"name":"brownie","steam_id":76561198814158355,"connected_time":2555000000000,"state":"active","ping":54},{"user_id":449,"name":"Genuline","steam_id":76561198126426787,"connected_time":2100000000000,"state":"active","ping":47},{"user_id":461,"name":"1000000KM² OF SEA ICE #GLOBAL","steam_id":76561198836003115,"connected_time":1090000000000,"state":"active","ping":65},{"user_id":467,"name":"soupy","steam_id":76561198073734936,"connected_time":918000000000,"state":"active","ping":85},{"user_id":451,"name":"blazin_kermit420","steam_id":76561198436397483,"connected_time":1925000000000,"state":"active","ping":33},{"user_id":413,"name":"P","steam_id":76561198304514505,"connected_time":3968000000000,"state":"active","ping":178},{"user_id":469,"name":"gus","steam_id":76561198970613466,"connected_time":752000000000,"state":"active","ping":44},{"user_id":458,"name":"medic bot","steam_id":76561199046481213,"connected_time":1624000000000,"state":"active","ping":68},{"user_id":383,"name":"Zort","steam_id":76561198056414289,"connected_time":5021000000000,"state":"active","ping":71}]},{"server_id":123,"name":"Uncletopia | Sydney | 2 | All Maps","name_short":"syd-2","host":"syd-1.au.uncletopia.com","port":27025,"enabled":true,"region":"au","cc":"au","latitude":-33.865143,"longitude":151.2099,"reserved":0,"last_update":"0001-01-01T00:00:00Z","name_a2s":"Uncletopia | Sydney | 2 | All Maps","protocol":17,"map":"pl_frontier_final","folder":"tf","game":"Team Fortress","app_id":440,"player_count":0,"max_players":24,"Bots":0,"server_type":"Dedicated","server_os":"Linux","password":true,"vac":true,"version":"7757534","steam_id":85568392924470002,"keywords":["nocrits","nodmgspread","payload","uncletopia"],"game_id":440,"stv_port":27026,"stv_name":"Uncletopia | Sydney | 2 | All Maps | STV","players":null},{"server_id":395,"name":"Uncletopia | Sydney | 3 | All Maps","name_short":"syd-3","host":"syd-1.au.uncletopia.com","port":27035,"enabled":true,"region":"au","cc":"au","latitude":-33.865143,"longitude":151.2099,"reserved":0,"last_update":"0001-01-01T00:00:00Z","name_a2s":"Uncletopia | Sydney | 3 | All Maps","protocol":17,"map":"pl_pier","folder":"tf","game":"Team Fortress","app_id":440,"player_count":0,"max_players":24,"Bots":0,"server_type":"Dedicated","server_os":"Linux","password":true,"vac":true,"version":"7757534","steam_id":85568392925194467,"keywords":["nocrits","nodmgspread","payload","uncletopia"],"game_id":440,"stv_port":27036,"stv_name":"Uncletopia | Sydney | 3 | All Maps | STV","players":null},{"server_id":396,"name":"Uncletopia | Sydney | 4 | All Maps","name_short":"syd-4","host":"syd-1.au.uncletopia.com","port":27045,"enabled":true,"region":"au","cc":"au","latitude":-33.865143,"longitude":151.2099,"reserved":0,"last_update":"0001-01-01T00:00:00Z","name_a2s":"Uncletopia | Sydney | 4 | All Maps","protocol":17,"map":"koth_highpass","folder":"tf","game":"Team Fortress","app_id":440,"player_count":0,"max_players":24,"Bots":0,"server_type":"Dedicated","server_os":"Linux","password":true,"vac":true,"version":"7757534","steam_id":85568392925397958,"keywords":["cp","nocrits","nodmgspread","uncletopia"],"game_id":440,"stv_port":27046,"stv_name":"Uncletopia | Sydney | 4 | All Maps | STV","players":null},{"server_id":58,"name":"Uncletopia | Sydney | 5 | Stopwatch Beta","name_short":"syd-5","host":"syd-1.au.uncletopia.com","port":27055,"enabled":true,"region":"au","cc":"au","latitude":-33.865143,"longitude":151.2099,"reserved":0,"last_update":"0001-01-01T00:00:00Z","name_a2s":"Uncletopia | Sydney | 5 | Stopwatch Beta","protocol":17,"map":"workshop/koth_product_final.ugc454272353","folder":"tf","game":"Team Fortress","app_id":440,"player_count":0,"max_players":24,"Bots":0,"server_type":"Dedicated","server_os":"Linux","password":true,"vac":true,"version":"7757534","steam_id":85568392925397959,"keywords":["cp","nocrits","nodmgspread","uncletopia"],"game_id":440,"stv_port":27056,"stv_name":"Uncletopia | Sydney | 5 | Stopwatch Beta | STV","players":null},{"server_id":59,"name":"Uncletopia | Sydney | 6 | Community","name_short":"syd-6","host":"syd-1.au.uncletopia.com","port":27065,"enabled":true,"region":"au","cc":"au","latitude":-33.865143,"longitude":151.2099,"reserved":0,"last_update":"0001-01-01T00:00:00Z","name_a2s":"Uncletopia | Sydney | 6 | Community","protocol":17,"map":"workshop/pl_emerge_rc2.ugc888027758","folder":"tf","game":"Team Fortress","app_id":440,"player_count":0,"max_players":24,"Bots":0,"server_type":"Dedicated","server_os":"Linux","password":true,"vac":true,"version":"7757534","steam_id":85568392925397960,"keywords":["nocrits","nodmgspread","payload","uncletopia"],"game_id":440,"stv_port":27066,"stv_name":"Uncletopia | Sydney | 6 | Community | STV","players":null},{"server_id":49,"name":"Uncletopia | Warsaw | 1 | All Maps","name_short":"waw-1","host":"waw-1.pl.uncletopia.com","port":27015,"enabled":true,"region":"eu","cc":"pl","latitude":52.2297,"longitude":21.017532,"reserved":0,"last_update":"0001-01-01T00:00:00Z","name_a2s":"","protocol":0,"map":"","folder":"","game":"","app_id":0,"player_count":0,"max_players":0,"Bots":0,"server_type":"","server_os":"","password":false,"vac":false,"version":"","steam_id":0,"keywords":null,"game_id":0,"stv_port":0,"stv_name":"","players":null},{"server_id":50,"name":"Uncletopia | Warsaw | 2 | All Maps","name_short":"waw-2","host":"waw-1.pl.uncletopia.com","port":27025,"enabled":true,"region":"eu","cc":"pl","latitude":52.2297,"longitude":21.017532,"reserved":0,"last_update":"0001-01-01T00:00:00Z","name_a2s":"Uncletopia | Warsaw | 2 | All Maps","protocol":17,"map":"koth_viaduct","folder":"tf","game":"Team Fortress","app_id":440,"player_count":0,"max_players":24,"Bots":0,"server_type":"Dedicated","server_os":"Linux","password":true,"vac":true,"version":"7757534","steam_id":85568392925397851,"keywords":["cp","nocrits","nodmgspread","uncletopia"],"game_id":440,"stv_port":27026,"stv_name":"Uncletopia | Warsaw | 2 | All Maps | STV","players":null},{"server_id":51,"name":"Uncletopia | Warsaw | 3 | All Maps","name_short":"waw-3","host":"waw-1.pl.uncletopia.com","port":27035,"enabled":true,"region":"eu","cc":"pl","latitude":52.2297,"longitude":21.017532,"reserved":0,"last_update":"0001-01-01T00:00:00Z","name_a2s":"Uncletopia | Warsaw | 3 | All Maps","protocol":17,"map":"pl_barnblitz","folder":"tf","game":"Team Fortress","app_id":440,"player_count":0,"max_players":24,"Bots":0,"server_type":"Dedicated","server_os":"Linux","password":true,"vac":true,"version":"7757534","steam_id":85568392925397852,"keywords":["nocrits","nodmgspread","payload","uncletopia"],"game_id":440,"stv_port":27036,"stv_name":"Uncletopia | Warsaw | 3 | All Maps | STV","players":null},{"server_id":52,"name":"Uncletopia | Warsaw | 4 | All Maps","name_short":"waw-4","host":"waw-1.pl.uncletopia.com","port":27045,"enabled":true,"region":"eu","cc":"pl","latitude":52.2297,"longitude":21.017532,"reserved":0,"last_update":"0001-01-01T00:00:00Z","name_a2s":"Uncletopia | Warsaw | 4 | All Maps","protocol":17,"map":"koth_lakeside_final","folder":"tf","game":"Team Fortress","app_id":440,"player_count":0,"max_players":24,"Bots":0,"server_type":"Dedicated","server_os":"Linux","password":true,"vac":true,"version":"7757534","steam_id":85568392925397853,"keywords":["cp","nocrits","nodmgspread","uncletopia"],"game_id":440,"stv_port":27046,"stv_name":"Uncletopia | Warsaw | 4 | All Maps | STV","players":null},{"server_id":53,"name":"Uncletopia | Warsaw | 5 | Stopwatch Beta","name_short":"waw-5","host":"waw-1.pl.uncletopia.com","port":27055,"enabled":true,"region":"eu","cc":"pl","latitude":52.2297,"longitude":21.017532,"reserved":0,"last_update":"0001-01-01T00:00:00Z","name_a2s":"Uncletopia | Warsaw | 5 | Stopwatch Beta","protocol":17,"map":"pl_borneo","folder":"tf","game":"Team Fortress","app_id":440,"player_count":0,"max_players":24,"Bots":0,"server_type":"Dedicated","server_os":"Linux","password":true,"vac":true,"version":"7757534","steam_id":85568392925397854,"keywords":["nocrits","nodmgspread","payload","uncletopia"],"game_id":440,"stv_port":27056,"stv_name":"Uncletopia | Warsaw | 5 | Stopwatch Beta | STV","players":null},{"server_id":54,"name":"Uncletopia | Warsaw | 6 | Community","name_short":"waw-6","host":"waw-1.pl.uncletopia.com","port":27065,"enabled":true,"region":"eu","cc":"pl","latitude":52.2297,"longitude":21.017532,"reserved":0,"last_update":"0001-01-01T00:00:00Z","name_a2s":"Uncletopia | Warsaw | 6 | Community","protocol":17,"map":"koth_lakeside_final","folder":"tf","game":"Team Fortress","app_id":440,"player_count":0,"max_players":24,"Bots":0,"server_type":"Dedicated","server_os":"Linux","password":true,"vac":true,"version":"7757534","steam_id":85568392925397856,"keywords":["cp","nocrits","nodmgspread","uncletopia"],"game_id":440,"stv_port":27066,"stv_name":"Uncletopia | Warsaw | 6 | Community | STV","players":null}]}