{"status":true,"message":"","result":[{"server_id":9,"name":"Uncletopia | Atlanta | 1 | All Maps","name_short":"atl-1","host":"atl-1.us.uncletopia.com","port":27015,"enabled":true,"region":"us-east","cc":"us","latitude":33.753746,"longitude":-84.38633,"reserved":0,"last_update":"0001-01-01T00:00:00Z","name_a2s":"Uncletopia | Atlanta | 1 | All Maps","protocol":17,"map":"pl_barnblitz","folder":"tf","game":"Team Fortress","app_id":440,"player_count":21,"max_players":24,"Bots":0,"server_type":"Dedicated","server_os":"Linux","password":true,"vac":true,"version":"7961495","steam_id":85568392924469982,"keywords":["nocrits","nodmgspread","payload","uncletopia"],"game_id":440,"stv_port":27016,"stv_name":"Uncletopia | Atlanta | 1 | All Maps | STV","players":null},{"server_id":104,"name":"Uncletopia | Atlanta | 2 | All Maps","name_short":"atl-2","host":"atl-1.us.uncletopia.com","port":27025,"enabled":true,"region":"us-east","cc":"us","latitude":33.753746,"longitude":-84.38633,"reserved":0,"last_update":"0001-01-01T00:00:00Z","name_a2s":"Uncletopia | Atlanta | 2 | All Maps","protocol":17,"map":"cp_altitude","folder":"tf","game":"Team Fortress","app_id":440,"player_count":0,"max_players":24,"Bots":0,"server_type":"Dedicated","server_os":"Linux","password":true,"vac":true,"version":"7961495","steam_id":85568392924469983,"keywords":["cp","nocrits","nodmgspread","uncletopia"],"game_id":440,"stv_port":27026,"stv_name":"Uncletopia | Atlanta | 2 | All Maps | STV","players":null},{"server_id":400,"name":"Uncletopia | Atlanta | 3 | Stopwatch","name_short":"atl-3","host":"atl-1.us.uncletopia.com","port":27035,"enabled":true,"region":"us-east","cc":"us","latitude":33.753746,"longitude":-84.38633,"reserved":0,"last_update":"0001-01-01T00:00:00Z","name_a2s":"Uncletopia | Atlanta | 3 | Stopwatch","protocol":17,"map":"koth_ashville_final","folder":"tf","game":"Team Fortress","app_id":440,"player_count":0,"max_players":24,"Bots":0,"server_type":"Dedicated","server_os":"Linux","password":true,"vac":true,"version":"7961495","steam_id":85568392924515187,"keywords":["cp","nocrits","nodmgspread","uncletopia"],"game_id":440,"stv_port":27036,"stv_name":"Uncletopia | Atlanta | 3 | Stopwatch | STV","players":null},{"server_id":401,"name":"Uncletopia | Atlanta | 4 | Community","name_short":"atl-4","host":"atl-1.us.uncletopia.com","port":27045,"enabled":true,"region":"us-east","cc":"us","latitude":33.753746,"longitude":-84.38633,"reserved":0,"last_update":"0001-01-01T00:00:00Z","name_a2s":"Uncletopia | Atlanta | 4 | Community","protocol":17,"map":"cp_overgrown_rc8","folder":"tf","game":"Team Fortress","app_id":440,"player_count":4,"max_players":24,"Bots":0,"server_type":"Dedicated","server_os":"Linux","password":true,"vac":true,"version":"7961495","steam_id":85568392924515188,"keywords":["cp","nocrits","nodmgspread","uncletopia"],"game_id":440,"stv_port":27046,"stv_name":"Uncletopia | Atlanta | 4 | Community | STV","players":null},{"server_id":2,"name":"Uncletopia | Chicago | 1 | All Maps","name_short":"chi-1","host":"chi-1.us.uncletopia.com","port":27015,"enabled":true,"region":"us-central","cc":"us","latitude":41.881832,"longitude":-87.62318,"reserved":0,"last_update":"0001-01-01T00:00:00Z","name_a2s":"Uncletopia | Chicago | 1 | All Maps","protocol":17,"map":"cp_dustbowl","folder":"tf","game":"Team Fortress","app_id":440,"player_count":24,"max_players":24,"Bots":0,"server_type":"Dedicated","server_os":"Linux","password":true,"vac":true,"version":"7961495","steam_id":85568392924469984,"keywords":["cp","nocrits","nodmgspread","uncletopia"],"game_id":440,"stv_port":27016,"stv_name":"Uncletopia | Chicago | 1 | All Maps | STV","players":[{"user_id":267,"name":"Dips","steam_id":76561198251975850,"connected_time":1496000000000,"state":"active","ping":88},{"user_id":255,"name":"Dokkibai","steam_id":76561198355935693,"connected_time":2462000000000,"state":"active","ping":49},{"user_id":288,"name":"Boneless Blithen","steam_id":76561197989955619,"connected_time":447000000000,"state":"active","ping":114},{"user_id":266,"name":"Astoriae!","steam_id":76561199090168858,"connected_time":1541000000000,"state":"active","ping":73},{"user_id":283,"name":"Gregory","steam_id":76561199070901945,"connected_time":828000000000,"state":"active","ping":82},{"user_id":275,"name":"henrat4","steam_id":76561199131516758,"connected_time":966000000000,"state":"active","ping":144},{"user_id":265,"name":"THORNFIELDGAMER","steam_id":76561199087167473,"connected_time":1670000000000,"state":"active","ping":82},{"user_id":300,"name":"Notsocreative","steam_id":76561198236372202,"connected_time":19000000000,"state":"active","ping":75},{"user_id":294,"name":"i am one in a krillion","steam_id":76561198204995668,"connected_time":352000000000,"state":"active","ping":79},{"user_id":245,"name":"Fushiguro Fan Club","steam_id":76561198106381764,"connected_time":2711000000000,"state":"active","ping":57},{"user_id":260,"name":"Jerry Bondle","steam_id":76561198337512213,"connected_time":1944000000000,"state":"active","ping":66},{"user_id":281,"name":"Boxpipe","steam_id":76561197964501915,"connected_time":834000000000,"state":"active","ping":45},{"user_id":235,"name":"Terry Crews from Brooklyn 99","steam_id":76561198357806819,"connected_time":3917000000000,"state":"active","ping":80},{"user_id":295,"name":"Mario","steam_id":76561198321794277,"connected_time":331000000000,"state":"active","ping":70},{"user_id":292,"name":"Clean Lines","steam_id":76561197960691518,"connected_time":419000000000,"state":"active","ping":55},{"user_id":277,"name":"tlar","steam_id":76561198060117460,"connected_time":958000000000,"state":"active","ping":62},{"user_id":273,"name":"Drooop","steam_id":76561198856700517,"connected_time":1023000000000,"state":"active","ping":82},{"user_id":296,"name":"‡∏∏","steam_id":76561198170624701,"connected_time":327000000000,"state":"active","ping":75},{"user_id":171,"name":"bachira meguru fan club","steam_id":76561198079178866,"connected_time":8131000000000,"state":"active","ping":68},{"user_id":279,"name":"Mox Nix","steam_id":76561198978778718,"connected_time":934000000000,"state":"active","ping":139},{"user_id":285,"name":"Dirtbike rider","steam_id":76561198030457066,"connected_time":701000000000,"state":"active","ping":89},{"user_id":282,"name":"4 life","steam_id":76561198175961598,"connected_time":833000000000,"state":"active","ping":112},{"user_id":297,"name":"bootyrash","steam_id":76561198164114737,"connected_time":281000000000,"state":"active","ping":63},{"user_id":299,"name":"fish","steam_id":76561199116725301,"connected_time":69000000000,"state":"active","ping":115}]},{"server_id":106,"name":"Uncletopia | Chicago | 2 | All Maps","name_short":"chi-2","host":"chi-1.us.uncletopia.com","port":27025,"enabled":true,"region":"us-central","cc":"us","latitude":41.881832,"longitude":-87.62318,"reserved":0,"last_update":"0001-01-01T00:00:00Z","name_a2s":"Uncletopia | Chicago | 2 | All Maps","protocol":17,"map":"pl_pier","folder":"tf","game":"Team Fortress","app_id":440,"player_count":24,"max_players":24,"Bots":0,"server_type":"Dedicated","server_os":"Linux","password":true,"vac":true,"version":"7961495","steam_id":85568392924469985,"keywords":["nocrits","nodmgspread","payload","uncletopia"],"game_id":440,"stv_port":27026,"stv_name":"Uncletopia | Chicago | 2 | All Maps | STV","players":[{"user_id":217,"name":"BOB","steam_id":76561198000787196,"connected_time":1850000000000,"state":"active","ping":145},{"user_id":220,"name":"neet","steam_id":76561197968115168,"connected_time":1141000000000,"state":"active","ping":53},{"user_id":232,"name":"diarrhea al fresco","steam_id":76561198073269122,"connected_time":618000000000,"state":"active","ping":60},{"user_id":221,"name":"Mom","steam_id":76561198207936000,"connected_time":1109000000000,"state":"active","ping":90},{"user_id":196,"name":"22moo","steam_id":76561199075331630,"connected_time":3122000000000,"state":"active","ping":70},{"user_id":198,"name":"Kiril","steam_id":76561198051433762,"connected_time":3099000000000,"state":"active","ping":145},{"user_id":235,"name":"joebot","steam_id":76561197975606100,"connected_time":154000000000,"state":"active","ping":66},{"user_id":207,"name":"Leonardo DiCaprio","steam_id":76561198121886765,"connected_time":2679000000000,"state":"active","ping":56},{"user_id":200,"name":"the zoo","steam_id":76561198013732450,"connected_time":3091000000000,"state":"active","ping":57},{"user_id":222,"name":"Kapreesi","steam_id":76561198163361200,"connected_time":1108000000000,"state":"active","ping":62},{"user_id":224,"name":"meo ‚ô•","steam_id":76561197992719272,"connected_time":1094000000000,"state":"active","ping":49},{"user_id":209,"name":"Femboy Medic Main","steam_id":76561198268225109,"connected_time":2376000000000,"state":"active","ping":87},{"user_id":201,"name":"FireQuiz","steam_id":76561198107357249,"connected_time":3074000000000,"state":"active","ping":100},{"user_id":225,"name":"bingus :3","steam_id":76561199198633203,"connected_time":1078000000000,"state":"active","ping":99},{"user_id":208,"name":"kite","steam_id":76561198346516392,"connected_time":2554000000000,"state":"active","ping":66},{"user_id":227,"name":"bonk man","steam_id":76561198386542309,"connected_time":1071000000000,"state":"active","ping":96},{"user_id":228,"name":"BlueSceptile","steam_id":76561198303151606,"connected_time":1070000000000,"state":"active","ping":87},{"user_id":206,"name":"Mr. Tickle","steam_id":76561198126684647,"connected_time":2982000000000,"state":"active","ping":60},{"user_id":230,"name":"Iced Mustard","steam_id":76561198025407368,"connected_time":869000000000,"state":"active","ping":88},{"user_id":166,"name":"subdromeda","steam_id":76561198884351860,"connected_time":6653000000000,"state":"active","ping":63},{"user_id":231,"name":"Crimson","steam_id":76561198129326627,"connected_time":666000000000,"state":"active","ping":77},{"user_id":204,"name":"Telushealth","steam_id":76561199422760247,"connected_time":3053000000000,"state":"active","ping":93},{"user_id":234,"name":"battle clown","steam_id":76561198045788371,"connected_time":417000000000,"state":"active","ping":73},{"user_id":180,"name":"NvAka","steam_id":76561199044781490,"connected_time":5276000000000,"state":"active","ping":78}]},{"server_id":402,"name":"Uncletopia | Chicago | 3 | All Maps","name_short":"chi-3","host":"chi-1.us.uncletopia.com","port":27035,"enabled":true,"region":"us-central","cc":"us","latitude":41.881832,"longitude":-87.62318,"reserved":0,"last_update":"0001-01-01T00:00:00Z","name_a2s":"Uncletopia | Chicago | 3 | All Maps","protocol":17,"map":"cp_altitude","folder":"tf","game":"Team Fortress","app_id":440,"player_count":22,"max_players":24,"Bots":0,"server_type":"Dedicated","server_os":"Linux","password":true,"vac":true,"version":"7961495","steam_id":85568392924515191,"keywords":["cp","nocrits","nodmgspread","uncletopia"],"game_id":440,"stv_port":27036,"stv_name":"Uncletopia | Chicago | 3 | All Maps | STV","players":[{"user_id":114,"name":"Tav, Devourer of Cheeks","steam_id":76561198021688160,"connected_time":1381000000000,"state":"active","ping":74},{"user_id":106,"name":"mount meverest","steam_id":76561198025681784,"connected_time":1841000000000,"state":"active","ping":67},{"user_id":139,"name":"cozy","steam_id":76561199044037628,"connected_time":348000000000,"state":"active","ping":59},{"user_id":140,"name":"Seattle McDebt","steam_id":76561198061383193,"connected_time":334000000000,"state":"active","ping":49},{"user_id":141,"name":"Speed Mockingbird","steam_id":76561198218283363,"connected_time":311000000000,"state":"active","ping":99},{"user_id":136,"name":"Kaboom280","steam_id":76561199123072187,"connected_time":528000000000,"state":"active","ping":113},{"user_id":142,"name":"trobin120","steam_id":76561199122420273,"connected_time":248000000000,"state":"active","ping":80},{"user_id":124,"name":"conner","steam_id":76561198052911241,"connected_time":1183000000000,"state":"active","ping":72},{"user_id":117,"name":"elephantofdoom","steam_id":76561198062436835,"connected_time":1347000000000,"state":"active","ping":59},{"user_id":137,"name":"Trigger!","steam_id":76561198061514186,"connected_time":446000000000,"state":"active","ping":87},{"user_id":101,"name":"who is gavin?","steam_id":76561198069415057,"connected_time":2148000000000,"state":"active","ping":69},{"user_id":63,"name":"2Tired2p1 (LGBTQIA+ rights)","steam_id":76561198800432095,"connected_time":4267000000000,"state":"active","ping":82},{"user_id":143,"name":"THE ULTIMATE JOHN","steam_id":76561199082758073,"connected_time":177000000000,"state":"active","ping":47},{"user_id":133,"name":"|WS| Don't_Taze_Me_Bro","steam_id":76561198043289495,"connected_time":1058000000000,"state":"active","ping":72},{"user_id":119,"name":"WuZhuangTai2012","steam_id":76561198385802290,"connected_time":1312000000000,"state":"active","ping":45},{"user_id":145,"name":"ATL1_Lav4ie_She/They","steam_id":76561198825997674,"connected_time":140000000000,"state":"active","ping":72},{"user_id":146,"name":"bobbymcbobington","steam_id":76561199089411172,"connected_time":112000000000,"state":"active","ping":116},{"user_id":125,"name":"rickyrickyricky","steam_id":76561198041765918,"connected_time":1176000000000,"state":"active","ping":80},{"user_id":148,"name":"Toasty","steam_id":76561199498088524,"connected_time":87000000000,"state":"active","ping":92},{"user_id":129,"name":"FilipinoEnjoyer","steam_id":76561198992055739,"connected_time":1134000000000,"state":"active","ping":71},{"user_id":105,"name":"-Avh-","steam_id":76561198087593160,"connected_time":2077000000000,"state":"active","ping":72},{"user_id":134,"name":"Sistav","steam_id":76561198365065223,"connected_time":1025000000000,"state":"active","ping":45}]},{"server_id":403,"name":"Uncletopia | Chicago | 4 | All Maps","name_short":"chi-4","host":"chi-1.us.uncletopia.com","port":27045,"enabled":true,"region":"us-central","cc":"us","latitude":41.881832,"longitude":-87.62318,"reserved":0,"last_update":"0001-01-01T00:00:00Z","name_a2s":"Uncletopia | Chicago | 4 | All Maps","protocol":17,"map":"pl_upward","folder":"tf","game":"Team Fortress","app_id":440,"player_count":24,"max_players":24,"Bots":0,"server_type":"Dedicated","server_os":"Linux","password":true,"vac":true,"version":"7961495","steam_id":85568392924515193,"keywords":["nocrits","nodmgspread","payload","uncletopia"],"game_id":440,"stv_port":27046,"stv_name":"Uncletopia | Chicago | 4 | All Maps | STV","players":[{"user_id":291,"name":"PTR","steam_id":76561198237253772,"connected_time":1396000000000,"state":"active","ping":66},{"user_id":274,"name":"Bobby Ray","steam_id":76561198044131188,"connected_time":2561000000000,"state":"active","ping":79},{"user_id":289,"name":"Hazeyboi","steam_id":76561198130687838,"connected_time":1423000000000,"state":"active","ping":44},{"user_id":268,"name":"Javaris Jamar Javarison-Lamar","steam_id":76561197974907012,"connected_time":2745000000000,"state":"active","ping":78},{"user_id":286,"name":"Shoeshocker","steam_id":76561198174302467,"connected_time":1681000000000,"state":"active","ping":70},{"user_id":296,"name":"Siz","steam_id":76561198072962154,"connected_time":1119000000000,"state":"active","ping":75},{"user_id":279,"name":"Astrocards","steam_id":76561199184079830,"connected_time":2263000000000,"state":"active","ping":74},{"user_id":228,"name":"ApertureCity","steam_id":76561198004153607,"connected_time":5917000000000,"state":"active","ping":83},{"user_id":269,"name":"speedy","steam_id":76561197974493959,"connected_time":2705000000000,"state":"active","ping":70},{"user_id":299,"name":"thecal","steam_id":76561198307893384,"connected_time":269000000000,"state":"active","ping":51},{"user_id":282,"name":"Koishi","steam_id":76561198054541054,"connected_time":1853000000000,"state":"active","ping":54},{"user_id":290,"name":"DerpyNate","steam_id":76561198100249037,"connected_time":1409000000000,"state":"active","ping":39},{"user_id":271,"name":"Tupac Shakur","steam_id":76561198247651486,"connected_time":2693000000000,"state":"active","ping":59},{"user_id":219,"name":"Dr.Zarann","steam_id":76561198163952958,"connected_time":7408000000000,"state":"active","ping":73},{"user_id":249,"name":"SpiritGaming4Life","steam_id":76561198799411351,"connected_time":5103000000000,"state":"active","ping":104},{"user_id":275,"name":"Soap","steam_id":76561197994893383,"connected_time":2423000000000,"state":"active","ping":72},{"user_id":297,"name":"ATL1 | to4st","steam_id":76561198981009008,"connected_time":1077000000000,"state":"active","ping":48},{"user_id":300,"name":"Octopixel","steam_id":76561198346310753,"connected_time":111000000000,"state":"active","ping":171},{"user_id":276,"name":"Slip","steam_id":76561199057232579,"connected_time":2403000000000,"state":"active","ping":58},{"user_id":281,"name":"V3l0c1r4pt0r","steam_id":76561198295713840,"connected_time":1925000000000,"state":"active","ping":65},{"user_id":292,"name":"friend","steam_id":76561198004481006,"connected_time":1386000000000,"state":"active","ping":104},{"user_id":298,"name":"Buckeye","steam_id":76561198314410228,"connected_time":952000000000,"state":"active","ping":57},{"user_id":280,"name":"Avo","steam_id":76561197993340494,"connected_time":1927000000000,"state":"active","ping":62},{"user_id":253,"name":"Mage","steam_id":76561198285026879,"connected_time":4385000000000,"state":"active","ping":84}]},{"server_id":36,"name":"Uncletopia | Chicago | 5 | All Maps","name_short":"chi-5","host":"chi-2.us.uncletopia.com","port":27015,"enabled":true,"region":"us-central","cc":"us","latitude":41.881832,"longitude":-87.62318,"reserved":0,"last_update":"0001-01-01T00:00:00Z","name_a2s":"Uncletopia | Chicago | 5 | All Maps","protocol":17,"map":"cp_sunshine","folder":"tf","game":"Team Fortress","app_id":440,"player_count":21,"max_players":24,"Bots":0,"server_type":"Dedicated","server_os":"Linux","password":true,"vac":true,"version":"7961495","steam_id":85568392924866362,"keywords":["cp","nocrits","nodmgspread","uncletopia"],"game_id":440,"stv_port":27016,"stv_name":"Uncletopia | Chicago | 5 | All Maps | STV","players":[{"user_id":110,"name":"winning","steam_id":76561198003206947,"connected_time":4100000000000,"state":"active","ping":60},{"user_id":170,"name":"Winter the Witchie","steam_id":76561198151971178,"connected_time":1095000000000,"state":"active","ping":53},{"user_id":193,"name":"jebs strognest soljer","steam_id":76561198056622157,"connected_time":160000000000,"state":"active","ping":61},{"user_id":175,"name":"BOUZENZEL","steam_id":76561198095000722,"connected_time":828000000000,"state":"active","ping":60},{"user_id":197,"name":"poopybutt420","steam_id":76561199000805315,"connected_time":63000000000,"state":"active","ping":160},{"user_id":198,"name":"atlas","steam_id":76561198398383076,"connected_time":61000000000,"state":"active","ping":81},{"user_id":173,"name":"Smams","steam_id":76561198262368084,"connected_time":986000000000,"state":"active","ping":122},{"user_id":59,"name":"Drawing Tablet","steam_id":76561198079101911,"connected_time":8493000000000,"state":"active","ping":59},{"user_id":177,"name":"All Tomorrow's Parties","steam_id":76561197995936212,"connected_time":755000000000,"state":"active","ping":58},{"user_id":187,"name":"Gluppo","steam_id":76561198060016004,"connected_time":433000000000,"state":"active","ping":83},{"user_id":189,"name":"Busness_pig","steam_id":76561199244823990,"connected_time":348000000000,"state":"active","ping":68},{"user_id":203,"name":"Jimmy McGill","steam_id":76561198135137213,"connected_time":10000000000,"state":"spawning","ping":55},{"user_id":200,"name":"heck","steam_id":76561198308547958,"connected_time":39000000000,"state":"active","ping":514},{"user_id":181,"name":"Aeris","steam_id":76561198287271028,"connected_time":646000000000,"state":"active","ping":57},{"user_id":194,"name":"LilBruh","steam_id":76561198444876052,"connected_time":155000000000,"state":"active","ping":73},{"user_id":191,"name":"The local hobo","steam_id":76561198289650060,"connected_time":279000000000,"state":"active","ping":91},{"user_id":202,"name":"dark souls boss","steam_id":76561198316610724,"connected_time":12000000000,"state":"spawning","ping":82},{"user_id":204,"name":"tree (brass beast collector)","steam_id":76561198826751536,"connected_time":3000000000,"state":"spawning","ping":69},{"user_id":185,"name":"carrot cake","steam_id":76561198055174915,"connected_time":529000000000,"state":"active","ping":70},{"user_id":205,"name":"Deeply","steam_id":76561199000786530,"connected_time":2000000000,"state":"spawning","ping":77},{"user_id":186,"name":"menace","steam_id":76561198319142233,"connected_time":516000000000,"state":"active","ping":45}]},{"server_id":37,"name":"Uncletopia | Chicago | 6 | All Maps","name_short":"chi-6","host":"chi-2.us.uncletopia.com","port":27025,"enabled":true,"region":"us-central","cc":"us","latitude":41.881832,"longitude":-87.62318,"reserved":0,"last_update":"0001-01-01T00:00:00Z","name_a2s":"Uncletopia | Chicago | 6 | All Maps","protocol":17,"map":"pl_barnblitz","folder":"tf","game":"Team Fortress","app_id":440,"player_count":24,"max_players":24,"Bots":0,"server_type":"Dedicated","server_os":"Linux","password":true,"vac":true,"version":"7961495","steam_id":85568392924866363,"keywords":["nocrits","nodmgspread","payload","uncletopia"],"game_id":440,"stv_port":27026,"stv_name":"Uncletopia | Chicago | 6 | All Maps | STV","players":[{"user_id":84,"name":"Ellis McGruber","steam_id":76561198060739536,"connected_time":623000000000,"state":"active","ping":68},{"user_id":95,"name":"lily","steam_id":76561198420237035,"connected_time":8000000000,"state":"spawning","ping":148},{"user_id":85,"name":"ZeeKThe3rd","steam_id":76561198190156546,"connected_time":552000000000,"state":"active","ping":97},{"user_id":83,"name":"Bobby Dazzler È≠îÈêò","steam_id":76561198007405067,"connected_time":656000000000,"state":"active","ping":45},{"user_id":86,"name":"Willy","steam_id":76561198046508940,"connected_time":509000000000,"state":"active","ping":74},{"user_id":80,"name":"drwwby","steam_id":76561198067741339,"connected_time":1075000000000,"state":"active","ping":57},{"user_id":94,"name":"Anxiety.mov","steam_id":76561198028145216,"connected_time":130000000000,"state":"active","ping":54},{"user_id":74,"name":"hud_saytext_time 0","steam_id":76561198010327228,"connected_time":1867000000000,"state":"active","ping":168},{"user_id":76,"name":"CHIEF_JUSTICE_FUCKASS","steam_id":76561199261675844,"connected_time":1806000000000,"state":"active","ping":104},{"user_id":87,"name":"gravity bong","steam_id":76561198211062267,"connected_time":491000000000,"state":"active","ping":84},{"user_id":93,"name":"aurro","steam_id":76561198315692300,"connected_time":145000000000,"state":"active","ping":57},{"user_id":57,"name":"BIgboy535","steam_id":76561198798967935,"connected_time":2472000000000,"state":"active","ping":96},{"user_id":56,"name":"h","steam_id":76561199052840531,"connected_time":2530000000000,"state":"active","ping":59},{"user_id":92,"name":"Jerk Tryhard (roleplay)","steam_id":76561199470538309,"connected_time":288000000000,"state":"active","ping":60},{"user_id":89,"name":"pabbott123110","steam_id":76561199231739796,"connected_time":462000000000,"state":"active","ping":90},{"user_id":26,"name":"slowdance","steam_id":76561198097427947,"connected_time":3792000000000,"state":"active","ping":207},{"user_id":49,"name":"The Organ Collector","steam_id":76561198815656851,"connected_time":2799000000000,"state":"active","ping":83},{"user_id":90,"name":"UwU","steam_id":76561198971629959,"connected_time":462000000000,"state":"active","ping":138},{"user_id":63,"name":"Crusade","steam_id":76561199192979051,"connected_time":2259000000000,"state":"active","ping":88},{"user_id":73,"name":"corned beef","steam_id":76561199366782761,"connected_time":1957000000000,"state":"active","ping":167},{"user_id":91,"name":"Garlic Galore","steam_id":76561198065961163,"connected_time":460000000000,"state":"active","ping":77},{"user_id":78,"name":"Waesel","steam_id":76561198069188177,"connected_time":1589000000000,"state":"active","ping":70},{"user_id":64,"name":"9gon S4lt","steam_id":76561198116645978,"connected_time":2255000000000,"state":"active","ping":54},{"user_id":65,"name":"9gon Danmar33","steam_id":76561198056453091,"connected_time":2251000000000,"state":"active","ping":59}]},{"server_id":38,"name":"Uncletopia | Chicago | 7 | Stopwatch","name_short":"chi-7","host":"chi-2.us.uncletopia.com","port":27035,"enabled":true,"region":"us-central","cc":"us","latitude":41.881832,"longitude":-87.62318,"reserved":0,"last_update":"0001-01-01T00:00:00Z","name_a2s":"Uncletopia | Chicago | 7 | Stopwatch","protocol":17,"map":"cp_snakewater_final1","folder":"tf","game":"Team Fortress","app_id":440,"player_count":0,"max_players":24,"Bots":0,"server_type":"Dedicated","server_os":"Linux","password":true,"vac":true,"version":"7961495","steam_id":85568392924866364,"keywords":["cp","nocrits","nodmgspread","uncletopia"],"game_id":440,"stv_port":27036,"stv_name":"Uncletopia | Chicago | 7 | Stopwatch | STV","players":null},{"server_id":39,"name":"Uncletopia | Chicago | 8 | Community","name_short":"chi-8","host":"chi-2.us.uncletopia.com","port":27045,"enabled":true,"region":"us-central","cc":"us","latitude":41.881832,"longitude":-87.62318,"reserved":0,"last_update":"0001-01-01T00:00:00Z","name_a2s":"Uncletopia | Chicago | 8 | Community","protocol":17,"map":"workshop/koth_product_final.ugc454272353","folder":"tf","game":"Team Fortress","app_id":440,"player_count":0,"max_players":24,"Bots":0,"server_type":"Dedicated","server_os":"Linux","password":true,"vac":true,"version":"7961495","steam_id":85568392924866365,"keywords":["cp","nocrits","nodmgspread","uncletopia"],"game_id":440,"stv_port":27046,"stv_name":"Uncletopia | Chicago | 8 | Community | STV","players":null},{"server_id":8,"name":"Uncletopia | Dallas | 1 | All Maps","name_short":"dal-1","host":"dal-1.us.uncletopia.com","port":27015,"enabled":true,"region":"us-central","cc":"us","latitude":32.779167,"longitude":-96.80889,"reserved":0,"last_update":"0001-01-01T00:00:00Z","name_a2s":"Uncletopia | Dallas | 1 | All Maps","protocol":17,"map":"pl_badwater","folder":"tf","game":"Team Fortress","app_id":440,"player_count":24,"max_players":24,"Bots":0,"server_type":"Dedicated","server_os":"Linux","password":true,"vac":true,"version":"7961495","steam_id":85568392924469986,"keywords":["nocrits","nodmgspread","payload","uncletopia"],"game_id":440,"stv_port":27016,"stv_name":"Uncletopia | Dallas | 1 | All Maps | STV","players":[{"user_id":178,"name":"Captain Underbelly","steam_id":76561198811270935,"connected_time":678000000000,"state":"active","ping":97},{"user_id":162,"name":"U„Éªx„ÉªU","steam_id":76561198309876224,"connected_time":2068000000000,"state":"active","ping":44},{"user_id":186,"name":"Sexual Villain","steam_id":76561198106217716,"connected_time":41000000000,"state":"active","ping":54},{"user_id":117,"name":"banana gaming","steam_id":76561198334907218,"connected_time":6981000000000,"state":"active","ping":59},{"user_id":177,"name":"Genius Meme","steam_id":76561198162911254,"connected_time":904000000000,"state":"active","ping":89},{"user_id":180,"name":"sunglasses","steam_id":76561198173747227,"connected_time":626000000000,"state":"active","ping":94},{"user_id":148,"name":"Mr. Whiter","steam_id":76561198427659275,"connected_time":3654000000000,"state":"active","ping":98},{"user_id":181,"name":"purple diesel","steam_id":76561197976548449,"connected_time":612000000000,"state":"active","ping":85},{"user_id":168,"name":"corn","steam_id":76561199489247622,"connected_time":1963000000000,"state":"active","ping":58},{"user_id":176,"name":"owl","steam_id":76561198088403016,"connected_time":1030000000000,"state":"active","ping":167},{"user_id":147,"name":"C Papi","steam_id":76561198027779564,"connected_time":3654000000000,"state":"active","ping":60},{"user_id":185,"name":"hue","steam_id":76561198009694550,"connected_time":477000000000,"state":"active","ping":74},{"user_id":174,"name":"Giselle","steam_id":76561198162593640,"connected_time":1409000000000,"state":"active","ping":106},{"user_id":149,"name":"awawa oyoyo awawa oyoyo","steam_id":76561198062263639,"connected_time":3648000000000,"state":"active","ping":56},{"user_id":135,"name":"Maurdakar","steam_id":76561197983420976,"connected_time":5068000000000,"state":"active","ping":100},{"user_id":183,"name":"Bombsgamer","steam_id":76561198350009050,"connected_time":602000000000,"state":"active","ping":87},{"user_id":166,"name":"Ginnunga","steam_id":76561198000320083,"connected_time":2032000000000,"state":"active","ping":84},{"user_id":173,"name":"Unethical Worm","steam_id":76561197998121744,"connected_time":1499000000000,"state":"active","ping":58},{"user_id":130,"name":"Lolxdloldx","steam_id":76561198136887125,"connected_time":5433000000000,"state":"active","ping":105},{"user_id":118,"name":"JoJo Jumpscare","steam_id":76561199010304135,"connected_time":6800000000000,"state":"active","ping":57},{"user_id":187,"name":"frenemy","steam_id":76561198011363677,"connected_time":10000000000,"state":"spawning","ping":60},{"user_id":128,"name":"River Rat","steam_id":76561198116383976,"connected_time":5615000000000,"state":"active","ping":123},{"user_id":175,"name":"Captain Buggy","steam_id":76561198024444448,"connected_time":1307000000000,"state":"active","ping":105},{"user_id":170,"name":"Darling","steam_id":76561198127525888,"connected_time":1934000000000,"state":"active","ping":48}]},{"server_id":108,"name":"Uncletopia | Dallas | 2 | All Maps","name_short":"dal-2","host":"dal-1.us.uncletopia.com","port":27025,"enabled":true,"region":"us-central","cc":"us","latitude":32.779167,"longitude":-96.80889,"reserved":0,"last_update":"0001-01-01T00:00:00Z","name_a2s":"Uncletopia | Dallas | 2 | All Maps","protocol":17,"map":"koth_lakeside_final","folder":"tf","game":"Team Fortress","app_id":440,"player_count":24,"max_players":24,"Bots":0,"server_type":"Dedicated","server_os":"Linux","password":true,"vac":true,"version":"7961495","steam_id":85568392924469988,"keywords":["cp","nocrits","nodmgspread","uncletopia"],"game_id":440,"stv_port":27026,"stv_name":"Uncletopia | Dallas | 2 | All Maps | STV","players":[{"user_id":174,"name":"b0urbaki7","steam_id":76561198141342345,"connected_time":466000000000,"state":"active","ping":90},{"user_id":175,"name":"z_blues","steam_id":76561198303296267,"connected_time":433000000000,"state":"active","ping":83},{"user_id":173,"name":"Anonymoose","steam_id":76561198862312405,"connected_time":486000000000,"state":"active","ping":72},{"user_id":164,"name":"Bippums","steam_id":76561198366406729,"connected_time":1627000000000,"state":"active","ping":78},{"user_id":181,"name":"Degree","steam_id":76561198059812393,"connected_time":136000000000,"state":"active","ping":94},{"user_id":171,"name":"HAHAHAHA!!!","steam_id":76561199208835578,"connected_time":980000000000,"state":"active","ping":106},{"user_id":149,"name":"The Pencil Cunts","steam_id":76561198272606252,"connected_time":2208000000000,"state":"active","ping":36},{"user_id":185,"name":"Socks","steam_id":76561198188021354,"connected_time":66000000000,"state":"active","ping":85},{"user_id":148,"name":"Whompert","steam_id":76561198042939624,"connected_time":2257000000000,"state":"active","ping":96},{"user_id":176,"name":"peachy","steam_id":76561199148597957,"connected_time":432000000000,"state":"active","ping":81},{"user_id":186,"name":"iamtheSpicer","steam_id":76561198263557044,"connected_time":46000000000,"state":"active","ping":91},{"user_id":183,"name":"TortiseWizard96","steam_id":76561199499535363,"connected_time":97000000000,"state":"active","ping":112},{"user_id":163,"name":"nonagon infinity","steam_id":76561198397662124,"connected_time":1636000000000,"state":"active","ping":63},{"user_id":154,"name":"HumbDoe","steam_id":76561198065556553,"connected_time":1922000000000,"state":"active","ping":85},{"user_id":167,"name":"California Police Department","steam_id":76561199071151136,"connected_time":1438000000000,"state":"active","ping":73},{"user_id":177,"name":"K2f","steam_id":76561198049600563,"connected_time":418000000000,"state":"active","ping":72},{"user_id":140,"name":"smooth brain","steam_id":76561198049253541,"connected_time":2477000000000,"state":"active","ping":71},{"user_id":179,"name":"MayKaye","steam_id":76561199016092265,"connected_time":245000000000,"state":"active","ping":79},{"user_id":180,"name":"darkelaine227","steam_id":76561198097330521,"connected_time":185000000000,"state":"active","ping":130},{"user_id":104,"name":"Siren","steam_id":76561198047395823,"connected_time":4404000000000,"state":"active","ping":75},{"user_id":187,"name":"SmokeyGalaxy","steam_id":76561198118780516,"connected_time":42000000000,"state":"spawning","ping":76},{"user_id":182,"name":"Type Three Dabeetus","steam_id":76561198062710038,"connected_time":125000000000,"state":"active","ping":80},{"user_id":184,"name":"LingLengLong","steam_id":76561198871835267,"connected_time":97000000000,"state":"active","ping":45},{"user_id":188,"name":"beats I'll do it over again","steam_id":76561199245717718,"connected_time":21000000000,"state":"active","ping":82}]},{"server_id":404,"name":"Uncletopia | Dallas | 3 | All Maps","name_short":"dal-3","host":"dal-1.us.uncletopia.com","port":27035,"enabled":true,"region":"us-central","cc":"us","latitude":32.779167,"longitude":-96.80889,"reserved":0,"last_update":"0001-01-01T00:00:00Z","name_a2s":"Uncletopia | Dallas | 3 | All Maps","protocol":17,"map":"koth_badlands","folder":"tf","game":"Team Fortress","app_id":440,"player_count":0,"max_players":24,"Bots":0,"server_type":"Dedicated","server_os":"Linux","password":true,"vac":true,"version":"7961495","steam_id":85568392924515219,"keywords":["cp","nocrits","nodmgspread","uncletopia"],"game_id":440,"stv_port":27036,"stv_name":"Uncletopia | Dallas | 3 | All Maps | STV","players":null},{"server_id":405,"name":"Uncletopia | Dallas | 4 | Community","name_short":"dal-4","host":"dal-1.us.uncletopia.com","port":27045,"enabled":true,"region":"us-central","cc":"us","latitude":32.779167,"longitude":-96.80889,"reserved":0,"last_update":"0001-01-01T00:00:00Z","name_a2s":"Uncletopia | Dallas | 4 | Community","protocol":17,"map":"workshop/rd_asteroid_redux_b1.ugc2154902912","folder":"tf","game":"Team Fortress","app_id":440,"player_count":0,"max_players":24,"Bots":0,"server_type":"Dedicated","server_os":"Linux","password":true,"vac":true,"version":"7961495","steam_id":85568392924515220,"keywords":["beta","nocrits","nodmgspread","rd","uncletopia"],"game_id":440,"stv_port":27046,"stv_name":"Uncletopia | Dallas | 4 | Community | STV","players":null},{"server_id":5,"name":"Uncletopia | Frankfurt | 1 | All Maps","name_short":"frk-1","host":"frk-1.de.uncletopia.com","port":27015,"enabled":true,"region":"eu","cc":"de","latitude":50.110924,"longitude":8.682127,"reserved":0,"last_update":"0001-01-01T00:00:00Z","name_a2s":"Uncletopia | Frankfurt | 1 | All Maps","protocol":17,"map":"pl_swiftwater_final1","folder":"tf","game":"Team Fortress","app_id":440,"player_count":24,"max_players":24,"Bots":0,"server_type":"Dedicated","server_os":"Linux","password":true,"vac":true,"version":"7961495","steam_id":85568392924469989,"keywords":["nocrits","nodmgspread","payload","uncletopia"],"game_id":440,"stv_port":27016,"stv_name":"Uncletopia | Frankfurt | 1 | All Maps | STV","players":[{"user_id":394,"name":"WrathNSpeed","steam_id":76561198390944504,"connected_time":664000000000,"state":"active","ping":100},{"user_id":398,"name":"gaming (official)","steam_id":76561198106012909,"connected_time":474000000000,"state":"active","ping":66},{"user_id":363,"name":"KaiserinoPeperinio","steam_id":76561198017683850,"connected_time":2689000000000,"state":"active","ping":72},{"user_id":382,"name":"Taconice","steam_id":76561198057812100,"connected_time":1907000000000,"state":"active","ping":76},{"user_id":375,"name":"demoman jumpscare","steam_id":76561198196506951,"connected_time":2064000000000,"state":"active","ping":60},{"user_id":351,"name":"Schogard","steam_id":76561198847318421,"connected_time":3815000000000,"state":"active","ping":124},{"user_id":384,"name":"Sabotat","steam_id":76561198985732740,"connected_time":1486000000000,"state":"active","ping":89},{"user_id":376,"name":"Zaya","steam_id":76561198299372646,"connected_time":2053000000000,"state":"active","ping":73},{"user_id":346,"name":"Erection Man","steam_id":76561198021714542,"connected_time":3845000000000,"state":"active","ping":62},{"user_id":361,"name":"Finem Belli","steam_id":76561198227177976,"connected_time":2762000000000,"state":"active","ping":49},{"user_id":377,"name":"Jamal","steam_id":76561198405426393,"connected_time":2053000000000,"state":"active","ping":67},{"user_id":341,"name":"Daruun","steam_id":76561198019068781,"connected_time":4169000000000,"state":"active","ping":72},{"user_id":291,"name":"Alpi","steam_id":76561198106304435,"connected_time":7042000000000,"state":"active","ping":90},{"user_id":348,"name":"Weegad Wobus","steam_id":76561199429562693,"connected_time":3833000000000,"state":"active","ping":71},{"user_id":349,"name":"Kenny_killer_69","steam_id":76561199465207725,"connected_time":3826000000000,"state":"active","ping":83},{"user_id":400,"name":"frenchie","steam_id":76561198178298931,"connected_time":51000000000,"state":"active","ping":49},{"user_id":385,"name":"jack","steam_id":76561198323526172,"connected_time":1309000000000,"state":"active","ping":71},{"user_id":360,"name":"Real (Real)","steam_id":76561198323425034,"connected_time":2916000000000,"state":"active","ping":72},{"user_id":402,"name":"Brian","steam_id":76561198077756206,"connected_time":37000000000,"state":"active","ping":48},{"user_id":397,"name":"Lauri","steam_id":76561198047299145,"connected_time":540000000000,"state":"active","ping":86},{"user_id":389,"name":"onsight","steam_id":76561199004931994,"connected_time":1137000000000,"state":"active","ping":66},{"user_id":338,"name":"blu132","steam_id":76561198052999185,"connected_time":4844000000000,"state":"active","ping":56},{"user_id":393,"name":"VIN WEASEL","steam_id":76561198014387066,"connected_time":898000000000,"state":"active","ping":50},{"user_id":370,"name":"Piox","steam_id":76561198125689157,"connected_time":2303000000000,"state":"active","ping":63}]},{"server_id":110,"name":"Uncletopia | Frankfurt | 2 | All Maps","name_short":"frk-2","host":"frk-1.de.uncletopia.com","port":27025,"enabled":true,"region":"eu","cc":"de","latitude":50.110924,"longitude":8.682127,"reserved":0,"last_update":"0001-01-01T00:00:00Z","name_a2s":"Uncletopia | Frankfurt | 2 | All Maps","protocol":17,"map":"pl_barnblitz","folder":"tf","game":"Team Fortress","app_id":440,"player_count":24,"max_players":24,"Bots":0,"server_type":"Dedicated","server_os":"Linux","password":true,"vac":true,"version":"7961495","steam_id":85568392924469990,"keywords":["nocrits","nodmgspread","payload","uncletopia"],"game_id":440,"stv_port":27026,"stv_name":"Uncletopia | Frankfurt | 2 | All Maps | STV","players":[{"user_id":613,"name":"LordTrap.exe","steam_id":76561198318089716,"connected_time":3631000000000,"state":"active","ping":67},{"user_id":588,"name":"notna :)","steam_id":76561198059464571,"connected_time":5003000000000,"state":"active","ping":59},{"user_id":620,"name":"Ixsus\u003c3","steam_id":76561198094756869,"connected_time":3330000000000,"state":"active","ping":57},{"user_id":642,"name":"Tynnyri","steam_id":76561198075516541,"connected_time":775000000000,"state":"active","ping":113},{"user_id":552,"name":"Serradoss","steam_id":76561198029367233,"connected_time":7823000000000,"state":"active","ping":61},{"user_id":652,"name":"Rubi","steam_id":76561198139410003,"connected_time":419000000000,"state":"active","ping":80},{"user_id":653,"name":"tobs","steam_id":76561197987616937,"connected_time":378000000000,"state":"active","ping":61},{"user_id":640,"name":"-RRAZALAS","steam_id":76561198043604364,"connected_time":1051000000000,"state":"active","ping":57},{"user_id":644,"name":"Rigby","steam_id":76561198021552128,"connected_time":544000000000,"state":"active","ping":92},{"user_id":649,"name":"ScampSixteen","steam_id":76561198021771000,"connected_time":442000000000,"state":"active","ping":72},{"user_id":646,"name":"Lucan","steam_id":76561198219195135,"connected_time":465000000000,"state":"active","ping":52},{"user_id":585,"name":"Kaziocalvice","steam_id":76561198146425583,"connected_time":5539000000000,"state":"active","ping":81},{"user_id":637,"name":"Komputer1310","steam_id":76561198870066614,"connected_time":1486000000000,"state":"active","ping":61},{"user_id":645,"name":"YARrICk.¬´+¬ª","steam_id":76561197990126485,"connected_time":533000000000,"state":"active","ping":63},{"user_id":641,"name":"hito","steam_id":76561199077022985,"connected_time":865000000000,"state":"active","ping":59},{"user_id":647,"name":"Pitipit","steam_id":76561198343333412,"connected_time":463000000000,"state":"active","ping":101},{"user_id":570,"name":"Vilmukas","steam_id":76561199106648396,"connected_time":6278000000000,"state":"active","ping":59},{"user_id":617,"name":"Medic","steam_id":76561198027856977,"connected_time":3428000000000,"state":"active","ping":104},{"user_id":628,"name":"Sybils","steam_id":76561198057898401,"connected_time":2695000000000,"state":"active","ping":136},{"user_id":654,"name":"Avarus","steam_id":76561198040324008,"connected_time":375000000000,"state":"active","ping":68},{"user_id":520,"name":"Hamedius","steam_id":76561199152512027,"connected_time":10092000000000,"state":"active","ping":61},{"user_id":635,"name":"Klifton","steam_id":76561198803743443,"connected_time":1781000000000,"state":"active","ping":74},{"user_id":651,"name":"steevothesilly","steam_id":76561198132646014,"connected_time":436000000000,"state":"active","ping":70},{"user_id":623,"name":"üòà COCKDESTROYER üòà","steam_id":76561198042846999,"connected_time":3077000000000,"state":"active","ping":64}]},{"server_id":308,"name":"Uncletopia | Frankfurt | 3 | All Maps","name_short":"frk-3","host":"frk-1.de.uncletopia.com","port":27035,"enabled":true,"region":"eu","cc":"de","latitude":50.110924,"longitude":8.682127,"reserved":0,"last_update":"0001-01-01T00:00:00Z","name_a2s":"Uncletopia | Frankfurt | 3 | All Maps","protocol":17,"map":"pl_borneo","folder":"tf","game":"Team Fortress","app_id":440,"player_count":24,"max_players":24,"Bots":0,"server_type":"Dedicated","server_os":"Linux","password":true,"vac":true,"version":"7961495","steam_id":85568392924504274,"keywords":["nocrits","nodmgspread","payload","uncletopia"],"game_id":440,"stv_port":27036,"stv_name":"Uncletopia | Frankfurt | 3 | All Maps | STV","players":[{"user_id":481,"name":"Strangerdanger","steam_id":76561198206728500,"connected_time":1002000000000,"state":"active","ping":75},{"user_id":486,"name":"Gener√°l Kiwi","steam_id":76561198255946537,"connected_time":933000000000,"state":"active","ping":41},{"user_id":484,"name":"Jucatron","steam_id":76561198044259577,"connected_time":964000000000,"state":"active","ping":83},{"user_id":485,"name":"Koopa","steam_id":76561197983791856,"connected_time":934000000000,"state":"active","ping":51},{"user_id":499,"name":"God is serb","steam_id":76561198966246028,"connected_time":550000000000,"state":"active","ping":86},{"user_id":500,"name":"Burkol√≥","steam_id":76561198054702657,"connected_time":538000000000,"state":"active","ping":85},{"user_id":489,"name":"MilkAndBiscuits","steam_id":76561198022924626,"connected_time":814000000000,"state":"active","ping":80},{"user_id":497,"name":"Ocrim_R","steam_id":76561198050479516,"connected_time":611000000000,"state":"active","ping":56},{"user_id":433,"name":"Nitro","steam_id":76561198093891507,"connected_time":4063000000000,"state":"active","ping":90},{"user_id":357,"name":"sticks","steam_id":76561198127099299,"connected_time":8320000000000,"state":"active","ping":52},{"user_id":502,"name":"Asmodeus","steam_id":76561198283156425,"connected_time":2000000000,"state":"spawning","ping":64},{"user_id":490,"name":"LemonLeCitron","steam_id":76561198215545267,"connected_time":792000000000,"state":"active","ping":75},{"user_id":399,"name":"H341","steam_id":76561198046754534,"connected_time":6440000000000,"state":"active","ping":76},{"user_id":501,"name":"lulu","steam_id":76561199147764133,"connected_time":434000000000,"state":"active","ping":61},{"user_id":493,"name":"Peskyplumber64","steam_id":76561198044458330,"connected_time":675000000000,"state":"active","ping":74},{"user_id":468,"name":"pandeux","steam_id":76561198343527617,"connected_time":2387000000000,"state":"active","ping":60},{"user_id":472,"name":"Fancy","steam_id":76561198350658462,"connected_time":2046000000000,"state":"active","ping":75},{"user_id":494,"name":"Boomer Shooter Consoomer","steam_id":76561198079752648,"connected_time":669000000000,"state":"active","ping":60},{"user_id":469,"name":"After8","steam_id":76561198090750865,"connected_time":2318000000000,"state":"active","ping":62},{"user_id":498,"name":"Frenzy","steam_id":76561199194842456,"connected_time":557000000000,"state":"active","ping":94},{"user_id":495,"name":"Finkaksu :3","steam_id":76561198201389163,"connected_time":657000000000,"state":"active","ping":62},{"user_id":478,"name":"Pyrolander","steam_id":76561198050785450,"connected_time":1561000000000,"state":"active","ping":50},{"user_id":496,"name":"core","steam_id":76561198090152271,"connected_time":653000000000,"state":"active","ping":75},{"user_id":480,"name":"Gioni","steam_id":76561198395912581,"connected_time":1086000000000,"state":"active","ping":106}]},{"server_id":309,"name":"Uncletopia | Frankfurt | 4 | All Maps","name_short":"frk-4","host":"frk-1.de.uncletopia.com","port":27045,"enabled":true,"region":"eu","cc":"de","latitude":50.110924,"longitude":8.682127,"reserved":0,"last_update":"0001-01-01T00:00:00Z","name_a2s":"Uncletopia | Frankfurt | 4 | All Maps","protocol":17,"map":"pl_swiftwater_final1","folder":"tf","game":"Team Fortress","app_id":440,"player_count":24,"max_players":24,"Bots":0,"server_type":"Dedicated","server_os":"Linux","password":true,"vac":true,"version":"7961495","steam_id":85568392924504275,"keywords":["nocrits","nodmgspread","payload","uncletopia"],"game_id":440,"stv_port":27046,"stv_name":"Uncletopia | Frankfurt | 4 | All Maps | STV","players":[{"user_id":369,"name":"finjar","steam_id":76561198350473059,"connected_time":3519000000000,"state":"active","ping":78},{"user_id":376,"name":"Cursehat","steam_id":76561198071867237,"connected_time":2180000000000,"state":"active","ping":89},{"user_id":382,"name":"robbie","steam_id":76561198798195287,"connected_time":2041000000000,"state":"active","ping":61},{"user_id":366,"name":"Saucisse","steam_id":76561198119955969,"connected_time":3584000000000,"state":"active","ping":54},{"user_id":374,"name":"Mido","steam_id":76561198391465107,"connected_time":2215000000000,"state":"active","ping":90},{"user_id":422,"name":"Birch","steam_id":76561197998712822,"connected_time":341000000000,"state":"active","ping":47},{"user_id":415,"name":"Ghost of Mitrixie","steam_id":76561198842023498,"connected_time":1122000000000,"state":"active","ping":97},{"user_id":377,"name":"Giga–°had Pyro","steam_id":76561198140742485,"connected_time":2171000000000,"state":"active","ping":104},{"user_id":421,"name":"_ZIGHAIL_","steam_id":76561199075965069,"connected_time":488000000000,"state":"active","ping":102},{"user_id":378,"name":"Wolf","steam_id":76561198077053437,"connected_time":2171000000000,"state":"active","ping":76},{"user_id":410,"name":"bartoszmalaszkiewicz","steam_id":76561199157266817,"connected_time":1326000000000,"state":"active","ping":79},{"user_id":418,"name":"Solymr ibn Wali Barad","steam_id":76561198044008976,"connected_time":991000000000,"state":"active","ping":75},{"user_id":356,"name":"WEEP","steam_id":76561199499933159,"connected_time":4222000000000,"state":"active","ping":60},{"user_id":354,"name":"finbar","steam_id":76561198056812396,"connected_time":4417000000000,"state":"active","ping":78},{"user_id":346,"name":"Average Engineer Enjoyer","steam_id":76561198298618127,"connected_time":5214000000000,"state":"active","ping":58},{"user_id":423,"name":"Hosenbrunzer","steam_id":76561198331151538,"connected_time":323000000000,"state":"active","ping":61},{"user_id":372,"name":"Men hole","steam_id":76561198856259146,"connected_time":3372000000000,"state":"active","ping":121},{"user_id":420,"name":"clozz","steam_id":76561198135315083,"connected_time":756000000000,"state":"active","ping":85},{"user_id":403,"name":"Bobo","steam_id":76561198052308399,"connected_time":1452000000000,"state":"active","ping":58},{"user_id":381,"name":"12345_0098","steam_id":76561199108021499,"connected_time":2152000000000,"state":"active","ping":112},{"user_id":351,"name":"Armix","steam_id":76561198079373642,"connected_time":4859000000000,"state":"active","ping":67},{"user_id":358,"name":"–õ—à—Ç—à—Ñ—É–º –ê—â—å—Ñ","steam_id":76561198816896109,"connected_time":4156000000000,"state":"active","ping":111},{"user_id":417,"name":"MrClyde","steam_id":76561198132627420,"connected_time":1115000000000,"state":"active","ping":63},{"user_id":292,"name":"i hack smart refrigerators","steam_id":76561199265289808,"connected_time":8795000000000,"state":"active","ping":122}]},{"server_id":310,"name":"Uncletopia | Frankfurt | 5 | All Maps","name_short":"frk-5","host":"frk-1.de.uncletopia.com","port":27055,"enabled":true,"region":"eu","cc":"de","latitude":50.110924,"longitude":8.682127,"reserved":0,"last_update":"0001-01-01T00:00:00Z","name_a2s":"Uncletopia | Frankfurt | 5 | All Maps","protocol":17,"map":"pl_barnblitz","folder":"tf","game":"Team Fortress","app_id":440,"player_count":24,"max_players":24,"Bots":0,"server_type":"Dedicated","server_os":"Linux","password":true,"vac":true,"version":"7961495","steam_id":85568392924504277,"keywords":["nocrits","nodmgspread","payload","uncletopia"],"game_id":440,"stv_port":27056,"stv_name":"Uncletopia | Frankfurt | 5 | All Maps | STV","players":[{"user_id":579,"name":"Isak","steam_id":76561198085959762,"connected_time":3474000000000,"state":"active","ping":81},{"user_id":610,"name":"LivEssense","steam_id":76561198052476979,"connected_time":1021000000000,"state":"active","ping":76},{"user_id":608,"name":"Peaky","steam_id":76561198107751532,"connected_time":1272000000000,"state":"active","ping":73},{"user_id":547,"name":"Tony","steam_id":76561198128993838,"connected_time":4714000000000,"state":"active","ping":70},{"user_id":536,"name":"The Big J","steam_id":76561198158202901,"connected_time":5188000000000,"state":"active","ping":48},{"user_id":611,"name":"YuraGreek","steam_id":76561198050182252,"connected_time":889000000000,"state":"active","ping":75},{"user_id":562,"name":"magnos62564","steam_id":76561198356968225,"connected_time":4308000000000,"state":"active","ping":70},{"user_id":601,"name":"JayKey","steam_id":76561198008847925,"connected_time":1684000000000,"state":"active","ping":45},{"user_id":593,"name":"Kypari!","steam_id":76561198104430342,"connected_time":2382000000000,"state":"active","ping":54},{"user_id":602,"name":"Ketich","steam_id":76561198021772703,"connected_time":1542000000000,"state":"active","ping":73},{"user_id":607,"name":"RandomName","steam_id":76561198055552108,"connected_time":1303000000000,"state":"active","ping":49},{"user_id":612,"name":"bowchika wowa #SlavaUkraine","steam_id":76561198159564550,"connected_time":530000000000,"state":"active","ping":74},{"user_id":592,"name":"tealoverr.190","steam_id":76561199028497703,"connected_time":2502000000000,"state":"active","ping":105},{"user_id":598,"name":"Arsonist","steam_id":76561199087953833,"connected_time":1786000000000,"state":"active","ping":110},{"user_id":485,"name":"kino_tea","steam_id":76561199483924409,"connected_time":9635000000000,"state":"active","ping":152},{"user_id":613,"name":"tua","steam_id":76561198034955422,"connected_time":201000000000,"state":"active","ping":65},{"user_id":600,"name":"TrueChaos","steam_id":76561198280651661,"connected_time":1735000000000,"state":"active","ping":144},{"user_id":584,"name":"flr","steam_id":76561198249327786,"connected_time":3164000000000,"state":"active","ping":68},{"user_id":577,"name":"FUKTARD2005","steam_id":76561198839121591,"connected_time":3721000000000,"state":"active","ping":65},{"user_id":541,"name":"mex :3","steam_id":76561198091083324,"connected_time":5075000000000,"state":"active","ping":61},{"user_id":551,"name":"Biggest Homie","steam_id":76561198373107677,"connected_time":4573000000000,"state":"active","ping":79},{"user_id":542,"name":"Shine","steam_id":76561198136297981,"connected_time":5072000000000,"state":"active","ping":67},{"user_id":605,"name":"Winiandohr","steam_id":76561198005622597,"connected_time":1408000000000,"state":"active","ping":90},{"user_id":609,"name":"7xuf","steam_id":76561199389292226,"connected_time":1170000000000,"state":"active","ping":73}]},{"server_id":311,"name":"Uncletopia | Frankfurt | 6 | All Maps","name_short":"frk-6","host":"frk-1.de.uncletopia.com","port":27065,"enabled":true,"region":"eu","cc":"de","latitude":50.110924,"longitude":8.682127,"reserved":0,"last_update":"0001-01-01T00:00:00Z","name_a2s":"Uncletopia | Frankfurt | 6 | All Maps","protocol":17,"map":"cp_sunshine","folder":"tf","game":"Team Fortress","app_id":440,"player_count":24,"max_players":24,"Bots":0,"server_type":"Dedicated","server_os":"Linux","password":true,"vac":true,"version":"7961495","steam_id":85568392924504278,"keywords":["cp","nocrits","nodmgspread","uncletopia"],"game_id":440,"stv_port":27066,"stv_name":"Uncletopia | Frankfurt | 6 | All Maps | STV","players":[{"user_id":531,"name":"Bill_nye_epic","steam_id":76561199216249214,"connected_time":2298000000000,"state":"active","ping":134},{"user_id":545,"name":"N1xD4","steam_id":76561199047686063,"connected_time":1261000000000,"state":"active","ping":65},{"user_id":560,"name":"J√§gersmann","steam_id":76561198089780631,"connected_time":267000000000,"state":"active","ping":44},{"user_id":556,"name":"yyy","steam_id":76561198054870921,"connected_time":645000000000,"state":"active","ping":54},{"user_id":527,"name":"xavier","steam_id":76561198076494034,"connected_time":2650000000000,"state":"active","ping":56},{"user_id":547,"name":"M√©bh √ìg MacT√≠re","steam_id":76561198346399624,"connected_time":1102000000000,"state":"active","ping":72},{"user_id":570,"name":"Jeffrey Harpen","steam_id":76561199073314677,"connected_time":136000000000,"state":"active","ping":67},{"user_id":549,"name":"Kenny","steam_id":76561198994898206,"connected_time":1002000000000,"state":"active","ping":65},{"user_id":550,"name":"1hour1life","steam_id":76561198949828663,"connected_time":1002000000000,"state":"active","ping":86},{"user_id":546,"name":"rob","steam_id":76561198122211848,"connected_time":1212000000000,"state":"active","ping":87},{"user_id":375,"name":"XPullaHiiri","steam_id":76561198031652375,"connected_time":15385000000000,"state":"active","ping":85},{"user_id":552,"name":"kingmax","steam_id":76561199379221929,"connected_time":971000000000,"state":"active","ping":46},{"user_id":541,"name":"Micha≈Ç","steam_id":76561198320346362,"connected_time":1671000000000,"state":"active","ping":66},{"user_id":433,"name":"eva","steam_id":76561198054474684,"connected_time":10804000000000,"state":"active","ping":74},{"user_id":568,"name":"Dr.Schosch","steam_id":76561198152541922,"connected_time":250000000000,"state":"active","ping":58},{"user_id":558,"name":"Just Navlis (on the scoreboard)","steam_id":76561198090479609,"connected_time":423000000000,"state":"active","ping":44},{"user_id":559,"name":"unnam3d","steam_id":76561198286257338,"connected_time":420000000000,"state":"active","ping":73},{"user_id":544,"name":"wouris","steam_id":76561198876188003,"connected_time":1289000000000,"state":"active","ping":51},{"user_id":572,"name":"Krabs","steam_id":76561198161679477,"connected_time":43000000000,"state":"active","ping":63},{"user_id":515,"name":"PanPatrik","steam_id":76561198293331527,"connected_time":3993000000000,"state":"active","ping":58},{"user_id":479,"name":"hananamanna","steam_id":76561198006570285,"connected_time":7477000000000,"state":"active","ping":115},{"user_id":551,"name":"HelwiiHill","steam_id":76561198066730552,"connected_time":984000000000,"state":"active","ping":88},{"user_id":530,"name":"releng0","steam_id":76561198120708390,"connected_time":2397000000000,"state":"active","ping":81},{"user_id":569,"name":"MsMohexon","steam_id":76561198427847750,"connected_time":220000000000,"state":"active","ping":71}]},{"server_id":23,"name":"Uncletopia | Frankfurt | 7 | Stopwatch","name_short":"frk-7","host":"frk-1.de.uncletopia.com","port":27075,"enabled":true,"region":"eu","cc":"de","latitude":50.110924,"longitude":8.682127,"reserved":0,"last_update":"0001-01-01T00:00:00Z","name_a2s":"Uncletopia | Frankfurt | 7 | Stopwatch","protocol":17,"map":"cp_granary","folder":"tf","game":"Team Fortress","app_id":440,"player_count":1,"max_players":24,"Bots":0,"server_type":"Dedicated","server_os":"Linux","password":true,"vac":true,"version":"7961495","steam_id":85568392924742827,"keywords":["cp","nocrits","nodmgspread","uncletopia"],"game_id":440,"stv_port":27076,"stv_name":"Uncletopia | Frankfurt | 7 | Stopwatch | STV","players":[{"user_id":46,"name":"Henry Fonda","steam_id":76561199378865926,"connected_time":325000000000,"state":"active","ping":132}]},{"server_id":24,"name":"Uncletopia | Frankfurt | 8 | Community","name_short":"frk-8","host":"frk-1.de.uncletopia.com","port":27085,"enabled":true,"region":"eu","cc":"de","latitude":50.110924,"longitude":8.682127,"reserved":0,"last_update":"0001-01-01T00:00:00Z","name_a2s":"Uncletopia | Frankfurt | 8 | Community","protocol":17,"map":"workshop/koth_ashville_final.ugc2130459942","folder":"tf","game":"Team Fortress","app_id":440,"player_count":0,"max_players":24,"Bots":0,"server_type":"Dedicated","server_os":"Linux","password":true,"vac":true,"version":"7961495","steam_id":85568392924742828,"keywords":["cp","nocrits","nodmgspread","uncletopia"],"game_id":440,"stv_port":27086,"stv_name":"Uncletopia | Frankfurt | 8 | Community | STV","players":null},{"server_id":202,"name":"Uncletopia | Hong Kong | 1 | All Maps","name_short":"hgk-1","host":"hgk-1.hk.uncletopia.com","port":27015,"enabled":true,"region":"asia","cc":"hk","latitude":22.302711,"longitude":114.177216,"reserved":0,"last_update":"0001-01-01T00:00:00Z","name_a2s":"Uncletopia | Hong Kong | 1 | All Maps","protocol":17,"map":"koth_highpass","folder":"tf","game":"Team Fortress","app_id":440,"player_count":0,"max_players":24,"Bots":0,"server_type":"Dedicated","server_os":"Linux","password":true,"vac":true,"version":"7961495","steam_id":85568392924494504,"keywords":["cp","nocrits","nodmgspread","uncletopia"],"game_id":440,"stv_port":27016,"stv_name":"Uncletopia | Hong Kong | 1 | All Maps | STV","players":null},{"server_id":1,"name":"Uncletopia | Los Angeles | 1 | All Maps","name_short":"lax-1","host":"lax-1.us.uncletopia.com","port":27015,"enabled":true,"region":"us-west","cc":"us","latitude":33.94279,"longitude":-118.41004,"reserved":0,"last_update":"0001-01-01T00:00:00Z","name_a2s":"Uncletopia | Los Angeles | 1 | All Maps","protocol":17,"map":"pl_barnblitz","folder":"tf","game":"Team Fortress","app_id":440,"player_count":24,"max_players":24,"Bots":0,"server_type":"Dedicated","server_os":"Linux","password":true,"vac":true,"version":"7961495","steam_id":85568392924469991,"keywords":["nocrits","nodmgspread","payload","uncletopia"],"game_id":440,"stv_port":27016,"stv_name":"Uncletopia | Los Angeles | 1 | All Maps | STV","players":[{"user_id":124,"name":"Vroooooooooooooooom","steam_id":76561198139913628,"connected_time":2507000000000,"state":"active","ping":124},{"user_id":145,"name":"‚ò¢(XJ)","steam_id":76561198102189618,"connected_time":582000000000,"state":"active","ping":37},{"user_id":114,"name":"Not pawky","steam_id":76561198148738849,"connected_time":3193000000000,"state":"active","ping":54},{"user_id":125,"name":"the keebler","steam_id":76561199486326945,"connected_time":2455000000000,"state":"active","ping":104},{"user_id":152,"name":"Korn Dawg","steam_id":76561198026941076,"connected_time":298000000000,"state":"active","ping":59},{"user_id":119,"name":"1HandsomeLAD","steam_id":76561198807047496,"connected_time":2911000000000,"state":"active","ping":128},{"user_id":146,"name":"soundcloud.com/cremexav","steam_id":76561198134544837,"connected_time":516000000000,"state":"active","ping":45},{"user_id":81,"name":"Igrium","steam_id":76561198119549811,"connected_time":6508000000000,"state":"active","ping":67},{"user_id":143,"name":"ydanay","steam_id":76561198088375486,"connected_time":789000000000,"state":"active","ping":59},{"user_id":151,"name":"bottom pride burger","steam_id":76561198322247602,"connected_time":315000000000,"state":"active","ping":55},{"user_id":133,"name":"judesro","steam_id":76561198352244888,"connected_time":2049000000000,"state":"active","ping":145},{"user_id":153,"name":"RocketofPanda","steam_id":76561198133133187,"connected_time":177000000000,"state":"active","ping":56},{"user_id":123,"name":"a real fish","steam_id":76561198845824198,"connected_time":2545000000000,"state":"active","ping":120},{"user_id":147,"name":"Bappo","steam_id":76561199110482906,"connected_time":501000000000,"state":"active","ping":76},{"user_id":138,"name":"momus","steam_id":76561198966979196,"connected_time":1370000000000,"state":"active","ping":49},{"user_id":128,"name":"Malac","steam_id":76561198004482629,"connected_time":2387000000000,"state":"active","ping":145},{"user_id":140,"name":"Pizza Pocket","steam_id":76561198071171917,"connected_time":953000000000,"state":"active","ping":50},{"user_id":93,"name":"tomiz","steam_id":76561198827013832,"connected_time":5532000000000,"state":"active","ping":56},{"user_id":148,"name":"Jazz Hands","steam_id":76561199225708271,"connected_time":492000000000,"state":"active","ping":80},{"user_id":142,"name":"spherewithahat","steam_id":76561199122192660,"connected_time":871000000000,"state":"active","ping":120},{"user_id":121,"name":"mentos14","steam_id":76561198097993629,"connected_time":2845000000000,"state":"active","ping":56},{"user_id":149,"name":"squid game","steam_id":76561199248960166,"connected_time":444000000000,"state":"active","ping":66},{"user_id":130,"name":"N00SE","steam_id":76561198211473307,"connected_time":2358000000000,"state":"active","ping":114},{"user_id":137,"name":"d4ngerd4n","steam_id":76561198043758735,"connected_time":1382000000000,"state":"active","ping":62}]},{"server_id":112,"name":"Uncletopia | Los Angeles | 2 | All Maps","name_short":"lax-2","host":"lax-1.us.uncletopia.com","port":27025,"enabled":true,"region":"us-west","cc":"us","latitude":33.94279,"longitude":-118.41004,"reserved":0,"last_update":"0001-01-01T00:00:00Z","name_a2s":"Uncletopia | Los Angeles | 2 | All Maps","protocol":17,"map":"koth_cascade","folder":"tf","game":"Team Fortress","app_id":440,"player_count":0,"max_players":24,"Bots":0,"server_type":"Dedicated","server_os":"Linux","password":true,"vac":true,"version":"7961495","steam_id":85568392924469992,"keywords":["cp","nocrits","nodmgspread","uncletopia"],"game_id":440,"stv_port":27026,"stv_name":"Uncletopia | Los Angeles | 2 | All Maps | STV","players":null},{"server_id":324,"name":"Uncletopia | Los Angeles | 3 | All Maps","name_short":"lax-3","host":"lax-1.us.uncletopia.com","port":27035,"enabled":true,"region":"us-west","cc":"us","latitude":33.94279,"longitude":-118.41004,"reserved":0,"last_update":"0001-01-01T00:00:00Z","name_a2s":"Uncletopia | Los Angeles | 3 | All Maps","protocol":17,"map":"pl_frontier_final","folder":"tf","game":"Team Fortress","app_id":440,"player_count":0,"max_players":24,"Bots":0,"server_type":"Dedicated","server_os":"Linux","password":true,"vac":true,"version":"7961495","steam_id":85568392924510198,"keywords":["nocrits","nodmgspread","payload","uncletopia"],"game_id":440,"stv_port":27036,"stv_name":"Uncletopia | Los Angeles | 3 | All Maps | STV","players":null},{"server_id":25,"name":"Uncletopia | Los Angeles | 4 | Stopwatch","name_short":"lax-4","host":"lax-1.us.uncletopia.com","port":27045,"enabled":true,"region":"us-west","cc":"us","latitude":33.94279,"longitude":-118.41004,"reserved":0,"last_update":"0001-01-01T00:00:00Z","name_a2s":"Uncletopia | Los Angeles | 4 | Stopwatch","protocol":17,"map":"pl_barnblitz","folder":"tf","game":"Team Fortress","app_id":440,"player_count":0,"max_players":24,"Bots":0,"server_type":"Dedicated","server_os":"Linux","password":true,"vac":true,"version":"7961495","steam_id":85568392924510199,"keywords":["nocrits","nodmgspread","payload","uncletopia"],"game_id":440,"stv_port":27046,"stv_name":"Uncletopia | Los Angeles | 4 | Stopwatch | STV","players":null},{"server_id":11,"name":"Uncletopia | London | 1 | All Maps","name_short":"lon-1","host":"lon-1.uk.uncletopia.com","port":27015,"enabled":true,"region":"eu","cc":"gb","latitude":51.509865,"longitude":-0.118092,"reserved":0,"last_update":"0001-01-01T00:00:00Z","name_a2s":"Uncletopia | London | 1 | All Maps","protocol":17,"map":"cp_mountainlab","folder":"tf","game":"Team Fortress","app_id":440,"player_count":24,"max_players":24,"Bots":0,"server_type":"Dedicated","server_os":"Linux","password":true,"vac":true,"version":"7961495","steam_id":85568392924367362,"keywords":["cp","nocrits","nodmgspread","uncletopia"],"game_id":440,"stv_port":27016,"stv_name":"Uncletopia | London | 1 | All Maps | STV","players":[{"user_id":331,"name":"shooer!","steam_id":76561198110531281,"connected_time":9165000000000,"state":"active","ping":70},{"user_id":436,"name":"Kahvi","steam_id":76561198723244199,"connected_time":1003000000000,"state":"active","ping":87},{"user_id":420,"name":"Voltaic","steam_id":76561198024306879,"connected_time":3568000000000,"state":"active","ping":40},{"user_id":443,"name":"cuddles","steam_id":76561198805181599,"connected_time":868000000000,"state":"active","ping":54},{"user_id":434,"name":"mr gaming","steam_id":76561198110103308,"connected_time":1151000000000,"state":"active","ping":45},{"user_id":425,"name":"ein","steam_id":76561198152162834,"connected_time":2481000000000,"state":"active","ping":104},{"user_id":428,"name":"Rx07","steam_id":76561199013720618,"connected_time":1766000000000,"state":"active","ping":89},{"user_id":416,"name":"trite","steam_id":76561197983765323,"connected_time":3618000000000,"state":"active","ping":50},{"user_id":432,"name":"Bonduelle#Savetf2","steam_id":76561199041992422,"connected_time":1370000000000,"state":"active","ping":155},{"user_id":438,"name":"J3LLY","steam_id":76561198048453764,"connected_time":984000000000,"state":"active","ping":54},{"user_id":429,"name":"Woman (Real)","steam_id":76561199151823932,"connected_time":1763000000000,"state":"active","ping":86},{"user_id":427,"name":"dec","steam_id":76561198009660168,"connected_time":1964000000000,"state":"active","ping":45},{"user_id":424,"name":"AWildTamim","steam_id":76561198048060652,"connected_time":2600000000000,"state":"active","ping":41},{"user_id":435,"name":"GoblinGaming","steam_id":76561198360395476,"connected_time":1089000000000,"state":"active","ping":45},{"user_id":444,"name":"Frank Horrigan","steam_id":76561198209184131,"connected_time":864000000000,"state":"active","ping":69},{"user_id":431,"name":"Prime Minister Rishi Sunak","steam_id":76561198846784757,"connected_time":1541000000000,"state":"active","ping":54},{"user_id":414,"name":"Filip","steam_id":76561198852826447,"connected_time":4262000000000,"state":"active","ping":71},{"user_id":445,"name":"SirToast","steam_id":76561199229729107,"connected_time":613000000000,"state":"active","ping":77},{"user_id":442,"name":"Solrack","steam_id":76561199125165263,"connected_time":894000000000,"state":"active","ping":94},{"user_id":439,"name":"PASTAMANIA!","steam_id":76561197967858558,"connected_time":979000000000,"state":"active","ping":41},{"user_id":410,"name":"I like apple","steam_id":76561198108115790,"connected_time":5063000000000,"state":"active","ping":46},{"user_id":440,"name":"Anri Okita's Massive Milkers","steam_id":76561199186352720,"connected_time":978000000000,"state":"active","ping":64},{"user_id":411,"name":"paypig","steam_id":76561198035137115,"connected_time":5024000000000,"state":"active","ping":53},{"user_id":417,"name":"‚∏∏aura‚∏∏","steam_id":76561198066258544,"connected_time":3617000000000,"state":"active","ping":61}]},{"server_id":114,"name":"Uncletopia | London | 2 | All Maps","name_short":"lon-2","host":"lon-1.uk.uncletopia.com","port":27025,"enabled":true,"region":"eu","cc":"gb","latitude":51.509865,"longitude":-0.118092,"reserved":0,"last_update":"0001-01-01T00:00:00Z","name_a2s":"Uncletopia | London | 2 | All Maps","protocol":17,"map":"cp_process_final","folder":"tf","game":"Team Fortress","app_id":440,"player_count":25,"max_players":24,"Bots":0,"server_type":"Dedicated","server_os":"Linux","password":true,"vac":true,"version":"7961495","steam_id":85568392924470941,"keywords":["cp","nocrits","nodmgspread","uncletopia"],"game_id":440,"stv_port":27026,"stv_name":"Uncletopia | London | 2 | All Maps | STV","players":[{"user_id":372,"name":"Obama gaming","steam_id":76561198801008490,"connected_time":1172000000000,"state":"active","ping":51},{"user_id":373,"name":"Zm4j","steam_id":76561198259465946,"connected_time":1154000000000,"state":"active","ping":77},{"user_id":361,"name":"skilltissues","steam_id":76561198025828664,"connected_time":1694000000000,"state":"active","ping":50},{"user_id":377,"name":"MK-Ultra Violence","steam_id":76561198081328238,"connected_time":1045000000000,"state":"active","ping":77},{"user_id":376,"name":"akakez","steam_id":76561198095432821,"connected_time":1086000000000,"state":"active","ping":116},{"user_id":340,"name":"TomNoSocks","steam_id":76561198114071046,"connected_time":3130000000000,"state":"active","ping":73},{"user_id":383,"name":"CouchPotato","steam_id":76561198849369915,"connected_time":838000000000,"state":"active","ping":64},{"user_id":252,"name":"RLCrazyCat3","steam_id":76561197983757878,"connected_time":8714000000000,"state":"active","ping":66},{"user_id":385,"name":"https://popnmusic.fandom.com","steam_id":76561198061497429,"connected_time":801000000000,"state":"active","ping":157},{"user_id":362,"name":"Bun","steam_id":76561197989239999,"connected_time":1662000000000,"state":"active","ping":60},{"user_id":390,"name":"Cillian","steam_id":76561199471571148,"connected_time":588000000000,"state":"active","ping":69},{"user_id":378,"name":"Rock..","steam_id":76561198004641963,"connected_time":1041000000000,"state":"active","ping":79},{"user_id":359,"name":"sufferin","steam_id":76561198057981508,"connected_time":1953000000000,"state":"active","ping":102},{"user_id":346,"name":"‚ù§G a n K","steam_id":76561199125995565,"connected_time":2626000000000,"state":"active","ping":66},{"user_id":379,"name":"Radio_Active!","steam_id":76561199217286835,"connected_time":1037000000000,"state":"active","ping":122},{"user_id":368,"name":"Gorpovy Radov√°nky","steam_id":76561198044293799,"connected_time":1297000000000,"state":"active","ping":79},{"user_id":386,"name":"JC","steam_id":76561198029213352,"connected_time":718000000000,"state":"active","ping":37},{"user_id":380,"name":"Dr. Cox","steam_id":76561198246629218,"connected_time":1015000000000,"state":"active","ping":109},{"user_id":364,"name":"boosted smurf acc buyer","steam_id":76561198037237664,"connected_time":1405000000000,"state":"active","ping":70},{"user_id":387,"name":"Just_Tommy","steam_id":76561199229233472,"connected_time":703000000000,"state":"active","ping":72},{"user_id":391,"name":"ALARM","steam_id":76561198120686521,"connected_time":371000000000,"state":"active","ping":62},{"user_id":332,"name":"soup","steam_id":76561198386933065,"connected_time":3715000000000,"state":"active","ping":74},{"user_id":388,"name":"Locke","steam_id":76561198339408300,"connected_time":692000000000,"state":"active","ping":46},{"user_id":352,"name":"Quote","steam_id":76561198170090267,"connected_time":2209000000000,"state":"active","ping":121},{"user_id":407,"name":"TreatFly","steam_id":76561198069707362,"connected_time":4000000000,"state":"spawning","ping":70}]},{"server_id":320,"name":"Uncletopia | London | 3 | All Maps","name_short":"lon-3","host":"lon-1.uk.uncletopia.com","port":27035,"enabled":true,"region":"eu","cc":"gb","latitude":51.509865,"longitude":-0.118092,"reserved":0,"last_update":"0001-01-01T00:00:00Z","name_a2s":"Uncletopia | London | 3 | All Maps","protocol":17,"map":"pl_badwater","folder":"tf","game":"Team Fortress","app_id":440,"player_count":23,"max_players":24,"Bots":0,"server_type":"Dedicated","server_os":"Linux","password":true,"vac":true,"version":"7961495","steam_id":85568392924510192,"keywords":["nocrits","nodmgspread","payload","uncletopia"],"game_id":440,"stv_port":27036,"stv_name":"Uncletopia | London | 3 | All Maps | STV","players":[{"user_id":596,"name":"Rockfrenzy","steam_id":76561198005428050,"connected_time":1946000000000,"state":"active","ping":72},{"user_id":597,"name":"You slumber","steam_id":76561198344639692,"connected_time":1908000000000,"state":"active","ping":80},{"user_id":604,"name":"Jeff","steam_id":76561199151215149,"connected_time":1852000000000,"state":"active","ping":86},{"user_id":629,"name":"sad monkey","steam_id":76561198116530769,"connected_time":376000000000,"state":"active","ping":96},{"user_id":632,"name":"kinimon","steam_id":76561198178453270,"connected_time":142000000000,"state":"active","ping":39},{"user_id":622,"name":"Dawidowski","steam_id":76561199137466824,"connected_time":740000000000,"state":"active","ping":69},{"user_id":620,"name":"Woad Raider","steam_id":76561198215485788,"connected_time":810000000000,"state":"active","ping":82},{"user_id":612,"name":"Harry","steam_id":76561198046899720,"connected_time":1260000000000,"state":"active","ping":53},{"user_id":617,"name":"teddy","steam_id":76561198007436837,"connected_time":1121000000000,"state":"active","ping":30},{"user_id":623,"name":"c1v","steam_id":76561199085624224,"connected_time":734000000000,"state":"active","ping":75},{"user_id":611,"name":"Cute Bulge","steam_id":76561198155494332,"connected_time":1340000000000,"state":"active","ping":42},{"user_id":610,"name":"full power heart attack","steam_id":76561199196568965,"connected_time":1349000000000,"state":"active","ping":100},{"user_id":549,"name":"Super George","steam_id":76561197997723960,"connected_time":5347000000000,"state":"active","ping":61},{"user_id":613,"name":"programmed protoplasm","steam_id":76561198977420882,"connected_time":1235000000000,"state":"active","ping":41},{"user_id":553,"name":"Tea Follet","steam_id":76561198852408734,"connected_time":5140000000000,"state":"active","ping":67},{"user_id":595,"name":"akimbo gonads","steam_id":76561198413052419,"connected_time":2377000000000,"state":"active","ping":46},{"user_id":619,"name":"Joetron","steam_id":76561198267907985,"connected_time":932000000000,"state":"active","ping":48},{"user_id":621,"name":"·É¶Kimmy","steam_id":76561198159697916,"connected_time":807000000000,"state":"active","ping":45},{"user_id":614,"name":"golfmastr","steam_id":76561198993144124,"connected_time":1224000000000,"state":"active","ping":58},{"user_id":615,"name":"MaypulSoyrup","steam_id":76561199213966821,"connected_time":1211000000000,"state":"active","ping":77},{"user_id":616,"name":"LEGEND FUMO.","steam_id":76561198061033903,"connected_time":1201000000000,"state":"active","ping":56},{"user_id":631,"name":"Sza","steam_id":76561198022132105,"connected_time":325000000000,"state":"active","ping":69},{"user_id":627,"name":"3L","steam_id":76561198007208996,"connected_time":662000000000,"state":"active","ping":52}]},{"server_id":321,"name":"Uncletopia | London | 4 | All Maps","name_short":"lon-4","host":"lon-1.uk.uncletopia.com","port":27045,"enabled":true,"region":"eu","cc":"gb","latitude":51.509865,"longitude":-0.118092,"reserved":0,"last_update":"0001-01-01T00:00:00Z","name_a2s":"Uncletopia | London | 4 | All Maps","protocol":17,"map":"pl_thundermountain","folder":"tf","game":"Team Fortress","app_id":440,"player_count":25,"max_players":24,"Bots":0,"server_type":"Dedicated","server_os":"Linux","password":true,"vac":true,"version":"7961495","steam_id":85568392924510193,"keywords":["nocrits","nodmgspread","payload","uncletopia"],"game_id":440,"stv_port":27046,"stv_name":"Uncletopia | London | 4 | All Maps | STV","players":[{"user_id":520,"name":"mr.resetti","steam_id":76561198974520642,"connected_time":2537000000000,"state":"active","ping":69},{"user_id":505,"name":"KermSlinger","steam_id":76561198854027069,"connected_time":3476000000000,"state":"active","ping":65},{"user_id":569,"name":"HoboGrill","steam_id":76561198070744037,"connected_time":127000000000,"state":"active","ping":65},{"user_id":559,"name":"Bart","steam_id":76561198276910428,"connected_time":366000000000,"state":"active","ping":82},{"user_id":502,"name":"[FP] Scewtch","steam_id":76561198120500488,"connected_time":3574000000000,"state":"active","ping":45},{"user_id":519,"name":"Nooper_96","steam_id":76561199454809640,"connected_time":2694000000000,"state":"active","ping":124},{"user_id":570,"name":"walt","steam_id":76561198871381636,"connected_time":81000000000,"state":"active","ping":95},{"user_id":576,"name":"Dominus Di Spiritus","steam_id":76561198200488383,"connected_time":32000000000,"state":"spawning","ping":69},{"user_id":556,"name":"Sergeant_cross","steam_id":76561198148270425,"connected_time":404000000000,"state":"active","ping":60},{"user_id":512,"name":"Supreme Kebab","steam_id":76561199117169819,"connected_time":3258000000000,"state":"active","ping":73},{"user_id":503,"name":"[FP] Rune","steam_id":76561198030842879,"connected_time":3571000000000,"state":"active","ping":43},{"user_id":539,"name":"x_o","steam_id":76561198170334258,"connected_time":964000000000,"state":"active","ping":75},{"user_id":516,"name":"Black Tom","steam_id":76561198335730273,"connected_time":2994000000000,"state":"active","ping":65},{"user_id":557,"name":"RicardoChL","steam_id":76561198452299994,"connected_time":392000000000,"state":"active","ping":71},{"user_id":504,"name":"[FP] Shiken","steam_id":76561198257905663,"connected_time":3563000000000,"state":"active","ping":61},{"user_id":548,"name":"Rocadinis","steam_id":76561198095910616,"connected_time":540000000000,"state":"active","ping":87},{"user_id":540,"name":"Valke","steam_id":76561198152898538,"connected_time":959000000000,"state":"active","ping":76},{"user_id":508,"name":"Delta","steam_id":76561198268912848,"connected_time":3424000000000,"state":"active","ping":91},{"user_id":577,"name":"zazuza","steam_id":76561198049820905,"connected_time":11000000000,"state":"active","ping":148},{"user_id":551,"name":"Sir.JJ","steam_id":76561198020681204,"connected_time":482000000000,"state":"active","ping":72},{"user_id":572,"name":"Vonacht","steam_id":76561198016033944,"connected_time":62000000000,"state":"active","ping":60},{"user_id":564,"name":"KillOrGetOut ( Õ°¬∞ Õú ñ Õ°¬∞)","steam_id":76561198072881803,"connected_time":307000000000,"state":"spawning","ping":52},{"user_id":541,"name":"herbal tea","steam_id":76561198179711137,"connected_time":857000000000,"state":"active","ping":61},{"user_id":555,"name":"Diagon Galley","steam_id":76561197988571162,"connected_time":438000000000,"state":"active","ping":100},{"user_id":578,"name":"KillerQueen (he/they/she)","steam_id":76561199019399725,"connected_time":0,"state":"spawning","ping":19}]},{"server_id":21,"name":"Uncletopia | London | 5 | All Maps","name_short":"lon-5","host":"lon-1.uk.uncletopia.com","port":27055,"enabled":true,"region":"eu","cc":"gb","latitude":51.509865,"longitude":-0.118092,"reserved":0,"last_update":"0001-01-01T00:00:00Z","name_a2s":"Uncletopia | London | 5 | All Maps","protocol":17,"map":"cp_dustbowl","folder":"tf","game":"Team Fortress","app_id":440,"player_count":24,"max_players":24,"Bots":0,"server_type":"Dedicated","server_os":"Linux","password":true,"vac":true,"version":"7961495","steam_id":85568392924742829,"keywords":["cp","nocrits","nodmgspread","uncletopia"],"game_id":440,"stv_port":27056,"stv_name":"Uncletopia | London | 5 | All Maps | STV","players":[{"user_id":574,"name":"Cezaru7252","steam_id":76561198815955374,"connected_time":1616000000000,"state":"active","ping":95},{"user_id":556,"name":"Miloleopard","steam_id":76561199196616680,"connected_time":2306000000000,"state":"active","ping":72},{"user_id":523,"name":"The Major Squadron","steam_id":76561198144692735,"connected_time":3390000000000,"state":"active","ping":80},{"user_id":524,"name":"Weezbeck","steam_id":76561198163487467,"connected_time":3377000000000,"state":"active","ping":82},{"user_id":575,"name":"_DEI_","steam_id":76561199140785144,"connected_time":1507000000000,"state":"active","ping":96},{"user_id":583,"name":"Jewix","steam_id":76561198063457899,"connected_time":624000000000,"state":"active","ping":75},{"user_id":573,"name":"Incoming","steam_id":76561199138214818,"connected_time":1624000000000,"state":"active","ping":87},{"user_id":584,"name":"SODA!!!!!!!","steam_id":76561198107362485,"connected_time":438000000000,"state":"active","ping":75},{"user_id":547,"name":"JohkupohkuXD","steam_id":76561198391108762,"connected_time":2518000000000,"state":"active","ping":86},{"user_id":585,"name":"filthy","steam_id":76561198089069719,"connected_time":253000000000,"state":"active","ping":60},{"user_id":545,"name":"mohemmedmokhter2005","steam_id":76561199197650506,"connected_time":2648000000000,"state":"active","ping":112},{"user_id":546,"name":"emag live","steam_id":76561198047164140,"connected_time":2581000000000,"state":"active","ping":62},{"user_id":536,"name":"Collie","steam_id":76561198149072785,"connected_time":2956000000000,"state":"active","ping":66},{"user_id":588,"name":"Civil Melon","steam_id":76561198988309618,"connected_time":140000000000,"state":"active","ping":75},{"user_id":572,"name":"Dangerous Andrew","steam_id":76561198067218981,"connected_time":1661000000000,"state":"active","ping":59},{"user_id":578,"name":"Cabanos","steam_id":76561198285337328,"connected_time":1282000000000,"state":"active","ping":75},{"user_id":580,"name":"Vytuzas","steam_id":76561198012868436,"connected_time":857000000000,"state":"active","ping":78},{"user_id":559,"name":"the beesknees;-;","steam_id":76561198924118328,"connected_time":2245000000000,"state":"active","ping":50},{"user_id":554,"name":"Burpman","steam_id":76561198022897937,"connected_time":2359000000000,"state":"active","ping":46},{"user_id":586,"name":"–≤a—Ñe–ª—å–Ωoe –ºo—Äo–∂e–Ωoe","steam_id":76561199074883856,"connected_time":211000000000,"state":"active","ping":48},{"user_id":579,"name":"Roboolet","steam_id":76561198107353953,"connected_time":1104000000000,"state":"active","ping":50},{"user_id":577,"name":"oskaroku00","steam_id":76561199025360128,"connected_time":1330000000000,"state":"active","ping":74},{"user_id":564,"name":"Loading....","steam_id":76561198063874351,"connected_time":2195000000000,"state":"active","ping":56},{"user_id":570,"name":"Ozzie","steam_id":76561197992915315,"connected_time":1994000000000,"state":"active","ping":60}]},{"server_id":22,"name":"Uncletopia | London | 6 | All Maps","name_short":"lon-6","host":"lon-1.uk.uncletopia.com","port":27065,"enabled":true,"region":"eu","cc":"gb","latitude":51.509865,"longitude":-0.118092,"reserved":0,"last_update":"0001-01-01T00:00:00Z","name_a2s":"Uncletopia | London | 6 | All Maps","protocol":17,"map":"cp_granary","folder":"tf","game":"Team Fortress","app_id":440,"player_count":24,"max_players":24,"Bots":0,"server_type":"Dedicated","server_os":"Linux","password":true,"vac":true,"version":"7961495","steam_id":85568392924742830,"keywords":["cp","nocrits","nodmgspread","uncletopia"],"game_id":440,"stv_port":27066,"stv_name":"Uncletopia | London | 6 | All Maps | STV","players":[{"user_id":635,"name":"Mitchell The Brutal Bonelord","steam_id":76561198813041445,"connected_time":1215000000000,"state":"active","ping":72},{"user_id":566,"name":"yuno appreciator","steam_id":76561198083286511,"connected_time":6068000000000,"state":"active","ping":45},{"user_id":636,"name":"SuperMinecraftKid2009","steam_id":76561198084028223,"connected_time":1166000000000,"state":"active","ping":85},{"user_id":637,"name":"Ultr4P3d1pieG4MEAR2005 ;)","steam_id":76561198140618559,"connected_time":1147000000000,"state":"active","ping":73},{"user_id":655,"name":"RJErik","steam_id":76561198321118547,"connected_time":578000000000,"state":"active","ping":70},{"user_id":641,"name":"Wisey","steam_id":76561198110612600,"connected_time":1030000000000,"state":"active","ping":76},{"user_id":640,"name":"Pewdie","steam_id":76561198107601580,"connected_time":1091000000000,"state":"active","ping":71},{"user_id":642,"name":"dansal","steam_id":76561197997042510,"connected_time":1014000000000,"state":"active","ping":152},{"user_id":662,"name":"Milk","steam_id":76561198125876588,"connected_time":302000000000,"state":"active","ping":43},{"user_id":643,"name":"Blobby","steam_id":76561199058403197,"connected_time":1013000000000,"state":"active","ping":66},{"user_id":661,"name":"ABSOLUTE UNIT","steam_id":76561197972287320,"connected_time":414000000000,"state":"active","ping":73},{"user_id":645,"name":"zoinks!","steam_id":76561198068645362,"connected_time":973000000000,"state":"active","ping":45},{"user_id":631,"name":"Jeƒçmen","steam_id":76561198051617968,"connected_time":1604000000000,"state":"active","ping":74},{"user_id":666,"name":"Arthur","steam_id":76561198066109166,"connected_time":45000000000,"state":"active","ping":76},{"user_id":657,"name":"Stille Willem","steam_id":76561198093579428,"connected_time":514000000000,"state":"active","ping":57},{"user_id":648,"name":"pardner","steam_id":76561198451471161,"connected_time":854000000000,"state":"active","ping":57},{"user_id":630,"name":"Milosz52","steam_id":76561199060940204,"connected_time":1612000000000,"state":"active","ping":77},{"user_id":652,"name":"I I | #saveTF2","steam_id":76561199101935057,"connected_time":652000000000,"state":"active","ping":103},{"user_id":659,"name":"brother tyrannosaurus","steam_id":76561197994758189,"connected_time":482000000000,"state":"active","ping":60},{"user_id":622,"name":"nightmarebg123","steam_id":76561198968639810,"connected_time":2113000000000,"state":"active","ping":99},{"user_id":664,"name":"Lukgames","steam_id":76561198341496232,"connected_time":287000000000,"state":"active","ping":94},{"user_id":667,"name":"Egor Pomidor","steam_id":76561199175688390,"connected_time":34000000000,"state":"active","ping":76},{"user_id":629,"name":"Makowako","steam_id":76561199016565502,"connected_time":1823000000000,"state":"active","ping":141},{"user_id":654,"name":"Memnyatta","steam_id":76561198805980996,"connected_time":628000000000,"state":"active","ping":107}]},{"server_id":40,"name":"Uncletopia | London | 7 | Stopwatch","name_short":"lon-7","host":"lon-1.uk.uncletopia.com","port":27075,"enabled":true,"region":"eu","cc":"gb","latitude":51.509865,"longitude":-0.118092,"reserved":0,"last_update":"0001-01-01T00:00:00Z","name_a2s":"Uncletopia | London | 7 | Stopwatch","protocol":17,"map":"workshop/koth_ashville_final.ugc2130459942","folder":"tf","game":"Team Fortress","app_id":440,"player_count":0,"max_players":24,"Bots":0,"server_type":"Dedicated","server_os":"Linux","password":true,"vac":true,"version":"7961495","steam_id":85568392924964314,"keywords":["cp","nocrits","nodmgspread","uncletopia"],"game_id":440,"stv_port":27076,"stv_name":"Uncletopia | London | 7 | Stopwatch | STV","players":null},{"server_id":41,"name":"Uncletopia | London | 8 | Community","name_short":"lon-8","host":"lon-1.uk.uncletopia.com","port":27085,"enabled":true,"region":"eu","cc":"gb","latitude":51.509865,"longitude":-0.118092,"reserved":0,"last_update":"0001-01-01T00:00:00Z","name_a2s":"Uncletopia | London | 8 | Community","protocol":17,"map":"cp_snakewater_final1","folder":"tf","game":"Team Fortress","app_id":440,"player_count":0,"max_players":24,"Bots":0,"server_type":"Dedicated","server_os":"Linux","password":true,"vac":true,"version":"7961495","steam_id":85568392924964315,"keywords":["cp","nocrits","nodmgspread","uncletopia"],"game_id":440,"stv_port":27086,"stv_name":"Uncletopia | London | 8 | Community | STV","players":null},{"server_id":300,"name":"Uncletopia | Montr√©al | 1 | One Thousand Uncles","name_short":"mtl-1","host":"mtl-1.ca.uncletopia.com","port":27015,"enabled":true,"region":"us-east","cc":"ca","latitude":45.50889,"longitude":-73.56167,"reserved":0,"last_update":"0001-01-01T00:00:00Z","name_a2s":"","protocol":0,"map":"","folder":"","game":"","app_id":0,"player_count":11,"max_players":0,"Bots":0,"server_type":"","server_os":"","password":false,"vac":false,"version":"","steam_id":0,"keywords":null,"game_id":0,"stv_port":0,"stv_name":"","players":[{"user_id":201,"name":"Huntpk","steam_id":76561198340591674,"connected_time":7614000000000,"state":"active","ping":50},{"user_id":145,"name":"Yep","steam_id":76561198041437251,"connected_time":10310000000000,"state":"active","ping":59},{"user_id":328,"name":"Sause","steam_id":76561198813759906,"connected_time":807000000000,"state":"active","ping":97},{"user_id":329,"name":"NightEmerald","steam_id":76561198878856805,"connected_time":620000000000,"state":"active","ping":50},{"user_id":330,"name":"puffy","steam_id":76561198411347037,"connected_time":563000000000,"state":"active","ping":59},{"user_id":189,"name":"„Éá„Éà„Éü„Éº","steam_id":76561198068945560,"connected_time":8615000000000,"state":"active","ping":134},{"user_id":296,"name":"Oxygen User","steam_id":76561199111975528,"connected_time":2251000000000,"state":"active","ping":79},{"user_id":331,"name":"Monkey Bat Donkey Rat","steam_id":76561198833982261,"connected_time":122000000000,"state":"active","ping":105},{"user_id":306,"name":"Ping","steam_id":76561199206514106,"connected_time":1680000000000,"state":"active","ping":73},{"user_id":191,"name":"Zweitonegoismus","steam_id":76561198071728831,"connected_time":8392000000000,"state":"active","ping":69},{"user_id":310,"name":"LeFunnyMan","steam_id":76561199081645289,"connected_time":1229000000000,"state":"active","ping":78}]},{"server_id":301,"name":"Uncletopia | Montr√©al | 2 | One Thousand Uncles","name_short":"mtl-2","host":"mtl-1.ca.uncletopia.com","port":27025,"enabled":true,"region":"us-east","cc":"ca","latitude":45.50889,"longitude":-73.56167,"reserved":0,"last_update":"0001-01-01T00:00:00Z","name_a2s":"","protocol":0,"map":"","folder":"","game":"","app_id":0,"player_count":6,"max_players":0,"Bots":0,"server_type":"","server_os":"","password":false,"vac":false,"version":"","steam_id":0,"keywords":null,"game_id":0,"stv_port":0,"stv_name":"","players":[{"user_id":41,"name":"Waaagh!","steam_id":76561197995317887,"connected_time":5940000000000,"state":"active","ping":30},{"user_id":84,"name":"loboto gaming","steam_id":76561199088321574,"connected_time":1817000000000,"state":"active","ping":88},{"user_id":82,"name":"Im Groot","steam_id":76561198294943420,"connected_time":2856000000000,"state":"active","ping":76},{"user_id":85,"name":"Zoawsome","steam_id":76561198018758753,"connected_time":1010000000000,"state":"active","ping":74},{"user_id":62,"name":"Rhutebeer","steam_id":76561198018302761,"connected_time":4848000000000,"state":"active","ping":103},{"user_id":86,"name":"WM1 PYRO","steam_id":76561198045893896,"connected_time":538000000000,"state":"active","ping":101}]},{"server_id":302,"name":"Uncletopia | Montr√©al | 3 | One Thousand Uncles","name_short":"mtl-3","host":"mtl-1.ca.uncletopia.com","port":27035,"enabled":true,"region":"us-east","cc":"ca","latitude":45.50889,"longitude":-73.56167,"reserved":0,"last_update":"0001-01-01T00:00:00Z","name_a2s":"","protocol":0,"map":"","folder":"","game":"","app_id":0,"player_count":0,"max_players":0,"Bots":0,"server_type":"","server_os":"","password":false,"vac":false,"version":"","steam_id":0,"keywords":null,"game_id":0,"stv_port":0,"stv_name":"","players":null},{"server_id":13,"name":"Uncletopia | New York City | 1 | All Maps","name_short":"nyc-1","host":"nyc-1.us.uncletopia.com","port":27015,"enabled":true,"region":"us-east","cc":"us","latitude":40.73061,"longitude":-73.93524,"reserved":0,"last_update":"0001-01-01T00:00:00Z","name_a2s":"Uncletopia | New York City | 1 | All Maps","protocol":17,"map":"cp_mountainlab","folder":"tf","game":"Team Fortress","app_id":440,"player_count":20,"max_players":24,"Bots":0,"server_type":"Dedicated","server_os":"Linux","password":true,"vac":true,"version":"7961495","steam_id":85568392924469993,"keywords":["cp","nocrits","nodmgspread","uncletopia"],"game_id":440,"stv_port":27016,"stv_name":"Uncletopia | New York City | 1 | All Maps | STV","players":[{"user_id":280,"name":"Primitive","steam_id":76561198060500671,"connected_time":4737000000000,"state":"active","ping":37},{"user_id":333,"name":"peace dog","steam_id":76561198267988522,"connected_time":1381000000000,"state":"active","ping":61},{"user_id":338,"name":"SIGSTACKFAULT","steam_id":76561198055203857,"connected_time":491000000000,"state":"active","ping":80},{"user_id":347,"name":"„ÄåDaws_Dudeguy„Äç","steam_id":76561198205838645,"connected_time":34000000000,"state":"active","ping":82},{"user_id":241,"name":"Jeremopolis","steam_id":76561198079467492,"connected_time":8256000000000,"state":"active","ping":87},{"user_id":340,"name":"Steak","steam_id":76561198043195035,"connected_time":427000000000,"state":"active","ping":124},{"user_id":341,"name":"phroliax","steam_id":76561198207075529,"connected_time":353000000000,"state":"active","ping":74},{"user_id":342,"name":"big sump","steam_id":76561198113364714,"connected_time":260000000000,"state":"active","ping":44},{"user_id":318,"name":"Connection","steam_id":76561199230740231,"connected_time":2860000000000,"state":"active","ping":54},{"user_id":337,"name":"bony","steam_id":76561198241893988,"connected_time":567000000000,"state":"active","ping":58},{"user_id":324,"name":"TheFrogGoesMoo","steam_id":76561198841671908,"connected_time":2638000000000,"state":"active","ping":38},{"user_id":343,"name":"mostly ham","steam_id":76561199479937232,"connected_time":189000000000,"state":"active","ping":74},{"user_id":344,"name":"Ricky Dicky Doo Dah Grimes","steam_id":76561198143221900,"connected_time":157000000000,"state":"active","ping":42},{"user_id":323,"name":"Philo","steam_id":76561198061873341,"connected_time":2739000000000,"state":"active","ping":86},{"user_id":332,"name":"Napoleon Dynamite","steam_id":76561198068064706,"connected_time":1410000000000,"state":"active","ping":46},{"user_id":348,"name":"feeple murphy","steam_id":76561199069482101,"connected_time":15000000000,"state":"spawning","ping":255},{"user_id":346,"name":"Dilly D","steam_id":76561198156643697,"connected_time":88000000000,"state":"active","ping":74},{"user_id":326,"name":"Xavibite","steam_id":76561198209380493,"connected_time":2477000000000,"state":"active","ping":31},{"user_id":251,"name":"wool","steam_id":76561198869689933,"connected_time":6983000000000,"state":"active","ping":58},{"user_id":321,"name":"Bearegard","steam_id":76561198061926542,"connected_time":2824000000000,"state":"active","ping":79}]},{"server_id":14,"name":"Uncletopia | New York City | 2 | All Maps","name_short":"nyc-2","host":"nyc-1.us.uncletopia.com","port":27025,"enabled":true,"region":"us-east","cc":"us","latitude":40.73061,"longitude":-73.93524,"reserved":0,"last_update":"0001-01-01T00:00:00Z","name_a2s":"Uncletopia | New York City | 2 | All Maps","protocol":17,"map":"pl_barnblitz","folder":"tf","game":"Team Fortress","app_id":440,"player_count":24,"max_players":24,"Bots":0,"server_type":"Dedicated","server_os":"Linux","password":true,"vac":true,"version":"7961495","steam_id":85568392924469994,"keywords":["nocrits","nodmgspread","payload","uncletopia"],"game_id":440,"stv_port":27026,"stv_name":"Uncletopia | New York City | 2 | All Maps | STV","players":[{"user_id":329,"name":"Crystall","steam_id":76561198346607700,"connected_time":4267000000000,"state":"active","ping":60},{"user_id":387,"name":"radicalpig","steam_id":76561198444115177,"connected_time":512000000000,"state":"active","ping":54},{"user_id":360,"name":"Gakster","steam_id":76561198998629759,"connected_time":3106000000000,"state":"active","ping":65},{"user_id":397,"name":"Anan","steam_id":76561198150124502,"connected_time":8000000000,"state":"spawning","ping":55},{"user_id":388,"name":"ÏïÑÏï†Ïû¨ÏïºÍ∞Ä ÏãúÎ∞úÏÉàÌÇ§Ïïº","steam_id":76561198167893972,"connected_time":391000000000,"state":"active","ping":74},{"user_id":363,"name":"Crouching Noob Hidden Sniper","steam_id":76561197971328473,"connected_time":3052000000000,"state":"active","ping":85},{"user_id":370,"name":"PK","steam_id":76561198368722500,"connected_time":2417000000000,"state":"active","ping":63},{"user_id":357,"name":"nice grandma","steam_id":76561198964101426,"connected_time":3438000000000,"state":"active","ping":37},{"user_id":396,"name":"El_Cabron335","steam_id":76561199499646844,"connected_time":105000000000,"state":"active","ping":132},{"user_id":314,"name":"King Sans","steam_id":76561198294198517,"connected_time":5157000000000,"state":"active","ping":45},{"user_id":389,"name":"jumpingjacks","steam_id":76561197964839440,"connected_time":371000000000,"state":"active","ping":38},{"user_id":380,"name":"andrew","steam_id":76561198107472997,"connected_time":1128000000000,"state":"active","ping":66},{"user_id":323,"name":"Bug","steam_id":76561198090785579,"connected_time":4336000000000,"state":"active","ping":73},{"user_id":390,"name":"TheChickenChuck","steam_id":76561199192686708,"connected_time":352000000000,"state":"active","ping":80},{"user_id":368,"name":"ToolUse","steam_id":76561198999611494,"connected_time":2795000000000,"state":"active","ping":90},{"user_id":391,"name":"Sergeant Joker #savetf2","steam_id":76561198854616604,"connected_time":313000000000,"state":"active","ping":63},{"user_id":385,"name":"BigPapaBrogan","steam_id":76561199012814165,"connected_time":800000000000,"state":"active","ping":67},{"user_id":392,"name":"Copter_Boy","steam_id":76561198322921312,"connected_time":279000000000,"state":"active","ping":46},{"user_id":294,"name":"ThatGamingKiwi","steam_id":76561199170522237,"connected_time":6974000000000,"state":"active","ping":82},{"user_id":393,"name":"Soundwave","steam_id":76561198089713190,"connected_time":275000000000,"state":"active","ping":54},{"user_id":322,"name":"Kinder__Egg","steam_id":76561199237000917,"connected_time":4440000000000,"state":"active","ping":80},{"user_id":395,"name":"kult","steam_id":76561198977852048,"connected_time":169000000000,"state":"active","ping":88},{"user_id":383,"name":"Literally a Trans Woman","steam_id":76561198054639925,"connected_time":1003000000000,"state":"active","ping":46},{"user_id":394,"name":"that is pristine","steam_id":76561198830293087,"connected_time":203000000000,"state":"active","ping":60}]},{"server_id":15,"name":"Uncletopia | New York City | 3 | Stopwatch","name_short":"nyc-3","host":"nyc-1.us.uncletopia.com","port":27035,"enabled":true,"region":"us-east","cc":"us","latitude":40.73061,"longitude":-73.93524,"reserved":0,"last_update":"0001-01-01T00:00:00Z","name_a2s":"Uncletopia | New York City | 3 | Stopwatch","protocol":17,"map":"workshop/koth_product_final.ugc454272353","folder":"tf","game":"Team Fortress","app_id":440,"player_count":1,"max_players":24,"Bots":0,"server_type":"Dedicated","server_os":"Linux","password":true,"vac":true,"version":"7961495","steam_id":85568392924742820,"keywords":["cp","nocrits","nodmgspread","uncletopia"],"game_id":440,"stv_port":27036,"stv_name":"Uncletopia | New York City | 3 | Stopwatch | STV","players":[{"user_id":19,"name":"GossamerMoon{SHE/HER}","steam_id":76561198216909469,"connected_time":194000000000,"state":"active","ping":75}]},{"server_id":16,"name":"Uncletopia | New York City | 4 | Community","name_short":"nyc-4","host":"nyc-1.us.uncletopia.com","port":27045,"enabled":true,"region":"us-east","cc":"us","latitude":40.73061,"longitude":-73.93524,"reserved":0,"last_update":"0001-01-01T00:00:00Z","name_a2s":"Uncletopia | New York City | 4 | Community","protocol":17,"map":"workshop/koth_ramjam_rc1.ugc459778887","folder":"tf","game":"Team Fortress","app_id":440,"player_count":0,"max_players":24,"Bots":0,"server_type":"Dedicated","server_os":"Linux","password":true,"vac":true,"version":"7961495","steam_id":85568392924742821,"keywords":["cp","nocrits","nodmgspread","uncletopia"],"game_id":440,"stv_port":27046,"stv_name":"Uncletopia | New York City | 4 | Community | STV","players":null},{"server_id":142,"name":"Uncletopia | S√£o Paulo | 1 | All Maps","name_short":"sao-1","host":"sao-1.br.uncletopia.com","port":27015,"enabled":true,"region":"sa","cc":"br","latitude":-23.533773,"longitude":-46.62529,"reserved":0,"last_update":"0001-01-01T00:00:00Z","name_a2s":"Uncletopia | S√£o Paulo | 1 | All Maps","protocol":17,"map":"cp_process_final","folder":"tf","game":"Team Fortress","app_id":440,"player_count":17,"max_players":24,"Bots":0,"server_type":"Dedicated","server_os":"Linux","password":true,"vac":true,"version":"7961495","steam_id":85568392924469996,"keywords":["cp","nocrits","nodmgspread","uncletopia"],"game_id":440,"stv_port":27016,"stv_name":"Uncletopia | S√£o Paulo | 1 | All Maps | STV","players":[{"user_id":147,"name":"Hedgehog Hater","steam_id":76561198285925255,"connected_time":891000000000,"state":"active","ping":59},{"user_id":143,"name":"Dreams","steam_id":76561198304148824,"connected_time":1362000000000,"state":"active","ping":84},{"user_id":140,"name":"Jetology","steam_id":76561198102782759,"connected_time":1780000000000,"state":"active","ping":176},{"user_id":118,"name":"Netre","steam_id":76561198145332676,"connected_time":3351000000000,"state":"active","ping":72},{"user_id":128,"name":"MathyG","steam_id":76561198825900597,"connected_time":2521000000000,"state":"active","ping":90},{"user_id":129,"name":"Gogoyle50","steam_id":76561198148524228,"connected_time":2473000000000,"state":"active","ping":46},{"user_id":138,"name":"paffman","steam_id":76561199100094069,"connected_time":1819000000000,"state":"active","ping":87},{"user_id":86,"name":"Net15","steam_id":76561198400127080,"connected_time":7118000000000,"state":"active","ping":77},{"user_id":90,"name":"saltyf","steam_id":76561198371487673,"connected_time":6668000000000,"state":"active","ping":43},{"user_id":156,"name":"SicknTired","steam_id":76561198038829714,"connected_time":337000000000,"state":"active","ping":199},{"user_id":157,"name":"Pyro","steam_id":76561198256242118,"connected_time":6000000000,"state":"spawning","ping":54},{"user_id":100,"name":"Adolf_Dripler_1945","steam_id":76561198963738808,"connected_time":5428000000000,"state":"active","ping":42},{"user_id":94,"name":"RafaelMRC","steam_id":76561198403003580,"connected_time":6297000000000,"state":"active","ping":46},{"user_id":152,"name":"Sangury","steam_id":76561198020224591,"connected_time":587000000000,"state":"active","ping":98},{"user_id":154,"name":"Alakamame","steam_id":76561198043907327,"connected_time":502000000000,"state":"active","ping":103},{"user_id":135,"name":"Heythan","steam_id":76561198083330827,"connected_time":2126000000000,"state":"active","ping":75},{"user_id":139,"name":"taterwaffles","steam_id":76561198034968060,"connected_time":1783000000000,"state":"active","ping":176}]},{"server_id":143,"name":"Uncletopia | S√£o Paulo | 2 | Community","name_short":"sao-2","host":"sao-2.br.uncletopia.com","port":27015,"enabled":true,"region":"sa","cc":"br","latitude":-23.533773,"longitude":-46.62529,"reserved":0,"last_update":"0001-01-01T00:00:00Z","name_a2s":"Uncletopia | S√£o Paulo | 2 | Community","protocol":17,"map":"workshop/koth_kemptown_rc1.ugc767410655","folder":"tf","game":"Team Fortress","app_id":440,"player_count":0,"max_players":24,"Bots":0,"server_type":"Dedicated","server_os":"Linux","password":true,"vac":true,"version":"7961495","steam_id":85568392924485349,"keywords":["cp","nocrits","nodmgspread","uncletopia"],"game_id":440,"stv_port":27016,"stv_name":"Uncletopia | S√£o Paulo | 2 | Community | STV","players":null},{"server_id":7,"name":"Uncletopia | Seattle | 1 | All Maps","name_short":"sea-1","host":"sea-1.us.uncletopia.com","port":27015,"enabled":true,"region":"us-west","cc":"us","latitude":47.608013,"longitude":-122.33517,"reserved":0,"last_update":"0001-01-01T00:00:00Z","name_a2s":"Uncletopia | Seattle | 1 | All Maps","protocol":17,"map":"pl_pier","folder":"tf","game":"Team Fortress","app_id":440,"player_count":24,"max_players":24,"Bots":0,"server_type":"Dedicated","server_os":"Linux","password":true,"vac":true,"version":"7961495","steam_id":85568392924469997,"keywords":["nocrits","nodmgspread","payload","uncletopia"],"game_id":440,"stv_port":27016,"stv_name":"Uncletopia | Seattle | 1 | All Maps | STV","players":[{"user_id":268,"name":"Little Linguine","steam_id":76561198816986370,"connected_time":2915000000000,"state":"active","ping":43},{"user_id":302,"name":"rad killl raccoon","steam_id":76561198980975595,"connected_time":1452000000000,"state":"active","ping":50},{"user_id":311,"name":"Maxthetic","steam_id":76561198238368418,"connected_time":884000000000,"state":"active","ping":64},{"user_id":271,"name":"my mom","steam_id":76561199225201569,"connected_time":2883000000000,"state":"active","ping":107},{"user_id":247,"name":"HAT-WEARING‚Ñ¢ Maggot Gamer Cat","steam_id":76561197973992705,"connected_time":5268000000000,"state":"active","ping":63},{"user_id":308,"name":"Bush.exe","steam_id":76561198124385307,"connected_time":980000000000,"state":"active","ping":120},{"user_id":294,"name":"Toaster (Hamilton Beach)","steam_id":76561198039891934,"connected_time":2204000000000,"state":"active","ping":66},{"user_id":306,"name":"Deluxe_Taco34","steam_id":76561199037653437,"connected_time":1036000000000,"state":"active","ping":159},{"user_id":295,"name":"Gloiben Glubula","steam_id":76561198045441307,"connected_time":2203000000000,"state":"active","ping":139},{"user_id":278,"name":"MyHeadHz","steam_id":76561198090654531,"connected_time":2553000000000,"state":"active","ping":52},{"user_id":279,"name":"SomeRandomBetaFish","steam_id":76561198827731399,"connected_time":2534000000000,"state":"active","ping":69},{"user_id":313,"name":"Alchemist","steam_id":76561198094238189,"connected_time":770000000000,"state":"active","ping":89},{"user_id":281,"name":"the Grimm Lad","steam_id":76561198151908409,"connected_time":2387000000000,"state":"active","ping":110},{"user_id":256,"name":"Batso","steam_id":76561198106589452,"connected_time":3996000000000,"state":"active","ping":82},{"user_id":309,"name":"artemisjackson2","steam_id":76561199094686268,"connected_time":936000000000,"state":"active","ping":107},{"user_id":285,"name":"Wheaty","steam_id":76561198003553412,"connected_time":2352000000000,"state":"active","ping":51},{"user_id":283,"name":"BlazedBunny","steam_id":76561198243610560,"connected_time":2378000000000,"state":"active","ping":80},{"user_id":310,"name":"Dryruins","steam_id":76561198927146689,"connected_time":885000000000,"state":"active","ping":120},{"user_id":286,"name":"Yogenfruz","steam_id":76561198039460264,"connected_time":2352000000000,"state":"active","ping":111},{"user_id":287,"name":"Jeffery","steam_id":76561198352805460,"connected_time":2306000000000,"state":"active","ping":74},{"user_id":289,"name":"Useless","steam_id":76561198116079299,"connected_time":2299000000000,"state":"active","ping":49},{"user_id":312,"name":"dr. Doofenshmirtz","steam_id":76561199128878523,"connected_time":879000000000,"state":"active","ping":76},{"user_id":314,"name":"tqman","steam_id":76561199031963925,"connected_time":74000000000,"state":"active","ping":56},{"user_id":303,"name":"MrYadaization","steam_id":76561198050770818,"connected_time":1097000000000,"state":"active","ping":50}]},{"server_id":119,"name":"Uncletopia | Seattle | 2 | All Maps","name_short":"sea-2","host":"sea-1.us.uncletopia.com","port":27025,"enabled":true,"region":"us-west","cc":"us","latitude":47.608013,"longitude":-122.33517,"reserved":0,"last_update":"0001-01-01T00:00:00Z","name_a2s":"Uncletopia | Seattle | 2 | All Maps","protocol":17,"map":"koth_cascade","folder":"tf","game":"Team Fortress","app_id":440,"player_count":0,"max_players":24,"Bots":0,"server_type":"Dedicated","server_os":"Linux","password":true,"vac":true,"version":"7961495","steam_id":85568392924469998,"keywords":["cp","nocrits","nodmgspread","uncletopia"],"game_id":440,"stv_port":27026,"stv_name":"Uncletopia | Seattle | 2 | All Maps | STV","players":null},{"server_id":406,"name":"Uncletopia | Seattle | 3 | Stopwatch","name_short":"sea-3","host":"sea-1.us.uncletopia.com","port":27035,"enabled":true,"region":"us-west","cc":"us","latitude":47.608013,"longitude":-122.33517,"reserved":0,"last_update":"0001-01-01T00:00:00Z","name_a2s":"Uncletopia | Seattle | 3 | Stopwatch","protocol":17,"map":"pl_pier","folder":"tf","game":"Team Fortress","app_id":440,"player_count":0,"max_players":24,"Bots":0,"server_type":"Dedicated","server_os":"Linux","password":true,"vac":true,"version":"7961495","steam_id":85568392924515217,"keywords":["nocrits","nodmgspread","payload","uncletopia"],"game_id":440,"stv_port":27036,"stv_name":"Uncletopia | Seattle | 3 | Stopwatch | STV","players":null},{"server_id":17,"name":"Uncletopia | San Francisco | 1 | All Maps","name_short":"sfo-1","host":"sfo-1.us.uncletopia.com","port":27015,"enabled":true,"region":"us-west","cc":"us","latitude":37.77397,"longitude":-122.4313,"reserved":0,"last_update":"0001-01-01T00:00:00Z","name_a2s":"Uncletopia | San Francisco | 1 | All Maps","protocol":17,"map":"koth_cascade","folder":"tf","game":"Team Fortress","app_id":440,"player_count":3,"max_players":24,"Bots":0,"server_type":"Dedicated","server_os":"Linux","password":true,"vac":true,"version":"7961495","steam_id":85568392924469999,"keywords":["cp","nocrits","nodmgspread","uncletopia"],"game_id":440,"stv_port":27016,"stv_name":"Uncletopia | San Francisco | 1 | All Maps | STV","players":[{"user_id":20,"name":"SPYERLAND","steam_id":76561199204772421,"connected_time":877000000000,"state":"active","ping":54},{"user_id":21,"name":"Emeralddragon2","steam_id":76561197978059428,"connected_time":699000000000,"state":"active","ping":66},{"user_id":22,"name":"Petrivus","steam_id":76561198202152453,"connected_time":611000000000,"state":"active","ping":57}]},{"server_id":18,"name":"Uncletopia | San Francisco | 2 | All Maps","name_short":"sfo-2","host":"sfo-1.us.uncletopia.com","port":27025,"enabled":true,"region":"us-west","cc":"us","latitude":37.77397,"longitude":-122.4313,"reserved":0,"last_update":"0001-01-01T00:00:00Z","name_a2s":"Uncletopia | San Francisco | 2 | All Maps","protocol":17,"map":"pl_swiftwater_final1","folder":"tf","game":"Team Fortress","app_id":440,"player_count":0,"max_players":24,"Bots":0,"server_type":"Dedicated","server_os":"Linux","password":true,"vac":true,"version":"7961495","steam_id":85568392924470000,"keywords":["nocrits","nodmgspread","payload","uncletopia"],"game_id":440,"stv_port":27026,"stv_name":"Uncletopia | San Francisco | 2 | All Maps | STV","players":null},{"server_id":19,"name":"Uncletopia | San Francisco | 3 | Stopwatch","name_short":"sfo-3","host":"sfo-1.us.uncletopia.com","port":27035,"enabled":true,"region":"us-west","cc":"us","latitude":37.77397,"longitude":-122.4313,"reserved":0,"last_update":"0001-01-01T00:00:00Z","name_a2s":"Uncletopia | San Francisco | 3 | Stopwatch","protocol":17,"map":"cp_sunshine","folder":"tf","game":"Team Fortress","app_id":440,"player_count":0,"max_players":24,"Bots":0,"server_type":"Dedicated","server_os":"Linux","password":true,"vac":true,"version":"7961495","steam_id":85568392924742824,"keywords":["cp","nocrits","nodmgspread","uncletopia"],"game_id":440,"stv_port":27036,"stv_name":"Uncletopia | San Francisco | 3 | Stopwatch | STV","players":null},{"server_id":20,"name":"Uncletopia | San Francisco | 4 | Community","name_short":"sfo-4","host":"sfo-1.us.uncletopia.com","port":27045,"enabled":true,"region":"us-west","cc":"us","latitude":37.77397,"longitude":-122.4313,"reserved":0,"last_update":"0001-01-01T00:00:00Z","name_a2s":"Uncletopia | San Francisco | 4 | Community","protocol":17,"map":"workshop/koth_trenchfoot_b1a.ugc731436616","folder":"tf","game":"Team Fortress","app_id":440,"player_count":0,"max_players":24,"Bots":0,"server_type":"Dedicated","server_os":"Linux","password":true,"vac":true,"version":"7961495","steam_id":85568392924742826,"keywords":["cp","nocrits","nodmgspread","uncletopia"],"game_id":440,"stv_port":27046,"stv_name":"Uncletopia | San Francisco | 4 | Community | STV","players":null},{"server_id":141,"name":"Uncletopia | Sydney | 1 | All Maps","name_short":"syd-1","host":"syd-1.au.uncletopia.com","port":27015,"enabled":true,"region":"au","cc":"au","latitude":-33.865143,"longitude":151.2099,"reserved":0,"last_update":"0001-01-01T00:00:00Z","name_a2s":"Uncletopia | Sydney | 1 | All Maps","protocol":17,"map":"koth_lakeside_final","folder":"tf","game":"Team Fortress","app_id":440,"player_count":0,"max_players":24,"Bots":0,"server_type":"Dedicated","server_os":"Linux","password":true,"vac":true,"version":"7961495","steam_id":85568392924470001,"keywords":["cp","nocrits","nodmgspread","uncletopia"],"game_id":440,"stv_port":27016,"stv_name":"Uncletopia | Sydney | 1 | All Maps | STV","players":null},{"server_id":123,"name":"Uncletopia | Sydney | 2 | All Maps","name_short":"syd-2","host":"syd-1.au.uncletopia.com","port":27025,"enabled":true,"region":"au","cc":"au","latitude":-33.865143,"longitude":151.2099,"reserved":0,"last_update":"0001-01-01T00:00:00Z","name_a2s":"Uncletopia | Sydney | 2 | All Maps","protocol":17,"map":"koth_viaduct","folder":"tf","game":"Team Fortress","app_id":440,"player_count":0,"max_players":24,"Bots":0,"server_type":"Dedicated","server_os":"Linux","password":true,"vac":true,"version":"7961495","steam_id":85568392924470002,"keywords":["cp","nocrits","nodmgspread","uncletopia"],"game_id":440,"stv_port":27026,"stv_name":"Uncletopia | Sydney | 2 | All Maps | STV","players":null},{"server_id":395,"name":"Uncletopia | Sydney | 3 | All Maps","name_short":"syd-3","host":"syd-1.au.uncletopia.com","port":27035,"enabled":true,"region":"au","cc":"au","latitude":-33.865143,"longitude":151.2099,"reserved":0,"last_update":"0001-01-01T00:00:00Z","name_a2s":"Uncletopia | Sydney | 3 | All Maps","protocol":17,"map":"koth_highpass","folder":"tf","game":"Team Fortress","app_id":440,"player_count":0,"max_players":24,"Bots":0,"server_type":"Dedicated","server_os":"Linux","password":true,"vac":true,"version":"7961495","steam_id":85568392925194467,"keywords":["cp","nocrits","nodmgspread","uncletopia"],"game_id":440,"stv_port":27036,"stv_name":"Uncletopia | Sydney | 3 | All Maps | STV","players":null},{"server_id":396,"name":"Uncletopia | Sydney | 4 | All Maps","name_short":"syd-4","host":"syd-1.au.uncletopia.com","port":27045,"enabled":true,"region":"au","cc":"au","latitude":-33.865143,"longitude":151.2099,"reserved":0,"last_update":"0001-01-01T00:00:00Z","name_a2s":"Uncletopia | Sydney | 4 | All Maps","protocol":17,"map":"koth_viaduct","folder":"tf","game":"Team Fortress","app_id":440,"player_count":0,"max_players":24,"Bots":0,"server_type":"Dedicated","server_os":"Linux","password":true,"vac":true,"version":"7961495","steam_id":85568392925397958,"keywords":["cp","nocrits","nodmgspread","uncletopia"],"game_id":440,"stv_port":27046,"stv_name":"Uncletopia | Sydney | 4 | All Maps | STV","players":null},{"server_id":58,"name":"Uncletopia | Sydney | 5 | Stopwatch","name_short":"syd-5","host":"syd-1.au.uncletopia.com","port":27055,"enabled":true,"region":"au","cc":"au","latitude":-33.865143,"longitude":151.2099,"reserved":0,"last_update":"0001-01-01T00:00:00Z","name_a2s":"Uncletopia | Sydney | 5 | Stopwatch","protocol":17,"map":"cp_process_final","folder":"tf","game":"Team Fortress","app_id":440,"player_count":0,"max_players":24,"Bots":0,"server_type":"Dedicated","server_os":"Linux","password":true,"vac":true,"version":"7961495","steam_id":85568392925397959,"keywords":["cp","nocrits","nodmgspread","uncletopia"],"game_id":440,"stv_port":27056,"stv_name":"Uncletopia | Sydney | 5 | Stopwatch | STV","players":null},{"server_id":59,"name":"Uncletopia | Sydney | 6 | Community","name_short":"syd-6","host":"syd-1.au.uncletopia.com","port":27065,"enabled":true,"region":"au","cc":"au","latitude":-33.865143,"longitude":151.2099,"reserved":0,"last_update":"0001-01-01T00:00:00Z","name_a2s":"Uncletopia | Sydney | 6 | Community","protocol":17,"map":"workshop/pl_cashworks_final1.ugc2904065412","folder":"tf","game":"Team Fortress","app_id":440,"player_count":0,"max_players":24,"Bots":0,"server_type":"Dedicated","server_os":"Linux","password":true,"vac":true,"version":"7961495","steam_id":85568392925397960,"keywords":["nocrits","nodmgspread","payload","uncletopia"],"game_id":440,"stv_port":27066,"stv_name":"Uncletopia | Sydney | 6 | Community | STV","players":null},{"server_id":49,"name":"Uncletopia | Warsaw | 1 | One Thousand Uncles","name_short":"waw-1","host":"waw-1.pl.uncletopia.com","port":27015,"enabled":true,"region":"eu","cc":"pl","latitude":52.2297,"longitude":21.017532,"reserved":0,"last_update":"0001-01-01T00:00:00Z","name_a2s":"Uncletopia | Warsaw | 1 | One Thousand Uncles","protocol":17,"map":"cp_mercenarypark","folder":"tf","game":"Team Fortress","app_id":440,"player_count":30,"max_players":32,"Bots":16,"server_type":"Dedicated","server_os":"Linux","password":true,"vac":true,"version":"7961495","steam_id":85568392925397850,"keywords":["alltalk","bots","cp","danepve","increased_maxplayers","nocrits","norespawntime","uncletopia"],"game_id":440,"stv_port":0,"stv_name":"","players":[{"user_id":279,"name":"Horny Police","steam_id":76561198213089804,"connected_time":4167000000000,"state":"active","ping":56},{"user_id":336,"name":"The Troglodyte","steam_id":76561199119744358,"connected_time":1515000000000,"state":"active","ping":77},{"user_id":338,"name":"pyro","steam_id":76561199255856612,"connected_time":1270000000000,"state":"active","ping":40},{"user_id":250,"name":"riaan222","steam_id":76561198167235331,"connected_time":5369000000000,"state":"active","ping":234},{"user_id":255,"name":"God Of Why (Saul Godman¬Æ)","steam_id":76561199007495784,"connected_time":4756000000000,"state":"active","ping":108},{"user_id":346,"name":"(„Å£‚óî‚ó°‚óî)„Å£ ‚ô• ÁÑ°ÈÇ™Ê∞ó","steam_id":76561199096911882,"connected_time":136000000000,"state":"active","ping":87},{"user_id":337,"name":"Officerpogchamp","steam_id":76561199089266811,"connected_time":1323000000000,"state":"active","ping":309},{"user_id":275,"name":"JellieGamerYT","steam_id":76561199113839333,"connected_time":4505000000000,"state":"active","ping":78},{"user_id":347,"name":"ROBOTKKPL","steam_id":76561199243303688,"connected_time":126000000000,"state":"spawning","ping":86},{"user_id":307,"name":"Cock Man","steam_id":76561198283638723,"connected_time":2416000000000,"state":"active","ping":71},{"user_id":326,"name":"Hazisher","steam_id":76561199244861836,"connected_time":2133000000000,"state":"active","ping":127},{"user_id":341,"name":"–ß–∏—Ö—É–∞—Ö—É–∞","steam_id":76561199497579495,"connected_time":851000000000,"state":"active","ping":89},{"user_id":343,"name":"Lukas","steam_id":76561198009118452,"connected_time":742000000000,"state":"active","ping":65},{"user_id":349,"name":"ùíØùìáùìäùìàùìÅùí∂ùìã228","steam_id":76561199229195988,"connected_time":64000000000,"state":"active","ping":95}]},{"server_id":50,"name":"Uncletopia | Warsaw | 2 | One Thousand Uncles","name_short":"waw-2","host":"waw-1.pl.uncletopia.com","port":27025,"enabled":true,"region":"eu","cc":"pl","latitude":52.2297,"longitude":21.017532,"reserved":0,"last_update":"0001-01-01T00:00:00Z","name_a2s":"Uncletopia | Warsaw | 2 | One Thousand Uncles","protocol":17,"map":"cp_dustbowl","folder":"tf","game":"Team Fortress","app_id":440,"player_count":31,"max_players":32,"Bots":16,"server_type":"Dedicated","server_os":"Linux","password":true,"vac":true,"version":"7961495","steam_id":85568392925397851,"keywords":["alltalk","bots","cp","danepve","increased_maxplayers","nocrits","norespawntime","uncletopia"],"game_id":440,"stv_port":0,"stv_name":"","players":[{"user_id":306,"name":"Bottle O' Scrumpy","steam_id":76561199244250562,"connected_time":163000000000,"state":"active","ping":120},{"user_id":269,"name":"Shadowwalker","steam_id":76561198344642637,"connected_time":3408000000000,"state":"active","ping":178},{"user_id":298,"name":"Lgmrszd","steam_id":76561198136231126,"connected_time":1026000000000,"state":"active","ping":163},{"user_id":239,"name":"Ando","steam_id":76561197994056083,"connected_time":4933000000000,"state":"active","ping":69},{"user_id":299,"name":"Dr.Darkflesh","steam_id":76561198235484980,"connected_time":990000000000,"state":"active","ping":67},{"user_id":308,"name":"^1MARAMA PALEX","steam_id":76561198311372563,"connected_time":55000000000,"state":"active","ping":92},{"user_id":302,"name":"The Stig (1.0) üèÅ","steam_id":76561199192721662,"connected_time":721000000000,"state":"active","ping":65},{"user_id":307,"name":"Ziemniaczki z koperkiem","steam_id":76561198829123464,"connected_time":57000000000,"state":"active","ping":44},{"user_id":294,"name":"TERRORIST","steam_id":76561199096023182,"connected_time":1362000000000,"state":"active","ping":103},{"user_id":166,"name":"womandestroyer2006","steam_id":76561198173325629,"connected_time":6890000000000,"state":"active","ping":96},{"user_id":286,"name":"sphere","steam_id":76561197971059842,"connected_time":2241000000000,"state":"active","ping":69},{"user_id":309,"name":"Desp4","steam_id":76561198040767473,"connected_time":32000000000,"state":"active","ping":86},{"user_id":191,"name":"Kaia Brodbecker","steam_id":76561198294109951,"connected_time":6215000000000,"state":"active","ping":103},{"user_id":274,"name":"Dave","steam_id":76561197991425486,"connected_time":3242000000000,"state":"active","ping":85},{"user_id":32,"name":"kakash","steam_id":76561199420637314,"connected_time":16346000000000,"state":"active","ping":75}]},{"server_id":51,"name":"Uncletopia | Warsaw | 3 | All Maps","name_short":"waw-3","host":"waw-1.pl.uncletopia.com","port":27035,"enabled":true,"region":"eu","cc":"pl","latitude":52.2297,"longitude":21.017532,"reserved":0,"last_update":"0001-01-01T00:00:00Z","name_a2s":"Uncletopia | Warsaw | 3 | All Maps","protocol":17,"map":"koth_lakeside_final","folder":"tf","game":"Team Fortress","app_id":440,"player_count":0,"max_players":24,"Bots":0,"server_type":"Dedicated","server_os":"Linux","password":true,"vac":true,"version":"7961495","steam_id":85568392925397852,"keywords":["cp","nocrits","nodmgspread","uncletopia"],"game_id":440,"stv_port":27036,"stv_name":"Uncletopia | Warsaw | 3 | All Maps | STV","players":null},{"server_id":52,"name":"Uncletopia | Warsaw | 4 | All Maps","name_short":"waw-4","host":"waw-1.pl.uncletopia.com","port":27045,"enabled":true,"region":"eu","cc":"pl","latitude":52.2297,"longitude":21.017532,"reserved":0,"last_update":"0001-01-01T00:00:00Z","name_a2s":"Uncletopia | Warsaw | 4 | All Maps","protocol":17,"map":"koth_viaduct","folder":"tf","game":"Team Fortress","app_id":440,"player_count":2,"max_players":24,"Bots":0,"server_type":"Dedicated","server_os":"Linux","password":true,"vac":true,"version":"7961495","steam_id":85568392925397853,"keywords":["cp","nocrits","nodmgspread","uncletopia"],"game_id":440,"stv_port":27046,"stv_name":"Uncletopia | Warsaw | 4 | All Maps | STV","players":[{"user_id":14,"name":"kyuta","steam_id":76561198382281653,"connected_time":594000000000,"state":"active","ping":95},{"user_id":16,"name":"kera","steam_id":76561198829818560,"connected_time":559000000000,"state":"active","ping":65}]},{"server_id":53,"name":"Uncletopia | Warsaw | 5 | Stopwatch","name_short":"waw-5","host":"waw-1.pl.uncletopia.com","port":27055,"enabled":true,"region":"eu","cc":"pl","latitude":52.2297,"longitude":21.017532,"reserved":0,"last_update":"0001-01-01T00:00:00Z","name_a2s":"Uncletopia | Warsaw | 5 | Stopwatch","protocol":17,"map":"koth_highpass","folder":"tf","game":"Team Fortress","app_id":440,"player_count":0,"max_players":24,"Bots":0,"server_type":"Dedicated","server_os":"Linux","password":true,"vac":true,"version":"7961495","steam_id":85568392925397854,"keywords":["cp","nocrits","nodmgspread","uncletopia"],"game_id":440,"stv_port":27056,"stv_name":"Uncletopia | Warsaw | 5 | Stopwatch | STV","players":null},{"server_id":54,"name":"Uncletopia | Warsaw | 6 | Community","name_short":"waw-6","host":"waw-1.pl.uncletopia.com","port":27065,"enabled":true,"region":"eu","cc":"pl","latitude":52.2297,"longitude":21.017532,"reserved":0,"last_update":"0001-01-01T00:00:00Z","name_a2s":"Uncletopia | Warsaw | 6 | Community","protocol":17,"map":"workshop/pl_corrode_rc2.ugc546577989","folder":"tf","game":"Team Fortress","app_id":440,"player_count":0,"max_players":24,"Bots":0,"server_type":"Dedicated","server_os":"Linux","password":true,"vac":true,"version":"7961495","steam_id":85568392925397856,"keywords":["nocrits","nodmgspread","payload","uncletopia"],"game_id":440,"stv_port":27066,"stv_name":"Uncletopia | Warsaw | 6 | Community | STV","players":null}]}