{"status":true,"message":"","result":[{"server_id":9,"name":"Uncletopia | Atlanta | 1 | All Maps","name_short":"atl-1","host":"atl-1.us.uncletopia.com","port":27015,"enabled":true,"region":"us-east","cc":"us","latitude":33.753746,"longitude":-84.38633,"reserved":0,"last_update":"0001-01-01T00:00:00Z","name_a2s":"Uncletopia | Atlanta | 1 | All Maps","protocol":17,"map":"pl_borneo","folder":"tf","game":"Team Fortress","app_id":440,"player_count":23,"max_players":24,"Bots":0,"server_type":"Dedicated","server_os":"Linux","password":true,"vac":true,"version":"7708610","steam_id":85568392924469982,"keywords":["nocrits","nodmgspread","payload","uncletopia"],"game_id":440,"stv_port":27016,"stv_name":"Uncletopia | Atlanta | 1 | All Maps | STV","players":[{"user_id":422,"name":"Flacco Throat GOAT","steam_id":76561198057374871,"connected_time":13000000000,"state":"spawning","ping":89},{"user_id":369,"name":"ash","steam_id":76561198127890645,"connected_time":3221000000000,"state":"active","ping":67},{"user_id":416,"name":"AmirKhaan","steam_id":76561198992403254,"connected_time":90000000000,"state":"active","ping":70},{"user_id":411,"name":"fat","steam_id":76561198101352327,"connected_time":176000000000,"state":"active","ping":56},{"user_id":412,"name":"Zhong Xina 钟新娜","steam_id":76561198044022060,"connected_time":111000000000,"state":"active","ping":51},{"user_id":403,"name":"strategic dier","steam_id":76561197999257178,"connected_time":1082000000000,"state":"active","ping":88},{"user_id":353,"name":"secret urinal chamber","steam_id":76561198098769105,"connected_time":4525000000000,"state":"active","ping":46},{"user_id":407,"name":"ATL1 | Mayhem","steam_id":76561199246637881,"connected_time":322000000000,"state":"active","ping":59},{"user_id":413,"name":"Mythic","steam_id":76561198028616665,"connected_time":108000000000,"state":"active","ping":60},{"user_id":414,"name":"Vilhelm","steam_id":76561198811818518,"connected_time":102000000000,"state":"active","ping":85},{"user_id":358,"name":"SnowStorm","steam_id":76561198095817025,"connected_time":4312000000000,"state":"active","ping":37},{"user_id":406,"name":"WastefulTrash","steam_id":76561198119003597,"connected_time":1044000000000,"state":"active","ping":62},{"user_id":423,"name":"Justario","steam_id":76561198016095410,"connected_time":2000000000,"state":"spawning","ping":75},{"user_id":409,"name":"the pyro main ever (F2P)","steam_id":76561199088545300,"connected_time":206000000000,"state":"active","ping":51},{"user_id":418,"name":"ATL6 Deez Noel","steam_id":76561198246700372,"connected_time":84000000000,"state":"active","ping":55},{"user_id":419,"name":"Waffle Wannabe","steam_id":76561198064510650,"connected_time":80000000000,"state":"active","ping":53},{"user_id":420,"name":"Sex defender","steam_id":76561199229169396,"connected_time":76000000000,"state":"active","ping":95},{"user_id":421,"name":"You can now play as Luigi","steam_id":76561198280123746,"connected_time":71000000000,"state":"active","ping":124},{"user_id":390,"name":"ATL1 | Crystron","steam_id":76561198880437428,"connected_time":2040000000000,"state":"active","ping":85},{"user_id":398,"name":"Towns","steam_id":76561198984662863,"connected_time":1361000000000,"state":"active","ping":110},{"user_id":395,"name":"ATL1 | Lancer Fan Club","steam_id":76561198355495948,"connected_time":1481000000000,"state":"active","ping":84},{"user_id":401,"name":"CH Y LA PIZZA","steam_id":76561198025668771,"connected_time":1237000000000,"state":"active","ping":104},{"user_id":296,"name":"ATL1 | p4ka","steam_id":76561198315291317,"connected_time":9308000000000,"state":"active","ping":75}]},{"server_id":400,"name":"Uncletopia | Atlanta | 3 | All Maps","name_short":"atl-3","host":"atl-1.us.uncletopia.com","port":27035,"enabled":true,"region":"us-east","cc":"us","latitude":33.753746,"longitude":-84.38633,"reserved":0,"last_update":"0001-01-01T00:00:00Z","name_a2s":"Uncletopia | Atlanta | 3 | All Maps","protocol":17,"map":"cp_snakewater_final1","folder":"tf","game":"Team Fortress","app_id":440,"player_count":5,"max_players":24,"Bots":0,"server_type":"Dedicated","server_os":"Linux","password":true,"vac":true,"version":"7708610","steam_id":85568392924515187,"keywords":["cp","nocrits","nodmgspread","uncletopia"],"game_id":440,"stv_port":27036,"stv_name":"Uncletopia | Atlanta | 3 | All Maps | STV","players":[{"user_id":349,"name":"St. Michael","steam_id":76561198037611052,"connected_time":34000000000,"state":"active","ping":57},{"user_id":342,"name":"Shuual","steam_id":76561198004395256,"connected_time":593000000000,"state":"active","ping":55},{"user_id":325,"name":"[festive] coms","steam_id":76561198359456881,"connected_time":2079000000000,"state":"active","ping":56},{"user_id":278,"name":"BurgerPizza","steam_id":76561198151256410,"connected_time":5249000000000,"state":"active","ping":125},{"user_id":323,"name":"footoftheday","steam_id":76561198052712449,"connected_time":2131000000000,"state":"active","ping":72}]},{"server_id":401,"name":"Uncletopia | Atlanta | 4 | No Payload","name_short":"atl-4","host":"atl-1.us.uncletopia.com","port":27045,"enabled":true,"region":"us-east","cc":"us","latitude":33.753746,"longitude":-84.38633,"reserved":0,"last_update":"0001-01-01T00:00:00Z","name_a2s":"Uncletopia | Atlanta | 4 | No Payload","protocol":17,"map":"plr_bananabay","folder":"tf","game":"Team Fortress","app_id":440,"player_count":0,"max_players":24,"Bots":0,"server_type":"Dedicated","server_os":"Linux","password":true,"vac":true,"version":"7708610","steam_id":85568392924515188,"keywords":["nocrits","nodmgspread","payload","uncletopia"],"game_id":440,"stv_port":27046,"stv_name":"Uncletopia | Atlanta | 4 | No Payload | STV","players":null},{"server_id":2,"name":"Uncletopia | Chicago | 1 | All Maps","name_short":"chi-1","host":"chi-1.us.uncletopia.com","port":27015,"enabled":true,"region":"us-central","cc":"us","latitude":41.881832,"longitude":-87.62318,"reserved":0,"last_update":"0001-01-01T00:00:00Z","name_a2s":"Uncletopia | Chicago | 1 | All Maps","protocol":17,"map":"koth_highpass","folder":"tf","game":"Team Fortress","app_id":440,"player_count":24,"max_players":24,"Bots":0,"server_type":"Dedicated","server_os":"Linux","password":true,"vac":true,"version":"7708610","steam_id":85568392924469984,"keywords":["cp","nocrits","nodmgspread","uncletopia"],"game_id":440,"stv_port":27016,"stv_name":"Uncletopia | Chicago | 1 | All Maps | STV","players":[{"user_id":224,"name":"SomeRandomPerson (F2p)","steam_id":76561198977045933,"connected_time":1671000000000,"state":"active","ping":84},{"user_id":242,"name":"Tyco","steam_id":76561197978414167,"connected_time":508000000000,"state":"active","ping":73},{"user_id":244,"name":"Braixen","steam_id":76561198354314389,"connected_time":247000000000,"state":"active","ping":76},{"user_id":189,"name":"Trogdor","steam_id":76561198121353181,"connected_time":4120000000000,"state":"active","ping":88},{"user_id":225,"name":"LastSpaceMarine","steam_id":76561198034706201,"connected_time":1657000000000,"state":"active","ping":52},{"user_id":228,"name":"Timbs!!","steam_id":76561198156215344,"connected_time":1497000000000,"state":"active","ping":78},{"user_id":197,"name":"Trunk Slamchest","steam_id":76561198032910884,"connected_time":3353000000000,"state":"active","ping":60},{"user_id":226,"name":"Sgt. Polaris","steam_id":76561198034752644,"connected_time":1649000000000,"state":"active","ping":66},{"user_id":227,"name":"Santa","steam_id":76561198044130442,"connected_time":1573000000000,"state":"active","ping":67},{"user_id":237,"name":"A tree","steam_id":76561198309065247,"connected_time":943000000000,"state":"active","ping":62},{"user_id":219,"name":"Taste the Pain","steam_id":76561198081617990,"connected_time":1831000000000,"state":"active","ping":87},{"user_id":114,"name":"Killroy NQP ❤","steam_id":76561198006983771,"connected_time":9589000000000,"state":"active","ping":75},{"user_id":243,"name":"Medic","steam_id":76561198067869016,"connected_time":296000000000,"state":"active","ping":42},{"user_id":239,"name":"UWBW","steam_id":76561198007524241,"connected_time":821000000000,"state":"active","ping":60},{"user_id":229,"name":"Hey","steam_id":76561198447517893,"connected_time":1441000000000,"state":"active","ping":75},{"user_id":135,"name":"Ras","steam_id":76561198123546775,"connected_time":8261000000000,"state":"active","ping":65},{"user_id":214,"name":"stop","steam_id":76561198268686419,"connected_time":2310000000000,"state":"active","ping":51},{"user_id":232,"name":"Loafus","steam_id":76561198154561111,"connected_time":1214000000000,"state":"active","ping":74},{"user_id":233,"name":"Cleric","steam_id":76561198045887994,"connected_time":1210000000000,"state":"active","ping":49},{"user_id":234,"name":"Room_237","steam_id":76561199135081315,"connected_time":1208000000000,"state":"active","ping":78},{"user_id":217,"name":"DuckKey","steam_id":76561198904477889,"connected_time":2154000000000,"state":"active","ping":59},{"user_id":230,"name":"minion from minions","steam_id":76561199001464827,"connected_time":1424000000000,"state":"active","ping":81},{"user_id":238,"name":"groda_spel","steam_id":76561198121349387,"connected_time":870000000000,"state":"active","ping":57},{"user_id":245,"name":"wow","steam_id":76561198841016072,"connected_time":247000000000,"state":"active","ping":103}]},{"server_id":106,"name":"Uncletopia | Chicago | 2 | All Maps","name_short":"chi-2","host":"chi-1.us.uncletopia.com","port":27025,"enabled":true,"region":"us-central","cc":"us","latitude":41.881832,"longitude":-87.62318,"reserved":0,"last_update":"0001-01-01T00:00:00Z","name_a2s":"Uncletopia | Chicago | 2 | All Maps","protocol":17,"map":"pl_thundermountain","folder":"tf","game":"Team Fortress","app_id":440,"player_count":24,"max_players":24,"Bots":0,"server_type":"Dedicated","server_os":"Linux","password":true,"vac":true,"version":"7708610","steam_id":85568392924469985,"keywords":["nocrits","nodmgspread","payload","uncletopia"],"game_id":440,"stv_port":27026,"stv_name":"Uncletopia | Chicago | 2 | All Maps | STV","players":[{"user_id":182,"name":"HexT","steam_id":76561199085359931,"connected_time":680000000000,"state":"active","ping":62},{"user_id":171,"name":"Puffinsting","steam_id":76561198071040516,"connected_time":1069000000000,"state":"active","ping":50},{"user_id":134,"name":"Vampire Juicebox","steam_id":76561198148652081,"connected_time":3391000000000,"state":"active","ping":117},{"user_id":188,"name":"火星 | Marsy","steam_id":76561198014979892,"connected_time":572000000000,"state":"active","ping":68},{"user_id":148,"name":"Sod","steam_id":76561198130329863,"connected_time":2733000000000,"state":"active","ping":56},{"user_id":120,"name":"Nobody","steam_id":76561198286486517,"connected_time":4913000000000,"state":"active","ping":61},{"user_id":168,"name":"notmanhattan","steam_id":76561198143117561,"connected_time":1534000000000,"state":"active","ping":43},{"user_id":197,"name":"sluj","steam_id":76561198162838978,"connected_time":430000000000,"state":"active","ping":93},{"user_id":175,"name":"dbelow_","steam_id":76561198056148853,"connected_time":859000000000,"state":"active","ping":66},{"user_id":190,"name":"ki3ly4","steam_id":76561198249172818,"connected_time":528000000000,"state":"active","ping":128},{"user_id":191,"name":"Txhiggins","steam_id":76561198117531009,"connected_time":527000000000,"state":"active","ping":77},{"user_id":185,"name":"Micah","steam_id":76561198006837982,"connected_time":649000000000,"state":"active","ping":95},{"user_id":159,"name":"PintoVero","steam_id":76561198088369252,"connected_time":1724000000000,"state":"active","ping":63},{"user_id":199,"name":"Ax0L_","steam_id":76561199008960175,"connected_time":180000000000,"state":"active","ping":48},{"user_id":180,"name":"courtham","steam_id":76561198092023855,"connected_time":757000000000,"state":"active","ping":66},{"user_id":193,"name":"YAY","steam_id":76561198004021385,"connected_time":500000000000,"state":"active","ping":95},{"user_id":186,"name":"professional dumbass","steam_id":76561198848075481,"connected_time":647000000000,"state":"active","ping":51},{"user_id":200,"name":"Joe Swanson","steam_id":76561199089907740,"connected_time":18000000000,"state":"active","ping":103},{"user_id":109,"name":"GreekGoat_Coffee","steam_id":76561198129331088,"connected_time":5625000000000,"state":"active","ping":47},{"user_id":194,"name":"vinny6","steam_id":76561198386735728,"connected_time":499000000000,"state":"active","ping":66},{"user_id":195,"name":"Jose","steam_id":76561199008010827,"connected_time":490000000000,"state":"active","ping":76},{"user_id":153,"name":"asfd","steam_id":76561198012566405,"connected_time":2146000000000,"state":"active","ping":71},{"user_id":196,"name":"Le couteau dans ta gorge.","steam_id":76561199174579733,"connected_time":444000000000,"state":"active","ping":80},{"user_id":167,"name":"ObiWonJacobi","steam_id":76561198041921071,"connected_time":1627000000000,"state":"active","ping":63}]},{"server_id":402,"name":"Uncletopia | Chicago | 3 | All Maps","name_short":"chi-3","host":"chi-1.us.uncletopia.com","port":27035,"enabled":true,"region":"us-central","cc":"us","latitude":41.881832,"longitude":-87.62318,"reserved":0,"last_update":"0001-01-01T00:00:00Z","name_a2s":"Uncletopia | Chicago | 3 | All Maps","protocol":17,"map":"koth_viaduct","folder":"tf","game":"Team Fortress","app_id":440,"player_count":0,"max_players":24,"Bots":0,"server_type":"Dedicated","server_os":"Linux","password":true,"vac":true,"version":"7708610","steam_id":85568392924515191,"keywords":["cp","nocrits","nodmgspread","uncletopia"],"game_id":440,"stv_port":27036,"stv_name":"Uncletopia | Chicago | 3 | All Maps | STV","players":null},{"server_id":403,"name":"Uncletopia | Chicago | 4 | All Maps","name_short":"chi-4","host":"chi-1.us.uncletopia.com","port":27045,"enabled":true,"region":"us-central","cc":"us","latitude":41.881832,"longitude":-87.62318,"reserved":0,"last_update":"0001-01-01T00:00:00Z","name_a2s":"Uncletopia | Chicago | 4 | All Maps","protocol":17,"map":"cp_sunshine","folder":"tf","game":"Team Fortress","app_id":440,"player_count":24,"max_players":24,"Bots":0,"server_type":"Dedicated","server_os":"Linux","password":true,"vac":true,"version":"7708610","steam_id":85568392924515193,"keywords":["cp","nocrits","nodmgspread","uncletopia"],"game_id":440,"stv_port":27046,"stv_name":"Uncletopia | Chicago | 4 | All Maps | STV","players":[{"user_id":121,"name":"Rukks","steam_id":76561197993918954,"connected_time":2268000000000,"state":"active","ping":60},{"user_id":141,"name":"Droopy Loopy","steam_id":76561198117917407,"connected_time":582000000000,"state":"active","ping":68},{"user_id":139,"name":"Dank","steam_id":76561198157983180,"connected_time":663000000000,"state":"active","ping":61},{"user_id":101,"name":"Fresh Lychee","steam_id":76561198045399559,"connected_time":4294000000000,"state":"active","ping":59},{"user_id":14,"name":"The World's Softest Sandwich","steam_id":76561198015577707,"connected_time":10123000000000,"state":"active","ping":78},{"user_id":136,"name":"Cheese","steam_id":76561199326006322,"connected_time":1082000000000,"state":"active","ping":50},{"user_id":149,"name":"Lenny","steam_id":76561198183943137,"connected_time":227000000000,"state":"active","ping":59},{"user_id":147,"name":"Liquid Snake","steam_id":76561198045447553,"connected_time":284000000000,"state":"active","ping":95},{"user_id":116,"name":"_DrunkenGibberish_","steam_id":76561199123070071,"connected_time":2412000000000,"state":"active","ping":91},{"user_id":146,"name":"just pog this time","steam_id":76561198000111057,"connected_time":290000000000,"state":"active","ping":63},{"user_id":30,"name":"workin for snapple","steam_id":76561198013732450,"connected_time":9028000000000,"state":"active","ping":55},{"user_id":33,"name":"jolo","steam_id":76561198042831480,"connected_time":8940000000000,"state":"active","ping":67},{"user_id":131,"name":"Wang of Wall St","steam_id":76561198047460598,"connected_time":1254000000000,"state":"active","ping":66},{"user_id":142,"name":"YourXmasGiftChubbyBlobSealPillo","steam_id":76561198041767882,"connected_time":524000000000,"state":"active","ping":54},{"user_id":148,"name":"Miner2495","steam_id":76561198445904523,"connected_time":278000000000,"state":"active","ping":70},{"user_id":127,"name":"Wolbey","steam_id":76561198042148095,"connected_time":1448000000000,"state":"active","ping":42},{"user_id":97,"name":"yitz","steam_id":76561198375575841,"connected_time":4816000000000,"state":"active","ping":58},{"user_id":150,"name":"Owl Pacino","steam_id":76561197979970666,"connected_time":220000000000,"state":"active","ping":58},{"user_id":119,"name":"6t26j","steam_id":76561198278282836,"connected_time":2401000000000,"state":"active","ping":58},{"user_id":133,"name":"Spiffyo™","steam_id":76561198169937791,"connected_time":1240000000000,"state":"active","ping":104},{"user_id":153,"name":"And","steam_id":76561198366997281,"connected_time":194000000000,"state":"active","ping":68},{"user_id":137,"name":"PyroTechno","steam_id":76561198060929872,"connected_time":918000000000,"state":"active","ping":83},{"user_id":152,"name":"MenacingMekhet","steam_id":76561198053165462,"connected_time":218000000000,"state":"active","ping":60},{"user_id":106,"name":"beefandriceconsumer666","steam_id":76561198232617936,"connected_time":3626000000000,"state":"active","ping":50}]},{"server_id":36,"name":"Uncletopia | Chicago | 5 | All Maps","name_short":"chi-5","host":"chi-2.us.uncletopia.com","port":27015,"enabled":true,"region":"us-central","cc":"us","latitude":41.881832,"longitude":-87.62318,"reserved":0,"last_update":"0001-01-01T00:00:00Z","name_a2s":"Uncletopia | Chicago | 5 | All Maps","protocol":17,"map":"cp_snakewater_final1","folder":"tf","game":"Team Fortress","app_id":440,"player_count":0,"max_players":24,"Bots":0,"server_type":"Dedicated","server_os":"Linux","password":true,"vac":true,"version":"7708610","steam_id":85568392924866362,"keywords":["cp","nocrits","nodmgspread","uncletopia"],"game_id":440,"stv_port":0,"stv_name":"","players":null},{"server_id":37,"name":"Uncletopia | Chicago | 6 | All Maps","name_short":"chi-6","host":"chi-2.us.uncletopia.com","port":27025,"enabled":true,"region":"us-central","cc":"us","latitude":41.881832,"longitude":-87.62318,"reserved":0,"last_update":"0001-01-01T00:00:00Z","name_a2s":"Uncletopia | Chicago | 6 | All Maps","protocol":17,"map":"koth_cascade","folder":"tf","game":"Team Fortress","app_id":440,"player_count":0,"max_players":24,"Bots":0,"server_type":"Dedicated","server_os":"Linux","password":true,"vac":true,"version":"7708610","steam_id":85568392924866363,"keywords":["cp","nocrits","nodmgspread","uncletopia"],"game_id":440,"stv_port":0,"stv_name":"","players":null},{"server_id":38,"name":"Uncletopia | Chicago | 7 | No Payload","name_short":"chi-7","host":"chi-2.us.uncletopia.com","port":27035,"enabled":true,"region":"us-central","cc":"us","latitude":41.881832,"longitude":-87.62318,"reserved":0,"last_update":"0001-01-01T00:00:00Z","name_a2s":"Uncletopia | Chicago | 7 | No Payload","protocol":17,"map":"koth_viaduct","folder":"tf","game":"Team Fortress","app_id":440,"player_count":0,"max_players":24,"Bots":0,"server_type":"Dedicated","server_os":"Linux","password":true,"vac":true,"version":"7708610","steam_id":85568392924866364,"keywords":["cp","nocrits","nodmgspread","uncletopia"],"game_id":440,"stv_port":0,"stv_name":"","players":null},{"server_id":39,"name":"Uncletopia | Chicago | 8 | Community","name_short":"chi-8","host":"chi-2.us.uncletopia.com","port":27045,"enabled":true,"region":"us-central","cc":"us","latitude":41.881832,"longitude":-87.62318,"reserved":0,"last_update":"0001-01-01T00:00:00Z","name_a2s":"Uncletopia | Chicago | 8 | Community","protocol":17,"map":"workshop/koth_bagel_rc5.ugc2514036946","folder":"tf","game":"Team Fortress","app_id":440,"player_count":0,"max_players":24,"Bots":0,"server_type":"Dedicated","server_os":"Linux","password":true,"vac":true,"version":"7708610","steam_id":85568392924866365,"keywords":["cp","nocrits","nodmgspread","uncletopia"],"game_id":440,"stv_port":27046,"stv_name":"Uncletopia | Chicago | 8 | Community | STV","players":null},{"server_id":8,"name":"Uncletopia | Dallas | 1 | All Maps","name_short":"dal-1","host":"dal-1.us.uncletopia.com","port":27015,"enabled":true,"region":"us-central","cc":"us","latitude":32.779167,"longitude":-96.80889,"reserved":0,"last_update":"0001-01-01T00:00:00Z","name_a2s":"Uncletopia | Dallas | 1 | All Maps","protocol":17,"map":"pl_pier","folder":"tf","game":"Team Fortress","app_id":440,"player_count":24,"max_players":24,"Bots":0,"server_type":"Dedicated","server_os":"Linux","password":true,"vac":true,"version":"7708610","steam_id":85568392924469986,"keywords":["nocrits","nodmgspread","payload","uncletopia"],"game_id":440,"stv_port":27016,"stv_name":"Uncletopia | Dallas | 1 | All Maps | STV","players":[{"user_id":323,"name":"mud","steam_id":76561199085742317,"connected_time":684000000000,"state":"active","ping":81},{"user_id":330,"name":"An00bissmas","steam_id":76561198044084508,"connected_time":430000000000,"state":"active","ping":69},{"user_id":325,"name":"garfield","steam_id":76561198114119308,"connected_time":646000000000,"state":"active","ping":66},{"user_id":326,"name":"GarretGood","steam_id":76561198071881495,"connected_time":644000000000,"state":"active","ping":81},{"user_id":313,"name":"Dr. Bonair","steam_id":76561198129237487,"connected_time":2411000000000,"state":"active","ping":66},{"user_id":328,"name":"ToxicRelief","steam_id":76561199104367738,"connected_time":545000000000,"state":"active","ping":93},{"user_id":285,"name":"Father of Lies","steam_id":76561198985847893,"connected_time":4150000000000,"state":"active","ping":45},{"user_id":329,"name":"Theus117 [ チルノ⑨]","steam_id":76561198108902928,"connected_time":500000000000,"state":"active","ping":153},{"user_id":331,"name":"Len","steam_id":76561199141913673,"connected_time":397000000000,"state":"active","ping":94},{"user_id":318,"name":"squish","steam_id":76561198186417941,"connected_time":2079000000000,"state":"active","ping":134},{"user_id":332,"name":"King Cotton","steam_id":76561198292444376,"connected_time":396000000000,"state":"active","ping":62},{"user_id":289,"name":"Tyler\u0026Fingers","steam_id":76561198085154485,"connected_time":4079000000000,"state":"active","ping":78},{"user_id":314,"name":"moe5x","steam_id":76561198316877833,"connected_time":2398000000000,"state":"active","ping":60},{"user_id":333,"name":"firetamer2","steam_id":76561198040886980,"connected_time":395000000000,"state":"active","ping":77},{"user_id":334,"name":"Men ENJOYER.","steam_id":76561198981257947,"connected_time":386000000000,"state":"active","ping":55},{"user_id":335,"name":"axfty","steam_id":76561198000359738,"connected_time":370000000000,"state":"active","ping":73},{"user_id":336,"name":"Female Gamer","steam_id":76561199366482682,"connected_time":365000000000,"state":"active","ping":108},{"user_id":301,"name":"JustSomeInternetGuy","steam_id":76561199066037843,"connected_time":2871000000000,"state":"active","ping":54},{"user_id":339,"name":"LionLarry","steam_id":76561198320498182,"connected_time":278000000000,"state":"active","ping":109},{"user_id":337,"name":"j4ck","steam_id":76561198080041223,"connected_time":329000000000,"state":"active","ping":51},{"user_id":316,"name":"Barbacoa","steam_id":76561198331376056,"connected_time":2333000000000,"state":"active","ping":94},{"user_id":272,"name":"[LINUX] F2P=S*(M/B)+H || Spy!","steam_id":76561198093538786,"connected_time":5297000000000,"state":"active","ping":46},{"user_id":338,"name":"holymoly1645 TWITCH","steam_id":76561198079009899,"connected_time":321000000000,"state":"active","ping":81},{"user_id":279,"name":"Pump","steam_id":76561198085846167,"connected_time":4603000000000,"state":"active","ping":105}]},{"server_id":108,"name":"Uncletopia | Dallas | 2 | All Maps","name_short":"dal-2","host":"dal-1.us.uncletopia.com","port":27025,"enabled":true,"region":"us-central","cc":"us","latitude":32.779167,"longitude":-96.80889,"reserved":0,"last_update":"0001-01-01T00:00:00Z","name_a2s":"Uncletopia | Dallas | 2 | All Maps","protocol":17,"map":"pl_frontier_final","folder":"tf","game":"Team Fortress","app_id":440,"player_count":24,"max_players":24,"Bots":0,"server_type":"Dedicated","server_os":"Linux","password":true,"vac":true,"version":"7708610","steam_id":85568392924469988,"keywords":["nocrits","nodmgspread","payload","uncletopia"],"game_id":440,"stv_port":27026,"stv_name":"Uncletopia | Dallas | 2 | All Maps | STV","players":[{"user_id":172,"name":"Capitan Marijua","steam_id":76561199064758232,"connected_time":992000000000,"state":"active","ping":51},{"user_id":140,"name":"DaBubbleGuppies","steam_id":76561198253177879,"connected_time":3782000000000,"state":"active","ping":51},{"user_id":185,"name":"NotSoMewwo","steam_id":76561198130067099,"connected_time":121000000000,"state":"active","ping":60},{"user_id":177,"name":"dopadream","steam_id":76561198068383694,"connected_time":932000000000,"state":"active","ping":60},{"user_id":157,"name":"Moroes","steam_id":76561198085494609,"connected_time":2358000000000,"state":"active","ping":50},{"user_id":163,"name":"Lard Extract from a Lard Factor","steam_id":76561199016285746,"connected_time":1927000000000,"state":"active","ping":76},{"user_id":93,"name":"Lolxdloldx","steam_id":76561198136887125,"connected_time":5927000000000,"state":"active","ping":82},{"user_id":153,"name":"Dirt Road","steam_id":76561198210372012,"connected_time":2694000000000,"state":"active","ping":84},{"user_id":127,"name":"FestivizedPomsonPug","steam_id":76561198049093575,"connected_time":4322000000000,"state":"active","ping":77},{"user_id":183,"name":"fat tits haver","steam_id":76561198081681647,"connected_time":343000000000,"state":"active","ping":61},{"user_id":130,"name":"NRMN","steam_id":76561198086863106,"connected_time":4244000000000,"state":"active","ping":104},{"user_id":155,"name":"Eightyy  Fourr","steam_id":76561197960374225,"connected_time":2646000000000,"state":"active","ping":47},{"user_id":170,"name":"Passive-Aggressive Land Whale","steam_id":76561198058057999,"connected_time":1576000000000,"state":"active","ping":67},{"user_id":97,"name":"Moonflower ✦","steam_id":76561198191782483,"connected_time":5829000000000,"state":"active","ping":58},{"user_id":171,"name":"SquirrelAway™","steam_id":76561197998828619,"connected_time":1288000000000,"state":"active","ping":68},{"user_id":184,"name":"walidov","steam_id":76561198079965605,"connected_time":339000000000,"state":"active","ping":62},{"user_id":180,"name":"aisu","steam_id":76561198043768507,"connected_time":730000000000,"state":"active","ping":90},{"user_id":158,"name":"flu walrus","steam_id":76561198207940136,"connected_time":2074000000000,"state":"active","ping":57},{"user_id":176,"name":"N0xferatu","steam_id":76561198013225832,"connected_time":935000000000,"state":"active","ping":58},{"user_id":168,"name":"RetroGamerK","steam_id":76561198353075218,"connected_time":1620000000000,"state":"active","ping":49},{"user_id":182,"name":"kasper ring","steam_id":76561198263271697,"connected_time":519000000000,"state":"active","ping":66},{"user_id":159,"name":"connor","steam_id":76561198076527332,"connected_time":2019000000000,"state":"active","ping":73},{"user_id":178,"name":"Heavy","steam_id":76561198392255493,"connected_time":905000000000,"state":"active","ping":77},{"user_id":181,"name":"Corbe","steam_id":76561198353893927,"connected_time":718000000000,"state":"active","ping":67}]},{"server_id":5,"name":"Uncletopia | Frankfurt | 1 | All Maps","name_short":"frk-1","host":"frk-1.de.uncletopia.com","port":27015,"enabled":true,"region":"eu","cc":"de","latitude":50.110924,"longitude":8.682127,"reserved":0,"last_update":"0001-01-01T00:00:00Z","name_a2s":"Uncletopia | Frankfurt | 1 | All Maps","protocol":17,"map":"pl_thundermountain","folder":"tf","game":"Team Fortress","app_id":440,"player_count":13,"max_players":24,"Bots":0,"server_type":"Dedicated","server_os":"Linux","password":true,"vac":true,"version":"7708610","steam_id":85568392924469989,"keywords":["nocrits","nodmgspread","payload","uncletopia"],"game_id":440,"stv_port":27016,"stv_name":"Uncletopia | Frankfurt | 1 | All Maps | STV","players":[{"user_id":589,"name":"cheriberry","steam_id":76561198093577036,"connected_time":626000000000,"state":"active","ping":56},{"user_id":565,"name":"askulap","steam_id":76561197992018795,"connected_time":2458000000000,"state":"active","ping":74},{"user_id":598,"name":"Giga Chad Revi","steam_id":76561198288444777,"connected_time":156000000000,"state":"active","ping":101},{"user_id":572,"name":"pablo","steam_id":76561198089285014,"connected_time":2069000000000,"state":"active","ping":64},{"user_id":579,"name":"kamekame","steam_id":76561198047108054,"connected_time":1692000000000,"state":"active","ping":91},{"user_id":573,"name":"rat performance","steam_id":76561198065854668,"connected_time":2035000000000,"state":"active","ping":59},{"user_id":599,"name":"Nyasiu","steam_id":76561198033956378,"connected_time":89000000000,"state":"spawning","ping":108},{"user_id":592,"name":"Neghim","steam_id":76561198272001124,"connected_time":514000000000,"state":"active","ping":45},{"user_id":595,"name":"Carl","steam_id":76561198045638738,"connected_time":395000000000,"state":"active","ping":66},{"user_id":580,"name":"DeleteTrickster","steam_id":76561198397120242,"connected_time":1606000000000,"state":"active","ping":81},{"user_id":543,"name":"PLUTO","steam_id":76561198312436128,"connected_time":3898000000000,"state":"active","ping":127},{"user_id":582,"name":"=OKB= P4NTH3R","steam_id":76561197999204603,"connected_time":1194000000000,"state":"active","ping":55},{"user_id":594,"name":"FrozenTiddies","steam_id":76561198271916832,"connected_time":492000000000,"state":"active","ping":47}]},{"server_id":110,"name":"Uncletopia | Frankfurt | 2 | All Maps","name_short":"frk-2","host":"frk-1.de.uncletopia.com","port":27025,"enabled":true,"region":"eu","cc":"de","latitude":50.110924,"longitude":8.682127,"reserved":0,"last_update":"0001-01-01T00:00:00Z","name_a2s":"Uncletopia | Frankfurt | 2 | All Maps","protocol":17,"map":"pl_barnblitz","folder":"tf","game":"Team Fortress","app_id":440,"player_count":24,"max_players":24,"Bots":0,"server_type":"Dedicated","server_os":"Linux","password":true,"vac":true,"version":"7708610","steam_id":85568392924469990,"keywords":["nocrits","nodmgspread","payload","uncletopia"],"game_id":440,"stv_port":27026,"stv_name":"Uncletopia | Frankfurt | 2 | All Maps | STV","players":[{"user_id":463,"name":"tets","steam_id":76561198154734428,"connected_time":198000000000,"state":"active","ping":102},{"user_id":464,"name":"The Coffee","steam_id":76561198171941807,"connected_time":171000000000,"state":"active","ping":145},{"user_id":465,"name":"gart","steam_id":76561198203394358,"connected_time":162000000000,"state":"active","ping":104},{"user_id":427,"name":"Gordon Birdman","steam_id":76561198013382324,"connected_time":3172000000000,"state":"active","ping":75},{"user_id":405,"name":"Baanis","steam_id":76561198082869860,"connected_time":4974000000000,"state":"active","ping":82},{"user_id":466,"name":"Hoff","steam_id":76561198138540938,"connected_time":162000000000,"state":"active","ping":72},{"user_id":443,"name":"Prox","steam_id":76561198351490981,"connected_time":1312000000000,"state":"active","ping":56},{"user_id":462,"name":"elBarto","steam_id":76561197998380478,"connected_time":461000000000,"state":"active","ping":66},{"user_id":446,"name":"EngieAndArma","steam_id":76561199012020120,"connected_time":1294000000000,"state":"active","ping":67},{"user_id":426,"name":"Scary Gary","steam_id":76561198128659449,"connected_time":3178000000000,"state":"active","ping":150},{"user_id":360,"name":"amberkleurig","steam_id":76561198394582460,"connected_time":7206000000000,"state":"active","ping":59},{"user_id":467,"name":"Strike a pose! Gimme that walle","steam_id":76561198104896547,"connected_time":120000000000,"state":"active","ping":74},{"user_id":457,"name":"marquez","steam_id":76561198154902906,"connected_time":810000000000,"state":"active","ping":64},{"user_id":441,"name":"miko csgofast.com","steam_id":76561198167085293,"connected_time":1320000000000,"state":"active","ping":77},{"user_id":453,"name":"Котлета Бога","steam_id":76561198014808352,"connected_time":988000000000,"state":"active","ping":78},{"user_id":468,"name":"luvny","steam_id":76561198159928154,"connected_time":116000000000,"state":"active","ping":58},{"user_id":438,"name":"Vectre","steam_id":76561198129397548,"connected_time":1907000000000,"state":"active","ping":93},{"user_id":433,"name":"Jedi Knight","steam_id":76561198039030709,"connected_time":2969000000000,"state":"active","ping":139},{"user_id":460,"name":"Lucan","steam_id":76561198219195135,"connected_time":702000000000,"state":"active","ping":61},{"user_id":461,"name":"mohemmedmokhter2005","steam_id":76561199197650506,"connected_time":634000000000,"state":"active","ping":107},{"user_id":469,"name":"Sheerluck Holmes","steam_id":76561198051161936,"connected_time":84000000000,"state":"active","ping":62},{"user_id":455,"name":"Rodrygo","steam_id":76561199047345001,"connected_time":975000000000,"state":"active","ping":88},{"user_id":432,"name":"GGabesz","steam_id":76561198117199068,"connected_time":3093000000000,"state":"active","ping":70},{"user_id":458,"name":"BarWil","steam_id":76561198136169477,"connected_time":766000000000,"state":"active","ping":74}]},{"server_id":308,"name":"Uncletopia | Frankfurt | 3 | All Maps","name_short":"frk-3","host":"frk-1.de.uncletopia.com","port":27035,"enabled":true,"region":"eu","cc":"de","latitude":50.110924,"longitude":8.682127,"reserved":0,"last_update":"0001-01-01T00:00:00Z","name_a2s":"Uncletopia | Frankfurt | 3 | All Maps","protocol":17,"map":"cp_sunshine","folder":"tf","game":"Team Fortress","app_id":440,"player_count":22,"max_players":24,"Bots":0,"server_type":"Dedicated","server_os":"Linux","password":true,"vac":true,"version":"7708610","steam_id":85568392924504274,"keywords":["cp","nocrits","nodmgspread","uncletopia"],"game_id":440,"stv_port":27036,"stv_name":"Uncletopia | Frankfurt | 3 | All Maps | STV","players":[{"user_id":535,"name":"soopeli","steam_id":76561198003350251,"connected_time":4285000000000,"state":"active","ping":61},{"user_id":559,"name":"Löysä Masa","steam_id":76561198343396172,"connected_time":1916000000000,"state":"active","ping":97},{"user_id":569,"name":"casual zyzz praiser","steam_id":76561198022382969,"connected_time":314000000000,"state":"active","ping":85},{"user_id":574,"name":"Mogwai","steam_id":76561198078832314,"connected_time":264000000000,"state":"active","ping":75},{"user_id":563,"name":"chinglao","steam_id":76561198126595103,"connected_time":1193000000000,"state":"active","ping":59},{"user_id":570,"name":"benci","steam_id":76561198103441240,"connected_time":307000000000,"state":"active","ping":79},{"user_id":553,"name":"nwp?","steam_id":76561198082516068,"connected_time":2139000000000,"state":"active","ping":80},{"user_id":568,"name":"Fran","steam_id":76561199070516960,"connected_time":368000000000,"state":"active","ping":65},{"user_id":533,"name":"mimi","steam_id":76561198060648946,"connected_time":4326000000000,"state":"active","ping":59},{"user_id":581,"name":"Beans on toast","steam_id":76561198007308717,"connected_time":58000000000,"state":"active","ping":74},{"user_id":549,"name":"player","steam_id":76561198054474684,"connected_time":2611000000000,"state":"active","ping":75},{"user_id":575,"name":"Bob Salami","steam_id":76561198150681340,"connected_time":172000000000,"state":"active","ping":85},{"user_id":536,"name":"maika","steam_id":76561198027172275,"connected_time":4277000000000,"state":"active","ping":66},{"user_id":537,"name":"pepper","steam_id":76561198059782462,"connected_time":4267000000000,"state":"active","ping":57},{"user_id":572,"name":"Bölverkr","steam_id":76561198037444331,"connected_time":293000000000,"state":"active","ping":72},{"user_id":576,"name":"washed up","steam_id":76561198275742101,"connected_time":166000000000,"state":"active","ping":52},{"user_id":578,"name":"Animatic","steam_id":76561198186421601,"connected_time":137000000000,"state":"active","ping":186},{"user_id":579,"name":"garf","steam_id":76561198162723276,"connected_time":117000000000,"state":"active","ping":103},{"user_id":580,"name":"dustee","steam_id":76561198023486582,"connected_time":95000000000,"state":"active","ping":83},{"user_id":582,"name":"Pizza/Cheese/Pepperoni","steam_id":76561198174510235,"connected_time":46000000000,"state":"active","ping":64},{"user_id":564,"name":"Zateske","steam_id":76561198047446276,"connected_time":926000000000,"state":"active","ping":58},{"user_id":583,"name":"SPONGE","steam_id":76561198040933472,"connected_time":30000000000,"state":"active","ping":63}]},{"server_id":309,"name":"Uncletopia | Frankfurt | 4 | All Maps","name_short":"frk-4","host":"frk-1.de.uncletopia.com","port":27045,"enabled":true,"region":"eu","cc":"de","latitude":50.110924,"longitude":8.682127,"reserved":0,"last_update":"0001-01-01T00:00:00Z","name_a2s":"Uncletopia | Frankfurt | 4 | All Maps","protocol":17,"map":"pl_wutville_event","folder":"tf","game":"Team Fortress","app_id":440,"player_count":24,"max_players":24,"Bots":0,"server_type":"Dedicated","server_os":"Linux","password":true,"vac":true,"version":"7708610","steam_id":85568392924504275,"keywords":["nocrits","nodmgspread","payload","uncletopia"],"game_id":440,"stv_port":27046,"stv_name":"Uncletopia | Frankfurt | 4 | All Maps | STV","players":[{"user_id":567,"name":"After8","steam_id":76561198090750865,"connected_time":4814000000000,"state":"active","ping":66},{"user_id":551,"name":"Mklavzovc","steam_id":76561198305794970,"connected_time":6260000000000,"state":"active","ping":71},{"user_id":656,"name":"linkinparkfan123","steam_id":76561199033782005,"connected_time":636000000000,"state":"active","ping":76},{"user_id":657,"name":"Mancubruh BRUB 046","steam_id":76561199158803718,"connected_time":595000000000,"state":"active","ping":150},{"user_id":658,"name":"Datsun64","steam_id":76561198231121180,"connected_time":574000000000,"state":"active","ping":62},{"user_id":632,"name":"KillerQueen (he/they/she)","steam_id":76561199019399725,"connected_time":1298000000000,"state":"active","ping":62},{"user_id":592,"name":"shit gaming","steam_id":76561198153877395,"connected_time":2892000000000,"state":"active","ping":80},{"user_id":549,"name":"Floppa-z","steam_id":76561199385382550,"connected_time":6500000000000,"state":"active","ping":112},{"user_id":615,"name":"pablo.gonzalez.2005","steam_id":76561198971389390,"connected_time":1870000000000,"state":"active","ping":64},{"user_id":562,"name":"?","steam_id":76561199114927025,"connected_time":5238000000000,"state":"active","ping":108},{"user_id":659,"name":"Aria Sirius","steam_id":76561198046644922,"connected_time":491000000000,"state":"active","ping":93},{"user_id":660,"name":"Fresh","steam_id":76561198133796254,"connected_time":467000000000,"state":"active","ping":53},{"user_id":546,"name":"Galzra87","steam_id":76561198063414443,"connected_time":7028000000000,"state":"active","ping":71},{"user_id":662,"name":"Joe","steam_id":76561198061717026,"connected_time":376000000000,"state":"active","ping":60},{"user_id":631,"name":"Malin743","steam_id":76561198057290934,"connected_time":1308000000000,"state":"active","ping":88},{"user_id":661,"name":"lupe.-","steam_id":76561198079813788,"connected_time":452000000000,"state":"active","ping":60},{"user_id":666,"name":"ToyTolga","steam_id":76561199021867253,"connected_time":18000000000,"state":"spawning","ping":155},{"user_id":595,"name":"jaMie","steam_id":76561198170148783,"connected_time":2881000000000,"state":"active","ping":48},{"user_id":625,"name":"lulu","steam_id":76561199147764133,"connected_time":1612000000000,"state":"active","ping":69},{"user_id":597,"name":"Andy","steam_id":76561198136364381,"connected_time":2871000000000,"state":"active","ping":83},{"user_id":599,"name":"Clitorina","steam_id":76561198077570815,"connected_time":2823000000000,"state":"active","ping":58},{"user_id":602,"name":"dusty","steam_id":76561199011977567,"connected_time":2638000000000,"state":"active","ping":58},{"user_id":665,"name":"trite","steam_id":76561197983765323,"connected_time":291000000000,"state":"active","ping":64},{"user_id":612,"name":"Sabour","steam_id":76561197963965445,"connected_time":2087000000000,"state":"active","ping":77}]},{"server_id":310,"name":"Uncletopia | Frankfurt | 5 | All Maps","name_short":"frk-5","host":"frk-1.de.uncletopia.com","port":27055,"enabled":true,"region":"eu","cc":"de","latitude":50.110924,"longitude":8.682127,"reserved":0,"last_update":"0001-01-01T00:00:00Z","name_a2s":"Uncletopia | Frankfurt | 5 | All Maps","protocol":17,"map":"cp_snakewater_final1","folder":"tf","game":"Team Fortress","app_id":440,"player_count":23,"max_players":24,"Bots":0,"server_type":"Dedicated","server_os":"Linux","password":true,"vac":true,"version":"7708610","steam_id":85568392924504277,"keywords":["cp","nocrits","nodmgspread","uncletopia"],"game_id":440,"stv_port":27056,"stv_name":"Uncletopia | Frankfurt | 5 | All Maps | STV","players":[{"user_id":622,"name":"Carrot Arc","steam_id":76561198164957006,"connected_time":849000000000,"state":"active","ping":75},{"user_id":623,"name":"Tryrn","steam_id":76561198075487436,"connected_time":846000000000,"state":"active","ping":109},{"user_id":628,"name":"Cardbrige","steam_id":76561198294453886,"connected_time":702000000000,"state":"active","ping":51},{"user_id":630,"name":"steve","steam_id":76561198076135756,"connected_time":613000000000,"state":"active","ping":47},{"user_id":517,"name":"Человек яйца","steam_id":76561198277599844,"connected_time":7247000000000,"state":"active","ping":94},{"user_id":639,"name":"kotamine","steam_id":76561198068907991,"connected_time":311000000000,"state":"active","ping":64},{"user_id":542,"name":"Light601","steam_id":76561198134998492,"connected_time":5796000000000,"state":"active","ping":94},{"user_id":370,"name":"PlebCord","steam_id":76561198120685803,"connected_time":15256000000000,"state":"active","ping":76},{"user_id":631,"name":"mikA_molchA♥","steam_id":76561198134497032,"connected_time":601000000000,"state":"active","ping":74},{"user_id":627,"name":"Thoom Slayer","steam_id":76561198155010055,"connected_time":728000000000,"state":"active","ping":127},{"user_id":626,"name":"JackFighter","steam_id":76561198032798785,"connected_time":750000000000,"state":"active","ping":76},{"user_id":613,"name":"Silky","steam_id":76561198141776731,"connected_time":1313000000000,"state":"active","ping":122},{"user_id":580,"name":"romaingallo","steam_id":76561198268112907,"connected_time":3273000000000,"state":"active","ping":60},{"user_id":637,"name":"mumbler","steam_id":76561197970641239,"connected_time":422000000000,"state":"active","ping":53},{"user_id":629,"name":"Drommar","steam_id":76561199219654706,"connected_time":697000000000,"state":"active","ping":76},{"user_id":632,"name":"Perci","steam_id":76561198097789669,"connected_time":600000000000,"state":"active","ping":65},{"user_id":633,"name":"Browlin","steam_id":76561198860807512,"connected_time":572000000000,"state":"active","ping":74},{"user_id":605,"name":"󠁳⁧⁧Mark","steam_id":76561198117226733,"connected_time":1952000000000,"state":"active","ping":71},{"user_id":635,"name":"scout gaming","steam_id":76561199380974466,"connected_time":440000000000,"state":"active","ping":85},{"user_id":607,"name":"you","steam_id":76561198373270492,"connected_time":1871000000000,"state":"active","ping":47},{"user_id":638,"name":"Nyanzey","steam_id":76561198872362188,"connected_time":373000000000,"state":"active","ping":46},{"user_id":618,"name":"FreeZ","steam_id":76561199070093469,"connected_time":1098000000000,"state":"active","ping":73},{"user_id":640,"name":"Col0bok","steam_id":76561197999097117,"connected_time":214000000000,"state":"active","ping":74}]},{"server_id":311,"name":"Uncletopia | Frankfurt | 6 | All Maps","name_short":"frk-6","host":"frk-1.de.uncletopia.com","port":27065,"enabled":true,"region":"eu","cc":"de","latitude":50.110924,"longitude":8.682127,"reserved":0,"last_update":"0001-01-01T00:00:00Z","name_a2s":"Uncletopia | Frankfurt | 6 | All Maps","protocol":17,"map":"pl_upward","folder":"tf","game":"Team Fortress","app_id":440,"player_count":6,"max_players":24,"Bots":0,"server_type":"Dedicated","server_os":"Linux","password":true,"vac":true,"version":"7708610","steam_id":85568392924504278,"keywords":["nocrits","nodmgspread","payload","uncletopia"],"game_id":440,"stv_port":27066,"stv_name":"Uncletopia | Frankfurt | 6 | All Maps | STV","players":[{"user_id":227,"name":"★ Luxe","steam_id":76561198866691839,"connected_time":521000000000,"state":"active","ping":60},{"user_id":228,"name":"(festive) moldy bread gaming","steam_id":76561199176223366,"connected_time":264000000000,"state":"active","ping":106},{"user_id":220,"name":"N3na3","steam_id":76561198149644285,"connected_time":1508000000000,"state":"active","ping":82},{"user_id":224,"name":"James","steam_id":76561198799953945,"connected_time":883000000000,"state":"active","ping":59},{"user_id":223,"name":"Muffin Mcswagot ඞ","steam_id":76561198055394835,"connected_time":1069000000000,"state":"active","ping":68},{"user_id":87,"name":"MagicTITIKAKA","steam_id":76561198129509548,"connected_time":10810000000000,"state":"active","ping":100}]},{"server_id":23,"name":"Uncletopia | Frankfurt | 7 | No Payload","name_short":"frk-7","host":"frk-1.de.uncletopia.com","port":27075,"enabled":true,"region":"eu","cc":"de","latitude":50.110924,"longitude":8.682127,"reserved":0,"last_update":"0001-01-01T00:00:00Z","name_a2s":"Uncletopia | Frankfurt | 7 | No Payload","protocol":17,"map":"cp_altitude","folder":"tf","game":"Team Fortress","app_id":440,"player_count":23,"max_players":24,"Bots":0,"server_type":"Dedicated","server_os":"Linux","password":true,"vac":true,"version":"7708610","steam_id":85568392924742827,"keywords":["cp","nocrits","nodmgspread","uncletopia"],"game_id":440,"stv_port":27076,"stv_name":"Uncletopia | Frankfurt | 7 | No Payload | STV","players":[{"user_id":161,"name":"Goon Spoons","steam_id":76561198116391675,"connected_time":293000000000,"state":"active","ping":68},{"user_id":147,"name":"GMsU | Smiley","steam_id":76561198121494414,"connected_time":1830000000000,"state":"active","ping":88},{"user_id":131,"name":"GMsU | DaLuigi","steam_id":76561198054486188,"connected_time":2721000000000,"state":"active","ping":45},{"user_id":135,"name":"heavy sings (real)","steam_id":76561199023804405,"connected_time":2525000000000,"state":"active","ping":76},{"user_id":159,"name":"CrackerThatSmilesBack","steam_id":76561198257841533,"connected_time":651000000000,"state":"active","ping":175},{"user_id":162,"name":"Economic crisis","steam_id":76561198063562843,"connected_time":249000000000,"state":"active","ping":56},{"user_id":152,"name":"Torben","steam_id":76561198377574408,"connected_time":1122000000000,"state":"active","ping":47},{"user_id":132,"name":"Karsapaali","steam_id":76561198322322739,"connected_time":2621000000000,"state":"active","ping":87},{"user_id":133,"name":"clems17","steam_id":76561199420685482,"connected_time":2595000000000,"state":"active","ping":50},{"user_id":153,"name":"Der Herr Doktor","steam_id":76561198119476089,"connected_time":956000000000,"state":"active","ping":56},{"user_id":95,"name":"roblan11","steam_id":76561198066839258,"connected_time":4686000000000,"state":"active","ping":53},{"user_id":163,"name":"Flint","steam_id":76561197995920776,"connected_time":232000000000,"state":"active","ping":51},{"user_id":150,"name":"Vanadis","steam_id":76561198255557997,"connected_time":1491000000000,"state":"active","ping":75},{"user_id":155,"name":"Shynii","steam_id":76561198194682105,"connected_time":779000000000,"state":"active","ping":68},{"user_id":139,"name":"GMsU | Rebikas","steam_id":76561198077053764,"connected_time":2478000000000,"state":"active","ping":45},{"user_id":127,"name":"regen","steam_id":76561198037550223,"connected_time":3083000000000,"state":"active","ping":113},{"user_id":141,"name":"Technic","steam_id":76561198128096130,"connected_time":2395000000000,"state":"active","ping":56},{"user_id":142,"name":"GMsU | AuxiliusM","steam_id":76561198071903356,"connected_time":2370000000000,"state":"active","ping":44},{"user_id":164,"name":"bionicnecromancer","steam_id":76561198091768310,"connected_time":206000000000,"state":"active","ping":64},{"user_id":144,"name":"Whoopi Goldberg","steam_id":76561199378865926,"connected_time":2229000000000,"state":"active","ping":121},{"user_id":157,"name":"Lukas","steam_id":76561198009118452,"connected_time":753000000000,"state":"active","ping":55},{"user_id":166,"name":"MAGDAL600","steam_id":76561198215636593,"connected_time":64000000000,"state":"active","ping":91},{"user_id":167,"name":"curse these metal hands","steam_id":76561198056531586,"connected_time":54000000000,"state":"active","ping":60}]},{"server_id":24,"name":"Uncletopia | Frankfurt | 8 | Community","name_short":"frk-8","host":"frk-1.de.uncletopia.com","port":27085,"enabled":true,"region":"eu","cc":"de","latitude":50.110924,"longitude":8.682127,"reserved":0,"last_update":"0001-01-01T00:00:00Z","name_a2s":"Uncletopia | Frankfurt | 8 | Community","protocol":17,"map":"workshop/pl_vigil_rc9.ugc1266210012","folder":"tf","game":"Team Fortress","app_id":440,"player_count":2,"max_players":24,"Bots":0,"server_type":"Dedicated","server_os":"Linux","password":true,"vac":true,"version":"7708610","steam_id":85568392924742828,"keywords":["nocrits","nodmgspread","payload","uncletopia"],"game_id":440,"stv_port":27086,"stv_name":"Uncletopia | Frankfurt | 8 | Community | STV","players":[{"user_id":30,"name":"Greek_Yogurt","steam_id":76561199370983520,"connected_time":1768000000000,"state":"active","ping":69},{"user_id":32,"name":"Fortezza","steam_id":76561198972539903,"connected_time":324000000000,"state":"active","ping":45}]},{"server_id":202,"name":"Uncletopia | Hong Kong | 1 | All Maps","name_short":"hgk-1","host":"hgk-1.hk.uncletopia.com","port":27015,"enabled":true,"region":"asia","cc":"hk","latitude":22.302711,"longitude":114.177216,"reserved":0,"last_update":"0001-01-01T00:00:00Z","name_a2s":"Uncletopia | Hong Kong | 1 | All Maps","protocol":17,"map":"plr_bananabay","folder":"tf","game":"Team Fortress","app_id":440,"player_count":0,"max_players":24,"Bots":0,"server_type":"Dedicated","server_os":"Linux","password":true,"vac":true,"version":"7708610","steam_id":85568392924494504,"keywords":["nocrits","nodmgspread","payload","uncletopia"],"game_id":440,"stv_port":27016,"stv_name":"Uncletopia | Hong Kong | 1 | All Maps | STV","players":null},{"server_id":1,"name":"Uncletopia | Los Angeles | 1 | All Maps","name_short":"lax-1","host":"lax-1.us.uncletopia.com","port":27015,"enabled":true,"region":"us-west","cc":"us","latitude":33.94279,"longitude":-118.41004,"reserved":0,"last_update":"0001-01-01T00:00:00Z","name_a2s":"Uncletopia | Los Angeles | 1 | All Maps","protocol":17,"map":"pl_frontier_final","folder":"tf","game":"Team Fortress","app_id":440,"player_count":0,"max_players":24,"Bots":0,"server_type":"Dedicated","server_os":"Linux","password":true,"vac":true,"version":"7708610","steam_id":85568392924469991,"keywords":["nocrits","nodmgspread","payload","uncletopia"],"game_id":440,"stv_port":27016,"stv_name":"Uncletopia | Los Angeles | 1 | All Maps | STV","players":null},{"server_id":112,"name":"Uncletopia | Los Angeles | 2 | All Maps","name_short":"lax-2","host":"lax-1.us.uncletopia.com","port":27025,"enabled":true,"region":"us-west","cc":"us","latitude":33.94279,"longitude":-118.41004,"reserved":0,"last_update":"0001-01-01T00:00:00Z","name_a2s":"Uncletopia | Los Angeles | 2 | All Maps","protocol":17,"map":"cp_dustbowl","folder":"tf","game":"Team Fortress","app_id":440,"player_count":0,"max_players":24,"Bots":0,"server_type":"Dedicated","server_os":"Linux","password":true,"vac":true,"version":"7708610","steam_id":85568392924469992,"keywords":["cp","nocrits","nodmgspread","uncletopia"],"game_id":440,"stv_port":27026,"stv_name":"Uncletopia | Los Angeles | 2 | All Maps | STV","players":null},{"server_id":324,"name":"Uncletopia | Los Angeles | 3 | All Maps","name_short":"lax-3","host":"lax-1.us.uncletopia.com","port":27035,"enabled":true,"region":"us-west","cc":"us","latitude":33.94279,"longitude":-118.41004,"reserved":0,"last_update":"0001-01-01T00:00:00Z","name_a2s":"Uncletopia | Los Angeles | 3 | All Maps","protocol":17,"map":"cp_dustbowl","folder":"tf","game":"Team Fortress","app_id":440,"player_count":0,"max_players":24,"Bots":0,"server_type":"Dedicated","server_os":"Linux","password":true,"vac":true,"version":"7708610","steam_id":85568392924510198,"keywords":["cp","nocrits","nodmgspread","uncletopia"],"game_id":440,"stv_port":27036,"stv_name":"Uncletopia | Los Angeles | 3 | All Maps | STV","players":null},{"server_id":25,"name":"Uncletopia | Los Angeles | 4 | No Payload","name_short":"lax-4","host":"lax-1.us.uncletopia.com","port":27045,"enabled":true,"region":"us-west","cc":"us","latitude":33.94279,"longitude":-118.41004,"reserved":0,"last_update":"0001-01-01T00:00:00Z","name_a2s":"Uncletopia | Los Angeles | 4 | No Payload","protocol":17,"map":"cp_freight_final1","folder":"tf","game":"Team Fortress","app_id":440,"player_count":0,"max_players":24,"Bots":0,"server_type":"Dedicated","server_os":"Linux","password":true,"vac":true,"version":"7708610","steam_id":85568392924510199,"keywords":["cp","nocrits","nodmgspread","uncletopia"],"game_id":440,"stv_port":27046,"stv_name":"Uncletopia | Los Angeles | 4 | No Payload | STV","players":null},{"server_id":11,"name":"Uncletopia | London | 1 | All Maps","name_short":"lon-1","host":"lon-1.uk.uncletopia.com","port":27015,"enabled":true,"region":"eu","cc":"gb","latitude":51.509865,"longitude":-0.118092,"reserved":0,"last_update":"0001-01-01T00:00:00Z","name_a2s":"Uncletopia | London | 1 | All Maps","protocol":17,"map":"pl_swiftwater_final1","folder":"tf","game":"Team Fortress","app_id":440,"player_count":24,"max_players":24,"Bots":0,"server_type":"Dedicated","server_os":"Linux","password":true,"vac":true,"version":"7708610","steam_id":85568392924367362,"keywords":["nocrits","nodmgspread","payload","uncletopia"],"game_id":440,"stv_port":27016,"stv_name":"Uncletopia | London | 1 | All Maps | STV","players":[{"user_id":438,"name":"Bobo","steam_id":76561198052308399,"connected_time":4374000000000,"state":"active","ping":59},{"user_id":404,"name":"Jam","steam_id":76561198090409013,"connected_time":6891000000000,"state":"active","ping":89},{"user_id":418,"name":"( ]KROAN[ )","steam_id":76561198022840710,"connected_time":5582000000000,"state":"active","ping":70},{"user_id":434,"name":"Kard","steam_id":76561198191894926,"connected_time":4731000000000,"state":"active","ping":108},{"user_id":468,"name":"Ponto-Cho","steam_id":76561198859709451,"connected_time":442000000000,"state":"active","ping":45},{"user_id":455,"name":"''-_-''","steam_id":76561198267463398,"connected_time":1520000000000,"state":"active","ping":61},{"user_id":453,"name":"Mango","steam_id":76561198139555709,"connected_time":2357000000000,"state":"active","ping":58},{"user_id":447,"name":"Celtins","steam_id":76561198839837475,"connected_time":2985000000000,"state":"active","ping":49},{"user_id":466,"name":"eggslut","steam_id":76561198010752241,"connected_time":715000000000,"state":"active","ping":73},{"user_id":457,"name":"Dane","steam_id":76561198312362896,"connected_time":1399000000000,"state":"active","ping":46},{"user_id":472,"name":"The_Jaystone","steam_id":76561198126280691,"connected_time":51000000000,"state":"active","ping":39},{"user_id":405,"name":"whimsmas.","steam_id":76561198878171763,"connected_time":6779000000000,"state":"active","ping":58},{"user_id":439,"name":"festive jones","steam_id":76561198073975078,"connected_time":4299000000000,"state":"active","ping":46},{"user_id":381,"name":"chrissymas","steam_id":76561198096547662,"connected_time":8933000000000,"state":"active","ping":54},{"user_id":456,"name":"Grim the lemon","steam_id":76561199083433988,"connected_time":1493000000000,"state":"active","ping":55},{"user_id":474,"name":"FiP","steam_id":76561198121364100,"connected_time":41000000000,"state":"active","ping":54},{"user_id":469,"name":"JOHN GAMING (based)","steam_id":76561199085822219,"connected_time":65000000000,"state":"active","ping":89},{"user_id":437,"name":"NO. bad girl \u003e:(","steam_id":76561198198984282,"connected_time":4484000000000,"state":"active","ping":127},{"user_id":422,"name":"kuidaskunagi","steam_id":76561198044697096,"connected_time":5481000000000,"state":"active","ping":86},{"user_id":461,"name":"Rare Demoman Plant ✪","steam_id":76561198157824042,"connected_time":1336000000000,"state":"active","ping":47},{"user_id":463,"name":"ciliorkun18","steam_id":76561198228942500,"connected_time":1203000000000,"state":"active","ping":91},{"user_id":464,"name":"JoJo","steam_id":76561198296920548,"connected_time":1180000000000,"state":"active","ping":98},{"user_id":448,"name":"juJu","steam_id":76561198049343793,"connected_time":2985000000000,"state":"active","ping":59}]},{"server_id":114,"name":"Uncletopia | London | 2 | All Maps","name_short":"lon-2","host":"lon-1.uk.uncletopia.com","port":27025,"enabled":true,"region":"eu","cc":"gb","latitude":51.509865,"longitude":-0.118092,"reserved":0,"last_update":"0001-01-01T00:00:00Z","name_a2s":"Uncletopia | London | 2 | All Maps","protocol":17,"map":"cp_dustbowl","folder":"tf","game":"Team Fortress","app_id":440,"player_count":19,"max_players":24,"Bots":0,"server_type":"Dedicated","server_os":"Linux","password":true,"vac":true,"version":"7708610","steam_id":85568392924470941,"keywords":["cp","nocrits","nodmgspread","uncletopia"],"game_id":440,"stv_port":27026,"stv_name":"Uncletopia | London | 2 | All Maps | STV","players":[{"user_id":288,"name":"minchengchen","steam_id":76561198217611603,"connected_time":550000000000,"state":"active","ping":129},{"user_id":269,"name":"tshirt","steam_id":76561198040757844,"connected_time":1683000000000,"state":"active","ping":81},{"user_id":285,"name":"SaltySeaBiscuts","steam_id":76561199204549005,"connected_time":650000000000,"state":"active","ping":118},{"user_id":270,"name":"Kinjo","steam_id":76561197961489161,"connected_time":1610000000000,"state":"active","ping":52},{"user_id":243,"name":"tf2 enjoyer","steam_id":76561199043416615,"connected_time":3196000000000,"state":"active","ping":73},{"user_id":259,"name":"Henk_de_Patatman","steam_id":76561198070103191,"connected_time":2368000000000,"state":"active","ping":43},{"user_id":287,"name":"Boloq","steam_id":76561198329146004,"connected_time":597000000000,"state":"active","ping":57},{"user_id":286,"name":"Speibsackerl","steam_id":76561198058135257,"connected_time":627000000000,"state":"active","ping":71},{"user_id":289,"name":"SpartanOne22","steam_id":76561199006361788,"connected_time":339000000000,"state":"active","ping":129},{"user_id":220,"name":"IHAV3NOID3A","steam_id":76561199056318007,"connected_time":4700000000000,"state":"active","ping":71},{"user_id":290,"name":"random_player691","steam_id":76561199209946306,"connected_time":289000000000,"state":"active","ping":59},{"user_id":271,"name":"sharkmax12312","steam_id":76561198996008569,"connected_time":1555000000000,"state":"active","ping":82},{"user_id":294,"name":"low budget star platinum","steam_id":76561198357467064,"connected_time":171000000000,"state":"active","ping":176},{"user_id":275,"name":"Skiziko","steam_id":76561198188930797,"connected_time":1305000000000,"state":"active","ping":96},{"user_id":284,"name":"Smitty Werben Jagger Man Jensen","steam_id":76561197986670014,"connected_time":678000000000,"state":"active","ping":62},{"user_id":291,"name":"SCooler27","steam_id":76561199200454579,"connected_time":280000000000,"state":"active","ping":63},{"user_id":295,"name":"NeoN™","steam_id":76561198117608366,"connected_time":125000000000,"state":"active","ping":109},{"user_id":293,"name":"order66.exe","steam_id":76561198057558449,"connected_time":202000000000,"state":"active","ping":52},{"user_id":251,"name":"Archangel","steam_id":76561197972456666,"connected_time":2664000000000,"state":"active","ping":49}]},{"server_id":320,"name":"Uncletopia | London | 3 | All Maps","name_short":"lon-3","host":"lon-1.uk.uncletopia.com","port":27035,"enabled":true,"region":"eu","cc":"gb","latitude":51.509865,"longitude":-0.118092,"reserved":0,"last_update":"0001-01-01T00:00:00Z","name_a2s":"Uncletopia | London | 3 | All Maps","protocol":17,"map":"pl_barnblitz","folder":"tf","game":"Team Fortress","app_id":440,"player_count":23,"max_players":24,"Bots":0,"server_type":"Dedicated","server_os":"Linux","password":true,"vac":true,"version":"7708610","steam_id":85568392924510192,"keywords":["nocrits","nodmgspread","payload","uncletopia"],"game_id":440,"stv_port":27036,"stv_name":"Uncletopia | London | 3 | All Maps | STV","players":[{"user_id":343,"name":"got that right","steam_id":76561198064656601,"connected_time":367000000000,"state":"active","ping":55},{"user_id":289,"name":"SimplePig","steam_id":76561198071862153,"connected_time":4159000000000,"state":"active","ping":111},{"user_id":319,"name":"OstosTacos","steam_id":76561198364617470,"connected_time":2174000000000,"state":"active","ping":69},{"user_id":335,"name":"Farmercy","steam_id":76561198000038039,"connected_time":904000000000,"state":"active","ping":68},{"user_id":322,"name":"sab","steam_id":76561197992945483,"connected_time":1388000000000,"state":"active","ping":48},{"user_id":348,"name":"V★ren","steam_id":76561198063138371,"connected_time":80000000000,"state":"active","ping":62},{"user_id":333,"name":"Jonathan","steam_id":76561198087988880,"connected_time":999000000000,"state":"active","ping":59},{"user_id":293,"name":"CD_Off","steam_id":76561199207174007,"connected_time":3864000000000,"state":"active","ping":67},{"user_id":326,"name":"medick","steam_id":76561199380849468,"connected_time":1257000000000,"state":"active","ping":62},{"user_id":280,"name":"TheMinerat","steam_id":76561198201171941,"connected_time":4824000000000,"state":"active","ping":54},{"user_id":316,"name":"Bob Sacamano","steam_id":76561198085610701,"connected_time":2500000000000,"state":"active","ping":104},{"user_id":344,"name":"Zembis","steam_id":76561198008017918,"connected_time":357000000000,"state":"active","ping":99},{"user_id":341,"name":"Gver3113","steam_id":76561198118659012,"connected_time":577000000000,"state":"active","ping":84},{"user_id":327,"name":"ReDsinat0r","steam_id":76561198365973345,"connected_time":1232000000000,"state":"active","ping":67},{"user_id":336,"name":"dan.","steam_id":76561198098572024,"connected_time":873000000000,"state":"active","ping":74},{"user_id":342,"name":"Aroo","steam_id":76561198132601368,"connected_time":571000000000,"state":"active","ping":84},{"user_id":346,"name":"moser23","steam_id":76561197960543171,"connected_time":154000000000,"state":"active","ping":53},{"user_id":338,"name":"Gandalf","steam_id":76561199072668363,"connected_time":756000000000,"state":"active","ping":101},{"user_id":347,"name":"zak","steam_id":76561197998895428,"connected_time":143000000000,"state":"active","ping":69},{"user_id":329,"name":"luma","steam_id":76561198081649669,"connected_time":1152000000000,"state":"active","ping":76},{"user_id":330,"name":"Weeb","steam_id":76561198297928869,"connected_time":1150000000000,"state":"active","ping":38},{"user_id":331,"name":"beer","steam_id":76561198442962043,"connected_time":1122000000000,"state":"active","ping":104},{"user_id":339,"name":"Lil BOX","steam_id":76561198063607187,"connected_time":618000000000,"state":"active","ping":77}]},{"server_id":321,"name":"Uncletopia | London | 4 | All Maps","name_short":"lon-4","host":"lon-1.uk.uncletopia.com","port":27045,"enabled":true,"region":"eu","cc":"gb","latitude":51.509865,"longitude":-0.118092,"reserved":0,"last_update":"0001-01-01T00:00:00Z","name_a2s":"Uncletopia | London | 4 | All Maps","protocol":17,"map":"pl_frontier_final","folder":"tf","game":"Team Fortress","app_id":440,"player_count":24,"max_players":24,"Bots":0,"server_type":"Dedicated","server_os":"Linux","password":true,"vac":true,"version":"7708610","steam_id":85568392924510193,"keywords":["nocrits","nodmgspread","payload","uncletopia"],"game_id":440,"stv_port":27046,"stv_name":"Uncletopia | London | 4 | All Maps | STV","players":[{"user_id":689,"name":"hide on bush","steam_id":76561198149967445,"connected_time":1002000000000,"state":"active","ping":30},{"user_id":638,"name":"Proto-arc","steam_id":76561198012776747,"connected_time":5181000000000,"state":"active","ping":60},{"user_id":641,"name":"Raeews","steam_id":76561198254646517,"connected_time":5058000000000,"state":"active","ping":46},{"user_id":621,"name":"Varro_Sicarius","steam_id":76561198062130113,"connected_time":5756000000000,"state":"active","ping":56},{"user_id":610,"name":"twitch.tv/thewerelizard","steam_id":76561198060638325,"connected_time":6232000000000,"state":"active","ping":48},{"user_id":615,"name":"gamer man","steam_id":76561198436817109,"connected_time":6187000000000,"state":"active","ping":47},{"user_id":687,"name":"SoupeurConscient","steam_id":76561199404717904,"connected_time":1325000000000,"state":"active","ping":73},{"user_id":658,"name":"Gearslut","steam_id":76561198114601678,"connected_time":3983000000000,"state":"active","ping":59},{"user_id":670,"name":"=flashpoint=","steam_id":76561197976774456,"connected_time":3028000000000,"state":"active","ping":50},{"user_id":693,"name":"ErJu","steam_id":76561198106273165,"connected_time":461000000000,"state":"active","ping":80},{"user_id":611,"name":"Sniddies","steam_id":76561198208740557,"connected_time":6225000000000,"state":"active","ping":60},{"user_id":691,"name":"Patrick Ratrick","steam_id":76561198086190783,"connected_time":962000000000,"state":"active","ping":46},{"user_id":680,"name":"Hkitchen","steam_id":76561198194779526,"connected_time":1988000000000,"state":"active","ping":39},{"user_id":654,"name":"☃☃☃ARSEQUEEF☃☃☃","steam_id":76561198914610283,"connected_time":4104000000000,"state":"active","ping":79},{"user_id":677,"name":"Mor'du","steam_id":76561198274105878,"connected_time":2606000000000,"state":"active","ping":90},{"user_id":686,"name":"randompixel","steam_id":76561198003941207,"connected_time":1605000000000,"state":"active","ping":53},{"user_id":685,"name":"taxisofőr","steam_id":76561198438462532,"connected_time":1855000000000,"state":"active","ping":80},{"user_id":683,"name":"NotFionn","steam_id":76561198890525176,"connected_time":1951000000000,"state":"active","ping":64},{"user_id":684,"name":"Festive Yuletart","steam_id":76561198023918830,"connected_time":1939000000000,"state":"active","ping":41},{"user_id":679,"name":"cat (they/them)","steam_id":76561198416657815,"connected_time":2319000000000,"state":"active","ping":80},{"user_id":692,"name":"nedilya","steam_id":76561198039692077,"connected_time":956000000000,"state":"active","ping":61},{"user_id":653,"name":"cantsniff","steam_id":76561198259668029,"connected_time":4485000000000,"state":"active","ping":43},{"user_id":690,"name":"Fat Pigeon","steam_id":76561198817940142,"connected_time":991000000000,"state":"active","ping":46},{"user_id":675,"name":"Bepperman","steam_id":76561198397517828,"connected_time":2661000000000,"state":"active","ping":59}]},{"server_id":21,"name":"Uncletopia | London | 5 | All Maps","name_short":"lon-5","host":"lon-1.uk.uncletopia.com","port":27055,"enabled":true,"region":"eu","cc":"gb","latitude":51.509865,"longitude":-0.118092,"reserved":0,"last_update":"0001-01-01T00:00:00Z","name_a2s":"Uncletopia | London | 5 | All Maps","protocol":17,"map":"koth_highpass","folder":"tf","game":"Team Fortress","app_id":440,"player_count":7,"max_players":24,"Bots":0,"server_type":"Dedicated","server_os":"Linux","password":true,"vac":true,"version":"7708610","steam_id":85568392924742829,"keywords":["cp","nocrits","nodmgspread","uncletopia"],"game_id":440,"stv_port":27056,"stv_name":"Uncletopia | London | 5 | All Maps | STV","players":[{"user_id":26,"name":"jimenezpalominohugo","steam_id":76561199435800140,"connected_time":1660000000000,"state":"active","ping":76},{"user_id":27,"name":"Straxan","steam_id":76561198118976456,"connected_time":1138000000000,"state":"active","ping":50},{"user_id":28,"name":"Jingleboob's Elf","steam_id":76561198067204908,"connected_time":1028000000000,"state":"active","ping":47},{"user_id":29,"name":"twitch.tv/biofun_","steam_id":76561198170609049,"connected_time":1021000000000,"state":"active","ping":91},{"user_id":30,"name":"jingleboob","steam_id":76561198097507847,"connected_time":997000000000,"state":"active","ping":80},{"user_id":33,"name":"Bolt Finniken","steam_id":76561198379370948,"connected_time":15000000000,"state":"active","ping":50},{"user_id":32,"name":"random guy","steam_id":76561198985122986,"connected_time":488000000000,"state":"active","ping":49}]},{"server_id":22,"name":"Uncletopia | London | 6 | All Maps","name_short":"lon-6","host":"lon-1.uk.uncletopia.com","port":27065,"enabled":true,"region":"eu","cc":"gb","latitude":51.509865,"longitude":-0.118092,"reserved":0,"last_update":"0001-01-01T00:00:00Z","name_a2s":"Uncletopia | London | 6 | All Maps","protocol":17,"map":"cp_steel","folder":"tf","game":"Team Fortress","app_id":440,"player_count":0,"max_players":24,"Bots":0,"server_type":"Dedicated","server_os":"Linux","password":true,"vac":true,"version":"7708610","steam_id":85568392924742830,"keywords":["cp","nocrits","nodmgspread","uncletopia"],"game_id":440,"stv_port":27066,"stv_name":"Uncletopia | London | 6 | All Maps | STV","players":null},{"server_id":40,"name":"Uncletopia | London | 7 | No Payload","name_short":"lon-7","host":"lon-1.uk.uncletopia.com","port":27075,"enabled":true,"region":"eu","cc":"gb","latitude":51.509865,"longitude":-0.118092,"reserved":0,"last_update":"0001-01-01T00:00:00Z","name_a2s":"Uncletopia | London | 7 | No Payload","protocol":17,"map":"koth_king","folder":"tf","game":"Team Fortress","app_id":440,"player_count":0,"max_players":24,"Bots":0,"server_type":"Dedicated","server_os":"Linux","password":true,"vac":true,"version":"7708610","steam_id":85568392924964314,"keywords":["cp","nocrits","nodmgspread","uncletopia"],"game_id":440,"stv_port":27076,"stv_name":"Uncletopia | London | 7 | No Payload | STV","players":null},{"server_id":41,"name":"Uncletopia | London | 8 | Community","name_short":"lon-8","host":"lon-1.uk.uncletopia.com","port":27085,"enabled":true,"region":"eu","cc":"gb","latitude":51.509865,"longitude":-0.118092,"reserved":0,"last_update":"0001-01-01T00:00:00Z","name_a2s":"Uncletopia | London | 8 | Community","protocol":17,"map":"workshop/pl_vigil_rc9.ugc1266210012","folder":"tf","game":"Team Fortress","app_id":440,"player_count":0,"max_players":24,"Bots":0,"server_type":"Dedicated","server_os":"Linux","password":true,"vac":true,"version":"7708610","steam_id":85568392924964315,"keywords":["nocrits","nodmgspread","payload","uncletopia"],"game_id":440,"stv_port":27086,"stv_name":"Uncletopia | London | 8 | Community | STV","players":null},{"server_id":300,"name":"Uncletopia | Montréal | 1 | All Maps","name_short":"mtl-1","host":"mtl-1.ca.uncletopia.com","port":27015,"enabled":true,"region":"us-east","cc":"ca","latitude":45.50889,"longitude":-73.56167,"reserved":0,"last_update":"0001-01-01T00:00:00Z","name_a2s":"Uncletopia | Montréal | 1 | All Maps","protocol":17,"map":"pl_swiftwater_final1","folder":"tf","game":"Team Fortress","app_id":440,"player_count":1,"max_players":24,"Bots":0,"server_type":"Dedicated","server_os":"Linux","password":true,"vac":true,"version":"7708610","steam_id":85568392924500087,"keywords":["nocrits","nodmgspread","payload","uncletopia"],"game_id":440,"stv_port":27016,"stv_name":"Uncletopia | Montréal | 1 | All Maps | STV","players":[{"user_id":18,"name":"ailee","steam_id":76561198284326069,"connected_time":396000000000,"state":"active","ping":42}]},{"server_id":301,"name":"Uncletopia | Montréal | 2 | All Maps","name_short":"mtl-2","host":"mtl-1.ca.uncletopia.com","port":27025,"enabled":true,"region":"us-east","cc":"ca","latitude":45.50889,"longitude":-73.56167,"reserved":0,"last_update":"0001-01-01T00:00:00Z","name_a2s":"Uncletopia | Montréal | 2 | All Maps","protocol":17,"map":"pl_frontier_final","folder":"tf","game":"Team Fortress","app_id":440,"player_count":0,"max_players":24,"Bots":0,"server_type":"Dedicated","server_os":"Linux","password":true,"vac":true,"version":"7708610","steam_id":85568392924500088,"keywords":["nocrits","nodmgspread","payload","uncletopia"],"game_id":440,"stv_port":0,"stv_name":"","players":null},{"server_id":302,"name":"Uncletopia | Montréal | 3 | All Maps","name_short":"mtl-3","host":"mtl-1.ca.uncletopia.com","port":27035,"enabled":true,"region":"us-east","cc":"ca","latitude":45.50889,"longitude":-73.56167,"reserved":0,"last_update":"0001-01-01T00:00:00Z","name_a2s":"Uncletopia | Montréal | 3 | All Maps","protocol":17,"map":"cp_sunshine","folder":"tf","game":"Team Fortress","app_id":440,"player_count":0,"max_players":24,"Bots":0,"server_type":"Dedicated","server_os":"Linux","password":true,"vac":true,"version":"7708610","steam_id":85568392924500089,"keywords":["cp","nocrits","nodmgspread","uncletopia"],"game_id":440,"stv_port":27036,"stv_name":"Uncletopia | Montréal | 3 | All Maps | STV","players":null},{"server_id":303,"name":"Uncletopia | Montréal | 4 | No Payload","name_short":"mtl-4","host":"mtl-1.ca.uncletopia.com","port":27045,"enabled":true,"region":"us-east","cc":"ca","latitude":45.50889,"longitude":-73.56167,"reserved":0,"last_update":"0001-01-01T00:00:00Z","name_a2s":"Uncletopia | Montréal | 4 | No Payload","protocol":17,"map":"pl_frontier_final","folder":"tf","game":"Team Fortress","app_id":440,"player_count":0,"max_players":24,"Bots":0,"server_type":"Dedicated","server_os":"Linux","password":true,"vac":true,"version":"7708610","steam_id":85568392924500090,"keywords":["nocrits","nodmgspread","payload","uncletopia"],"game_id":440,"stv_port":0,"stv_name":"","players":null},{"server_id":13,"name":"Uncletopia | New York City | 1 | All Maps","name_short":"nyc-1","host":"nyc-1.us.uncletopia.com","port":27015,"enabled":true,"region":"us-east","cc":"us","latitude":40.73061,"longitude":-73.93524,"reserved":0,"last_update":"0001-01-01T00:00:00Z","name_a2s":"Uncletopia | New York City | 1 | All Maps","protocol":17,"map":"koth_lakeside_final","folder":"tf","game":"Team Fortress","app_id":440,"player_count":23,"max_players":24,"Bots":0,"server_type":"Dedicated","server_os":"Linux","password":true,"vac":true,"version":"7708610","steam_id":85568392924469993,"keywords":["cp","nocrits","nodmgspread","uncletopia"],"game_id":440,"stv_port":27016,"stv_name":"Uncletopia | New York City | 1 | All Maps | STV","players":[{"user_id":249,"name":"Wique","steam_id":76561198071217597,"connected_time":3578000000000,"state":"active","ping":67},{"user_id":295,"name":"Mike.Mauro","steam_id":76561198072542619,"connected_time":56000000000,"state":"active","ping":45},{"user_id":278,"name":"Nic0","steam_id":76561198305690218,"connected_time":1262000000000,"state":"active","ping":45},{"user_id":263,"name":"larry","steam_id":76561198139630467,"connected_time":2249000000000,"state":"spawning","ping":90},{"user_id":280,"name":"cthulhu_8bit","steam_id":76561199112898088,"connected_time":1235000000000,"state":"spawning","ping":103},{"user_id":281,"name":"yazub","steam_id":76561199095742895,"connected_time":1214000000000,"state":"active","ping":72},{"user_id":275,"name":"akirajimbo","steam_id":76561197979960008,"connected_time":1392000000000,"state":"active","ping":43},{"user_id":273,"name":"MeKaso TropStar","steam_id":76561199109895840,"connected_time":1552000000000,"state":"active","ping":34},{"user_id":274,"name":"Karma","steam_id":76561198030565234,"connected_time":1450000000000,"state":"active","ping":42},{"user_id":216,"name":"SaucyAlfredo","steam_id":76561198814854234,"connected_time":4977000000000,"state":"active","ping":55},{"user_id":296,"name":"upside down cat","steam_id":76561198028288349,"connected_time":33000000000,"state":"spawning","ping":71},{"user_id":297,"name":"MrMan","steam_id":76561198029343598,"connected_time":32000000000,"state":"active","ping":47},{"user_id":298,"name":"Disco Fever","steam_id":76561198069532215,"connected_time":30000000000,"state":"active","ping":54},{"user_id":289,"name":"Lopzaao","steam_id":76561198978111805,"connected_time":810000000000,"state":"active","ping":59},{"user_id":256,"name":"{[F.H]} Hydroida","steam_id":76561197999797274,"connected_time":3329000000000,"state":"active","ping":61},{"user_id":299,"name":"$$$","steam_id":76561198218897541,"connected_time":20000000000,"state":"active","ping":49},{"user_id":292,"name":"MeatShield 2000","steam_id":76561199375192850,"connected_time":569000000000,"state":"active","ping":114},{"user_id":286,"name":"tame","steam_id":76561198925005855,"connected_time":1087000000000,"state":"active","ping":165},{"user_id":287,"name":"Scooter O'Boyl","steam_id":76561197971687069,"connected_time":1033000000000,"state":"active","ping":51},{"user_id":288,"name":"Bunny Eater","steam_id":76561198029563721,"connected_time":994000000000,"state":"active","ping":44},{"user_id":290,"name":"Evil Pipo","steam_id":76561198171466414,"connected_time":803000000000,"state":"active","ping":76},{"user_id":291,"name":"Insidiousy #ShaveTF2","steam_id":76561199018015150,"connected_time":783000000000,"state":"active","ping":76},{"user_id":294,"name":"Slabz","steam_id":76561199072777158,"connected_time":530000000000,"state":"active","ping":74}]},{"server_id":14,"name":"Uncletopia | New York City | 2 | All Maps","name_short":"nyc-2","host":"nyc-1.us.uncletopia.com","port":27025,"enabled":true,"region":"us-east","cc":"us","latitude":40.73061,"longitude":-73.93524,"reserved":0,"last_update":"0001-01-01T00:00:00Z","name_a2s":"Uncletopia | New York City | 2 | All Maps","protocol":17,"map":"cp_snakewater_final1","folder":"tf","game":"Team Fortress","app_id":440,"player_count":24,"max_players":24,"Bots":0,"server_type":"Dedicated","server_os":"Linux","password":true,"vac":true,"version":"7708610","steam_id":85568392924469994,"keywords":["cp","nocrits","nodmgspread","uncletopia"],"game_id":440,"stv_port":27026,"stv_name":"Uncletopia | New York City | 2 | All Maps | STV","players":[{"user_id":202,"name":"kiwiichie ₍ᐢᐢ₎","steam_id":76561198315449521,"connected_time":121000000000,"state":"active","ping":61},{"user_id":201,"name":"smocc","steam_id":76561197993726746,"connected_time":208000000000,"state":"active","ping":45},{"user_id":135,"name":"PizzaPasta","steam_id":76561199125109082,"connected_time":4923000000000,"state":"active","ping":58},{"user_id":177,"name":"MonkyBoo","steam_id":76561198304371716,"connected_time":1812000000000,"state":"active","ping":83},{"user_id":187,"name":"hello","steam_id":76561199435176886,"connected_time":1392000000000,"state":"active","ping":63},{"user_id":126,"name":"Spiteful_Guru","steam_id":76561199227572419,"connected_time":5963000000000,"state":"active","ping":60},{"user_id":99,"name":"Nibelsnarf","steam_id":76561198137642054,"connected_time":8803000000000,"state":"active","ping":58},{"user_id":167,"name":"VGjakeg","steam_id":76561198082985835,"connected_time":2735000000000,"state":"active","ping":57},{"user_id":197,"name":"Voodoo","steam_id":76561198052338728,"connected_time":310000000000,"state":"active","ping":50},{"user_id":184,"name":"Kezner","steam_id":76561198993951071,"connected_time":1562000000000,"state":"active","ping":44},{"user_id":127,"name":":3","steam_id":76561198078721142,"connected_time":5963000000000,"state":"active","ping":67},{"user_id":198,"name":"newboi (F2P)","steam_id":76561199273882768,"connected_time":282000000000,"state":"active","ping":49},{"user_id":181,"name":"Goofball","steam_id":76561198061211537,"connected_time":1702000000000,"state":"active","ping":75},{"user_id":164,"name":"len e","steam_id":76561198128123733,"connected_time":2853000000000,"state":"active","ping":46},{"user_id":146,"name":"Pizza","steam_id":76561198118748364,"connected_time":4417000000000,"state":"active","ping":71},{"user_id":151,"name":"LameNameJame","steam_id":76561198164714852,"connected_time":3765000000000,"state":"active","ping":84},{"user_id":173,"name":"gnome","steam_id":76561198262275475,"connected_time":2150000000000,"state":"active","ping":63},{"user_id":157,"name":"Ripley","steam_id":76561198080766916,"connected_time":3106000000000,"state":"active","ping":62},{"user_id":189,"name":"ArcticWolf Art","steam_id":76561198141753331,"connected_time":628000000000,"state":"active","ping":83},{"user_id":182,"name":"Jolt","steam_id":76561198168669087,"connected_time":1688000000000,"state":"active","ping":45},{"user_id":154,"name":"Sweet!","steam_id":76561198112186325,"connected_time":3704000000000,"state":"active","ping":59},{"user_id":199,"name":"Carson","steam_id":76561198076771071,"connected_time":278000000000,"state":"active","ping":72},{"user_id":200,"name":"llaor2711","steam_id":76561198044134161,"connected_time":270000000000,"state":"active","ping":95},{"user_id":153,"name":"Magnitite","steam_id":76561198052499285,"connected_time":3708000000000,"state":"active","ping":54}]},{"server_id":15,"name":"Uncletopia | New York City | 3 | All Maps","name_short":"nyc-3","host":"nyc-1.us.uncletopia.com","port":27035,"enabled":true,"region":"us-east","cc":"us","latitude":40.73061,"longitude":-73.93524,"reserved":0,"last_update":"0001-01-01T00:00:00Z","name_a2s":"Uncletopia | New York City | 3 | All Maps","protocol":17,"map":"koth_viaduct","folder":"tf","game":"Team Fortress","app_id":440,"player_count":3,"max_players":24,"Bots":0,"server_type":"Dedicated","server_os":"Linux","password":true,"vac":true,"version":"7708610","steam_id":85568392924742820,"keywords":["cp","nocrits","nodmgspread","uncletopia"],"game_id":440,"stv_port":27036,"stv_name":"Uncletopia | New York City | 3 | All Maps | STV","players":[{"user_id":7,"name":"Qu3soKing","steam_id":76561198262720637,"connected_time":1460000000000,"state":"active","ping":48},{"user_id":9,"name":"dafuzz305","steam_id":76561198201304841,"connected_time":1301000000000,"state":"active","ping":61},{"user_id":10,"name":"Jesus Loves You57","steam_id":76561199058833769,"connected_time":1026000000000,"state":"active","ping":109}]},{"server_id":16,"name":"Uncletopia | New York City | 4 | Community","name_short":"nyc-4","host":"nyc-1.us.uncletopia.com","port":27045,"enabled":true,"region":"us-east","cc":"us","latitude":40.73061,"longitude":-73.93524,"reserved":0,"last_update":"0001-01-01T00:00:00Z","name_a2s":"Uncletopia | New York City | 4 | Community","protocol":17,"map":"workshop/pl_eruption_b8c.ugc2865677281","folder":"tf","game":"Team Fortress","app_id":440,"player_count":0,"max_players":24,"Bots":0,"server_type":"Dedicated","server_os":"Linux","password":true,"vac":true,"version":"7708610","steam_id":85568392924742821,"keywords":["nocrits","nodmgspread","payload","uncletopia"],"game_id":440,"stv_port":27046,"stv_name":"Uncletopia | New York City | 4 | Community | STV","players":null},{"server_id":142,"name":"Uncletopia | São Paulo | 1 | All Maps","name_short":"sao-1","host":"sao-1.br.uncletopia.com","port":27015,"enabled":true,"region":"sa","cc":"br","latitude":-23.533773,"longitude":-46.62529,"reserved":0,"last_update":"0001-01-01T00:00:00Z","name_a2s":"Uncletopia | São Paulo | 1 | All Maps","protocol":17,"map":"pl_barnblitz","folder":"tf","game":"Team Fortress","app_id":440,"player_count":23,"max_players":24,"Bots":0,"server_type":"Dedicated","server_os":"Linux","password":true,"vac":true,"version":"7708610","steam_id":85568392924469996,"keywords":["nocrits","nodmgspread","payload","uncletopia"],"game_id":440,"stv_port":27016,"stv_name":"Uncletopia | São Paulo | 1 | All Maps | STV","players":[{"user_id":107,"name":"[-LC-] Sir Crusher","steam_id":76561198124065641,"connected_time":11067000000000,"state":"spawning","ping":133},{"user_id":237,"name":"Rapoza Dynamica","steam_id":76561198026327861,"connected_time":2176000000000,"state":"spawning","ping":121},{"user_id":236,"name":"Gabrielやるき","steam_id":76561198332577325,"connected_time":2192000000000,"state":"spawning","ping":117},{"user_id":249,"name":"dreamybullxx","steam_id":76561198375591690,"connected_time":279000000000,"state":"spawning","ping":263},{"user_id":207,"name":"mimimito","steam_id":76561198002565927,"connected_time":4455000000000,"state":"spawning","ping":108},{"user_id":243,"name":"C.","steam_id":76561198067026112,"connected_time":915000000000,"state":"spawning","ping":100},{"user_id":241,"name":"Wendy","steam_id":76561198157759549,"connected_time":1114000000000,"state":"spawning","ping":178},{"user_id":210,"name":"Cherry Cupcake","steam_id":76561198012448942,"connected_time":4362000000000,"state":"spawning","ping":111},{"user_id":183,"name":"Pyrobro","steam_id":76561198155061020,"connected_time":5476000000000,"state":"spawning","ping":116},{"user_id":254,"name":"Zoom!","steam_id":76561198289562649,"connected_time":10000000000,"state":"spawning","ping":82},{"user_id":244,"name":"ayumi","steam_id":76561197977365746,"connected_time":893000000000,"state":"connecting","ping":137},{"user_id":245,"name":"delete","steam_id":76561198351372235,"connected_time":813000000000,"state":"spawning","ping":115},{"user_id":235,"name":"N☆V","steam_id":76561198101972840,"connected_time":2655000000000,"state":"spawning","ping":181},{"user_id":248,"name":"ksk.","steam_id":76561198122863358,"connected_time":622000000000,"state":"spawning","ping":178},{"user_id":108,"name":"Pathetic","steam_id":76561198051056987,"connected_time":10895000000000,"state":"spawning","ping":113},{"user_id":227,"name":"eduduao","steam_id":76561199066246644,"connected_time":3253000000000,"state":"spawning","ping":218},{"user_id":251,"name":"benjasban","steam_id":76561198862067861,"connected_time":180000000000,"state":"spawning","ping":155},{"user_id":253,"name":"james o artista de circo","steam_id":76561198361425040,"connected_time":14000000000,"state":"spawning","ping":106},{"user_id":231,"name":"Véio do Saco Gelado","steam_id":76561198414902041,"connected_time":2982000000000,"state":"spawning","ping":107},{"user_id":240,"name":"Derretimento Geral 2017","steam_id":76561198194300069,"connected_time":1562000000000,"state":"spawning","ping":120},{"user_id":252,"name":"delta","steam_id":76561198288966901,"connected_time":25000000000,"state":"spawning","ping":108},{"user_id":217,"name":"敵","steam_id":76561198338188609,"connected_time":3898000000000,"state":"spawning","ping":163},{"user_id":242,"name":"NenF | Yatosemtato","steam_id":76561199066360306,"connected_time":1111000000000,"state":"spawning","ping":147}]},{"server_id":143,"name":"Uncletopia | São Paulo | 2 | All Maps","name_short":"sao-2","host":"sao-2.br.uncletopia.com","port":27015,"enabled":true,"region":"sa","cc":"br","latitude":-23.533773,"longitude":-46.62529,"reserved":0,"last_update":"0001-01-01T00:00:00Z","name_a2s":"Uncletopia | São Paulo | 2 | All Maps","protocol":17,"map":"pl_pier","folder":"tf","game":"Team Fortress","app_id":440,"player_count":6,"max_players":24,"Bots":0,"server_type":"Dedicated","server_os":"Linux","password":true,"vac":true,"version":"7708610","steam_id":85568392924485349,"keywords":["nocrits","nodmgspread","payload","uncletopia"],"game_id":440,"stv_port":27016,"stv_name":"Uncletopia | São Paulo | 2 | All Maps | STV","players":[{"user_id":37,"name":"bnja_","steam_id":76561199213700142,"connected_time":433000000000,"state":"active","ping":86},{"user_id":38,"name":"Alexsvid","steam_id":76561199003596992,"connected_time":346000000000,"state":"active","ping":80},{"user_id":39,"name":"Halfmatuas","steam_id":76561199165754390,"connected_time":314000000000,"state":"active","ping":81},{"user_id":40,"name":"Warrancito","steam_id":76561199215538604,"connected_time":268000000000,"state":"active","ping":83},{"user_id":41,"name":"Kaizeetos","steam_id":76561199205767748,"connected_time":96000000000,"state":"active","ping":41},{"user_id":42,"name":"AnGiovanni","steam_id":76561198857071387,"connected_time":44000000000,"state":"active","ping":125}]},{"server_id":7,"name":"Uncletopia | Seattle | 1 | All Maps","name_short":"sea-1","host":"sea-1.us.uncletopia.com","port":27015,"enabled":true,"region":"us-west","cc":"us","latitude":47.608013,"longitude":-122.33517,"reserved":0,"last_update":"0001-01-01T00:00:00Z","name_a2s":"Uncletopia | Seattle | 1 | All Maps","protocol":17,"map":"pl_frontier_final","folder":"tf","game":"Team Fortress","app_id":440,"player_count":24,"max_players":24,"Bots":0,"server_type":"Dedicated","server_os":"Linux","password":true,"vac":true,"version":"7708610","steam_id":85568392924469997,"keywords":["nocrits","nodmgspread","payload","uncletopia"],"game_id":440,"stv_port":27016,"stv_name":"Uncletopia | Seattle | 1 | All Maps | STV","players":[{"user_id":72,"name":"Grill Skills","steam_id":76561198053575147,"connected_time":6439000000000,"state":"active","ping":63},{"user_id":133,"name":"Dorkified","steam_id":76561198823574538,"connected_time":2437000000000,"state":"active","ping":68},{"user_id":90,"name":"Nolan","steam_id":76561198169648081,"connected_time":5434000000000,"state":"active","ping":99},{"user_id":146,"name":"beans","steam_id":76561198967794028,"connected_time":1275000000000,"state":"active","ping":103},{"user_id":50,"name":"Dedlock","steam_id":76561198046290002,"connected_time":7602000000000,"state":"active","ping":56},{"user_id":143,"name":"Some Genius","steam_id":76561198101868089,"connected_time":1380000000000,"state":"active","ping":66},{"user_id":147,"name":"MoastyToasty","steam_id":76561197998979260,"connected_time":1213000000000,"state":"active","ping":69},{"user_id":153,"name":"Zamypkernoob","steam_id":76561198236850594,"connected_time":969000000000,"state":"active","ping":99},{"user_id":98,"name":"ejschild745","steam_id":76561199013388867,"connected_time":4155000000000,"state":"active","ping":62},{"user_id":144,"name":"rat gets the cheese","steam_id":76561198031234032,"connected_time":1326000000000,"state":"active","ping":104},{"user_id":148,"name":"SecondCarpet","steam_id":76561199008323078,"connected_time":1200000000000,"state":"active","ping":117},{"user_id":52,"name":"SesataPomang","steam_id":76561198145133059,"connected_time":7575000000000,"state":"active","ping":96},{"user_id":154,"name":"Big Smoke","steam_id":76561198278375987,"connected_time":933000000000,"state":"active","ping":109},{"user_id":145,"name":"Styn Jeezy","steam_id":76561198087380018,"connected_time":1324000000000,"state":"active","ping":100},{"user_id":156,"name":"havarti gaming","steam_id":76561198069895678,"connected_time":589000000000,"state":"active","ping":62},{"user_id":127,"name":"dust","steam_id":76561198045218909,"connected_time":2589000000000,"state":"active","ping":44},{"user_id":92,"name":"shiadyne","steam_id":76561198271939793,"connected_time":5115000000000,"state":"active","ping":45},{"user_id":157,"name":"Mugen","steam_id":76561198411174773,"connected_time":584000000000,"state":"active","ping":84},{"user_id":125,"name":"Synergy","steam_id":76561198098630198,"connected_time":2606000000000,"state":"active","ping":54},{"user_id":113,"name":"Bruised Banana","steam_id":76561198364172677,"connected_time":3269000000000,"state":"active","ping":137},{"user_id":121,"name":"грустный","steam_id":76561198274550638,"connected_time":2665000000000,"state":"active","ping":114},{"user_id":105,"name":"-=Bits=-Dinkleberg","steam_id":76561198080367616,"connected_time":3859000000000,"state":"active","ping":115},{"user_id":137,"name":"Mewwy","steam_id":76561198015392271,"connected_time":2127000000000,"state":"active","ping":88},{"user_id":158,"name":"professional cuddler","steam_id":76561198045926594,"connected_time":509000000000,"state":"active","ping":77}]},{"server_id":119,"name":"Uncletopia | Seattle | 2 | All Maps","name_short":"sea-2","host":"sea-1.us.uncletopia.com","port":27025,"enabled":true,"region":"us-west","cc":"us","latitude":47.608013,"longitude":-122.33517,"reserved":0,"last_update":"0001-01-01T00:00:00Z","name_a2s":"Uncletopia | Seattle | 2 | All Maps","protocol":17,"map":"pl_upward","folder":"tf","game":"Team Fortress","app_id":440,"player_count":24,"max_players":24,"Bots":0,"server_type":"Dedicated","server_os":"Linux","password":true,"vac":true,"version":"7708610","steam_id":85568392924469998,"keywords":["nocrits","nodmgspread","payload","uncletopia"],"game_id":440,"stv_port":27026,"stv_name":"Uncletopia | Seattle | 2 | All Maps | STV","players":[{"user_id":46,"name":"whimmu","steam_id":76561198370839794,"connected_time":1949000000000,"state":"active","ping":100},{"user_id":50,"name":"TheDiBZ","steam_id":76561198281723502,"connected_time":1662000000000,"state":"active","ping":71},{"user_id":17,"name":"taishang","steam_id":76561198065328284,"connected_time":3440000000000,"state":"active","ping":78},{"user_id":9,"name":"Goofy Goober","steam_id":76561198128299594,"connected_time":5000000000000,"state":"active","ping":98},{"user_id":64,"name":"Tw1tch3r","steam_id":76561199093785937,"connected_time":958000000000,"state":"active","ping":96},{"user_id":69,"name":"moe","steam_id":76561198929586245,"connected_time":687000000000,"state":"active","ping":82},{"user_id":67,"name":"trans gaming troll (she/her)","steam_id":76561198085410622,"connected_time":762000000000,"state":"active","ping":59},{"user_id":57,"name":"The CEO of cement","steam_id":76561199107177460,"connected_time":1210000000000,"state":"active","ping":96},{"user_id":66,"name":"I eat cold Mac \u0026 Cheese","steam_id":76561198100385184,"connected_time":822000000000,"state":"active","ping":78},{"user_id":71,"name":"Merry Matches_","steam_id":76561198048925904,"connected_time":7000000000,"state":"spawning","ping":100},{"user_id":58,"name":"Encryptik","steam_id":76561198287754476,"connected_time":1196000000000,"state":"active","ping":88},{"user_id":59,"name":"Hernandez$","steam_id":76561198019324588,"connected_time":1179000000000,"state":"active","ping":86},{"user_id":45,"name":"PopcornNinja101","steam_id":76561198330680181,"connected_time":1981000000000,"state":"active","ping":51},{"user_id":32,"name":"DeckofDragons","steam_id":76561198057398213,"connected_time":2632000000000,"state":"active","ping":73},{"user_id":33,"name":"chunkysquare","steam_id":76561199076468383,"connected_time":2589000000000,"state":"active","ping":81},{"user_id":43,"name":"gamer_hater","steam_id":76561198973306314,"connected_time":2205000000000,"state":"active","ping":76},{"user_id":68,"name":"Squidward Tortellini","steam_id":76561199017850660,"connected_time":747000000000,"state":"active","ping":70},{"user_id":65,"name":"Jake From State Farm","steam_id":76561199396787833,"connected_time":957000000000,"state":"active","ping":53},{"user_id":48,"name":"GalacticQuasaur","steam_id":76561199066172937,"connected_time":1849000000000,"state":"active","ping":87},{"user_id":70,"name":"Dosario","steam_id":76561198298095535,"connected_time":143000000000,"state":"active","ping":52},{"user_id":54,"name":"im actually gaming","steam_id":76561198128736669,"connected_time":1416000000000,"state":"active","ping":66},{"user_id":55,"name":"The Gremlin","steam_id":76561198419066993,"connected_time":1410000000000,"state":"active","ping":61},{"user_id":56,"name":"Sir Severus","steam_id":76561198061295188,"connected_time":1400000000000,"state":"active","ping":50},{"user_id":61,"name":"THE NUT","steam_id":76561198067813626,"connected_time":1125000000000,"state":"active","ping":44}]},{"server_id":17,"name":"Uncletopia | San Francisco | 1 | All Maps","name_short":"sfo-1","host":"sfo-1.us.uncletopia.com","port":27015,"enabled":true,"region":"us-west","cc":"us","latitude":37.77397,"longitude":-122.4313,"reserved":0,"last_update":"0001-01-01T00:00:00Z","name_a2s":"Uncletopia | San Francisco | 1 | All Maps","protocol":17,"map":"pl_borneo","folder":"tf","game":"Team Fortress","app_id":440,"player_count":0,"max_players":24,"Bots":0,"server_type":"Dedicated","server_os":"Linux","password":true,"vac":true,"version":"7708610","steam_id":85568392924469999,"keywords":["nocrits","nodmgspread","payload","uncletopia"],"game_id":440,"stv_port":27016,"stv_name":"Uncletopia | San Francisco | 1 | All Maps | STV","players":null},{"server_id":18,"name":"Uncletopia | San Francisco | 2 | All Maps","name_short":"sfo-2","host":"sfo-1.us.uncletopia.com","port":27025,"enabled":true,"region":"us-west","cc":"us","latitude":37.77397,"longitude":-122.4313,"reserved":0,"last_update":"0001-01-01T00:00:00Z","name_a2s":"Uncletopia | San Francisco | 2 | All Maps","protocol":17,"map":"koth_cascade","folder":"tf","game":"Team Fortress","app_id":440,"player_count":0,"max_players":24,"Bots":0,"server_type":"Dedicated","server_os":"Linux","password":true,"vac":true,"version":"7708610","steam_id":85568392924470000,"keywords":["cp","nocrits","nodmgspread","uncletopia"],"game_id":440,"stv_port":0,"stv_name":"","players":null},{"server_id":19,"name":"Uncletopia | San Francisco | 3 | No Payload","name_short":"sfo-3","host":"sfo-1.us.uncletopia.com","port":27035,"enabled":true,"region":"us-west","cc":"us","latitude":37.77397,"longitude":-122.4313,"reserved":0,"last_update":"0001-01-01T00:00:00Z","name_a2s":"Uncletopia | San Francisco | 3 | No Payload","protocol":17,"map":"plr_hightower","folder":"tf","game":"Team Fortress","app_id":440,"player_count":0,"max_players":24,"Bots":0,"server_type":"Dedicated","server_os":"Linux","password":true,"vac":true,"version":"7708610","steam_id":85568392924742824,"keywords":["nocrits","nodmgspread","payload","uncletopia"],"game_id":440,"stv_port":27036,"stv_name":"Uncletopia | San Francisco | 3 | No Payload | STV","players":null},{"server_id":20,"name":"Uncletopia | San Francisco | 4 | Community","name_short":"sfo-4","host":"sfo-1.us.uncletopia.com","port":27045,"enabled":true,"region":"us-west","cc":"us","latitude":37.77397,"longitude":-122.4313,"reserved":0,"last_update":"0001-01-01T00:00:00Z","name_a2s":"Uncletopia | San Francisco | 4 | Community","protocol":17,"map":"pl_barnblitz","folder":"tf","game":"Team Fortress","app_id":440,"player_count":0,"max_players":24,"Bots":0,"server_type":"Dedicated","server_os":"Linux","password":true,"vac":true,"version":"7708610","steam_id":85568392924742826,"keywords":["nocrits","nodmgspread","payload","uncletopia"],"game_id":440,"stv_port":0,"stv_name":"","players":null},{"server_id":141,"name":"Uncletopia | Sydney | 1 | All Maps","name_short":"syd-1","host":"syd-1.au.uncletopia.com","port":27015,"enabled":true,"region":"au","cc":"au","latitude":-33.865143,"longitude":151.2099,"reserved":0,"last_update":"0001-01-01T00:00:00Z","name_a2s":"Uncletopia | Sydney | 1 | All Maps","protocol":17,"map":"pl_pier","folder":"tf","game":"Team Fortress","app_id":440,"player_count":0,"max_players":24,"Bots":0,"server_type":"Dedicated","server_os":"Linux","password":true,"vac":true,"version":"7708610","steam_id":85568392924470001,"keywords":["nocrits","nodmgspread","payload","uncletopia"],"game_id":440,"stv_port":0,"stv_name":"","players":null},{"server_id":123,"name":"Uncletopia | Sydney | 2 | All Maps","name_short":"syd-2","host":"syd-1.au.uncletopia.com","port":27025,"enabled":true,"region":"au","cc":"au","latitude":-33.865143,"longitude":151.2099,"reserved":0,"last_update":"0001-01-01T00:00:00Z","name_a2s":"Uncletopia | Sydney | 2 | All Maps","protocol":17,"map":"pl_snowycoast","folder":"tf","game":"Team Fortress","app_id":440,"player_count":0,"max_players":24,"Bots":0,"server_type":"Dedicated","server_os":"Linux","password":true,"vac":true,"version":"7708610","steam_id":85568392924470002,"keywords":["nocrits","nodmgspread","payload","uncletopia"],"game_id":440,"stv_port":0,"stv_name":"","players":null},{"server_id":395,"name":"Uncletopia | Sydney | 3 | All Maps","name_short":"syd-3","host":"syd-1.au.uncletopia.com","port":27035,"enabled":true,"region":"au","cc":"au","latitude":-33.865143,"longitude":151.2099,"reserved":0,"last_update":"0001-01-01T00:00:00Z","name_a2s":"Uncletopia | Sydney | 3 | All Maps","protocol":17,"map":"pl_badwater","folder":"tf","game":"Team Fortress","app_id":440,"player_count":0,"max_players":24,"Bots":0,"server_type":"Dedicated","server_os":"Linux","password":true,"vac":true,"version":"7708610","steam_id":85568392925194467,"keywords":["nocrits","nodmgspread","payload","uncletopia"],"game_id":440,"stv_port":0,"stv_name":"","players":null},{"server_id":396,"name":"Uncletopia | Sydney | 4 | All Maps","name_short":"syd-4","host":"syd-1.au.uncletopia.com","port":27045,"enabled":true,"region":"au","cc":"au","latitude":-33.865143,"longitude":151.2099,"reserved":0,"last_update":"0001-01-01T00:00:00Z","name_a2s":"Uncletopia | Sydney | 4 | All Maps","protocol":17,"map":"koth_lakeside_final","folder":"tf","game":"Team Fortress","app_id":440,"player_count":4,"max_players":24,"Bots":0,"server_type":"Dedicated","server_os":"Linux","password":true,"vac":true,"version":"7708610","steam_id":85568392925397958,"keywords":["cp","nocrits","nodmgspread","uncletopia"],"game_id":440,"stv_port":0,"stv_name":"","players":[{"user_id":4,"name":"table","steam_id":76561199218095319,"connected_time":888000000000,"state":"active","ping":52},{"user_id":6,"name":"Rhoy","steam_id":76561198048504277,"connected_time":837000000000,"state":"active","ping":71},{"user_id":7,"name":"I eat floors","steam_id":76561199031952451,"connected_time":807000000000,"state":"active","ping":47},{"user_id":8,"name":"ʞǝuɟoʞǝu","steam_id":76561199074574744,"connected_time":735000000000,"state":"active","ping":44}]},{"server_id":58,"name":"Uncletopia | Sydney | 5 | No Payload","name_short":"syd-5","host":"syd-1.au.uncletopia.com","port":27055,"enabled":true,"region":"au","cc":"au","latitude":-33.865143,"longitude":151.2099,"reserved":0,"last_update":"0001-01-01T00:00:00Z","name_a2s":"Uncletopia | Sydney | 5 | No Payload","protocol":17,"map":"koth_cascade","folder":"tf","game":"Team Fortress","app_id":440,"player_count":0,"max_players":24,"Bots":0,"server_type":"Dedicated","server_os":"Linux","password":true,"vac":true,"version":"7708610","steam_id":85568392925397959,"keywords":["cp","nocrits","nodmgspread","uncletopia"],"game_id":440,"stv_port":0,"stv_name":"","players":null},{"server_id":59,"name":"Uncletopia | Sydney | 6 | Community","name_short":"syd-6","host":"syd-1.au.uncletopia.com","port":27065,"enabled":true,"region":"au","cc":"au","latitude":-33.865143,"longitude":151.2099,"reserved":0,"last_update":"0001-01-01T00:00:00Z","name_a2s":"Uncletopia | Sydney | 6 | Community","protocol":17,"map":"pl_borneo","folder":"tf","game":"Team Fortress","app_id":440,"player_count":0,"max_players":24,"Bots":0,"server_type":"Dedicated","server_os":"Linux","password":true,"vac":true,"version":"7708610","steam_id":85568392925397960,"keywords":["nocrits","nodmgspread","payload","uncletopia"],"game_id":440,"stv_port":0,"stv_name":"","players":null},{"server_id":49,"name":"Uncletopia | Warsaw | 1 | All Maps","name_short":"waw-1","host":"waw-1.pl.uncletopia.com","port":27015,"enabled":true,"region":"eu","cc":"pl","latitude":52.2297,"longitude":21.017532,"reserved":0,"last_update":"0001-01-01T00:00:00Z","name_a2s":"Uncletopia | Warsaw | 1 | All Maps","protocol":17,"map":"cp_process_final","folder":"tf","game":"Team Fortress","app_id":440,"player_count":0,"max_players":24,"Bots":0,"server_type":"Dedicated","server_os":"Linux","password":true,"vac":true,"version":"7708610","steam_id":85568392925397850,"keywords":["cp","nocrits","nodmgspread","uncletopia"],"game_id":440,"stv_port":27016,"stv_name":"Uncletopia | Warsaw | 1 | All Maps | STV","players":null},{"server_id":50,"name":"Uncletopia | Warsaw | 2 | All Maps","name_short":"waw-2","host":"waw-1.pl.uncletopia.com","port":27025,"enabled":true,"region":"eu","cc":"pl","latitude":52.2297,"longitude":21.017532,"reserved":0,"last_update":"0001-01-01T00:00:00Z","name_a2s":"Uncletopia | Warsaw | 2 | All Maps","protocol":17,"map":"koth_highpass","folder":"tf","game":"Team Fortress","app_id":440,"player_count":0,"max_players":24,"Bots":0,"server_type":"Dedicated","server_os":"Linux","password":true,"vac":true,"version":"7708610","steam_id":85568392925397851,"keywords":["cp","nocrits","nodmgspread","uncletopia"],"game_id":440,"stv_port":27026,"stv_name":"Uncletopia | Warsaw | 2 | All Maps | STV","players":null},{"server_id":51,"name":"Uncletopia | Warsaw | 3 | All Maps","name_short":"waw-3","host":"waw-1.pl.uncletopia.com","port":27035,"enabled":true,"region":"eu","cc":"pl","latitude":52.2297,"longitude":21.017532,"reserved":0,"last_update":"0001-01-01T00:00:00Z","name_a2s":"Uncletopia | Warsaw | 3 | All Maps","protocol":17,"map":"koth_cascade","folder":"tf","game":"Team Fortress","app_id":440,"player_count":0,"max_players":24,"Bots":0,"server_type":"Dedicated","server_os":"Linux","password":true,"vac":true,"version":"7708610","steam_id":85568392925397852,"keywords":["cp","nocrits","nodmgspread","uncletopia"],"game_id":440,"stv_port":0,"stv_name":"","players":null},{"server_id":52,"name":"Uncletopia | Warsaw | 4 | All Maps","name_short":"waw-4","host":"waw-1.pl.uncletopia.com","port":27045,"enabled":true,"region":"eu","cc":"pl","latitude":52.2297,"longitude":21.017532,"reserved":0,"last_update":"0001-01-01T00:00:00Z","name_a2s":"Uncletopia | Warsaw | 4 | All Maps","protocol":17,"map":"cp_process_final","folder":"tf","game":"Team Fortress","app_id":440,"player_count":0,"max_players":24,"Bots":0,"server_type":"Dedicated","server_os":"Linux","password":true,"vac":true,"version":"7708610","steam_id":85568392925397853,"keywords":["cp","nocrits","nodmgspread","uncletopia"],"game_id":440,"stv_port":27046,"stv_name":"Uncletopia | Warsaw | 4 | All Maps | STV","players":null},{"server_id":53,"name":"Uncletopia | Warsaw | 5 | No Payload","name_short":"waw-5","host":"waw-1.pl.uncletopia.com","port":27055,"enabled":true,"region":"eu","cc":"pl","latitude":52.2297,"longitude":21.017532,"reserved":0,"last_update":"0001-01-01T00:00:00Z","name_a2s":"Uncletopia | Warsaw | 5 | No Payload","protocol":17,"map":"cp_steel","folder":"tf","game":"Team Fortress","app_id":440,"player_count":0,"max_players":24,"Bots":0,"server_type":"Dedicated","server_os":"Linux","password":true,"vac":true,"version":"7708610","steam_id":85568392925397854,"keywords":["cp","nocrits","nodmgspread","uncletopia"],"game_id":440,"stv_port":27056,"stv_name":"Uncletopia | Warsaw | 5 | No Payload | STV","players":null},{"server_id":54,"name":"Uncletopia | Warsaw | 6 | Community","name_short":"waw-6","host":"waw-1.pl.uncletopia.com","port":27065,"enabled":true,"region":"eu","cc":"pl","latitude":52.2297,"longitude":21.017532,"reserved":0,"last_update":"0001-01-01T00:00:00Z","name_a2s":"Uncletopia | Warsaw | 6 | Community","protocol":17,"map":"koth_highpass","folder":"tf","game":"Team Fortress","app_id":440,"player_count":0,"max_players":24,"Bots":0,"server_type":"Dedicated","server_os":"Linux","password":true,"vac":true,"version":"7708610","steam_id":85568392925397856,"keywords":["cp","nocrits","nodmgspread","uncletopia"],"game_id":440,"stv_port":0,"stv_name":"","players":null}]}