{"status":true,"message":"","result":[{"server_id":9,"name":"Uncletopia | Atlanta | 1 | All Maps","name_short":"atl-1","host":"atl-1.us.uncletopia.com","port":27015,"enabled":true,"region":"us-east","cc":"us","latitude":33.753746,"longitude":-84.38633,"reserved":0,"last_update":"0001-01-01T00:00:00Z","name_a2s":"Uncletopia | Atlanta | 1 | All Maps","protocol":17,"map":"pl_borneo","folder":"tf","game":"Team Fortress","app_id":440,"player_count":24,"max_players":24,"Bots":0,"server_type":"Dedicated","server_os":"Linux","password":true,"vac":true,"version":"7742253","steam_id":85568392924469982,"keywords":["nocrits","nodmgspread","payload","uncletopia"],"game_id":440,"stv_port":27016,"stv_name":"Uncletopia | Atlanta | 1 | All Maps | STV","players":[{"user_id":687,"name":"Jamendithas","steam_id":76561198119537716,"connected_time":424000000000,"state":"active","ping":80},{"user_id":673,"name":"Bean0914","steam_id":76561198261906023,"connected_time":1441000000000,"state":"active","ping":78},{"user_id":682,"name":"stolen loot","steam_id":76561198069954956,"connected_time":782000000000,"state":"active","ping":47},{"user_id":623,"name":"Uung","steam_id":76561198183956731,"connected_time":4024000000000,"state":"active","ping":72},{"user_id":691,"name":"Intro Bonito","steam_id":76561198119478838,"connected_time":358000000000,"state":"active","ping":59},{"user_id":688,"name":"ben","steam_id":76561198043492910,"connected_time":405000000000,"state":"active","ping":74},{"user_id":658,"name":"ECCO","steam_id":76561198002821513,"connected_time":2159000000000,"state":"active","ping":68},{"user_id":660,"name":"Mr.Mug (Festive)","steam_id":76561199282207802,"connected_time":2092000000000,"state":"active","ping":66},{"user_id":694,"name":"Havok","steam_id":76561198063455003,"connected_time":167000000000,"state":"active","ping":66},{"user_id":685,"name":"LUKS :3","steam_id":76561199178556785,"connected_time":455000000000,"state":"active","ping":95},{"user_id":583,"name":"VidzCMC","steam_id":76561198848142973,"connected_time":6665000000000,"state":"active","ping":75},{"user_id":678,"name":"HARRY","steam_id":76561198842067238,"connected_time":1010000000000,"state":"active","ping":63},{"user_id":693,"name":"Farseer Ulwithy","steam_id":76561197965179245,"connected_time":305000000000,"state":"active","ping":120},{"user_id":644,"name":"Tue","steam_id":76561198181668501,"connected_time":2501000000000,"state":"active","ping":90},{"user_id":674,"name":"SHADOWBURN","steam_id":76561199245670274,"connected_time":1433000000000,"state":"active","ping":104},{"user_id":679,"name":"Im High","steam_id":76561198049954886,"connected_time":928000000000,"state":"active","ping":69},{"user_id":640,"name":"Pixeled","steam_id":76561198088917077,"connected_time":2857000000000,"state":"active","ping":65},{"user_id":695,"name":"floofy","steam_id":76561198389769098,"connected_time":80000000000,"state":"active","ping":88},{"user_id":667,"name":"Spooky","steam_id":76561198035516967,"connected_time":1882000000000,"state":"active","ping":46},{"user_id":576,"name":"festive pork trooper","steam_id":76561198150327877,"connected_time":7457000000000,"state":"active","ping":41},{"user_id":686,"name":"EnderActually","steam_id":76561199227287180,"connected_time":432000000000,"state":"active","ping":74},{"user_id":684,"name":"mxgic","steam_id":76561198354656195,"connected_time":659000000000,"state":"active","ping":114},{"user_id":633,"name":"Tiktaalik","steam_id":76561198856050653,"connected_time":3416000000000,"state":"active","ping":82},{"user_id":664,"name":"Mega Madness","steam_id":76561198204862037,"connected_time":1969000000000,"state":"active","ping":93}]},{"server_id":400,"name":"Uncletopia | Atlanta | 3 | Stopwatch Beta","name_short":"atl-3","host":"atl-1.us.uncletopia.com","port":27035,"enabled":true,"region":"us-east","cc":"us","latitude":33.753746,"longitude":-84.38633,"reserved":0,"last_update":"0001-01-01T00:00:00Z","name_a2s":"Uncletopia | Atlanta | 3 | Stopwatch Beta","protocol":17,"map":"workshop/koth_product_final.ugc454272353","folder":"tf","game":"Team Fortress","app_id":440,"player_count":0,"max_players":24,"Bots":0,"server_type":"Dedicated","server_os":"Linux","password":true,"vac":true,"version":"7742253","steam_id":85568392924515187,"keywords":["cp","nocrits","nodmgspread","uncletopia"],"game_id":440,"stv_port":27036,"stv_name":"Uncletopia | Atlanta | 3 | Stopwatch Beta | STV","players":null},{"server_id":401,"name":"Uncletopia | Atlanta | 4 | No Payload","name_short":"atl-4","host":"atl-1.us.uncletopia.com","port":27045,"enabled":true,"region":"us-east","cc":"us","latitude":33.753746,"longitude":-84.38633,"reserved":0,"last_update":"0001-01-01T00:00:00Z","name_a2s":"Uncletopia | Atlanta | 4 | No Payload","protocol":17,"map":"pl_pier","folder":"tf","game":"Team Fortress","app_id":440,"player_count":0,"max_players":24,"Bots":0,"server_type":"Dedicated","server_os":"Linux","password":true,"vac":true,"version":"7723704","steam_id":85568392924515188,"keywords":["nocrits","nodmgspread","payload","uncletopia"],"game_id":440,"stv_port":27046,"stv_name":"Uncletopia | Atlanta | 4 | No Payload | STV","players":null},{"server_id":2,"name":"Uncletopia | Chicago | 1 | All Maps","name_short":"chi-1","host":"chi-1.us.uncletopia.com","port":27015,"enabled":true,"region":"us-central","cc":"us","latitude":41.881832,"longitude":-87.62318,"reserved":0,"last_update":"0001-01-01T00:00:00Z","name_a2s":"Uncletopia | Chicago | 1 | All Maps","protocol":17,"map":"pl_swiftwater_final1","folder":"tf","game":"Team Fortress","app_id":440,"player_count":24,"max_players":24,"Bots":0,"server_type":"Dedicated","server_os":"Linux","password":true,"vac":true,"version":"7742253","steam_id":85568392924469984,"keywords":["nocrits","nodmgspread","payload","uncletopia"],"game_id":440,"stv_port":27016,"stv_name":"Uncletopia | Chicago | 1 | All Maps | STV","players":[{"user_id":726,"name":"you are loved","steam_id":76561198108524571,"connected_time":1915000000000,"state":"active","ping":73},{"user_id":710,"name":"kairOs.fk","steam_id":76561197972421260,"connected_time":2810000000000,"state":"active","ping":59},{"user_id":678,"name":"poopsock","steam_id":76561198069688480,"connected_time":5319000000000,"state":"active","ping":91},{"user_id":737,"name":"spectre","steam_id":76561197964657841,"connected_time":793000000000,"state":"active","ping":75},{"user_id":733,"name":"java","steam_id":76561198030276792,"connected_time":1096000000000,"state":"active","ping":64},{"user_id":734,"name":"Human Person","steam_id":76561198283855440,"connected_time":1089000000000,"state":"active","ping":88},{"user_id":722,"name":"MIKESAVAGE","steam_id":76561198996777622,"connected_time":2536000000000,"state":"active","ping":91},{"user_id":702,"name":"Anononomous Dumbo Octopus","steam_id":76561198252522394,"connected_time":4040000000000,"state":"active","ping":51},{"user_id":713,"name":"sithreis","steam_id":76561198000564263,"connected_time":2747000000000,"state":"active","ping":74},{"user_id":735,"name":"ribs","steam_id":76561197981617014,"connected_time":1047000000000,"state":"active","ping":51},{"user_id":724,"name":"CoconutRice","steam_id":76561198114909164,"connected_time":2328000000000,"state":"active","ping":56},{"user_id":698,"name":"TheAceDefiant","steam_id":76561198133264734,"connected_time":4256000000000,"state":"active","ping":61},{"user_id":736,"name":"komi","steam_id":76561198321442747,"connected_time":1030000000000,"state":"active","ping":81},{"user_id":738,"name":"big sword","steam_id":76561198285264050,"connected_time":60000000000,"state":"active","ping":53},{"user_id":715,"name":"King","steam_id":76561198010019214,"connected_time":2744000000000,"state":"active","ping":46},{"user_id":725,"name":"AlecTheNefarious","steam_id":76561198035291230,"connected_time":2100000000000,"state":"active","ping":60},{"user_id":739,"name":"three three","steam_id":76561198177354155,"connected_time":59000000000,"state":"active","ping":67},{"user_id":680,"name":"Festive Mr. Krabs Bruh","steam_id":76561198880462440,"connected_time":5316000000000,"state":"active","ping":94},{"user_id":721,"name":"i love nature","steam_id":76561198248636560,"connected_time":2582000000000,"state":"active","ping":63},{"user_id":707,"name":"arashsmash","steam_id":76561198277649058,"connected_time":3233000000000,"state":"active","ping":64},{"user_id":718,"name":"Gaming Gaming","steam_id":76561198989717627,"connected_time":2694000000000,"state":"active","ping":56},{"user_id":729,"name":"SsaucySam","steam_id":76561198362539268,"connected_time":1285000000000,"state":"active","ping":84},{"user_id":730,"name":"triangleman","steam_id":76561198972733542,"connected_time":1149000000000,"state":"active","ping":62},{"user_id":732,"name":"Merchants of Misery","steam_id":76561199188142396,"connected_time":1129000000000,"state":"active","ping":72}]},{"server_id":106,"name":"Uncletopia | Chicago | 2 | All Maps","name_short":"chi-2","host":"chi-1.us.uncletopia.com","port":27025,"enabled":true,"region":"us-central","cc":"us","latitude":41.881832,"longitude":-87.62318,"reserved":0,"last_update":"0001-01-01T00:00:00Z","name_a2s":"Uncletopia | Chicago | 2 | All Maps","protocol":17,"map":"pl_borneo","folder":"tf","game":"Team Fortress","app_id":440,"player_count":24,"max_players":24,"Bots":0,"server_type":"Dedicated","server_os":"Linux","password":true,"vac":true,"version":"7742253","steam_id":85568392924469985,"keywords":["nocrits","nodmgspread","payload","uncletopia"],"game_id":440,"stv_port":27026,"stv_name":"Uncletopia | Chicago | 2 | All Maps | STV","players":[{"user_id":945,"name":"pon","steam_id":76561198004663867,"connected_time":2210000000000,"state":"active","ping":59},{"user_id":964,"name":"comet sooicidy","steam_id":76561198025173479,"connected_time":544000000000,"state":"active","ping":82},{"user_id":909,"name":"goblin","steam_id":76561198850428601,"connected_time":4290000000000,"state":"active","ping":74},{"user_id":965,"name":"malarkeyman","steam_id":76561198844473584,"connected_time":528000000000,"state":"active","ping":62},{"user_id":958,"name":"viagra addict","steam_id":76561198017705248,"connected_time":936000000000,"state":"active","ping":45},{"user_id":972,"name":"ADHDking","steam_id":76561198116099017,"connected_time":1000000000,"state":"spawning","ping":41},{"user_id":966,"name":"Magnet Dood","steam_id":76561198364178746,"connected_time":526000000000,"state":"active","ping":45},{"user_id":959,"name":"epic.science.kid.2019","steam_id":76561198075510786,"connected_time":898000000000,"state":"active","ping":67},{"user_id":934,"name":"Goober","steam_id":76561198988863807,"connected_time":2339000000000,"state":"active","ping":70},{"user_id":969,"name":"Chesh","steam_id":76561197990316722,"connected_time":61000000000,"state":"active","ping":76},{"user_id":936,"name":"Killroy NQP ❤","steam_id":76561198006983771,"connected_time":2316000000000,"state":"active","ping":74},{"user_id":942,"name":"\u003c`)))))\u003c fish","steam_id":76561198410078962,"connected_time":2221000000000,"state":"active","ping":95},{"user_id":955,"name":"Scallywag","steam_id":76561198141238827,"connected_time":1231000000000,"state":"active","ping":61},{"user_id":967,"name":"Garbage","steam_id":76561198286796934,"connected_time":514000000000,"state":"active","ping":65},{"user_id":960,"name":"Miramar","steam_id":76561198022057653,"connected_time":890000000000,"state":"active","ping":71},{"user_id":968,"name":"(1)goober","steam_id":76561198943598378,"connected_time":126000000000,"state":"active","ping":55},{"user_id":970,"name":"SussusAmogus","steam_id":76561198870275051,"connected_time":46000000000,"state":"active","ping":77},{"user_id":905,"name":"Red Fox","steam_id":76561198049729379,"connected_time":4545000000000,"state":"active","ping":79},{"user_id":971,"name":"THIRDPIERCE","steam_id":76561198405366314,"connected_time":40000000000,"state":"active","ping":87},{"user_id":953,"name":"Santa","steam_id":76561198044130442,"connected_time":1693000000000,"state":"active","ping":67},{"user_id":962,"name":"Santa Claus","steam_id":76561199012771039,"connected_time":861000000000,"state":"active","ping":89},{"user_id":943,"name":"cat","steam_id":76561198138325084,"connected_time":2214000000000,"state":"active","ping":49},{"user_id":841,"name":"mos lft","steam_id":76561198146126212,"connected_time":5373000000000,"state":"active","ping":59},{"user_id":944,"name":"Otto von Hogslam","steam_id":76561198017429199,"connected_time":2211000000000,"state":"active","ping":97}]},{"server_id":402,"name":"Uncletopia | Chicago | 3 | All Maps","name_short":"chi-3","host":"chi-1.us.uncletopia.com","port":27035,"enabled":true,"region":"us-central","cc":"us","latitude":41.881832,"longitude":-87.62318,"reserved":0,"last_update":"0001-01-01T00:00:00Z","name_a2s":"Uncletopia | Chicago | 3 | All Maps","protocol":17,"map":"pl_swiftwater_final1","folder":"tf","game":"Team Fortress","app_id":440,"player_count":17,"max_players":24,"Bots":0,"server_type":"Dedicated","server_os":"Linux","password":true,"vac":true,"version":"7742253","steam_id":85568392924515191,"keywords":["nocrits","nodmgspread","payload","uncletopia"],"game_id":440,"stv_port":27036,"stv_name":"Uncletopia | Chicago | 3 | All Maps | STV","players":[{"user_id":650,"name":"Big ol' Willy Gaming","steam_id":76561198048545731,"connected_time":222000000000,"state":"active","ping":73},{"user_id":657,"name":"cognitiveAfflatus","steam_id":76561198295181426,"connected_time":101000000000,"state":"active","ping":62},{"user_id":653,"name":"IxMic88","steam_id":76561198018552479,"connected_time":145000000000,"state":"active","ping":68},{"user_id":655,"name":"TheBiggerIron","steam_id":76561198257043605,"connected_time":128000000000,"state":"active","ping":101},{"user_id":595,"name":"M249 | Spectre","steam_id":76561198118334485,"connected_time":5190000000000,"state":"active","ping":73},{"user_id":658,"name":"E1M1","steam_id":76561198165542681,"connected_time":98000000000,"state":"active","ping":46},{"user_id":623,"name":"Female Gamer","steam_id":76561199366482682,"connected_time":2670000000000,"state":"active","ping":99},{"user_id":662,"name":"jerma enthusiast","steam_id":76561198359466264,"connected_time":32000000000,"state":"active","ping":65},{"user_id":661,"name":"Sove67","steam_id":76561198069919807,"connected_time":55000000000,"state":"active","ping":91},{"user_id":663,"name":"LKrun","steam_id":76561197978887380,"connected_time":30000000000,"state":"active","ping":63},{"user_id":649,"name":"Aunty Frazzle","steam_id":76561198145596626,"connected_time":239000000000,"state":"active","ping":92},{"user_id":637,"name":"Tetra","steam_id":76561198012329955,"connected_time":1716000000000,"state":"active","ping":90},{"user_id":664,"name":"Nodin","steam_id":76561198135757376,"connected_time":5000000000,"state":"spawning","ping":59},{"user_id":665,"name":"Dispenser fucker","steam_id":76561198400438007,"connected_time":0,"state":"connecting","ping":0},{"user_id":629,"name":"SomeCozyKid","steam_id":76561198086113234,"connected_time":2482000000000,"state":"active","ping":79},{"user_id":616,"name":"Steeb","steam_id":76561198008058593,"connected_time":3526000000000,"state":"active","ping":47},{"user_id":639,"name":"Nuen","steam_id":76561198936096111,"connected_time":1496000000000,"state":"active","ping":44}]},{"server_id":403,"name":"Uncletopia | Chicago | 4 | All Maps","name_short":"chi-4","host":"chi-1.us.uncletopia.com","port":27045,"enabled":true,"region":"us-central","cc":"us","latitude":41.881832,"longitude":-87.62318,"reserved":0,"last_update":"0001-01-01T00:00:00Z","name_a2s":"Uncletopia | Chicago | 4 | All Maps","protocol":17,"map":"pl_snowycoast","folder":"tf","game":"Team Fortress","app_id":440,"player_count":24,"max_players":24,"Bots":0,"server_type":"Dedicated","server_os":"Linux","password":true,"vac":true,"version":"7742253","steam_id":85568392924515193,"keywords":["nocrits","nodmgspread","payload","uncletopia"],"game_id":440,"stv_port":27046,"stv_name":"Uncletopia | Chicago | 4 | All Maps | STV","players":[{"user_id":340,"name":"JisJup","steam_id":76561198274403228,"connected_time":2287000000000,"state":"active","ping":107},{"user_id":291,"name":"Riku","steam_id":76561198200428695,"connected_time":5271000000000,"state":"active","ping":31},{"user_id":344,"name":"❤Breadshot (She)❤","steam_id":76561199005756738,"connected_time":1195000000000,"state":"active","ping":54},{"user_id":339,"name":"Chase","steam_id":76561199069608408,"connected_time":2342000000000,"state":"active","ping":51},{"user_id":360,"name":"lemon","steam_id":76561198085571748,"connected_time":35000000000,"state":"active","ping":51},{"user_id":359,"name":"C papi","steam_id":76561198027779564,"connected_time":60000000000,"state":"active","ping":54},{"user_id":321,"name":"KFC☭","steam_id":76561199206815320,"connected_time":3035000000000,"state":"active","ping":95},{"user_id":361,"name":"nebby","steam_id":76561197990815274,"connected_time":32000000000,"state":"active","ping":44},{"user_id":325,"name":"memeguuy","steam_id":76561198281010552,"connected_time":2911000000000,"state":"active","ping":66},{"user_id":224,"name":"BustedRake","steam_id":76561198130489976,"connected_time":10162000000000,"state":"active","ping":64},{"user_id":288,"name":"DenDa","steam_id":76561198321944154,"connected_time":5612000000000,"state":"active","ping":45},{"user_id":218,"name":"jolo","steam_id":76561198042831480,"connected_time":10351000000000,"state":"active","ping":61},{"user_id":219,"name":"workin for snapple","steam_id":76561198013732450,"connected_time":10313000000000,"state":"active","ping":48},{"user_id":304,"name":"Chauckles","steam_id":76561197993151595,"connected_time":4581000000000,"state":"active","ping":57},{"user_id":334,"name":"Riske","steam_id":76561198115840568,"connected_time":2724000000000,"state":"active","ping":74},{"user_id":353,"name":"ArnoldGaming","steam_id":76561198040140247,"connected_time":970000000000,"state":"active","ping":92},{"user_id":354,"name":"wepry","steam_id":76561198114091417,"connected_time":939000000000,"state":"active","ping":78},{"user_id":349,"name":"TheToastingToaster","steam_id":76561198439391966,"connected_time":1136000000000,"state":"active","ping":60},{"user_id":347,"name":"Javaris Jamar Javarison-Lamar","steam_id":76561198146951387,"connected_time":1172000000000,"state":"active","ping":75},{"user_id":355,"name":"merry trapmas","steam_id":76561198402801140,"connected_time":631000000000,"state":"active","ping":64},{"user_id":328,"name":"daemon","steam_id":76561198001541433,"connected_time":2886000000000,"state":"active","ping":60},{"user_id":352,"name":"HellRaiser","steam_id":76561199051660033,"connected_time":1002000000000,"state":"active","ping":81},{"user_id":338,"name":"Vladikr1","steam_id":76561198401495362,"connected_time":2559000000000,"state":"active","ping":54},{"user_id":356,"name":"-flagellum","steam_id":76561198006297974,"connected_time":599000000000,"state":"active","ping":58}]},{"server_id":36,"name":"Uncletopia | Chicago | 5 | All Maps","name_short":"chi-5","host":"chi-2.us.uncletopia.com","port":27015,"enabled":true,"region":"us-central","cc":"us","latitude":41.881832,"longitude":-87.62318,"reserved":0,"last_update":"0001-01-01T00:00:00Z","name_a2s":"Uncletopia | Chicago | 5 | All Maps","protocol":17,"map":"pl_snowycoast","folder":"tf","game":"Team Fortress","app_id":440,"player_count":22,"max_players":24,"Bots":0,"server_type":"Dedicated","server_os":"Linux","password":true,"vac":true,"version":"7742253","steam_id":85568392924866362,"keywords":["cp","nocrits","nodmgspread","uncletopia"],"game_id":440,"stv_port":27016,"stv_name":"Uncletopia | Chicago | 5 | All Maps | STV","players":[{"user_id":351,"name":"darktrooperizz","steam_id":76561199013230611,"connected_time":8935000000000,"state":"connecting","ping":116},{"user_id":442,"name":"MuffinMan","steam_id":76561198272111654,"connected_time":999000000000,"state":"connecting","ping":102},{"user_id":377,"name":"jayy.t","steam_id":76561198059575962,"connected_time":7045000000000,"state":"connecting","ping":75},{"user_id":456,"name":"Luigi","steam_id":76561198891626233,"connected_time":33000000000,"state":"connecting","ping":74},{"user_id":454,"name":"[GUT] tipups","steam_id":76561197972342705,"connected_time":289000000000,"state":"connecting","ping":68},{"user_id":390,"name":"TheGhostThatWas","steam_id":76561198055836483,"connected_time":5720000000000,"state":"connecting","ping":72},{"user_id":376,"name":"maze","steam_id":76561198068443860,"connected_time":7369000000000,"state":"connecting","ping":61},{"user_id":444,"name":"Huh?","steam_id":76561198119768703,"connected_time":972000000000,"state":"connecting","ping":66},{"user_id":457,"name":"armed slobbery. enguzzlement.","steam_id":76561198237292756,"connected_time":30000000000,"state":"connecting","ping":77},{"user_id":446,"name":"Pananananananananananananananan","steam_id":76561198018608667,"connected_time":946000000000,"state":"connecting","ping":62},{"user_id":447,"name":"Ded_Pat","steam_id":76561198824381285,"connected_time":935000000000,"state":"connecting","ping":71},{"user_id":419,"name":"averted","steam_id":76561198067784310,"connected_time":3137000000000,"state":"connecting","ping":84},{"user_id":452,"name":"mhp","steam_id":76561198219815228,"connected_time":579000000000,"state":"connecting","ping":73},{"user_id":369,"name":"weeb_whacker #Jenius","steam_id":76561198187098041,"connected_time":7890000000000,"state":"connecting","ping":68},{"user_id":455,"name":"[GUT] 13","steam_id":76561197985209820,"connected_time":135000000000,"state":"connecting","ping":76},{"user_id":358,"name":"Mengle","steam_id":76561198001953684,"connected_time":8718000000000,"state":"connecting","ping":75},{"user_id":425,"name":"Schmeat Lover's Pizza","steam_id":76561199219790713,"connected_time":2463000000000,"state":"connecting","ping":73},{"user_id":451,"name":"lazybones","steam_id":76561199191149784,"connected_time":696000000000,"state":"connecting","ping":133},{"user_id":453,"name":"TriggerHappyPacifist","steam_id":76561197963455267,"connected_time":573000000000,"state":"connecting","ping":99}]},{"server_id":37,"name":"Uncletopia | Chicago | 6 | All Maps","name_short":"chi-6","host":"chi-2.us.uncletopia.com","port":27025,"enabled":true,"region":"us-central","cc":"us","latitude":41.881832,"longitude":-87.62318,"reserved":0,"last_update":"0001-01-01T00:00:00Z","name_a2s":"Uncletopia | Chicago | 6 | All Maps","protocol":17,"map":"koth_suijin","folder":"tf","game":"Team Fortress","app_id":440,"player_count":24,"max_players":24,"Bots":0,"server_type":"Dedicated","server_os":"Linux","password":true,"vac":true,"version":"7742253","steam_id":85568392924866363,"keywords":["cp","nocrits","nodmgspread","uncletopia"],"game_id":440,"stv_port":27026,"stv_name":"Uncletopia | Chicago | 6 | All Maps | STV","players":[{"user_id":312,"name":"RyanDCB [Real]","steam_id":76561198040138739,"connected_time":6336000000000,"state":"active","ping":62},{"user_id":348,"name":"okuurin gayming","steam_id":76561198114679256,"connected_time":3282000000000,"state":"active","ping":68},{"user_id":398,"name":"McGangBang","steam_id":76561198862379865,"connected_time":502000000000,"state":"active","ping":58},{"user_id":374,"name":"SquirrelAway™","steam_id":76561197998828619,"connected_time":2218000000000,"state":"active","ping":74},{"user_id":400,"name":"WitheringLeo","steam_id":76561198046722918,"connected_time":18000000000,"state":"spawning","ping":79},{"user_id":359,"name":"mush","steam_id":76561198310089797,"connected_time":2959000000000,"state":"active","ping":54},{"user_id":384,"name":"a Karamel her/she","steam_id":76561198076467775,"connected_time":1573000000000,"state":"active","ping":57},{"user_id":362,"name":"Second Hand Smoke Gaming","steam_id":76561198380926090,"connected_time":2877000000000,"state":"active","ping":50},{"user_id":375,"name":"Servitz","steam_id":76561198194446835,"connected_time":2206000000000,"state":"active","ping":61},{"user_id":270,"name":"Lord Vile the Impaler","steam_id":76561198040425096,"connected_time":8011000000000,"state":"active","ping":64},{"user_id":371,"name":"viscodolante","steam_id":76561198013650292,"connected_time":2466000000000,"state":"active","ping":108},{"user_id":314,"name":"The Fortress From Team Fortress","steam_id":76561198081422503,"connected_time":6209000000000,"state":"active","ping":71},{"user_id":376,"name":"the Grimm Lad","steam_id":76561198151908409,"connected_time":2029000000000,"state":"active","ping":99},{"user_id":391,"name":"ToastEatinBread","steam_id":76561199154323267,"connected_time":1020000000000,"state":"active","ping":67},{"user_id":378,"name":"Terraformer9x","steam_id":76561198018465835,"connected_time":1956000000000,"state":"active","ping":76},{"user_id":397,"name":"YourDom","steam_id":76561198451730653,"connected_time":553000000000,"state":"active","ping":65},{"user_id":364,"name":"MemeyBoi3rd","steam_id":76561199443570634,"connected_time":2850000000000,"state":"active","ping":105},{"user_id":380,"name":"Doober","steam_id":76561198056661095,"connected_time":1948000000000,"state":"active","ping":78},{"user_id":399,"name":"KingTinkerer","steam_id":76561198226856548,"connected_time":174000000000,"state":"active","ping":70},{"user_id":394,"name":"theconceptoflove","steam_id":76561199096810067,"connected_time":847000000000,"state":"active","ping":72},{"user_id":372,"name":"ravioli","steam_id":76561199013708786,"connected_time":2455000000000,"state":"active","ping":48},{"user_id":387,"name":"Mister36","steam_id":76561198019132100,"connected_time":1219000000000,"state":"active","ping":62},{"user_id":382,"name":"Nassu","steam_id":76561198147367577,"connected_time":1880000000000,"state":"active","ping":72},{"user_id":300,"name":"SHADOW (he/him)","steam_id":76561198207768148,"connected_time":7018000000000,"state":"active","ping":114}]},{"server_id":38,"name":"Uncletopia | Chicago | 7 | Stopwatch Beta","name_short":"chi-7","host":"chi-2.us.uncletopia.com","port":27035,"enabled":true,"region":"us-central","cc":"us","latitude":41.881832,"longitude":-87.62318,"reserved":0,"last_update":"0001-01-01T00:00:00Z","name_a2s":"Uncletopia | Chicago | 7 | Stopwatch Beta","protocol":17,"map":"workshop/pl_vigil_rc9.ugc1266210012","folder":"tf","game":"Team Fortress","app_id":440,"player_count":24,"max_players":24,"Bots":0,"server_type":"Dedicated","server_os":"Linux","password":true,"vac":true,"version":"7742253","steam_id":85568392924866364,"keywords":["nocrits","nodmgspread","payload","uncletopia"],"game_id":440,"stv_port":27036,"stv_name":"Uncletopia | Chicago | 7 | Stopwatch Beta | STV","players":[{"user_id":30,"name":"you must think im a sucker","steam_id":76561198152818418,"connected_time":4046000000000,"state":"active","ping":82},{"user_id":20,"name":"scrapmetal.crafter.2009","steam_id":76561198138221795,"connected_time":4235000000000,"state":"active","ping":74},{"user_id":21,"name":"Garbo","steam_id":76561198192120869,"connected_time":4230000000000,"state":"active","ping":60},{"user_id":22,"name":"Gazelle","steam_id":76561198336397088,"connected_time":4229000000000,"state":"active","ping":94},{"user_id":23,"name":"Thinks he is a sucker","steam_id":76561198202254225,"connected_time":4226000000000,"state":"active","ping":121},{"user_id":24,"name":"TreesRUs","steam_id":76561198305740611,"connected_time":4225000000000,"state":"active","ping":74},{"user_id":25,"name":"the abysmal eye","steam_id":76561198087200115,"connected_time":4223000000000,"state":"active","ping":114},{"user_id":26,"name":"Cinderace:)","steam_id":76561198132899671,"connected_time":4221000000000,"state":"active","ping":63},{"user_id":63,"name":"mommy","steam_id":76561198129195009,"connected_time":2052000000000,"state":"active","ping":76},{"user_id":28,"name":"A used self heating flesh-light","steam_id":76561198069918221,"connected_time":4199000000000,"state":"active","ping":73},{"user_id":82,"name":"fish","steam_id":76561198274534190,"connected_time":201000000000,"state":"active","ping":56},{"user_id":83,"name":"Streetwise","steam_id":76561197971684268,"connected_time":190000000000,"state":"active","ping":89},{"user_id":87,"name":"Elizabeth truss","steam_id":76561198058250979,"connected_time":33000000000,"state":"active","ping":71},{"user_id":85,"name":"Goofball","steam_id":76561198061211537,"connected_time":158000000000,"state":"active","ping":79},{"user_id":78,"name":"Rick :3","steam_id":76561198110061539,"connected_time":410000000000,"state":"active","ping":54},{"user_id":37,"name":"pazylurple","steam_id":76561199100612353,"connected_time":3925000000000,"state":"active","ping":59},{"user_id":79,"name":"leonardo da bingi","steam_id":76561197978678262,"connected_time":403000000000,"state":"active","ping":49},{"user_id":86,"name":"pipepeepi","steam_id":76561198845905873,"connected_time":157000000000,"state":"active","ping":60},{"user_id":60,"name":"TOOL fan","steam_id":76561198272021214,"connected_time":2358000000000,"state":"active","ping":107},{"user_id":61,"name":"Lord_of_Happy_Death","steam_id":76561198880762204,"connected_time":2108000000000,"state":"active","ping":69},{"user_id":75,"name":"Zoombini16","steam_id":76561198324428992,"connected_time":534000000000,"state":"active","ping":76},{"user_id":77,"name":"DropBear","steam_id":76561197964435496,"connected_time":493000000000,"state":"active","ping":76},{"user_id":72,"name":"drugsmoker117289","steam_id":76561198079009899,"connected_time":731000000000,"state":"active","ping":71},{"user_id":81,"name":"Chuck Finley","steam_id":76561198027411284,"connected_time":394000000000,"state":"active","ping":74}]},{"server_id":39,"name":"Uncletopia | Chicago | 8 | Community","name_short":"chi-8","host":"chi-2.us.uncletopia.com","port":27045,"enabled":true,"region":"us-central","cc":"us","latitude":41.881832,"longitude":-87.62318,"reserved":0,"last_update":"0001-01-01T00:00:00Z","name_a2s":"Uncletopia | Chicago | 8 | Community","protocol":17,"map":"workshop/koth_ashville_final.ugc2130459942","folder":"tf","game":"Team Fortress","app_id":440,"player_count":6,"max_players":24,"Bots":0,"server_type":"Dedicated","server_os":"Linux","password":true,"vac":true,"version":"7742253","steam_id":85568392924866365,"keywords":["cp","nocrits","nodmgspread","uncletopia"],"game_id":440,"stv_port":27046,"stv_name":"Uncletopia | Chicago | 8 | Community | STV","players":[{"user_id":13,"name":"CLG TaRiK","steam_id":76561198839880487,"connected_time":2178000000000,"state":"active","ping":54},{"user_id":14,"name":"yahboided1","steam_id":76561199359449181,"connected_time":2174000000000,"state":"active","ping":74},{"user_id":15,"name":"Jang-Lang-","steam_id":76561199016578959,"connected_time":1669000000000,"state":"active","ping":72},{"user_id":16,"name":"{Sly Fox}","steam_id":76561199069954162,"connected_time":1663000000000,"state":"active","ping":70},{"user_id":30,"name":"Hunt_er#SaveTf2","steam_id":76561198325350546,"connected_time":446000000000,"state":"active","ping":87},{"user_id":32,"name":":P","steam_id":76561199439880565,"connected_time":357000000000,"state":"active","ping":66}]},{"server_id":8,"name":"Uncletopia | Dallas | 1 | All Maps","name_short":"dal-1","host":"dal-1.us.uncletopia.com","port":27015,"enabled":true,"region":"us-central","cc":"us","latitude":32.779167,"longitude":-96.80889,"reserved":0,"last_update":"0001-01-01T00:00:00Z","name_a2s":"Uncletopia | Dallas | 1 | All Maps","protocol":17,"map":"pl_barnblitz","folder":"tf","game":"Team Fortress","app_id":440,"player_count":24,"max_players":24,"Bots":0,"server_type":"Dedicated","server_os":"Linux","password":true,"vac":true,"version":"7742253","steam_id":85568392924469986,"keywords":["nocrits","nodmgspread","payload","uncletopia"],"game_id":440,"stv_port":27016,"stv_name":"Uncletopia | Dallas | 1 | All Maps | STV","players":[{"user_id":304,"name":"Parpa","steam_id":76561198066252787,"connected_time":1693000000000,"state":"active","ping":94},{"user_id":306,"name":"CHIEF","steam_id":76561198011209422,"connected_time":1424000000000,"state":"active","ping":46},{"user_id":315,"name":"The Krinkler","steam_id":76561198020308956,"connected_time":700000000000,"state":"active","ping":62},{"user_id":318,"name":"SliFox115","steam_id":76561198006657143,"connected_time":584000000000,"state":"active","ping":68},{"user_id":285,"name":"Fisherman","steam_id":76561198071026825,"connected_time":2651000000000,"state":"active","ping":74},{"user_id":286,"name":"Your Pal, Vegeta","steam_id":76561198064916816,"connected_time":2644000000000,"state":"active","ping":84},{"user_id":282,"name":"Scoron","steam_id":76561198062099305,"connected_time":2713000000000,"state":"active","ping":92},{"user_id":311,"name":"ROGUE-PLANET","steam_id":76561198116023052,"connected_time":773000000000,"state":"active","ping":65},{"user_id":322,"name":"Bob the Builder","steam_id":76561199069029812,"connected_time":177000000000,"state":"active","ping":92},{"user_id":290,"name":"I'm using tilt controls","steam_id":76561199014681829,"connected_time":2502000000000,"state":"active","ping":62},{"user_id":216,"name":"mola","steam_id":76561198036283992,"connected_time":9008000000000,"state":"active","ping":76},{"user_id":319,"name":"carter","steam_id":76561198285295764,"connected_time":210000000000,"state":"active","ping":71},{"user_id":305,"name":"BLACKout","steam_id":76561198002194086,"connected_time":1512000000000,"state":"active","ping":89},{"user_id":309,"name":"HotLatinoMale","steam_id":76561198272335425,"connected_time":1302000000000,"state":"active","ping":78},{"user_id":271,"name":"Bubbles","steam_id":76561198812361950,"connected_time":4067000000000,"state":"active","ping":100},{"user_id":275,"name":"in the balls (kick)","steam_id":76561199277633460,"connected_time":3587000000000,"state":"active","ping":60},{"user_id":310,"name":"Hangul","steam_id":76561197991887988,"connected_time":1302000000000,"state":"active","ping":100},{"user_id":251,"name":"DocDankDandy","steam_id":76561197999440195,"connected_time":6563000000000,"state":"active","ping":79},{"user_id":317,"name":"dash23™","steam_id":76561198314951185,"connected_time":639000000000,"state":"active","ping":112},{"user_id":321,"name":"COYOTE","steam_id":76561198988066988,"connected_time":207000000000,"state":"active","ping":100},{"user_id":314,"name":"Christmas with Weezer (2008)","steam_id":76561198132803810,"connected_time":748000000000,"state":"active","ping":61},{"user_id":297,"name":"SlimPorkchops","steam_id":76561198958586069,"connected_time":1881000000000,"state":"active","ping":45},{"user_id":302,"name":"Exalted Finalist","steam_id":76561198192021295,"connected_time":1827000000000,"state":"active","ping":181},{"user_id":301,"name":"Triple Espresso Enjoyer","steam_id":76561198254238409,"connected_time":1837000000000,"state":"active","ping":86}]},{"server_id":108,"name":"Uncletopia | Dallas | 2 | All Maps","name_short":"dal-2","host":"dal-1.us.uncletopia.com","port":27025,"enabled":true,"region":"us-central","cc":"us","latitude":32.779167,"longitude":-96.80889,"reserved":0,"last_update":"0001-01-01T00:00:00Z","name_a2s":"Uncletopia | Dallas | 2 | All Maps","protocol":17,"map":"pl_frontier_final","folder":"tf","game":"Team Fortress","app_id":440,"player_count":23,"max_players":24,"Bots":0,"server_type":"Dedicated","server_os":"Linux","password":true,"vac":true,"version":"7742253","steam_id":85568392924469988,"keywords":["nocrits","nodmgspread","payload","uncletopia"],"game_id":440,"stv_port":27026,"stv_name":"Uncletopia | Dallas | 2 | All Maps | STV","players":[{"user_id":408,"name":"Lingus Loopus","steam_id":76561198041426868,"connected_time":2502000000000,"state":"active","ping":50},{"user_id":450,"name":"G. Howard Dee","steam_id":76561198058382812,"connected_time":633000000000,"state":"active","ping":67},{"user_id":438,"name":"ogj","steam_id":76561198170102971,"connected_time":1689000000000,"state":"active","ping":66},{"user_id":447,"name":"jorge","steam_id":76561198310829298,"connected_time":663000000000,"state":"active","ping":60},{"user_id":451,"name":"Minion Bob","steam_id":76561198023938170,"connected_time":625000000000,"state":"active","ping":92},{"user_id":456,"name":"BlueCrue","steam_id":76561198066698869,"connected_time":184000000000,"state":"active","ping":61},{"user_id":430,"name":"totally not a pile of beans","steam_id":76561198119851931,"connected_time":1891000000000,"state":"active","ping":90},{"user_id":402,"name":"kiu","steam_id":76561198847749278,"connected_time":2707000000000,"state":"active","ping":45},{"user_id":457,"name":"win free ipod","steam_id":76561198057356807,"connected_time":164000000000,"state":"active","ping":76},{"user_id":425,"name":"iluvtoust","steam_id":76561198869269207,"connected_time":2150000000000,"state":"active","ping":45},{"user_id":453,"name":"gamer in rehab","steam_id":76561198858328080,"connected_time":617000000000,"state":"active","ping":82},{"user_id":412,"name":"The Ultimate Coomer","steam_id":76561199128833757,"connected_time":2360000000000,"state":"active","ping":45},{"user_id":441,"name":"Rin \"Hindwing\" Redtail","steam_id":76561199074865638,"connected_time":1284000000000,"state":"active","ping":52},{"user_id":458,"name":"zogs","steam_id":76561198323491654,"connected_time":120000000000,"state":"active","ping":43},{"user_id":434,"name":"damiankiller1243","steam_id":76561198868885090,"connected_time":1819000000000,"state":"active","ping":59},{"user_id":417,"name":"ChipperGunslinger","steam_id":76561199100483140,"connected_time":2315000000000,"state":"active","ping":61},{"user_id":418,"name":"Mike Bean Burritos","steam_id":76561198173430607,"connected_time":2309000000000,"state":"active","ping":112},{"user_id":454,"name":"MERCHANT","steam_id":76561198210010549,"connected_time":605000000000,"state":"active","ping":84},{"user_id":349,"name":"Tails 2.0 the furry guardian","steam_id":76561199067075746,"connected_time":7923000000000,"state":"active","ping":80},{"user_id":446,"name":"FG7","steam_id":76561198381197197,"connected_time":1085000000000,"state":"active","ping":132},{"user_id":442,"name":"November","steam_id":76561198131631865,"connected_time":1248000000000,"state":"active","ping":71},{"user_id":455,"name":"ChozoFury","steam_id":76561197999220378,"connected_time":568000000000,"state":"active","ping":74},{"user_id":445,"name":"Alice Hiiragi","steam_id":76561198094078478,"connected_time":1171000000000,"state":"active","ping":75}]},{"server_id":5,"name":"Uncletopia | Frankfurt | 1 | All Maps","name_short":"frk-1","host":"frk-1.de.uncletopia.com","port":27015,"enabled":true,"region":"eu","cc":"de","latitude":50.110924,"longitude":8.682127,"reserved":0,"last_update":"0001-01-01T00:00:00Z","name_a2s":"Uncletopia | Frankfurt | 1 | All Maps","protocol":17,"map":"cp_mountainlab","folder":"tf","game":"Team Fortress","app_id":440,"player_count":0,"max_players":24,"Bots":0,"server_type":"Dedicated","server_os":"Linux","password":true,"vac":true,"version":"7742253","steam_id":85568392924469989,"keywords":["cp","nocrits","nodmgspread","uncletopia"],"game_id":440,"stv_port":27016,"stv_name":"Uncletopia | Frankfurt | 1 | All Maps | STV","players":null},{"server_id":110,"name":"Uncletopia | Frankfurt | 2 | All Maps","name_short":"frk-2","host":"frk-1.de.uncletopia.com","port":27025,"enabled":true,"region":"eu","cc":"de","latitude":50.110924,"longitude":8.682127,"reserved":0,"last_update":"0001-01-01T00:00:00Z","name_a2s":"Uncletopia | Frankfurt | 2 | All Maps","protocol":17,"map":"koth_lakeside_final","folder":"tf","game":"Team Fortress","app_id":440,"player_count":0,"max_players":24,"Bots":0,"server_type":"Dedicated","server_os":"Linux","password":true,"vac":true,"version":"7742253","steam_id":85568392924469990,"keywords":["cp","nocrits","nodmgspread","uncletopia"],"game_id":440,"stv_port":27026,"stv_name":"Uncletopia | Frankfurt | 2 | All Maps | STV","players":null},{"server_id":308,"name":"Uncletopia | Frankfurt | 3 | All Maps","name_short":"frk-3","host":"frk-1.de.uncletopia.com","port":27035,"enabled":true,"region":"eu","cc":"de","latitude":50.110924,"longitude":8.682127,"reserved":0,"last_update":"0001-01-01T00:00:00Z","name_a2s":"Uncletopia | Frankfurt | 3 | All Maps","protocol":17,"map":"koth_cascade","folder":"tf","game":"Team Fortress","app_id":440,"player_count":0,"max_players":24,"Bots":0,"server_type":"Dedicated","server_os":"Linux","password":true,"vac":true,"version":"7742253","steam_id":85568392924504274,"keywords":["cp","nocrits","nodmgspread","uncletopia"],"game_id":440,"stv_port":27036,"stv_name":"Uncletopia | Frankfurt | 3 | All Maps | STV","players":null},{"server_id":309,"name":"Uncletopia | Frankfurt | 4 | All Maps","name_short":"frk-4","host":"frk-1.de.uncletopia.com","port":27045,"enabled":true,"region":"eu","cc":"de","latitude":50.110924,"longitude":8.682127,"reserved":0,"last_update":"0001-01-01T00:00:00Z","name_a2s":"Uncletopia | Frankfurt | 4 | All Maps","protocol":17,"map":"pl_barnblitz","folder":"tf","game":"Team Fortress","app_id":440,"player_count":0,"max_players":24,"Bots":0,"server_type":"Dedicated","server_os":"Linux","password":true,"vac":true,"version":"7742253","steam_id":85568392924504275,"keywords":["nocrits","nodmgspread","payload","uncletopia"],"game_id":440,"stv_port":27046,"stv_name":"Uncletopia | Frankfurt | 4 | All Maps | STV","players":null},{"server_id":310,"name":"Uncletopia | Frankfurt | 5 | All Maps","name_short":"frk-5","host":"frk-1.de.uncletopia.com","port":27055,"enabled":true,"region":"eu","cc":"de","latitude":50.110924,"longitude":8.682127,"reserved":0,"last_update":"0001-01-01T00:00:00Z","name_a2s":"Uncletopia | Frankfurt | 5 | All Maps","protocol":17,"map":"pl_upward","folder":"tf","game":"Team Fortress","app_id":440,"player_count":0,"max_players":24,"Bots":0,"server_type":"Dedicated","server_os":"Linux","password":true,"vac":true,"version":"7742253","steam_id":85568392924504277,"keywords":["nocrits","nodmgspread","payload","uncletopia"],"game_id":440,"stv_port":27056,"stv_name":"Uncletopia | Frankfurt | 5 | All Maps | STV","players":null},{"server_id":311,"name":"Uncletopia | Frankfurt | 6 | All Maps","name_short":"frk-6","host":"frk-1.de.uncletopia.com","port":27065,"enabled":true,"region":"eu","cc":"de","latitude":50.110924,"longitude":8.682127,"reserved":0,"last_update":"0001-01-01T00:00:00Z","name_a2s":"Uncletopia | Frankfurt | 6 | All Maps","protocol":17,"map":"ctf_snowfall_final","folder":"tf","game":"Team Fortress","app_id":440,"player_count":3,"max_players":24,"Bots":0,"server_type":"Dedicated","server_os":"Linux","password":true,"vac":true,"version":"7742253","steam_id":85568392924504278,"keywords":["ctf","nocrits","nodmgspread","uncletopia"],"game_id":440,"stv_port":27066,"stv_name":"Uncletopia | Frankfurt | 6 | All Maps | STV","players":[{"user_id":896,"name":"I want my dog back","steam_id":76561198318748304,"connected_time":1796000000000,"state":"active","ping":108},{"user_id":867,"name":"Tsuruko","steam_id":76561198063618114,"connected_time":5322000000000,"state":"active","ping":60},{"user_id":868,"name":"Mafour","steam_id":76561197994581337,"connected_time":5316000000000,"state":"active","ping":75}]},{"server_id":23,"name":"Uncletopia | Frankfurt | 7 | Stopwatch Beta","name_short":"frk-7","host":"frk-1.de.uncletopia.com","port":27075,"enabled":true,"region":"eu","cc":"de","latitude":50.110924,"longitude":8.682127,"reserved":0,"last_update":"0001-01-01T00:00:00Z","name_a2s":"Uncletopia | Frankfurt | 7 | Stopwatch Beta","protocol":17,"map":"workshop/pl_summercoast_rc8e.ugc1761528829","folder":"tf","game":"Team Fortress","app_id":440,"player_count":0,"max_players":24,"Bots":0,"server_type":"Dedicated","server_os":"Linux","password":true,"vac":true,"version":"7742253","steam_id":85568392924742827,"keywords":["nocrits","nodmgspread","payload","uncletopia"],"game_id":440,"stv_port":27076,"stv_name":"Uncletopia | Frankfurt | 7 | Stopwatch Beta | STV","players":null},{"server_id":24,"name":"Uncletopia | Frankfurt | 8 | Community","name_short":"frk-8","host":"frk-1.de.uncletopia.com","port":27085,"enabled":true,"region":"eu","cc":"de","latitude":50.110924,"longitude":8.682127,"reserved":0,"last_update":"0001-01-01T00:00:00Z","name_a2s":"Uncletopia | Frankfurt | 8 | Community","protocol":17,"map":"workshop/koth_ramjam_v2_b2.ugc2865676487","folder":"tf","game":"Team Fortress","app_id":440,"player_count":0,"max_players":24,"Bots":0,"server_type":"Dedicated","server_os":"Linux","password":true,"vac":true,"version":"7742253","steam_id":85568392924742828,"keywords":["cp","nocrits","nodmgspread","uncletopia"],"game_id":440,"stv_port":27086,"stv_name":"Uncletopia | Frankfurt | 8 | Community | STV","players":null},{"server_id":202,"name":"Uncletopia | Hong Kong | 1 | All Maps","name_short":"hgk-1","host":"hgk-1.hk.uncletopia.com","port":27015,"enabled":true,"region":"asia","cc":"hk","latitude":22.302711,"longitude":114.177216,"reserved":0,"last_update":"0001-01-01T00:00:00Z","name_a2s":"Uncletopia | Hong Kong | 1 | All Maps","protocol":17,"map":"koth_harvest_final","folder":"tf","game":"Team Fortress","app_id":440,"player_count":24,"max_players":24,"Bots":0,"server_type":"Dedicated","server_os":"Linux","password":true,"vac":true,"version":"7742253","steam_id":85568392924494504,"keywords":["cp","nocrits","nodmgspread","uncletopia"],"game_id":440,"stv_port":27016,"stv_name":"Uncletopia | Hong Kong | 1 | All Maps | STV","players":[{"user_id":132,"name":"A very thankful Merc.","steam_id":76561198896046677,"connected_time":1358000000000,"state":"active","ping":67},{"user_id":142,"name":"Milk❤ (most hated guy in ut)","steam_id":76561198163911560,"connected_time":648000000000,"state":"active","ping":78},{"user_id":138,"name":"mosqito","steam_id":76561198195487041,"connected_time":1053000000000,"state":"active","ping":77},{"user_id":13,"name":"Windmill","steam_id":76561199230997986,"connected_time":12231000000000,"state":"active","ping":69},{"user_id":145,"name":"I am BOX","steam_id":76561198845309411,"connected_time":420000000000,"state":"active","ping":89},{"user_id":146,"name":"crusader king","steam_id":76561198110843506,"connected_time":266000000000,"state":"active","ping":55},{"user_id":148,"name":"Telekhine","steam_id":76561198387120618,"connected_time":133000000000,"state":"active","ping":53},{"user_id":134,"name":"Corn_Archer","steam_id":76561199185044554,"connected_time":1326000000000,"state":"active","ping":59},{"user_id":130,"name":"変態の神","steam_id":76561199017344476,"connected_time":1536000000000,"state":"active","ping":95},{"user_id":131,"name":"P","steam_id":76561198304514505,"connected_time":1380000000000,"state":"active","ping":75},{"user_id":143,"name":"Neko-Chan","steam_id":76561198046277969,"connected_time":531000000000,"state":"active","ping":48},{"user_id":86,"name":"JayJ","steam_id":76561198324008555,"connected_time":4744000000000,"state":"active","ping":56},{"user_id":110,"name":"Sel","steam_id":76561198190923207,"connected_time":2988000000000,"state":"active","ping":62},{"user_id":115,"name":"Medi","steam_id":76561198447470800,"connected_time":2619000000000,"state":"active","ping":68},{"user_id":67,"name":"T.","steam_id":76561198337887896,"connected_time":7167000000000,"state":"active","ping":80},{"user_id":147,"name":"bookman","steam_id":76561198989168133,"connected_time":256000000000,"state":"active","ping":86},{"user_id":135,"name":"lilla laxum","steam_id":76561198230213828,"connected_time":1303000000000,"state":"active","ping":70},{"user_id":80,"name":"p1st0n","steam_id":76561198992723983,"connected_time":5805000000000,"state":"active","ping":97},{"user_id":139,"name":"monkeyman536","steam_id":76561197997717737,"connected_time":994000000000,"state":"active","ping":126},{"user_id":141,"name":"Prussian","steam_id":76561198974248745,"connected_time":829000000000,"state":"active","ping":68},{"user_id":117,"name":"screaming sniper","steam_id":76561199085568674,"connected_time":2472000000000,"state":"active","ping":74},{"user_id":119,"name":"gonebeef","steam_id":76561199083203270,"connected_time":2372000000000,"state":"active","ping":85},{"user_id":125,"name":"qballs","steam_id":76561198412329672,"connected_time":2091000000000,"state":"active","ping":86},{"user_id":111,"name":"it chrmis time","steam_id":76561198055553140,"connected_time":2967000000000,"state":"active","ping":77}]},{"server_id":1,"name":"Uncletopia | Los Angeles | 1 | All Maps","name_short":"lax-1","host":"lax-1.us.uncletopia.com","port":27015,"enabled":true,"region":"us-west","cc":"us","latitude":33.94279,"longitude":-118.41004,"reserved":0,"last_update":"0001-01-01T00:00:00Z","name_a2s":"Uncletopia | Los Angeles | 1 | All Maps","protocol":17,"map":"pl_borneo","folder":"tf","game":"Team Fortress","app_id":440,"player_count":24,"max_players":24,"Bots":0,"server_type":"Dedicated","server_os":"Linux","password":true,"vac":true,"version":"7742253","steam_id":85568392924469991,"keywords":["nocrits","nodmgspread","payload","uncletopia"],"game_id":440,"stv_port":27016,"stv_name":"Uncletopia | Los Angeles | 1 | All Maps | STV","players":[{"user_id":229,"name":"MarshallMellows","steam_id":76561198231561020,"connected_time":1632000000000,"state":"active","ping":59},{"user_id":239,"name":"faxxy","steam_id":76561198079621240,"connected_time":128000000000,"state":"active","ping":101},{"user_id":237,"name":"S p a f f y","steam_id":76561198047892151,"connected_time":166000000000,"state":"active","ping":42},{"user_id":232,"name":"Nibotshooter","steam_id":76561199284825579,"connected_time":1359000000000,"state":"active","ping":83},{"user_id":220,"name":"Sivinus","steam_id":76561198025589541,"connected_time":2055000000000,"state":"active","ping":52},{"user_id":240,"name":"axel","steam_id":76561198844924677,"connected_time":110000000000,"state":"active","ping":69},{"user_id":224,"name":"Jax O'Gaytor","steam_id":76561198288922168,"connected_time":1959000000000,"state":"active","ping":62},{"user_id":221,"name":"Goonther","steam_id":76561198170128009,"connected_time":2028000000000,"state":"active","ping":61},{"user_id":241,"name":"Skeptical","steam_id":76561198038261789,"connected_time":106000000000,"state":"active","ping":76},{"user_id":234,"name":"Pacbub","steam_id":76561198165198874,"connected_time":307000000000,"state":"active","ping":52},{"user_id":242,"name":"sora","steam_id":76561198094256973,"connected_time":47000000000,"state":"active","ping":56},{"user_id":193,"name":"NoSympathy","steam_id":76561198035289430,"connected_time":4356000000000,"state":"active","ping":66},{"user_id":233,"name":"Stargazer Ashley","steam_id":76561198035479925,"connected_time":365000000000,"state":"active","ping":37},{"user_id":230,"name":"turnip","steam_id":76561197999375941,"connected_time":1595000000000,"state":"active","ping":85},{"user_id":238,"name":"Noxus","steam_id":76561199009820852,"connected_time":166000000000,"state":"active","ping":79},{"user_id":235,"name":"TheBrocklobster","steam_id":76561198039682984,"connected_time":179000000000,"state":"active","ping":60},{"user_id":216,"name":"toki","steam_id":76561199196943730,"connected_time":2183000000000,"state":"active","ping":66},{"user_id":147,"name":"kebo","steam_id":76561198237159430,"connected_time":7080000000000,"state":"active","ping":51},{"user_id":231,"name":"Chafn","steam_id":76561197969386702,"connected_time":1534000000000,"state":"active","ping":60},{"user_id":243,"name":"KnightlyLad","steam_id":76561199053958203,"connected_time":43000000000,"state":"spawning","ping":123},{"user_id":198,"name":"LazyDoll","steam_id":76561198053186338,"connected_time":3979000000000,"state":"active","ping":59},{"user_id":244,"name":"Anime Removal Squad","steam_id":76561198201237587,"connected_time":33000000000,"state":"active","ping":50},{"user_id":205,"name":"dandy","steam_id":76561197967362217,"connected_time":3632000000000,"state":"active","ping":53},{"user_id":169,"name":"Sleuth","steam_id":76561198418288939,"connected_time":5621000000000,"state":"active","ping":55}]},{"server_id":112,"name":"Uncletopia | Los Angeles | 2 | All Maps","name_short":"lax-2","host":"lax-1.us.uncletopia.com","port":27025,"enabled":true,"region":"us-west","cc":"us","latitude":33.94279,"longitude":-118.41004,"reserved":0,"last_update":"0001-01-01T00:00:00Z","name_a2s":"Uncletopia | Los Angeles | 2 | All Maps","protocol":17,"map":"cp_sunshine","folder":"tf","game":"Team Fortress","app_id":440,"player_count":0,"max_players":24,"Bots":0,"server_type":"Dedicated","server_os":"Linux","password":true,"vac":true,"version":"7742253","steam_id":85568392924469992,"keywords":["cp","nocrits","nodmgspread","uncletopia"],"game_id":440,"stv_port":27026,"stv_name":"Uncletopia | Los Angeles | 2 | All Maps | STV","players":null},{"server_id":324,"name":"Uncletopia | Los Angeles | 3 | All Maps","name_short":"lax-3","host":"lax-1.us.uncletopia.com","port":27035,"enabled":true,"region":"us-west","cc":"us","latitude":33.94279,"longitude":-118.41004,"reserved":0,"last_update":"0001-01-01T00:00:00Z","name_a2s":"Uncletopia | Los Angeles | 3 | All Maps","protocol":17,"map":"koth_lakeside_final","folder":"tf","game":"Team Fortress","app_id":440,"player_count":0,"max_players":24,"Bots":0,"server_type":"Dedicated","server_os":"Linux","password":true,"vac":true,"version":"7742253","steam_id":85568392924510198,"keywords":["cp","nocrits","nodmgspread","uncletopia"],"game_id":440,"stv_port":27036,"stv_name":"Uncletopia | Los Angeles | 3 | All Maps | STV","players":null},{"server_id":25,"name":"Uncletopia | Los Angeles | 4 | Stopwatch Beta","name_short":"lax-4","host":"lax-1.us.uncletopia.com","port":27045,"enabled":true,"region":"us-west","cc":"us","latitude":33.94279,"longitude":-118.41004,"reserved":0,"last_update":"0001-01-01T00:00:00Z","name_a2s":"Uncletopia | Los Angeles | 4 | Stopwatch Beta","protocol":17,"map":"cp_process_final","folder":"tf","game":"Team Fortress","app_id":440,"player_count":0,"max_players":24,"Bots":0,"server_type":"Dedicated","server_os":"Linux","password":true,"vac":true,"version":"7742253","steam_id":85568392924510199,"keywords":["cp","nocrits","nodmgspread","uncletopia"],"game_id":440,"stv_port":27046,"stv_name":"Uncletopia | Los Angeles | 4 | Stopwatch Beta | STV","players":null},{"server_id":11,"name":"Uncletopia | London | 1 | All Maps","name_short":"lon-1","host":"lon-1.uk.uncletopia.com","port":27015,"enabled":true,"region":"eu","cc":"gb","latitude":51.509865,"longitude":-0.118092,"reserved":0,"last_update":"0001-01-01T00:00:00Z","name_a2s":"Uncletopia | London | 1 | All Maps","protocol":17,"map":"koth_lakeside_final","folder":"tf","game":"Team Fortress","app_id":440,"player_count":0,"max_players":24,"Bots":0,"server_type":"Dedicated","server_os":"Linux","password":true,"vac":true,"version":"7742253","steam_id":85568392924367362,"keywords":["cp","nocrits","nodmgspread","uncletopia"],"game_id":440,"stv_port":27016,"stv_name":"Uncletopia | London | 1 | All Maps | STV","players":null},{"server_id":114,"name":"Uncletopia | London | 2 | All Maps","name_short":"lon-2","host":"lon-1.uk.uncletopia.com","port":27025,"enabled":true,"region":"eu","cc":"gb","latitude":51.509865,"longitude":-0.118092,"reserved":0,"last_update":"0001-01-01T00:00:00Z","name_a2s":"Uncletopia | London | 2 | All Maps","protocol":17,"map":"cp_altitude","folder":"tf","game":"Team Fortress","app_id":440,"player_count":0,"max_players":24,"Bots":0,"server_type":"Dedicated","server_os":"Linux","password":true,"vac":true,"version":"7742253","steam_id":85568392924470941,"keywords":["cp","nocrits","nodmgspread","uncletopia"],"game_id":440,"stv_port":27026,"stv_name":"Uncletopia | London | 2 | All Maps | STV","players":null},{"server_id":320,"name":"Uncletopia | London | 3 | All Maps","name_short":"lon-3","host":"lon-1.uk.uncletopia.com","port":27035,"enabled":true,"region":"eu","cc":"gb","latitude":51.509865,"longitude":-0.118092,"reserved":0,"last_update":"0001-01-01T00:00:00Z","name_a2s":"Uncletopia | London | 3 | All Maps","protocol":17,"map":"pl_swiftwater_final1","folder":"tf","game":"Team Fortress","app_id":440,"player_count":0,"max_players":24,"Bots":0,"server_type":"Dedicated","server_os":"Linux","password":true,"vac":true,"version":"7742253","steam_id":85568392924510192,"keywords":["nocrits","nodmgspread","payload","uncletopia"],"game_id":440,"stv_port":27036,"stv_name":"Uncletopia | London | 3 | All Maps | STV","players":null},{"server_id":321,"name":"Uncletopia | London | 4 | All Maps","name_short":"lon-4","host":"lon-1.uk.uncletopia.com","port":27045,"enabled":true,"region":"eu","cc":"gb","latitude":51.509865,"longitude":-0.118092,"reserved":0,"last_update":"0001-01-01T00:00:00Z","name_a2s":"Uncletopia | London | 4 | All Maps","protocol":17,"map":"pl_snowycoast","folder":"tf","game":"Team Fortress","app_id":440,"player_count":0,"max_players":24,"Bots":0,"server_type":"Dedicated","server_os":"Linux","password":true,"vac":true,"version":"7742253","steam_id":85568392924510193,"keywords":["nocrits","nodmgspread","payload","uncletopia"],"game_id":440,"stv_port":27046,"stv_name":"Uncletopia | London | 4 | All Maps | STV","players":null},{"server_id":21,"name":"Uncletopia | London | 5 | All Maps","name_short":"lon-5","host":"lon-1.uk.uncletopia.com","port":27055,"enabled":true,"region":"eu","cc":"gb","latitude":51.509865,"longitude":-0.118092,"reserved":0,"last_update":"0001-01-01T00:00:00Z","name_a2s":"Uncletopia | London | 5 | All Maps","protocol":17,"map":"pl_frontier_final","folder":"tf","game":"Team Fortress","app_id":440,"player_count":0,"max_players":24,"Bots":0,"server_type":"Dedicated","server_os":"Linux","password":true,"vac":true,"version":"7742253","steam_id":85568392924742829,"keywords":["nocrits","nodmgspread","payload","uncletopia"],"game_id":440,"stv_port":27056,"stv_name":"Uncletopia | London | 5 | All Maps | STV","players":null},{"server_id":22,"name":"Uncletopia | London | 6 | All Maps","name_short":"lon-6","host":"lon-1.uk.uncletopia.com","port":27065,"enabled":true,"region":"eu","cc":"gb","latitude":51.509865,"longitude":-0.118092,"reserved":0,"last_update":"0001-01-01T00:00:00Z","name_a2s":"Uncletopia | London | 6 | All Maps","protocol":17,"map":"koth_cascade","folder":"tf","game":"Team Fortress","app_id":440,"player_count":0,"max_players":24,"Bots":0,"server_type":"Dedicated","server_os":"Linux","password":true,"vac":true,"version":"7742253","steam_id":85568392924742830,"keywords":["cp","nocrits","nodmgspread","uncletopia"],"game_id":440,"stv_port":27066,"stv_name":"Uncletopia | London | 6 | All Maps | STV","players":null},{"server_id":40,"name":"Uncletopia | London | 7 | No Payload","name_short":"lon-7","host":"lon-1.uk.uncletopia.com","port":27075,"enabled":true,"region":"eu","cc":"gb","latitude":51.509865,"longitude":-0.118092,"reserved":0,"last_update":"0001-01-01T00:00:00Z","name_a2s":"Uncletopia | London | 7 | No Payload","protocol":17,"map":"koth_viaduct","folder":"tf","game":"Team Fortress","app_id":440,"player_count":0,"max_players":24,"Bots":0,"server_type":"Dedicated","server_os":"Linux","password":true,"vac":true,"version":"7742253","steam_id":85568392924964314,"keywords":["cp","nocrits","nodmgspread","uncletopia"],"game_id":440,"stv_port":27076,"stv_name":"Uncletopia | London | 7 | No Payload | STV","players":null},{"server_id":41,"name":"Uncletopia | London | 8 | Community","name_short":"lon-8","host":"lon-1.uk.uncletopia.com","port":27085,"enabled":true,"region":"eu","cc":"gb","latitude":51.509865,"longitude":-0.118092,"reserved":0,"last_update":"0001-01-01T00:00:00Z","name_a2s":"Uncletopia | London | 8 | Community","protocol":17,"map":"workshop/cp_villa_b19.ugc2113052569","folder":"tf","game":"Team Fortress","app_id":440,"player_count":0,"max_players":24,"Bots":0,"server_type":"Dedicated","server_os":"Linux","password":true,"vac":true,"version":"7742253","steam_id":85568392924964315,"keywords":["cp","nocrits","nodmgspread","uncletopia"],"game_id":440,"stv_port":27086,"stv_name":"Uncletopia | London | 8 | Community | STV","players":null},{"server_id":300,"name":"Uncletopia | Montréal | 1 | All Maps","name_short":"mtl-1","host":"mtl-1.ca.uncletopia.com","port":27015,"enabled":true,"region":"us-east","cc":"ca","latitude":45.50889,"longitude":-73.56167,"reserved":0,"last_update":"0001-01-01T00:00:00Z","name_a2s":"Uncletopia | Montréal | 1 | All Maps","protocol":17,"map":"koth_lakeside_final","folder":"tf","game":"Team Fortress","app_id":440,"player_count":0,"max_players":24,"Bots":0,"server_type":"Dedicated","server_os":"Linux","password":true,"vac":true,"version":"7742253","steam_id":85568392924500087,"keywords":["cp","nocrits","nodmgspread","uncletopia"],"game_id":440,"stv_port":27016,"stv_name":"Uncletopia | Montréal | 1 | All Maps | STV","players":null},{"server_id":301,"name":"Uncletopia | Montréal | 2 | All Maps","name_short":"mtl-2","host":"mtl-1.ca.uncletopia.com","port":27025,"enabled":true,"region":"us-east","cc":"ca","latitude":45.50889,"longitude":-73.56167,"reserved":0,"last_update":"0001-01-01T00:00:00Z","name_a2s":"Uncletopia | Montréal | 2 | All Maps","protocol":17,"map":"koth_lakeside_final","folder":"tf","game":"Team Fortress","app_id":440,"player_count":0,"max_players":24,"Bots":0,"server_type":"Dedicated","server_os":"Linux","password":true,"vac":true,"version":"7742253","steam_id":85568392924500088,"keywords":["cp","nocrits","nodmgspread","uncletopia"],"game_id":440,"stv_port":27026,"stv_name":"Uncletopia | Montréal | 2 | All Maps | STV","players":null},{"server_id":302,"name":"Uncletopia | Montréal | 3 | All Maps","name_short":"mtl-3","host":"mtl-1.ca.uncletopia.com","port":27035,"enabled":true,"region":"us-east","cc":"ca","latitude":45.50889,"longitude":-73.56167,"reserved":0,"last_update":"0001-01-01T00:00:00Z","name_a2s":"Uncletopia | Montréal | 3 | All Maps","protocol":17,"map":"cp_altitude","folder":"tf","game":"Team Fortress","app_id":440,"player_count":0,"max_players":24,"Bots":0,"server_type":"Dedicated","server_os":"Linux","password":true,"vac":true,"version":"7742253","steam_id":85568392924500089,"keywords":["cp","nocrits","nodmgspread","uncletopia"],"game_id":440,"stv_port":27036,"stv_name":"Uncletopia | Montréal | 3 | All Maps | STV","players":null},{"server_id":303,"name":"Uncletopia | Montréal | 4 | No Payload","name_short":"mtl-4","host":"mtl-1.ca.uncletopia.com","port":27045,"enabled":true,"region":"us-east","cc":"ca","latitude":45.50889,"longitude":-73.56167,"reserved":0,"last_update":"0001-01-01T00:00:00Z","name_a2s":"Uncletopia | Montréal | 4 | No Payload","protocol":17,"map":"koth_highpass","folder":"tf","game":"Team Fortress","app_id":440,"player_count":0,"max_players":24,"Bots":0,"server_type":"Dedicated","server_os":"Linux","password":true,"vac":true,"version":"7742253","steam_id":85568392924500090,"keywords":["cp","nocrits","nodmgspread","uncletopia"],"game_id":440,"stv_port":27046,"stv_name":"Uncletopia | Montréal | 4 | No Payload | STV","players":null},{"server_id":13,"name":"Uncletopia | New York City | 1 | All Maps","name_short":"nyc-1","host":"nyc-1.us.uncletopia.com","port":27015,"enabled":true,"region":"us-east","cc":"us","latitude":40.73061,"longitude":-73.93524,"reserved":0,"last_update":"0001-01-01T00:00:00Z","name_a2s":"Uncletopia | New York City | 1 | All Maps","protocol":17,"map":"koth_viaduct","folder":"tf","game":"Team Fortress","app_id":440,"player_count":25,"max_players":24,"Bots":0,"server_type":"Dedicated","server_os":"Linux","password":true,"vac":true,"version":"7742253","steam_id":85568392924469993,"keywords":["cp","nocrits","nodmgspread","uncletopia"],"game_id":440,"stv_port":27016,"stv_name":"Uncletopia | New York City | 1 | All Maps | STV","players":[{"user_id":653,"name":"Rein","steam_id":76561198300340427,"connected_time":5000000000,"state":"spawning","ping":78},{"user_id":573,"name":"alligator fuckhouse","steam_id":76561198119178364,"connected_time":5467000000000,"state":"active","ping":73},{"user_id":595,"name":"MILF Gaming","steam_id":76561198155378170,"connected_time":3564000000000,"state":"active","ping":52},{"user_id":635,"name":"*boom*","steam_id":76561199409264244,"connected_time":542000000000,"state":"active","ping":50},{"user_id":634,"name":"Noodle","steam_id":76561197997208006,"connected_time":567000000000,"state":"active","ping":134},{"user_id":624,"name":"「Saint」","steam_id":76561198241943070,"connected_time":1139000000000,"state":"active","ping":88},{"user_id":649,"name":"matchstick","steam_id":76561198190100027,"connected_time":49000000000,"state":"active","ping":39},{"user_id":650,"name":"CrazedFerno","steam_id":76561198068854510,"connected_time":47000000000,"state":"active","ping":50},{"user_id":646,"name":"BoomieMcBoomPants","steam_id":76561198144516828,"connected_time":187000000000,"state":"active","ping":120},{"user_id":597,"name":"McNamJam","steam_id":76561198028128686,"connected_time":3471000000000,"state":"active","ping":118},{"user_id":626,"name":"Final_MarioXD","steam_id":76561199184862419,"connected_time":1061000000000,"state":"active","ping":95},{"user_id":631,"name":"Pan","steam_id":76561199122755987,"connected_time":793000000000,"state":"active","ping":101},{"user_id":629,"name":"IvanOoze","steam_id":76561197973058200,"connected_time":952000000000,"state":"active","ping":115},{"user_id":645,"name":"tatis","steam_id":76561198317697314,"connected_time":234000000000,"state":"active","ping":133},{"user_id":647,"name":"Neco-arc Astolfo","steam_id":76561198989682540,"connected_time":145000000000,"state":"active","ping":130},{"user_id":599,"name":"ShinyOrion (She/Her)","steam_id":76561198408378321,"connected_time":3422000000000,"state":"active","ping":59},{"user_id":620,"name":"DJ BAGUETTE!!!","steam_id":76561198145727778,"connected_time":1651000000000,"state":"active","ping":64},{"user_id":615,"name":"Diamond Jack","steam_id":76561198321304762,"connected_time":1793000000000,"state":"active","ping":43},{"user_id":633,"name":"cheated on the pregnancy test","steam_id":76561199107068627,"connected_time":676000000000,"state":"active","ping":65},{"user_id":648,"name":"squibbles!","steam_id":76561198271861959,"connected_time":138000000000,"state":"active","ping":46},{"user_id":651,"name":"Santa (real)","steam_id":76561199016285746,"connected_time":28000000000,"state":"active","ping":91},{"user_id":618,"name":"guh","steam_id":76561197972342286,"connected_time":1700000000000,"state":"active","ping":53},{"user_id":609,"name":"Ekstra","steam_id":76561199031147010,"connected_time":1976000000000,"state":"active","ping":143},{"user_id":654,"name":"GenericMaleGamer","steam_id":76561198257271858,"connected_time":5000000000,"state":"spawning","ping":128},{"user_id":640,"name":"colorfulg70","steam_id":76561199010363371,"connected_time":482000000000,"state":"active","ping":135}]},{"server_id":14,"name":"Uncletopia | New York City | 2 | All Maps","name_short":"nyc-2","host":"nyc-1.us.uncletopia.com","port":27025,"enabled":true,"region":"us-east","cc":"us","latitude":40.73061,"longitude":-73.93524,"reserved":0,"last_update":"0001-01-01T00:00:00Z","name_a2s":"Uncletopia | New York City | 2 | All Maps","protocol":17,"map":"pl_borneo","folder":"tf","game":"Team Fortress","app_id":440,"player_count":24,"max_players":24,"Bots":0,"server_type":"Dedicated","server_os":"Linux","password":true,"vac":true,"version":"7742253","steam_id":85568392924469994,"keywords":["nocrits","nodmgspread","payload","uncletopia"],"game_id":440,"stv_port":27026,"stv_name":"Uncletopia | New York City | 2 | All Maps | STV","players":[{"user_id":503,"name":"PizzaPasta","steam_id":76561199125109082,"connected_time":13948000000000,"state":"active","ping":61},{"user_id":770,"name":"Pirateer","steam_id":76561198017114970,"connected_time":737000000000,"state":"active","ping":115},{"user_id":748,"name":"Nico Robin's Cowboy Hat","steam_id":76561198055802924,"connected_time":3007000000000,"state":"active","ping":66},{"user_id":767,"name":"Csquared","steam_id":76561198169038599,"connected_time":1323000000000,"state":"active","ping":126},{"user_id":771,"name":"kopirate","steam_id":76561198170448097,"connected_time":698000000000,"state":"active","ping":118},{"user_id":772,"name":"e|Normos","steam_id":76561199048057457,"connected_time":691000000000,"state":"active","ping":84},{"user_id":773,"name":"[SKVR] Holo♥","steam_id":76561198064464060,"connected_time":674000000000,"state":"active","ping":50},{"user_id":780,"name":"Phillip Jeffries","steam_id":76561198064052174,"connected_time":528000000000,"state":"active","ping":55},{"user_id":728,"name":"Sploingo!","steam_id":76561198799365742,"connected_time":4577000000000,"state":"active","ping":71},{"user_id":726,"name":"No_Point","steam_id":76561198374907851,"connected_time":4711000000000,"state":"active","ping":68},{"user_id":743,"name":"CRAZY engineer","steam_id":76561198887937902,"connected_time":3648000000000,"state":"active","ping":48},{"user_id":775,"name":"GiveSomeSHrimp","steam_id":76561197963154816,"connected_time":644000000000,"state":"active","ping":76},{"user_id":760,"name":"gamer girl looking for a bf","steam_id":76561198279901162,"connected_time":1830000000000,"state":"active","ping":65},{"user_id":782,"name":"goopgrabber","steam_id":76561199029951083,"connected_time":358000000000,"state":"active","ping":83},{"user_id":761,"name":"the entire country of scotland","steam_id":76561198272712911,"connected_time":1821000000000,"state":"active","ping":64},{"user_id":753,"name":"pew pew user","steam_id":76561198307845869,"connected_time":2557000000000,"state":"active","ping":50},{"user_id":756,"name":"Cynd","steam_id":76561198263327674,"connected_time":2084000000000,"state":"active","ping":59},{"user_id":778,"name":"Nicoarn121","steam_id":76561198156297440,"connected_time":622000000000,"state":"active","ping":39},{"user_id":781,"name":"curbulence264","steam_id":76561199353333952,"connected_time":500000000000,"state":"active","ping":68},{"user_id":783,"name":"Roz257","steam_id":76561198842844532,"connected_time":328000000000,"state":"active","ping":80},{"user_id":784,"name":"Bashirider","steam_id":76561198260522253,"connected_time":101000000000,"state":"active","ping":45},{"user_id":769,"name":"stuporvillian","steam_id":76561198083796225,"connected_time":784000000000,"state":"active","ping":64},{"user_id":746,"name":"Crimsonmask270","steam_id":76561198866479715,"connected_time":3250000000000,"state":"active","ping":128},{"user_id":733,"name":"Laelaps","steam_id":76561198100061416,"connected_time":4162000000000,"state":"active","ping":55}]},{"server_id":15,"name":"Uncletopia | New York City | 3 | Stopwatch Beta","name_short":"nyc-3","host":"nyc-1.us.uncletopia.com","port":27035,"enabled":true,"region":"us-east","cc":"us","latitude":40.73061,"longitude":-73.93524,"reserved":0,"last_update":"0001-01-01T00:00:00Z","name_a2s":"Uncletopia | New York City | 3 | Stopwatch Beta","protocol":17,"map":"koth_lakeside_final","folder":"tf","game":"Team Fortress","app_id":440,"player_count":0,"max_players":24,"Bots":0,"server_type":"Dedicated","server_os":"Linux","password":true,"vac":true,"version":"7742253","steam_id":85568392924742820,"keywords":["cp","nocrits","nodmgspread","uncletopia"],"game_id":440,"stv_port":27036,"stv_name":"Uncletopia | New York City | 3 | Stopwatch Beta | STV","players":null},{"server_id":16,"name":"Uncletopia | New York City | 4 | Community","name_short":"nyc-4","host":"nyc-1.us.uncletopia.com","port":27045,"enabled":true,"region":"us-east","cc":"us","latitude":40.73061,"longitude":-73.93524,"reserved":0,"last_update":"0001-01-01T00:00:00Z","name_a2s":"Uncletopia | New York City | 4 | Community","protocol":17,"map":"workshop/koth_product_final.ugc454272353","folder":"tf","game":"Team Fortress","app_id":440,"player_count":0,"max_players":24,"Bots":0,"server_type":"Dedicated","server_os":"Linux","password":true,"vac":true,"version":"7742253","steam_id":85568392924742821,"keywords":["cp","nocrits","nodmgspread","uncletopia"],"game_id":440,"stv_port":27046,"stv_name":"Uncletopia | New York City | 4 | Community | STV","players":null},{"server_id":142,"name":"Uncletopia | São Paulo | 1 | All Maps","name_short":"sao-1","host":"sao-1.br.uncletopia.com","port":27015,"enabled":true,"region":"sa","cc":"br","latitude":-23.533773,"longitude":-46.62529,"reserved":0,"last_update":"0001-01-01T00:00:00Z","name_a2s":"Uncletopia | São Paulo | 1 | All Maps","protocol":17,"map":"pl_borneo","folder":"tf","game":"Team Fortress","app_id":440,"player_count":0,"max_players":24,"Bots":0,"server_type":"Dedicated","server_os":"Linux","password":true,"vac":true,"version":"7742253","steam_id":85568392924469996,"keywords":["nocrits","nodmgspread","payload","uncletopia"],"game_id":440,"stv_port":27016,"stv_name":"Uncletopia | São Paulo | 1 | All Maps | STV","players":null},{"server_id":143,"name":"Uncletopia | São Paulo | 2 | All Maps","name_short":"sao-2","host":"sao-2.br.uncletopia.com","port":27015,"enabled":true,"region":"sa","cc":"br","latitude":-23.533773,"longitude":-46.62529,"reserved":0,"last_update":"0001-01-01T00:00:00Z","name_a2s":"Uncletopia | São Paulo | 2 | All Maps","protocol":17,"map":"pl_badwater","folder":"tf","game":"Team Fortress","app_id":440,"player_count":0,"max_players":24,"Bots":0,"server_type":"Dedicated","server_os":"Linux","password":true,"vac":true,"version":"7742253","steam_id":85568392924485349,"keywords":["nocrits","nodmgspread","payload","uncletopia"],"game_id":440,"stv_port":27016,"stv_name":"Uncletopia | São Paulo | 2 | All Maps | STV","players":null},{"server_id":7,"name":"Uncletopia | Seattle | 1 | All Maps","name_short":"sea-1","host":"sea-1.us.uncletopia.com","port":27015,"enabled":true,"region":"us-west","cc":"us","latitude":47.608013,"longitude":-122.33517,"reserved":0,"last_update":"0001-01-01T00:00:00Z","name_a2s":"Uncletopia | Seattle | 1 | All Maps","protocol":17,"map":"koth_harvest_final","folder":"tf","game":"Team Fortress","app_id":440,"player_count":23,"max_players":24,"Bots":0,"server_type":"Dedicated","server_os":"Linux","password":true,"vac":true,"version":"7742253","steam_id":85568392924469997,"keywords":["cp","nocrits","nodmgspread","uncletopia"],"game_id":440,"stv_port":27016,"stv_name":"Uncletopia | Seattle | 1 | All Maps | STV","players":[{"user_id":481,"name":"kirbothebrony","steam_id":76561198971911330,"connected_time":1878000000000,"state":"active","ping":119},{"user_id":499,"name":"VerociousVee","steam_id":76561198289106015,"connected_time":466000000000,"state":"active","ping":45},{"user_id":452,"name":"Ayayahuasca","steam_id":76561199002906056,"connected_time":5254000000000,"state":"active","ping":43},{"user_id":480,"name":"Tom Skirrett","steam_id":76561198014600788,"connected_time":1941000000000,"state":"active","ping":70},{"user_id":490,"name":"blinkerton city","steam_id":76561198054270410,"connected_time":1139000000000,"state":"active","ping":56},{"user_id":502,"name":"spenca","steam_id":76561198025371154,"connected_time":415000000000,"state":"active","ping":79},{"user_id":460,"name":"William P. Ennis","steam_id":76561198073464877,"connected_time":4194000000000,"state":"active","ping":90},{"user_id":438,"name":"[TrC] Nosy","steam_id":76561197978859310,"connected_time":6438000000000,"state":"active","ping":59},{"user_id":469,"name":"rat gets the cheese","steam_id":76561198031234032,"connected_time":2449000000000,"state":"active","ping":102},{"user_id":503,"name":"Toothbrush","steam_id":76561199091907590,"connected_time":149000000000,"state":"active","ping":49},{"user_id":461,"name":"DiggyDwarf","steam_id":76561198368905980,"connected_time":4154000000000,"state":"active","ping":114},{"user_id":471,"name":"soup","steam_id":76561198043209046,"connected_time":2320000000000,"state":"active","ping":64},{"user_id":422,"name":"Mr. Big Quack","steam_id":76561198062219416,"connected_time":7383000000000,"state":"active","ping":81},{"user_id":459,"name":"Mr.Thirteen","steam_id":76561198047468836,"connected_time":4199000000000,"state":"active","ping":63},{"user_id":487,"name":"Mignyanne :3","steam_id":76561198048754056,"connected_time":1156000000000,"state":"active","ping":74},{"user_id":483,"name":"Reagan Grey","steam_id":76561199244000976,"connected_time":1621000000000,"state":"active","ping":68},{"user_id":505,"name":"resting neutral face","steam_id":76561197999259502,"connected_time":48000000000,"state":"active","ping":60},{"user_id":472,"name":"PorgyPork","steam_id":76561198824399078,"connected_time":2317000000000,"state":"active","ping":42},{"user_id":488,"name":"TROY","steam_id":76561197983852176,"connected_time":1155000000000,"state":"active","ping":77},{"user_id":437,"name":"[TrC] Dackstrus","steam_id":76561197973518509,"connected_time":6667000000000,"state":"active","ping":57},{"user_id":463,"name":"kronk","steam_id":76561198054623686,"connected_time":4121000000000,"state":"active","ping":82},{"user_id":501,"name":"Miss PeaceTea","steam_id":76561198279236985,"connected_time":439000000000,"state":"active","ping":128},{"user_id":473,"name":"Sir Nope (TSS)","steam_id":76561198035935649,"connected_time":2317000000000,"state":"active","ping":81}]},{"server_id":119,"name":"Uncletopia | Seattle | 2 | All Maps","name_short":"sea-2","host":"sea-1.us.uncletopia.com","port":27025,"enabled":true,"region":"us-west","cc":"us","latitude":47.608013,"longitude":-122.33517,"reserved":0,"last_update":"0001-01-01T00:00:00Z","name_a2s":"Uncletopia | Seattle | 2 | All Maps","protocol":17,"map":"pl_snowycoast","folder":"tf","game":"Team Fortress","app_id":440,"player_count":23,"max_players":24,"Bots":0,"server_type":"Dedicated","server_os":"Linux","password":true,"vac":true,"version":"7742253","steam_id":85568392924469998,"keywords":["nocrits","nodmgspread","payload","uncletopia"],"game_id":440,"stv_port":27026,"stv_name":"Uncletopia | Seattle | 2 | All Maps | STV","players":[{"user_id":429,"name":"Blackbeard","steam_id":76561198046952265,"connected_time":991000000000,"state":"active","ping":47},{"user_id":437,"name":"mEch114","steam_id":76561198236936060,"connected_time":441000000000,"state":"active","ping":92},{"user_id":424,"name":"☆Atomic Waffle☆","steam_id":76561198100385184,"connected_time":1261000000000,"state":"active","ping":85},{"user_id":272,"name":"Frongussy","steam_id":76561197979056451,"connected_time":12288000000000,"state":"active","ping":46},{"user_id":438,"name":"Sol","steam_id":76561198803824764,"connected_time":429000000000,"state":"active","ping":74},{"user_id":411,"name":"Sweets","steam_id":76561198998446307,"connected_time":2513000000000,"state":"active","ping":65},{"user_id":433,"name":"Octobella Enthusiast","steam_id":76561198199266047,"connected_time":607000000000,"state":"active","ping":109},{"user_id":439,"name":"Radiami","steam_id":76561198068838427,"connected_time":422000000000,"state":"active","ping":62},{"user_id":333,"name":"A UsedNom","steam_id":76561198402832756,"connected_time":7820000000000,"state":"active","ping":62},{"user_id":412,"name":"Luca","steam_id":76561198125087140,"connected_time":2118000000000,"state":"active","ping":46},{"user_id":421,"name":"remu","steam_id":76561198273111735,"connected_time":1385000000000,"state":"active","ping":78},{"user_id":318,"name":"self sufficient kitten","steam_id":76561197960592612,"connected_time":8349000000000,"state":"active","ping":45},{"user_id":418,"name":"Greskrendtregk","steam_id":76561197969553142,"connected_time":1408000000000,"state":"active","ping":62},{"user_id":395,"name":"hardfork","steam_id":76561197960958019,"connected_time":3357000000000,"state":"active","ping":50},{"user_id":422,"name":"[DATS➡] Sugar Meowth","steam_id":76561197995251793,"connected_time":1317000000000,"state":"active","ping":54},{"user_id":386,"name":"pcplace","steam_id":76561198097987387,"connected_time":3828000000000,"state":"active","ping":46},{"user_id":415,"name":"CheekyMcCheek","steam_id":76561198081978491,"connected_time":1832000000000,"state":"active","ping":85},{"user_id":436,"name":"oh god i'm gonna CHUM","steam_id":76561198019210187,"connected_time":558000000000,"state":"active","ping":107},{"user_id":444,"name":"Specc","steam_id":76561199090005976,"connected_time":11000000000,"state":"spawning","ping":50},{"user_id":403,"name":"butt3r_","steam_id":76561198156374792,"connected_time":2956000000000,"state":"active","ping":47},{"user_id":441,"name":"Elias","steam_id":76561198031295139,"connected_time":416000000000,"state":"active","ping":57},{"user_id":443,"name":"[GUT] RiDiK®","steam_id":76561197969756446,"connected_time":346000000000,"state":"active","ping":88},{"user_id":409,"name":"SQbuilder","steam_id":76561198076473375,"connected_time":2755000000000,"state":"active","ping":74}]},{"server_id":406,"name":"Uncletopia | Seattle | 3 | Stopwatch Beta","name_short":"sea-3","host":"sea-1.us.uncletopia.com","port":27035,"enabled":true,"region":"us-west","cc":"us","latitude":47.608013,"longitude":-122.33517,"reserved":0,"last_update":"0001-01-01T00:00:00Z","name_a2s":"Uncletopia | Seattle | 3 | Stopwatch Beta","protocol":17,"map":"pl_upward","folder":"tf","game":"Team Fortress","app_id":440,"player_count":2,"max_players":24,"Bots":0,"server_type":"Dedicated","server_os":"Linux","password":true,"vac":false,"version":"7742253","steam_id":0,"keywords":["nocrits","nodmgspread","payload","uncletopia"],"game_id":440,"stv_port":27036,"stv_name":"Uncletopia | Seattle | 3 | Stopwatch Beta | STV","players":[{"user_id":8,"name":"Luke","steam_id":76561198335956790,"connected_time":394000000000,"state":"active","ping":125},{"user_id":9,"name":"Morse","steam_id":76561198039944542,"connected_time":220000000000,"state":"active","ping":45}]},{"server_id":17,"name":"Uncletopia | San Francisco | 1 | All Maps","name_short":"sfo-1","host":"sfo-1.us.uncletopia.com","port":27015,"enabled":true,"region":"us-west","cc":"us","latitude":37.77397,"longitude":-122.4313,"reserved":0,"last_update":"0001-01-01T00:00:00Z","name_a2s":"Uncletopia | San Francisco | 1 | All Maps","protocol":17,"map":"koth_cascade","folder":"tf","game":"Team Fortress","app_id":440,"player_count":0,"max_players":24,"Bots":0,"server_type":"Dedicated","server_os":"Linux","password":true,"vac":true,"version":"7742253","steam_id":85568392924469999,"keywords":["cp","nocrits","nodmgspread","uncletopia"],"game_id":440,"stv_port":27016,"stv_name":"Uncletopia | San Francisco | 1 | All Maps | STV","players":null},{"server_id":18,"name":"Uncletopia | San Francisco | 2 | All Maps","name_short":"sfo-2","host":"sfo-1.us.uncletopia.com","port":27025,"enabled":true,"region":"us-west","cc":"us","latitude":37.77397,"longitude":-122.4313,"reserved":0,"last_update":"0001-01-01T00:00:00Z","name_a2s":"Uncletopia | San Francisco | 2 | All Maps","protocol":17,"map":"koth_highpass","folder":"tf","game":"Team Fortress","app_id":440,"player_count":0,"max_players":24,"Bots":0,"server_type":"Dedicated","server_os":"Linux","password":true,"vac":true,"version":"7742253","steam_id":85568392924470000,"keywords":["cp","nocrits","nodmgspread","uncletopia"],"game_id":440,"stv_port":27026,"stv_name":"Uncletopia | San Francisco | 2 | All Maps | STV","players":null},{"server_id":19,"name":"Uncletopia | San Francisco | 3 | Stopwatch Beta","name_short":"sfo-3","host":"sfo-1.us.uncletopia.com","port":27035,"enabled":true,"region":"us-west","cc":"us","latitude":37.77397,"longitude":-122.4313,"reserved":0,"last_update":"0001-01-01T00:00:00Z","name_a2s":"Uncletopia | San Francisco | 3 | Stopwatch Beta","protocol":17,"map":"cp_snakewater_final1","folder":"tf","game":"Team Fortress","app_id":440,"player_count":0,"max_players":24,"Bots":0,"server_type":"Dedicated","server_os":"Linux","password":true,"vac":true,"version":"7742253","steam_id":85568392924742824,"keywords":["cp","nocrits","nodmgspread","uncletopia"],"game_id":440,"stv_port":27036,"stv_name":"Uncletopia | San Francisco | 3 | Stopwatch Beta | STV","players":null},{"server_id":20,"name":"Uncletopia | San Francisco | 4 | Community","name_short":"sfo-4","host":"sfo-1.us.uncletopia.com","port":27045,"enabled":true,"region":"us-west","cc":"us","latitude":37.77397,"longitude":-122.4313,"reserved":0,"last_update":"0001-01-01T00:00:00Z","name_a2s":"Uncletopia | San Francisco | 4 | Community","protocol":17,"map":"workshop/koth_bagel_rc5.ugc2514036946","folder":"tf","game":"Team Fortress","app_id":440,"player_count":0,"max_players":24,"Bots":0,"server_type":"Dedicated","server_os":"Linux","password":true,"vac":true,"version":"7742253","steam_id":85568392924742826,"keywords":["cp","nocrits","nodmgspread","uncletopia"],"game_id":440,"stv_port":27046,"stv_name":"Uncletopia | San Francisco | 4 | Community | STV","players":null},{"server_id":141,"name":"Uncletopia | Sydney | 1 | All Maps","name_short":"syd-1","host":"syd-1.au.uncletopia.com","port":27015,"enabled":true,"region":"au","cc":"au","latitude":-33.865143,"longitude":151.2099,"reserved":0,"last_update":"0001-01-01T00:00:00Z","name_a2s":"Uncletopia | Sydney | 1 | All Maps","protocol":17,"map":"pl_frontier_final","folder":"tf","game":"Team Fortress","app_id":440,"player_count":7,"max_players":24,"Bots":0,"server_type":"Dedicated","server_os":"Linux","password":true,"vac":true,"version":"7742253","steam_id":85568392924470001,"keywords":["nocrits","nodmgspread","payload","uncletopia"],"game_id":440,"stv_port":27016,"stv_name":"Uncletopia | Sydney | 1 | All Maps | STV","players":[{"user_id":262,"name":"DEMACLIO","steam_id":76561198046654525,"connected_time":436000000000,"state":"active","ping":49},{"user_id":179,"name":"Gamma","steam_id":76561198281131757,"connected_time":5603000000000,"state":"active","ping":67},{"user_id":263,"name":"43 yo talent-Woolley-","steam_id":76561198243151026,"connected_time":205000000000,"state":"active","ping":80},{"user_id":254,"name":"CouldBeKarlos","steam_id":76561198956180767,"connected_time":973000000000,"state":"active","ping":46},{"user_id":264,"name":"✿hydatid✿","steam_id":76561198796773396,"connected_time":102000000000,"state":"active","ping":54},{"user_id":232,"name":"Tricka •","steam_id":76561197968440123,"connected_time":2393000000000,"state":"active","ping":44},{"user_id":259,"name":"Spoopy Neko","steam_id":76561198212958225,"connected_time":726000000000,"state":"active","ping":86}]},{"server_id":123,"name":"Uncletopia | Sydney | 2 | All Maps","name_short":"syd-2","host":"syd-1.au.uncletopia.com","port":27025,"enabled":true,"region":"au","cc":"au","latitude":-33.865143,"longitude":151.2099,"reserved":0,"last_update":"0001-01-01T00:00:00Z","name_a2s":"Uncletopia | Sydney | 2 | All Maps","protocol":17,"map":"cp_process_final","folder":"tf","game":"Team Fortress","app_id":440,"player_count":0,"max_players":24,"Bots":0,"server_type":"Dedicated","server_os":"Linux","password":true,"vac":true,"version":"7742253","steam_id":85568392924470002,"keywords":["cp","nocrits","nodmgspread","uncletopia"],"game_id":440,"stv_port":27026,"stv_name":"Uncletopia | Sydney | 2 | All Maps | STV","players":null},{"server_id":395,"name":"Uncletopia | Sydney | 3 | All Maps","name_short":"syd-3","host":"syd-1.au.uncletopia.com","port":27035,"enabled":true,"region":"au","cc":"au","latitude":-33.865143,"longitude":151.2099,"reserved":0,"last_update":"0001-01-01T00:00:00Z","name_a2s":"Uncletopia | Sydney | 3 | All Maps","protocol":17,"map":"cp_dustbowl","folder":"tf","game":"Team Fortress","app_id":440,"player_count":0,"max_players":24,"Bots":0,"server_type":"Dedicated","server_os":"Linux","password":true,"vac":true,"version":"7742253","steam_id":85568392925194467,"keywords":["cp","nocrits","nodmgspread","uncletopia"],"game_id":440,"stv_port":27036,"stv_name":"Uncletopia | Sydney | 3 | All Maps | STV","players":null},{"server_id":396,"name":"Uncletopia | Sydney | 4 | All Maps","name_short":"syd-4","host":"syd-1.au.uncletopia.com","port":27045,"enabled":true,"region":"au","cc":"au","latitude":-33.865143,"longitude":151.2099,"reserved":0,"last_update":"0001-01-01T00:00:00Z","name_a2s":"Uncletopia | Sydney | 4 | All Maps","protocol":17,"map":"pl_borneo","folder":"tf","game":"Team Fortress","app_id":440,"player_count":0,"max_players":24,"Bots":0,"server_type":"Dedicated","server_os":"Linux","password":true,"vac":true,"version":"7742253","steam_id":85568392925397958,"keywords":["nocrits","nodmgspread","payload","uncletopia"],"game_id":440,"stv_port":27046,"stv_name":"Uncletopia | Sydney | 4 | All Maps | STV","players":null},{"server_id":58,"name":"Uncletopia | Sydney | 5 | Stopwatch Beta","name_short":"syd-5","host":"syd-1.au.uncletopia.com","port":27055,"enabled":true,"region":"au","cc":"au","latitude":-33.865143,"longitude":151.2099,"reserved":0,"last_update":"0001-01-01T00:00:00Z","name_a2s":"Uncletopia | Sydney | 5 | Stopwatch Beta","protocol":17,"map":"workshop/koth_ashville_final.ugc2130459942","folder":"tf","game":"Team Fortress","app_id":440,"player_count":0,"max_players":24,"Bots":0,"server_type":"Dedicated","server_os":"Linux","password":true,"vac":true,"version":"7742253","steam_id":85568392925397959,"keywords":["cp","nocrits","nodmgspread","uncletopia"],"game_id":440,"stv_port":27056,"stv_name":"Uncletopia | Sydney | 5 | Stopwatch Beta | STV","players":null},{"server_id":59,"name":"Uncletopia | Sydney | 6 | Community","name_short":"syd-6","host":"syd-1.au.uncletopia.com","port":27065,"enabled":true,"region":"au","cc":"au","latitude":-33.865143,"longitude":151.2099,"reserved":0,"last_update":"0001-01-01T00:00:00Z","name_a2s":"Uncletopia | Sydney | 6 | Community","protocol":17,"map":"workshop/pl_fifthcurve_rc1.ugc648227046","folder":"tf","game":"Team Fortress","app_id":440,"player_count":0,"max_players":24,"Bots":0,"server_type":"Dedicated","server_os":"Linux","password":true,"vac":true,"version":"7742253","steam_id":85568392925397960,"keywords":["nocrits","nodmgspread","payload","uncletopia"],"game_id":440,"stv_port":27066,"stv_name":"Uncletopia | Sydney | 6 | Community | STV","players":null},{"server_id":49,"name":"Uncletopia | Warsaw | 1 | All Maps","name_short":"waw-1","host":"waw-1.pl.uncletopia.com","port":27015,"enabled":true,"region":"eu","cc":"pl","latitude":52.2297,"longitude":21.017532,"reserved":0,"last_update":"0001-01-01T00:00:00Z","name_a2s":"Uncletopia | Warsaw | 1 | All Maps","protocol":17,"map":"koth_lakeside_final","folder":"tf","game":"Team Fortress","app_id":440,"player_count":0,"max_players":24,"Bots":0,"server_type":"Dedicated","server_os":"Linux","password":true,"vac":true,"version":"7723704","steam_id":85568392925397850,"keywords":["cp","nocrits","nodmgspread","uncletopia"],"game_id":440,"stv_port":27016,"stv_name":"Uncletopia | Warsaw | 1 | All Maps | STV","players":null},{"server_id":50,"name":"Uncletopia | Warsaw | 2 | All Maps","name_short":"waw-2","host":"waw-1.pl.uncletopia.com","port":27025,"enabled":true,"region":"eu","cc":"pl","latitude":52.2297,"longitude":21.017532,"reserved":0,"last_update":"0001-01-01T00:00:00Z","name_a2s":"Uncletopia | Warsaw | 2 | All Maps","protocol":17,"map":"koth_highpass","folder":"tf","game":"Team Fortress","app_id":440,"player_count":0,"max_players":24,"Bots":0,"server_type":"Dedicated","server_os":"Linux","password":true,"vac":true,"version":"7742253","steam_id":85568392925397851,"keywords":["cp","nocrits","nodmgspread","uncletopia"],"game_id":440,"stv_port":27026,"stv_name":"Uncletopia | Warsaw | 2 | All Maps | STV","players":null},{"server_id":51,"name":"Uncletopia | Warsaw | 3 | All Maps","name_short":"waw-3","host":"waw-1.pl.uncletopia.com","port":27035,"enabled":true,"region":"eu","cc":"pl","latitude":52.2297,"longitude":21.017532,"reserved":0,"last_update":"0001-01-01T00:00:00Z","name_a2s":"Uncletopia | Warsaw | 3 | All Maps","protocol":17,"map":"koth_cascade","folder":"tf","game":"Team Fortress","app_id":440,"player_count":0,"max_players":24,"Bots":0,"server_type":"Dedicated","server_os":"Linux","password":true,"vac":true,"version":"7742253","steam_id":85568392925397852,"keywords":["cp","nocrits","nodmgspread","uncletopia"],"game_id":440,"stv_port":27036,"stv_name":"Uncletopia | Warsaw | 3 | All Maps | STV","players":null},{"server_id":52,"name":"Uncletopia | Warsaw | 4 | All Maps","name_short":"waw-4","host":"waw-1.pl.uncletopia.com","port":27045,"enabled":true,"region":"eu","cc":"pl","latitude":52.2297,"longitude":21.017532,"reserved":0,"last_update":"0001-01-01T00:00:00Z","name_a2s":"Uncletopia | Warsaw | 4 | All Maps","protocol":17,"map":"pl_swiftwater_final1","folder":"tf","game":"Team Fortress","app_id":440,"player_count":0,"max_players":24,"Bots":0,"server_type":"Dedicated","server_os":"Linux","password":true,"vac":true,"version":"7742253","steam_id":85568392925397853,"keywords":["nocrits","nodmgspread","payload","uncletopia"],"game_id":440,"stv_port":27046,"stv_name":"Uncletopia | Warsaw | 4 | All Maps | STV","players":null},{"server_id":53,"name":"Uncletopia | Warsaw | 5 | Stopwatch Beta","name_short":"waw-5","host":"waw-1.pl.uncletopia.com","port":27055,"enabled":true,"region":"eu","cc":"pl","latitude":52.2297,"longitude":21.017532,"reserved":0,"last_update":"0001-01-01T00:00:00Z","name_a2s":"Uncletopia | Warsaw | 5 | Stopwatch Beta","protocol":17,"map":"pl_pier","folder":"tf","game":"Team Fortress","app_id":440,"player_count":0,"max_players":24,"Bots":0,"server_type":"Dedicated","server_os":"Linux","password":true,"vac":true,"version":"7742253","steam_id":85568392925397854,"keywords":["nocrits","nodmgspread","payload","uncletopia"],"game_id":440,"stv_port":27056,"stv_name":"Uncletopia | Warsaw | 5 | Stopwatch Beta | STV","players":null},{"server_id":54,"name":"Uncletopia | Warsaw | 6 | Community","name_short":"waw-6","host":"waw-1.pl.uncletopia.com","port":27065,"enabled":true,"region":"eu","cc":"pl","latitude":52.2297,"longitude":21.017532,"reserved":0,"last_update":"0001-01-01T00:00:00Z","name_a2s":"Uncletopia | Warsaw | 6 | Community","protocol":17,"map":"workshop/koth_slaughter_rc1.ugc1712845210","folder":"tf","game":"Team Fortress","app_id":440,"player_count":0,"max_players":24,"Bots":0,"server_type":"Dedicated","server_os":"Linux","password":true,"vac":true,"version":"7742253","steam_id":85568392925397856,"keywords":["cp","nocrits","nodmgspread","uncletopia"],"game_id":440,"stv_port":27066,"stv_name":"Uncletopia | Warsaw | 6 | Community | STV","players":null}]}