{"status":true,"message":"","result":[{"server_id":9,"name":"Uncletopia | Atlanta | 1 | All Maps","name_short":"atl-1","host":"atl-1.us.uncletopia.com","port":27015,"enabled":true,"region":"us-east","cc":"us","latitude":33.753746,"longitude":-84.38633,"reserved":0,"last_update":"0001-01-01T00:00:00Z","name_a2s":"Uncletopia | Atlanta | 1 | All Maps","protocol":17,"map":"cp_dustbowl","folder":"tf","game":"Team Fortress","app_id":440,"player_count":13,"max_players":24,"Bots":0,"server_type":"Dedicated","server_os":"Linux","password":true,"vac":true,"version":"7742253","steam_id":85568392924469982,"keywords":["cp","nocrits","nodmgspread","uncletopia"],"game_id":440,"stv_port":27016,"stv_name":"Uncletopia | Atlanta | 1 | All Maps | STV","players":[{"user_id":232,"name":"hodeiraeta","steam_id":76561198954369215,"connected_time":236000000000,"state":"active","ping":172},{"user_id":233,"name":"ABraveBoy","steam_id":76561198308602486,"connected_time":228000000000,"state":"active","ping":68},{"user_id":202,"name":"Alt","steam_id":76561197992591984,"connected_time":1535000000000,"state":"active","ping":78},{"user_id":201,"name":"quality_ch3ck","steam_id":76561198361132101,"connected_time":1819000000000,"state":"active","ping":80},{"user_id":188,"name":"ATL1 | BeastRyder","steam_id":76561198330281584,"connected_time":2895000000000,"state":"active","ping":98},{"user_id":195,"name":"ATL1 | Lancer Fan Club","steam_id":76561198355495948,"connected_time":2295000000000,"state":"active","ping":78},{"user_id":224,"name":"BangusHonkle","steam_id":76561198218887511,"connected_time":640000000000,"state":"active","ping":62},{"user_id":207,"name":"Patisserie","steam_id":76561198239169752,"connected_time":1509000000000,"state":"active","ping":49},{"user_id":148,"name":"Sleepycoffyn","steam_id":76561199278648379,"connected_time":5951000000000,"state":"spawning","ping":196},{"user_id":175,"name":"You Don't Nomi.","steam_id":76561197969137836,"connected_time":3551000000000,"state":"active","ping":62},{"user_id":227,"name":"ATL1 | to4st","steam_id":76561198981009008,"connected_time":399000000000,"state":"active","ping":64},{"user_id":214,"name":"Spy Lake Walker","steam_id":76561198067103307,"connected_time":1164000000000,"state":"active","ping":60},{"user_id":216,"name":"Carl, Good to see you","steam_id":76561198070574075,"connected_time":1153000000000,"state":"active","ping":49}]},{"server_id":400,"name":"Uncletopia | Atlanta | 3 | Stopwatch Beta","name_short":"atl-3","host":"atl-1.us.uncletopia.com","port":27035,"enabled":true,"region":"us-east","cc":"us","latitude":33.753746,"longitude":-84.38633,"reserved":0,"last_update":"0001-01-01T00:00:00Z","name_a2s":"Uncletopia | Atlanta | 3 | Stopwatch Beta","protocol":17,"map":"pl_pier","folder":"tf","game":"Team Fortress","app_id":440,"player_count":0,"max_players":24,"Bots":0,"server_type":"Dedicated","server_os":"Linux","password":true,"vac":true,"version":"7742253","steam_id":85568392924515187,"keywords":["nocrits","nodmgspread","payload","uncletopia"],"game_id":440,"stv_port":27036,"stv_name":"Uncletopia | Atlanta | 3 | Stopwatch Beta | STV","players":null},{"server_id":401,"name":"Uncletopia | Atlanta | 4 | No Payload","name_short":"atl-4","host":"atl-1.us.uncletopia.com","port":27045,"enabled":true,"region":"us-east","cc":"us","latitude":33.753746,"longitude":-84.38633,"reserved":0,"last_update":"0001-01-01T00:00:00Z","name_a2s":"Uncletopia | Atlanta | 4 | No Payload","protocol":17,"map":"pl_pier","folder":"tf","game":"Team Fortress","app_id":440,"player_count":0,"max_players":24,"Bots":0,"server_type":"Dedicated","server_os":"Linux","password":true,"vac":true,"version":"7723704","steam_id":85568392924515188,"keywords":["nocrits","nodmgspread","payload","uncletopia"],"game_id":440,"stv_port":27046,"stv_name":"Uncletopia | Atlanta | 4 | No Payload | STV","players":null},{"server_id":2,"name":"Uncletopia | Chicago | 1 | All Maps","name_short":"chi-1","host":"chi-1.us.uncletopia.com","port":27015,"enabled":true,"region":"us-central","cc":"us","latitude":41.881832,"longitude":-87.62318,"reserved":0,"last_update":"0001-01-01T00:00:00Z","name_a2s":"Uncletopia | Chicago | 1 | All Maps","protocol":17,"map":"pl_badwater","folder":"tf","game":"Team Fortress","app_id":440,"player_count":24,"max_players":24,"Bots":0,"server_type":"Dedicated","server_os":"Linux","password":true,"vac":true,"version":"7742253","steam_id":85568392924469984,"keywords":["nocrits","nodmgspread","payload","uncletopia"],"game_id":440,"stv_port":27016,"stv_name":"Uncletopia | Chicago | 1 | All Maps | STV","players":[{"user_id":237,"name":"Milk","steam_id":76561198283314672,"connected_time":707000000000,"state":"active","ping":60},{"user_id":228,"name":"Blu Medic","steam_id":76561198213856219,"connected_time":1440000000000,"state":"active","ping":104},{"user_id":240,"name":"Kase","steam_id":76561198055510230,"connected_time":525000000000,"state":"active","ping":60},{"user_id":144,"name":"stop","steam_id":76561198268686419,"connected_time":9015000000000,"state":"active","ping":53},{"user_id":233,"name":"ุ","steam_id":76561198170624701,"connected_time":1166000000000,"state":"active","ping":95},{"user_id":213,"name":"lambmyth","steam_id":76561199215261209,"connected_time":3343000000000,"state":"active","ping":71},{"user_id":205,"name":"Ye ( I Love Caulk ) West","steam_id":76561198068830312,"connected_time":3651000000000,"state":"active","ping":45},{"user_id":236,"name":"the deadliest pyroshark","steam_id":76561198374227766,"connected_time":1137000000000,"state":"active","ping":69},{"user_id":243,"name":"SomeScuffedKid","steam_id":76561198086113234,"connected_time":342000000000,"state":"active","ping":67},{"user_id":230,"name":"I sometimes play pyro","steam_id":76561198421760112,"connected_time":1201000000000,"state":"active","ping":53},{"user_id":242,"name":"intheclub32@yahoo.com","steam_id":76561198277842283,"connected_time":512000000000,"state":"active","ping":78},{"user_id":235,"name":"Iggy Dogg","steam_id":76561198059602545,"connected_time":1142000000000,"state":"active","ping":50},{"user_id":224,"name":"moocub","steam_id":76561198201449709,"connected_time":2442000000000,"state":"active","ping":54},{"user_id":241,"name":"Prismatic","steam_id":76561198109846228,"connected_time":518000000000,"state":"active","ping":81},{"user_id":203,"name":"KingCrawful","steam_id":76561198104291657,"connected_time":3698000000000,"state":"active","ping":68},{"user_id":238,"name":"hex1r0","steam_id":76561199225218438,"connected_time":676000000000,"state":"active","ping":59},{"user_id":195,"name":"Tyler\u0026Fingers","steam_id":76561198085154485,"connected_time":4948000000000,"state":"active","ping":80},{"user_id":218,"name":"fresco","steam_id":76561199101199477,"connected_time":2836000000000,"state":"active","ping":60},{"user_id":225,"name":"boofgall319","steam_id":76561199122095813,"connected_time":2313000000000,"state":"active","ping":73},{"user_id":197,"name":"SuperflySS","steam_id":76561198015603049,"connected_time":4892000000000,"state":"active","ping":51},{"user_id":183,"name":"debin","steam_id":76561198070711217,"connected_time":6001000000000,"state":"active","ping":59},{"user_id":231,"name":"Tienne","steam_id":76561198359050265,"connected_time":1188000000000,"state":"active","ping":50},{"user_id":227,"name":"Greater Baja blast (skill lvl4)","steam_id":76561198150433734,"connected_time":1705000000000,"state":"active","ping":93},{"user_id":232,"name":"CAdaverOusPRophet","steam_id":76561198045304110,"connected_time":1188000000000,"state":"active","ping":46}]},{"server_id":106,"name":"Uncletopia | Chicago | 2 | All Maps","name_short":"chi-2","host":"chi-1.us.uncletopia.com","port":27025,"enabled":true,"region":"us-central","cc":"us","latitude":41.881832,"longitude":-87.62318,"reserved":0,"last_update":"0001-01-01T00:00:00Z","name_a2s":"Uncletopia | Chicago | 2 | All Maps","protocol":17,"map":"cp_steel","folder":"tf","game":"Team Fortress","app_id":440,"player_count":20,"max_players":24,"Bots":0,"server_type":"Dedicated","server_os":"Linux","password":true,"vac":true,"version":"7742253","steam_id":85568392924469985,"keywords":["cp","nocrits","nodmgspread","uncletopia"],"game_id":440,"stv_port":27026,"stv_name":"Uncletopia | Chicago | 2 | All Maps | STV","players":[{"user_id":59,"name":"TransWomanGaming","steam_id":76561198809645656,"connected_time":1337000000000,"state":"active","ping":74},{"user_id":68,"name":"∀ɐ","steam_id":76561198139718219,"connected_time":638000000000,"state":"active","ping":65},{"user_id":77,"name":"Mike \"The Meat\" Tyson","steam_id":76561198371733322,"connected_time":91000000000,"state":"active","ping":77},{"user_id":78,"name":"Billy Shears","steam_id":76561199002125668,"connected_time":72000000000,"state":"active","ping":45},{"user_id":73,"name":"auts","steam_id":76561198055198646,"connected_time":471000000000,"state":"active","ping":75},{"user_id":70,"name":"froggin","steam_id":76561198190873441,"connected_time":602000000000,"state":"active","ping":76},{"user_id":66,"name":"BBBobby","steam_id":76561198172863973,"connected_time":665000000000,"state":"active","ping":68},{"user_id":79,"name":"L0gicz","steam_id":76561198082466196,"connected_time":52000000000,"state":"active","ping":73},{"user_id":31,"name":"Sloggy","steam_id":76561198836372993,"connected_time":3376000000000,"state":"active","ping":62},{"user_id":69,"name":"Frajer","steam_id":76561198059129680,"connected_time":632000000000,"state":"active","ping":67},{"user_id":60,"name":"The Zoidberg Medic","steam_id":76561197994285087,"connected_time":1298000000000,"state":"active","ping":63},{"user_id":23,"name":"NULLRIDER","steam_id":76561198128363064,"connected_time":3504000000000,"state":"active","ping":56},{"user_id":61,"name":"Peknic","steam_id":76561198115549206,"connected_time":1274000000000,"state":"active","ping":66},{"user_id":76,"name":"sequegil","steam_id":76561198284510982,"connected_time":335000000000,"state":"active","ping":46},{"user_id":27,"name":"Mossey_Wang","steam_id":76561198180184306,"connected_time":3435000000000,"state":"active","ping":92},{"user_id":29,"name":"Potato Person","steam_id":76561198010373482,"connected_time":3422000000000,"state":"active","ping":83},{"user_id":30,"name":"ambrotos","steam_id":76561198042600523,"connected_time":3417000000000,"state":"active","ping":62},{"user_id":52,"name":"SKIN IS WHERE THE FLAVOR IS","steam_id":76561198115842661,"connected_time":2102000000000,"state":"active","ping":66},{"user_id":62,"name":"Candy Sparkles","steam_id":76561198126871264,"connected_time":1237000000000,"state":"active","ping":80},{"user_id":71,"name":"Loblaws Digital","steam_id":76561198041017977,"connected_time":594000000000,"state":"active","ping":68}]},{"server_id":402,"name":"Uncletopia | Chicago | 3 | All Maps","name_short":"chi-3","host":"chi-1.us.uncletopia.com","port":27035,"enabled":true,"region":"us-central","cc":"us","latitude":41.881832,"longitude":-87.62318,"reserved":0,"last_update":"0001-01-01T00:00:00Z","name_a2s":"Uncletopia | Chicago | 3 | All Maps","protocol":17,"map":"pl_upward","folder":"tf","game":"Team Fortress","app_id":440,"player_count":24,"max_players":24,"Bots":0,"server_type":"Dedicated","server_os":"Linux","password":true,"vac":true,"version":"7742253","steam_id":85568392924515191,"keywords":["nocrits","nodmgspread","payload","uncletopia"],"game_id":440,"stv_port":27036,"stv_name":"Uncletopia | Chicago | 3 | All Maps | STV","players":[{"user_id":45,"name":"11 INCH TGIRL SCHLONG","steam_id":76561198122059018,"connected_time":1374000000000,"state":"active","ping":59},{"user_id":9,"name":"WhippedHook","steam_id":76561198069581138,"connected_time":2361000000000,"state":"active","ping":70},{"user_id":35,"name":"Eating Toast","steam_id":76561199168711796,"connected_time":1534000000000,"state":"active","ping":67},{"user_id":26,"name":"Thog","steam_id":76561198093699060,"connected_time":1657000000000,"state":"active","ping":58},{"user_id":12,"name":"who ate the cheese","steam_id":76561198275408467,"connected_time":2218000000000,"state":"active","ping":47},{"user_id":58,"name":"Rappitor","steam_id":76561198105613110,"connected_time":288000000000,"state":"active","ping":57},{"user_id":14,"name":"DiscoTraveler","steam_id":76561199240168088,"connected_time":2099000000000,"state":"active","ping":46},{"user_id":15,"name":"ShadowGam3r_1","steam_id":76561198311371667,"connected_time":2049000000000,"state":"active","ping":76},{"user_id":16,"name":"jc","steam_id":76561198259324573,"connected_time":2036000000000,"state":"active","ping":72},{"user_id":17,"name":"docter respect","steam_id":76561198311449875,"connected_time":2012000000000,"state":"active","ping":64},{"user_id":47,"name":"Fragment Guy","steam_id":76561198178413086,"connected_time":1150000000000,"state":"active","ping":39},{"user_id":19,"name":"Winter the Witchie","steam_id":76561198151971178,"connected_time":1890000000000,"state":"active","ping":56},{"user_id":53,"name":"cassius","steam_id":76561198203851303,"connected_time":803000000000,"state":"active","ping":81},{"user_id":21,"name":"Kingofthem","steam_id":76561198866197308,"connected_time":1793000000000,"state":"active","ping":92},{"user_id":55,"name":"jamalbob33","steam_id":76561198410281331,"connected_time":576000000000,"state":"active","ping":78},{"user_id":57,"name":"freedom staff enjoyer of NASCAR","steam_id":76561199123218315,"connected_time":461000000000,"state":"active","ping":78},{"user_id":28,"name":"Corbe","steam_id":76561198353893927,"connected_time":1638000000000,"state":"active","ping":77},{"user_id":49,"name":"motov","steam_id":76561197990238902,"connected_time":944000000000,"state":"active","ping":80},{"user_id":54,"name":"RazorbladeFlamingo","steam_id":76561199069238562,"connected_time":679000000000,"state":"active","ping":66},{"user_id":31,"name":"sqwert","steam_id":76561198056079624,"connected_time":1617000000000,"state":"active","ping":105},{"user_id":50,"name":"Dewgong (real)","steam_id":76561198045999391,"connected_time":936000000000,"state":"active","ping":72},{"user_id":33,"name":"Insurance Frog","steam_id":76561198067556825,"connected_time":1591000000000,"state":"active","ping":62},{"user_id":56,"name":"B0b-1","steam_id":76561198093902432,"connected_time":501000000000,"state":"active","ping":72},{"user_id":59,"name":"LVL 4 Dispenser Gaming","steam_id":76561198044244547,"connected_time":151000000000,"state":"active","ping":74}]},{"server_id":403,"name":"Uncletopia | Chicago | 4 | All Maps","name_short":"chi-4","host":"chi-1.us.uncletopia.com","port":27045,"enabled":true,"region":"us-central","cc":"us","latitude":41.881832,"longitude":-87.62318,"reserved":0,"last_update":"0001-01-01T00:00:00Z","name_a2s":"Uncletopia | Chicago | 4 | All Maps","protocol":17,"map":"pl_barnblitz","folder":"tf","game":"Team Fortress","app_id":440,"player_count":2,"max_players":24,"Bots":0,"server_type":"Dedicated","server_os":"Linux","password":true,"vac":true,"version":"7742253","steam_id":85568392924515193,"keywords":["nocrits","nodmgspread","payload","uncletopia"],"game_id":440,"stv_port":27046,"stv_name":"Uncletopia | Chicago | 4 | All Maps | STV","players":[{"user_id":22,"name":"Fry Eater","steam_id":76561198240194534,"connected_time":97000000000,"state":"active","ping":58},{"user_id":23,"name":"Dumb David","steam_id":76561199177709641,"connected_time":54000000000,"state":"active","ping":109}]},{"server_id":36,"name":"Uncletopia | Chicago | 5 | All Maps","name_short":"chi-5","host":"chi-2.us.uncletopia.com","port":27015,"enabled":true,"region":"us-central","cc":"us","latitude":41.881832,"longitude":-87.62318,"reserved":0,"last_update":"0001-01-01T00:00:00Z","name_a2s":"Uncletopia | Chicago | 5 | All Maps","protocol":17,"map":"pl_borneo","folder":"tf","game":"Team Fortress","app_id":440,"player_count":0,"max_players":24,"Bots":0,"server_type":"Dedicated","server_os":"Linux","password":true,"vac":true,"version":"7742253","steam_id":85568392924866362,"keywords":["nocrits","nodmgspread","payload","uncletopia"],"game_id":440,"stv_port":27016,"stv_name":"Uncletopia | Chicago | 5 | All Maps | STV","players":null},{"server_id":37,"name":"Uncletopia | Chicago | 6 | All Maps","name_short":"chi-6","host":"chi-2.us.uncletopia.com","port":27025,"enabled":true,"region":"us-central","cc":"us","latitude":41.881832,"longitude":-87.62318,"reserved":0,"last_update":"0001-01-01T00:00:00Z","name_a2s":"Uncletopia | Chicago | 6 | All Maps","protocol":17,"map":"pl_borneo","folder":"tf","game":"Team Fortress","app_id":440,"player_count":0,"max_players":24,"Bots":0,"server_type":"Dedicated","server_os":"Linux","password":true,"vac":true,"version":"7742253","steam_id":85568392924866363,"keywords":["nocrits","nodmgspread","payload","uncletopia"],"game_id":440,"stv_port":27026,"stv_name":"Uncletopia | Chicago | 6 | All Maps | STV","players":null},{"server_id":38,"name":"Uncletopia | Chicago | 7 | Stopwatch Beta","name_short":"chi-7","host":"chi-2.us.uncletopia.com","port":27035,"enabled":true,"region":"us-central","cc":"us","latitude":41.881832,"longitude":-87.62318,"reserved":0,"last_update":"0001-01-01T00:00:00Z","name_a2s":"Uncletopia | Chicago | 7 | Stopwatch Beta","protocol":17,"map":"koth_lakeside_final","folder":"tf","game":"Team Fortress","app_id":440,"player_count":0,"max_players":24,"Bots":0,"server_type":"Dedicated","server_os":"Linux","password":true,"vac":true,"version":"7742253","steam_id":85568392924866364,"keywords":["cp","nocrits","nodmgspread","uncletopia"],"game_id":440,"stv_port":27036,"stv_name":"Uncletopia | Chicago | 7 | Stopwatch Beta | STV","players":null},{"server_id":39,"name":"Uncletopia | Chicago | 8 | Community","name_short":"chi-8","host":"chi-2.us.uncletopia.com","port":27045,"enabled":true,"region":"us-central","cc":"us","latitude":41.881832,"longitude":-87.62318,"reserved":0,"last_update":"0001-01-01T00:00:00Z","name_a2s":"Uncletopia | Chicago | 8 | Community","protocol":17,"map":"koth_lakeside_final","folder":"tf","game":"Team Fortress","app_id":440,"player_count":0,"max_players":24,"Bots":0,"server_type":"Dedicated","server_os":"Linux","password":true,"vac":true,"version":"7742253","steam_id":85568392924866365,"keywords":["cp","nocrits","nodmgspread","uncletopia"],"game_id":440,"stv_port":27046,"stv_name":"Uncletopia | Chicago | 8 | Community | STV","players":null},{"server_id":8,"name":"Uncletopia | Dallas | 1 | All Maps","name_short":"dal-1","host":"dal-1.us.uncletopia.com","port":27015,"enabled":true,"region":"us-central","cc":"us","latitude":32.779167,"longitude":-96.80889,"reserved":0,"last_update":"0001-01-01T00:00:00Z","name_a2s":"Uncletopia | Dallas | 1 | All Maps","protocol":17,"map":"pl_pier","folder":"tf","game":"Team Fortress","app_id":440,"player_count":9,"max_players":24,"Bots":0,"server_type":"Dedicated","server_os":"Linux","password":true,"vac":true,"version":"7742253","steam_id":85568392924469986,"keywords":["nocrits","nodmgspread","payload","uncletopia"],"game_id":440,"stv_port":27016,"stv_name":"Uncletopia | Dallas | 1 | All Maps | STV","players":[{"user_id":13,"name":"Death Grips","steam_id":76561198306155040,"connected_time":2632000000000,"state":"active","ping":84},{"user_id":14,"name":"addison","steam_id":76561198859580427,"connected_time":2573000000000,"state":"active","ping":49},{"user_id":22,"name":"♥Mossbuckets♥","steam_id":76561198365188929,"connected_time":1620000000000,"state":"active","ping":74},{"user_id":16,"name":"sheep","steam_id":76561198172943006,"connected_time":2327000000000,"state":"active","ping":69},{"user_id":44,"name":"Tired","steam_id":76561198072620682,"connected_time":71000000000,"state":"active","ping":75},{"user_id":19,"name":"Pink","steam_id":76561198042140694,"connected_time":2030000000000,"state":"active","ping":55},{"user_id":45,"name":"bad player","steam_id":76561198957233710,"connected_time":58000000000,"state":"spawning","ping":82},{"user_id":24,"name":"Hephaesta13","steam_id":76561199026788557,"connected_time":1568000000000,"state":"active","ping":83},{"user_id":35,"name":"Aerox","steam_id":76561198871081935,"connected_time":859000000000,"state":"active","ping":68}]},{"server_id":108,"name":"Uncletopia | Dallas | 2 | All Maps","name_short":"dal-2","host":"dal-1.us.uncletopia.com","port":27025,"enabled":true,"region":"us-central","cc":"us","latitude":32.779167,"longitude":-96.80889,"reserved":0,"last_update":"0001-01-01T00:00:00Z","name_a2s":"Uncletopia | Dallas | 2 | All Maps","protocol":17,"map":"cp_process_final","folder":"tf","game":"Team Fortress","app_id":440,"player_count":0,"max_players":24,"Bots":0,"server_type":"Dedicated","server_os":"Linux","password":true,"vac":true,"version":"7742253","steam_id":85568392924469988,"keywords":["cp","nocrits","nodmgspread","uncletopia"],"game_id":440,"stv_port":27026,"stv_name":"Uncletopia | Dallas | 2 | All Maps | STV","players":null},{"server_id":5,"name":"Uncletopia | Frankfurt | 1 | All Maps","name_short":"frk-1","host":"frk-1.de.uncletopia.com","port":27015,"enabled":true,"region":"eu","cc":"de","latitude":50.110924,"longitude":8.682127,"reserved":0,"last_update":"0001-01-01T00:00:00Z","name_a2s":"Uncletopia | Frankfurt | 1 | All Maps","protocol":17,"map":"pl_barnblitz","folder":"tf","game":"Team Fortress","app_id":440,"player_count":24,"max_players":24,"Bots":0,"server_type":"Dedicated","server_os":"Linux","password":true,"vac":true,"version":"7742253","steam_id":85568392924469989,"keywords":["nocrits","nodmgspread","payload","uncletopia"],"game_id":440,"stv_port":27016,"stv_name":"Uncletopia | Frankfurt | 1 | All Maps | STV","players":[{"user_id":637,"name":"Bones","steam_id":76561198065081225,"connected_time":1068000000000,"state":"active","ping":62},{"user_id":557,"name":"B4R10N","steam_id":76561198047167954,"connected_time":6274000000000,"state":"active","ping":58},{"user_id":634,"name":"ambatukam","steam_id":76561198175433731,"connected_time":1139000000000,"state":"active","ping":87},{"user_id":586,"name":"Uncle Owen","steam_id":76561198157999291,"connected_time":4500000000000,"state":"active","ping":86},{"user_id":620,"name":"ALARM","steam_id":76561198120686521,"connected_time":2119000000000,"state":"active","ping":60},{"user_id":641,"name":"Joe","steam_id":76561198061717026,"connected_time":1016000000000,"state":"active","ping":60},{"user_id":506,"name":"Mor'du","steam_id":76561198274105878,"connected_time":9991000000000,"state":"active","ping":72},{"user_id":621,"name":"NALA","steam_id":76561198039806469,"connected_time":1723000000000,"state":"active","ping":64},{"user_id":595,"name":"DrExplosive","steam_id":76561198063678579,"connected_time":3813000000000,"state":"active","ping":49},{"user_id":636,"name":"kilikia","steam_id":76561198350261670,"connected_time":1082000000000,"state":"active","ping":90},{"user_id":609,"name":"hallfelt","steam_id":76561199008716852,"connected_time":2622000000000,"state":"active","ping":68},{"user_id":599,"name":"Sylbar","steam_id":76561198065379590,"connected_time":3172000000000,"state":"active","ping":67},{"user_id":648,"name":"Nekard","steam_id":76561199055501351,"connected_time":560000000000,"state":"active","ping":65},{"user_id":639,"name":"DocTwoEight","steam_id":76561198153488940,"connected_time":1062000000000,"state":"active","ping":76},{"user_id":603,"name":"Rudebwoyyy","steam_id":76561199387956486,"connected_time":3024000000000,"state":"active","ping":57},{"user_id":602,"name":"Biały","steam_id":76561197996016988,"connected_time":3119000000000,"state":"active","ping":63},{"user_id":593,"name":"Wardruna96","steam_id":76561199057083828,"connected_time":4429000000000,"state":"active","ping":87},{"user_id":650,"name":"Paul Penix","steam_id":76561197996941396,"connected_time":522000000000,"state":"active","ping":67},{"user_id":626,"name":"imperia400","steam_id":76561199036095993,"connected_time":1482000000000,"state":"active","ping":71},{"user_id":640,"name":"Hexagon","steam_id":76561198151205758,"connected_time":1055000000000,"state":"active","ping":56},{"user_id":619,"name":"grip","steam_id":76561198088201976,"connected_time":2126000000000,"state":"active","ping":49},{"user_id":633,"name":"SODA!!!!!!!","steam_id":76561198107362485,"connected_time":1223000000000,"state":"active","ping":61},{"user_id":653,"name":"Wet Bread","steam_id":76561198157870714,"connected_time":259000000000,"state":"active","ping":65},{"user_id":647,"name":"LarsInABox","steam_id":76561198028329262,"connected_time":639000000000,"state":"active","ping":75}]},{"server_id":110,"name":"Uncletopia | Frankfurt | 2 | All Maps","name_short":"frk-2","host":"frk-1.de.uncletopia.com","port":27025,"enabled":true,"region":"eu","cc":"de","latitude":50.110924,"longitude":8.682127,"reserved":0,"last_update":"0001-01-01T00:00:00Z","name_a2s":"Uncletopia | Frankfurt | 2 | All Maps","protocol":17,"map":"cp_mountainlab","folder":"tf","game":"Team Fortress","app_id":440,"player_count":24,"max_players":24,"Bots":0,"server_type":"Dedicated","server_os":"Linux","password":true,"vac":true,"version":"7742253","steam_id":85568392924469990,"keywords":["cp","nocrits","nodmgspread","uncletopia"],"game_id":440,"stv_port":27026,"stv_name":"Uncletopia | Frankfurt | 2 | All Maps | STV","players":[{"user_id":532,"name":"Papi","steam_id":76561198082036744,"connected_time":542000000000,"state":"active","ping":53},{"user_id":548,"name":"tm","steam_id":76561198256619964,"connected_time":73000000000,"state":"active","ping":75},{"user_id":529,"name":"guarda-chuva","steam_id":76561198078694330,"connected_time":581000000000,"state":"active","ping":51},{"user_id":520,"name":"ivanmixo","steam_id":76561198160213989,"connected_time":1227000000000,"state":"active","ping":60},{"user_id":518,"name":"dr addict","steam_id":76561199220834459,"connected_time":1546000000000,"state":"active","ping":104},{"user_id":481,"name":"Potat Master |Potato Industries","steam_id":76561199112380553,"connected_time":2345000000000,"state":"active","ping":105},{"user_id":535,"name":"Wutvillain","steam_id":76561198205501279,"connected_time":486000000000,"state":"active","ping":98},{"user_id":468,"name":"thomas +","steam_id":76561198355097756,"connected_time":3268000000000,"state":"active","ping":48},{"user_id":524,"name":"ViviSwarm","steam_id":76561198443130684,"connected_time":1116000000000,"state":"active","ping":66},{"user_id":488,"name":"Duktigafred","steam_id":76561199211222396,"connected_time":2269000000000,"state":"active","ping":67},{"user_id":540,"name":"The one who knocks","steam_id":76561198089341471,"connected_time":294000000000,"state":"active","ping":71},{"user_id":469,"name":"101 000 tuns of democracy","steam_id":76561198218257120,"connected_time":3266000000000,"state":"active","ping":73},{"user_id":547,"name":"yurkur","steam_id":76561198407108497,"connected_time":82000000000,"state":"active","ping":55},{"user_id":534,"name":"Derpy","steam_id":76561198021158175,"connected_time":516000000000,"state":"active","ping":59},{"user_id":541,"name":"Ushanka Dog","steam_id":76561198034881547,"connected_time":285000000000,"state":"active","ping":79},{"user_id":544,"name":"3xample","steam_id":76561198805049375,"connected_time":211000000000,"state":"active","ping":79},{"user_id":536,"name":"Crisps","steam_id":76561198088973774,"connected_time":473000000000,"state":"active","ping":48},{"user_id":460,"name":"E","steam_id":76561198166340115,"connected_time":3806000000000,"state":"active","ping":65},{"user_id":545,"name":"sauropod rizz","steam_id":76561198163244605,"connected_time":177000000000,"state":"active","ping":74},{"user_id":480,"name":"just a cat","steam_id":76561198328023740,"connected_time":2695000000000,"state":"active","ping":52},{"user_id":537,"name":"Bromoneto","steam_id":76561198876695014,"connected_time":420000000000,"state":"active","ping":92},{"user_id":509,"name":"bro.","steam_id":76561198053394831,"connected_time":1997000000000,"state":"active","ping":62},{"user_id":478,"name":"Walter White tf2","steam_id":76561199231346664,"connected_time":2851000000000,"state":"active","ping":105},{"user_id":546,"name":"rip bozone layer","steam_id":76561198023211417,"connected_time":170000000000,"state":"active","ping":61}]},{"server_id":308,"name":"Uncletopia | Frankfurt | 3 | All Maps","name_short":"frk-3","host":"frk-1.de.uncletopia.com","port":27035,"enabled":true,"region":"eu","cc":"de","latitude":50.110924,"longitude":8.682127,"reserved":0,"last_update":"0001-01-01T00:00:00Z","name_a2s":"Uncletopia | Frankfurt | 3 | All Maps","protocol":17,"map":"pl_snowycoast","folder":"tf","game":"Team Fortress","app_id":440,"player_count":23,"max_players":24,"Bots":0,"server_type":"Dedicated","server_os":"Linux","password":true,"vac":true,"version":"7742253","steam_id":85568392924504274,"keywords":["nocrits","nodmgspread","payload","uncletopia"],"game_id":440,"stv_port":27036,"stv_name":"Uncletopia | Frankfurt | 3 | All Maps | STV","players":[{"user_id":456,"name":"Whallie","steam_id":76561198881117247,"connected_time":64000000000,"state":"active","ping":73},{"user_id":453,"name":"WarAndroid","steam_id":76561198873727435,"connected_time":250000000000,"state":"active","ping":57},{"user_id":443,"name":"Schmodda on YT","steam_id":76561198147273788,"connected_time":1626000000000,"state":"active","ping":63},{"user_id":448,"name":"balanced diet","steam_id":76561198240320806,"connected_time":404000000000,"state":"active","ping":71},{"user_id":414,"name":"♥  Purple Scoot  ♥ | P.U.R.","steam_id":76561198965998351,"connected_time":3764000000000,"state":"active","ping":76},{"user_id":424,"name":"Bilbo Ballbaggins","steam_id":76561198070593514,"connected_time":2975000000000,"state":"active","ping":70},{"user_id":439,"name":"nedilya","steam_id":76561198039692077,"connected_time":2006000000000,"state":"active","ping":55},{"user_id":364,"name":"Windows Vista Cruiser","steam_id":76561198064102233,"connected_time":6722000000000,"state":"active","ping":63},{"user_id":449,"name":"悪","steam_id":76561198095879087,"connected_time":376000000000,"state":"active","ping":68},{"user_id":423,"name":"Jedi doggo","steam_id":76561198360026202,"connected_time":3019000000000,"state":"active","ping":75},{"user_id":454,"name":"Metal","steam_id":76561198102420849,"connected_time":132000000000,"state":"active","ping":60},{"user_id":455,"name":"marsel","steam_id":76561198116168271,"connected_time":117000000000,"state":"active","ping":74},{"user_id":445,"name":"Average","steam_id":76561198158411479,"connected_time":652000000000,"state":"active","ping":75},{"user_id":457,"name":"Borat","steam_id":76561198122226417,"connected_time":44000000000,"state":"active","ping":43},{"user_id":431,"name":"Whoovy","steam_id":76561198299565616,"connected_time":2341000000000,"state":"active","ping":87},{"user_id":417,"name":"Gnome561","steam_id":76561198183771141,"connected_time":3544000000000,"state":"active","ping":78},{"user_id":458,"name":":weary:","steam_id":76561198075539799,"connected_time":32000000000,"state":"active","ping":55},{"user_id":438,"name":"flora","steam_id":76561197994492154,"connected_time":2010000000000,"state":"active","ping":60},{"user_id":410,"name":"Hey, I´m Andy!","steam_id":76561198060337777,"connected_time":4024000000000,"state":"active","ping":60},{"user_id":390,"name":"lyudmilakh","steam_id":76561198362779878,"connected_time":4679000000000,"state":"active","ping":72},{"user_id":345,"name":"Echo of Abyss","steam_id":76561198981841782,"connected_time":7918000000000,"state":"active","ping":82},{"user_id":407,"name":"hitman's hatemaker","steam_id":76561198093605066,"connected_time":4351000000000,"state":"active","ping":80},{"user_id":441,"name":"let me cook","steam_id":76561198010380786,"connected_time":1996000000000,"state":"active","ping":54}]},{"server_id":309,"name":"Uncletopia | Frankfurt | 4 | All Maps","name_short":"frk-4","host":"frk-1.de.uncletopia.com","port":27045,"enabled":true,"region":"eu","cc":"de","latitude":50.110924,"longitude":8.682127,"reserved":0,"last_update":"0001-01-01T00:00:00Z","name_a2s":"Uncletopia | Frankfurt | 4 | All Maps","protocol":17,"map":"pl_pier","folder":"tf","game":"Team Fortress","app_id":440,"player_count":24,"max_players":24,"Bots":0,"server_type":"Dedicated","server_os":"Linux","password":true,"vac":true,"version":"7742253","steam_id":85568392924504275,"keywords":["nocrits","nodmgspread","payload","uncletopia"],"game_id":440,"stv_port":27046,"stv_name":"Uncletopia | Frankfurt | 4 | All Maps | STV","players":[{"user_id":523,"name":"ttv.twitch.tv/watchLive","steam_id":76561198047359132,"connected_time":178000000000,"state":"active","ping":75},{"user_id":508,"name":"Br4inP0w3r","steam_id":76561198133592621,"connected_time":979000000000,"state":"active","ping":86},{"user_id":526,"name":"Sneaky boi","steam_id":76561199195985387,"connected_time":120000000000,"state":"active","ping":85},{"user_id":434,"name":"starke le beau","steam_id":76561199375305230,"connected_time":5825000000000,"state":"active","ping":68},{"user_id":513,"name":"Qwaden","steam_id":76561198881784698,"connected_time":592000000000,"state":"active","ping":67},{"user_id":524,"name":"Dodoshka","steam_id":76561198093464840,"connected_time":170000000000,"state":"active","ping":92},{"user_id":483,"name":"wit tijgerbrood","steam_id":76561198316462394,"connected_time":2478000000000,"state":"active","ping":62},{"user_id":510,"name":"Leituga","steam_id":76561198051127598,"connected_time":917000000000,"state":"active","ping":96},{"user_id":517,"name":"Dakkafex","steam_id":76561198020254869,"connected_time":464000000000,"state":"active","ping":49},{"user_id":437,"name":"AnonTron","steam_id":76561199031895493,"connected_time":5725000000000,"state":"active","ping":191},{"user_id":527,"name":"Guy","steam_id":76561199032279809,"connected_time":37000000000,"state":"active","ping":78},{"user_id":392,"name":"rocky nuke","steam_id":76561197996346341,"connected_time":8735000000000,"state":"active","ping":56},{"user_id":525,"name":"¬°Nice","steam_id":76561198387871867,"connected_time":166000000000,"state":"active","ping":76},{"user_id":518,"name":"Poopy_Joe","steam_id":76561198096839348,"connected_time":427000000000,"state":"active","ping":54},{"user_id":519,"name":"Friendly Bohen","steam_id":76561198002412697,"connected_time":425000000000,"state":"active","ping":63},{"user_id":460,"name":"Ar|es","steam_id":76561198819160313,"connected_time":4364000000000,"state":"active","ping":76},{"user_id":481,"name":"Solid","steam_id":76561198357049292,"connected_time":2592000000000,"state":"active","ping":86},{"user_id":520,"name":"Biscuitbox","steam_id":76561198448396620,"connected_time":422000000000,"state":"active","ping":64},{"user_id":497,"name":"manKe","steam_id":76561198008564860,"connected_time":2193000000000,"state":"active","ping":59},{"user_id":498,"name":"ikc159","steam_id":76561198020559026,"connected_time":2171000000000,"state":"active","ping":60},{"user_id":488,"name":"sudo apt get bitches","steam_id":76561198995673730,"connected_time":2416000000000,"state":"active","ping":122},{"user_id":521,"name":"Prox","steam_id":76561198351490981,"connected_time":414000000000,"state":"active","ping":63},{"user_id":463,"name":"Don Juan","steam_id":76561198264353568,"connected_time":4310000000000,"state":"active","ping":100},{"user_id":522,"name":"Gandalf","steam_id":76561199072668363,"connected_time":269000000000,"state":"active","ping":156}]},{"server_id":310,"name":"Uncletopia | Frankfurt | 5 | All Maps","name_short":"frk-5","host":"frk-1.de.uncletopia.com","port":27055,"enabled":true,"region":"eu","cc":"de","latitude":50.110924,"longitude":8.682127,"reserved":0,"last_update":"0001-01-01T00:00:00Z","name_a2s":"Uncletopia | Frankfurt | 5 | All Maps","protocol":17,"map":"koth_viaduct","folder":"tf","game":"Team Fortress","app_id":440,"player_count":22,"max_players":24,"Bots":0,"server_type":"Dedicated","server_os":"Linux","password":true,"vac":true,"version":"7742253","steam_id":85568392924504277,"keywords":["cp","nocrits","nodmgspread","uncletopia"],"game_id":440,"stv_port":27056,"stv_name":"Uncletopia | Frankfurt | 5 | All Maps | STV","players":[{"user_id":377,"name":"hhheeeyyy42","steam_id":76561199349151112,"connected_time":1768000000000,"state":"active","ping":84},{"user_id":402,"name":"tikitaki","steam_id":76561199154384606,"connected_time":751000000000,"state":"active","ping":81},{"user_id":406,"name":"X45Y","steam_id":76561198112534025,"connected_time":428000000000,"state":"active","ping":49},{"user_id":381,"name":"Dzan50","steam_id":76561198059758591,"connected_time":1251000000000,"state":"active","ping":73},{"user_id":378,"name":"Ukrainian Armed Forces","steam_id":76561198312479540,"connected_time":1637000000000,"state":"active","ping":67},{"user_id":382,"name":"imthegerman","steam_id":76561198053401077,"connected_time":1247000000000,"state":"active","ping":101},{"user_id":367,"name":"MSPaintbrush","steam_id":76561198119987705,"connected_time":3249000000000,"state":"active","ping":75},{"user_id":407,"name":"timby","steam_id":76561198094389483,"connected_time":419000000000,"state":"active","ping":73},{"user_id":417,"name":"vertman90210","steam_id":76561199000067805,"connected_time":165000000000,"state":"active","ping":66},{"user_id":385,"name":"Mekurukitoッ","steam_id":76561198414304171,"connected_time":1222000000000,"state":"active","ping":43},{"user_id":348,"name":"Carrot Arc","steam_id":76561198164957006,"connected_time":4565000000000,"state":"active","ping":90},{"user_id":408,"name":"Sem","steam_id":76561198157315119,"connected_time":408000000000,"state":"active","ping":90},{"user_id":388,"name":"a sticky situation","steam_id":76561198011692496,"connected_time":1202000000000,"state":"active","ping":63},{"user_id":344,"name":"Spajro","steam_id":76561198257383813,"connected_time":4655000000000,"state":"active","ping":49},{"user_id":409,"name":"Preyzen","steam_id":76561199043448824,"connected_time":403000000000,"state":"active","ping":60},{"user_id":372,"name":"Jedi Knight","steam_id":76561198039030709,"connected_time":2773000000000,"state":"active","ping":51},{"user_id":418,"name":"fr1tzchen","steam_id":76561199028199704,"connected_time":158000000000,"state":"active","ping":66},{"user_id":419,"name":"Syd","steam_id":76561198020515027,"connected_time":141000000000,"state":"active","ping":85},{"user_id":391,"name":"Brat mi kurshuma","steam_id":76561198444986506,"connected_time":1160000000000,"state":"active","ping":62},{"user_id":354,"name":"Blo","steam_id":76561198161651469,"connected_time":4232000000000,"state":"active","ping":56},{"user_id":412,"name":"officially retarded","steam_id":76561198797548404,"connected_time":332000000000,"state":"active","ping":139},{"user_id":395,"name":"_V_","steam_id":76561199079672981,"connected_time":1070000000000,"state":"active","ping":72}]},{"server_id":311,"name":"Uncletopia | Frankfurt | 6 | All Maps","name_short":"frk-6","host":"frk-1.de.uncletopia.com","port":27065,"enabled":true,"region":"eu","cc":"de","latitude":50.110924,"longitude":8.682127,"reserved":0,"last_update":"0001-01-01T00:00:00Z","name_a2s":"Uncletopia | Frankfurt | 6 | All Maps","protocol":17,"map":"pl_pier","folder":"tf","game":"Team Fortress","app_id":440,"player_count":24,"max_players":24,"Bots":0,"server_type":"Dedicated","server_os":"Linux","password":true,"vac":true,"version":"7742253","steam_id":85568392924504278,"keywords":["nocrits","nodmgspread","payload","uncletopia"],"game_id":440,"stv_port":27066,"stv_name":"Uncletopia | Frankfurt | 6 | All Maps | STV","players":[{"user_id":18,"name":"cappy","steam_id":76561198231859236,"connected_time":5125000000000,"state":"active","ping":80},{"user_id":19,"name":"boot_camp extremist","steam_id":76561198399817272,"connected_time":5091000000000,"state":"active","ping":104},{"user_id":20,"name":"Loop_Cat","steam_id":76561199045902145,"connected_time":4832000000000,"state":"active","ping":120},{"user_id":105,"name":"Intheweb33","steam_id":76561198082873786,"connected_time":137000000000,"state":"active","ping":88},{"user_id":72,"name":"Davus of Europium","steam_id":76561198079615126,"connected_time":1716000000000,"state":"active","ping":72},{"user_id":98,"name":"darkwater","steam_id":76561197986978738,"connected_time":380000000000,"state":"active","ping":60},{"user_id":90,"name":"cockwater","steam_id":76561198209101861,"connected_time":726000000000,"state":"active","ping":72},{"user_id":93,"name":"Farmer Maggots Crop","steam_id":76561198838856746,"connected_time":522000000000,"state":"active","ping":119},{"user_id":87,"name":"Zogg","steam_id":76561198352683491,"connected_time":920000000000,"state":"active","ping":56},{"user_id":43,"name":"AviSheepie","steam_id":76561198154361272,"connected_time":4090000000000,"state":"active","ping":90},{"user_id":94,"name":"Elisko246","steam_id":76561198070377333,"connected_time":510000000000,"state":"active","ping":79},{"user_id":53,"name":"FlawlessAlias #SaveTF2","steam_id":76561198159703164,"connected_time":3613000000000,"state":"active","ping":87},{"user_id":84,"name":"Orochi","steam_id":76561198265192382,"connected_time":1402000000000,"state":"active","ping":60},{"user_id":108,"name":"☩ Knightz ☩","steam_id":76561198040936414,"connected_time":77000000000,"state":"active","ping":117},{"user_id":95,"name":"MidnightMoth","steam_id":76561198842238362,"connected_time":501000000000,"state":"active","ping":86},{"user_id":96,"name":"Krimmblz","steam_id":76561198326488448,"connected_time":473000000000,"state":"active","ping":63},{"user_id":38,"name":"walking sentry","steam_id":76561199225363633,"connected_time":4176000000000,"state":"active","ping":55},{"user_id":106,"name":"tictak211","steam_id":76561198128091924,"connected_time":118000000000,"state":"active","ping":74},{"user_id":99,"name":"masatin","steam_id":76561198044967818,"connected_time":350000000000,"state":"active","ping":61},{"user_id":104,"name":"DoctorTopLeL","steam_id":76561198088533595,"connected_time":215000000000,"state":"active","ping":112},{"user_id":42,"name":"Jan005","steam_id":76561198410047633,"connected_time":4127000000000,"state":"active","ping":61},{"user_id":107,"name":"breadlikeme.","steam_id":76561198133532980,"connected_time":85000000000,"state":"active","ping":62},{"user_id":86,"name":"NIKLAS","steam_id":76561198053792588,"connected_time":1152000000000,"state":"active","ping":60},{"user_id":68,"name":"Mihuel Hairman#Savetf2","steam_id":76561199041992422,"connected_time":1935000000000,"state":"active","ping":140}]},{"server_id":23,"name":"Uncletopia | Frankfurt | 7 | Stopwatch Beta","name_short":"frk-7","host":"frk-1.de.uncletopia.com","port":27075,"enabled":true,"region":"eu","cc":"de","latitude":50.110924,"longitude":8.682127,"reserved":0,"last_update":"0001-01-01T00:00:00Z","name_a2s":"Uncletopia | Frankfurt | 7 | Stopwatch Beta","protocol":17,"map":"workshop/pl_badwater_pro_v12.ugc2142942074","folder":"tf","game":"Team Fortress","app_id":440,"player_count":0,"max_players":24,"Bots":0,"server_type":"Dedicated","server_os":"Linux","password":true,"vac":true,"version":"7742253","steam_id":85568392924742827,"keywords":["nocrits","nodmgspread","payload","uncletopia"],"game_id":440,"stv_port":27076,"stv_name":"Uncletopia | Frankfurt | 7 | Stopwatch Beta | STV","players":null},{"server_id":24,"name":"Uncletopia | Frankfurt | 8 | Community","name_short":"frk-8","host":"frk-1.de.uncletopia.com","port":27085,"enabled":true,"region":"eu","cc":"de","latitude":50.110924,"longitude":8.682127,"reserved":0,"last_update":"0001-01-01T00:00:00Z","name_a2s":"Uncletopia | Frankfurt | 8 | Community","protocol":17,"map":"workshop/koth_ramjam_rc1.ugc459778887","folder":"tf","game":"Team Fortress","app_id":440,"player_count":0,"max_players":24,"Bots":0,"server_type":"Dedicated","server_os":"Linux","password":true,"vac":true,"version":"7742253","steam_id":85568392924742828,"keywords":["cp","nocrits","nodmgspread","uncletopia"],"game_id":440,"stv_port":27086,"stv_name":"Uncletopia | Frankfurt | 8 | Community | STV","players":null},{"server_id":202,"name":"Uncletopia | Hong Kong | 1 | All Maps","name_short":"hgk-1","host":"hgk-1.hk.uncletopia.com","port":27015,"enabled":true,"region":"asia","cc":"hk","latitude":22.302711,"longitude":114.177216,"reserved":0,"last_update":"0001-01-01T00:00:00Z","name_a2s":"Uncletopia | Hong Kong | 1 | All Maps","protocol":17,"map":"pl_upward","folder":"tf","game":"Team Fortress","app_id":440,"player_count":0,"max_players":24,"Bots":0,"server_type":"Dedicated","server_os":"Linux","password":true,"vac":true,"version":"7742253","steam_id":85568392924494504,"keywords":["nocrits","nodmgspread","payload","uncletopia"],"game_id":440,"stv_port":27016,"stv_name":"Uncletopia | Hong Kong | 1 | All Maps | STV","players":null},{"server_id":1,"name":"Uncletopia | Los Angeles | 1 | All Maps","name_short":"lax-1","host":"lax-1.us.uncletopia.com","port":27015,"enabled":true,"region":"us-west","cc":"us","latitude":33.94279,"longitude":-118.41004,"reserved":0,"last_update":"0001-01-01T00:00:00Z","name_a2s":"Uncletopia | Los Angeles | 1 | All Maps","protocol":17,"map":"cp_mountainlab","folder":"tf","game":"Team Fortress","app_id":440,"player_count":0,"max_players":24,"Bots":0,"server_type":"Dedicated","server_os":"Linux","password":true,"vac":true,"version":"7742253","steam_id":85568392924469991,"keywords":["cp","nocrits","nodmgspread","uncletopia"],"game_id":440,"stv_port":27016,"stv_name":"Uncletopia | Los Angeles | 1 | All Maps | STV","players":null},{"server_id":112,"name":"Uncletopia | Los Angeles | 2 | All Maps","name_short":"lax-2","host":"lax-1.us.uncletopia.com","port":27025,"enabled":true,"region":"us-west","cc":"us","latitude":33.94279,"longitude":-118.41004,"reserved":0,"last_update":"0001-01-01T00:00:00Z","name_a2s":"Uncletopia | Los Angeles | 2 | All Maps","protocol":17,"map":"cp_snakewater_final1","folder":"tf","game":"Team Fortress","app_id":440,"player_count":0,"max_players":24,"Bots":0,"server_type":"Dedicated","server_os":"Linux","password":true,"vac":true,"version":"7742253","steam_id":85568392924469992,"keywords":["cp","nocrits","nodmgspread","uncletopia"],"game_id":440,"stv_port":27026,"stv_name":"Uncletopia | Los Angeles | 2 | All Maps | STV","players":null},{"server_id":324,"name":"Uncletopia | Los Angeles | 3 | All Maps","name_short":"lax-3","host":"lax-1.us.uncletopia.com","port":27035,"enabled":true,"region":"us-west","cc":"us","latitude":33.94279,"longitude":-118.41004,"reserved":0,"last_update":"0001-01-01T00:00:00Z","name_a2s":"Uncletopia | Los Angeles | 3 | All Maps","protocol":17,"map":"cp_mountainlab","folder":"tf","game":"Team Fortress","app_id":440,"player_count":0,"max_players":24,"Bots":0,"server_type":"Dedicated","server_os":"Linux","password":true,"vac":true,"version":"7742253","steam_id":85568392924510198,"keywords":["cp","nocrits","nodmgspread","uncletopia"],"game_id":440,"stv_port":27036,"stv_name":"Uncletopia | Los Angeles | 3 | All Maps | STV","players":null},{"server_id":25,"name":"Uncletopia | Los Angeles | 4 | Stopwatch Beta","name_short":"lax-4","host":"lax-1.us.uncletopia.com","port":27045,"enabled":true,"region":"us-west","cc":"us","latitude":33.94279,"longitude":-118.41004,"reserved":0,"last_update":"0001-01-01T00:00:00Z","name_a2s":"Uncletopia | Los Angeles | 4 | Stopwatch Beta","protocol":17,"map":"cp_snakewater_final1","folder":"tf","game":"Team Fortress","app_id":440,"player_count":0,"max_players":24,"Bots":0,"server_type":"Dedicated","server_os":"Linux","password":true,"vac":true,"version":"7742253","steam_id":85568392924510199,"keywords":["cp","nocrits","nodmgspread","uncletopia"],"game_id":440,"stv_port":27046,"stv_name":"Uncletopia | Los Angeles | 4 | Stopwatch Beta | STV","players":null},{"server_id":11,"name":"Uncletopia | London | 1 | All Maps","name_short":"lon-1","host":"lon-1.uk.uncletopia.com","port":27015,"enabled":true,"region":"eu","cc":"gb","latitude":51.509865,"longitude":-0.118092,"reserved":0,"last_update":"0001-01-01T00:00:00Z","name_a2s":"Uncletopia | London | 1 | All Maps","protocol":17,"map":"ctf_2fort","folder":"tf","game":"Team Fortress","app_id":440,"player_count":18,"max_players":24,"Bots":0,"server_type":"Dedicated","server_os":"Linux","password":true,"vac":true,"version":"7742253","steam_id":85568392924367362,"keywords":["ctf","nocrits","nodmgspread","uncletopia"],"game_id":440,"stv_port":27016,"stv_name":"Uncletopia | London | 1 | All Maps | STV","players":[{"user_id":653,"name":"gilljames13","steam_id":76561199057559658,"connected_time":65000000000,"state":"active","ping":65},{"user_id":621,"name":"Jense","steam_id":76561198825072592,"connected_time":2727000000000,"state":"active","ping":72},{"user_id":612,"name":"Charles Darwin","steam_id":76561197973496139,"connected_time":3368000000000,"state":"active","ping":61},{"user_id":654,"name":"nudjura","steam_id":76561198281986139,"connected_time":54000000000,"state":"active","ping":47},{"user_id":651,"name":"The Irish Eejit","steam_id":76561198027738057,"connected_time":141000000000,"state":"active","ping":55},{"user_id":636,"name":"Käpt'n","steam_id":76561198082347638,"connected_time":1086000000000,"state":"active","ping":71},{"user_id":652,"name":"Wumbo","steam_id":76561199030515230,"connected_time":126000000000,"state":"active","ping":54},{"user_id":626,"name":"flobutt","steam_id":76561199066749192,"connected_time":1986000000000,"state":"active","ping":148},{"user_id":620,"name":"Cheeli","steam_id":76561198150704425,"connected_time":2804000000000,"state":"active","ping":80},{"user_id":633,"name":"русорез","steam_id":76561198113126186,"connected_time":1661000000000,"state":"active","ping":94},{"user_id":616,"name":"SodaKid_7","steam_id":76561198079419485,"connected_time":3085000000000,"state":"active","ping":162},{"user_id":617,"name":"Cossack","steam_id":76561198076661772,"connected_time":3049000000000,"state":"active","ping":89},{"user_id":623,"name":"Aaron","steam_id":76561197990046953,"connected_time":2365000000000,"state":"active","ping":70},{"user_id":540,"name":"Wayward Smile","steam_id":76561198058841506,"connected_time":8110000000000,"state":"active","ping":45},{"user_id":611,"name":"Kosher Twink","steam_id":76561198397024973,"connected_time":3465000000000,"state":"active","ping":44},{"user_id":640,"name":"Green","steam_id":76561198183580019,"connected_time":745000000000,"state":"active","ping":74},{"user_id":646,"name":"schizophrenia","steam_id":76561198855487659,"connected_time":444000000000,"state":"active","ping":99},{"user_id":648,"name":"JOHN GAMING (based)","steam_id":76561199085822219,"connected_time":284000000000,"state":"active","ping":80}]},{"server_id":114,"name":"Uncletopia | London | 2 | All Maps","name_short":"lon-2","host":"lon-1.uk.uncletopia.com","port":27025,"enabled":true,"region":"eu","cc":"gb","latitude":51.509865,"longitude":-0.118092,"reserved":0,"last_update":"0001-01-01T00:00:00Z","name_a2s":"Uncletopia | London | 2 | All Maps","protocol":17,"map":"pl_barnblitz","folder":"tf","game":"Team Fortress","app_id":440,"player_count":23,"max_players":24,"Bots":0,"server_type":"Dedicated","server_os":"Linux","password":true,"vac":true,"version":"7742253","steam_id":85568392924470941,"keywords":["nocrits","nodmgspread","payload","uncletopia"],"game_id":440,"stv_port":27026,"stv_name":"Uncletopia | London | 2 | All Maps | STV","players":[{"user_id":585,"name":"tactical783","steam_id":76561199051688560,"connected_time":1902000000000,"state":"active","ping":61},{"user_id":577,"name":"LemonLeCitron","steam_id":76561198215545267,"connected_time":2091000000000,"state":"active","ping":59},{"user_id":622,"name":"Unknown","steam_id":76561199121764716,"connected_time":247000000000,"state":"active","ping":44},{"user_id":617,"name":"Nobaddy","steam_id":76561198037871007,"connected_time":767000000000,"state":"active","ping":65},{"user_id":571,"name":"Scarlet","steam_id":76561198075966579,"connected_time":2526000000000,"state":"active","ping":44},{"user_id":588,"name":"imma slap you","steam_id":76561198063965879,"connected_time":1738000000000,"state":"active","ping":69},{"user_id":613,"name":"I like apple","steam_id":76561198108115790,"connected_time":969000000000,"state":"active","ping":48},{"user_id":570,"name":"daanvanliempt05","steam_id":76561198355398948,"connected_time":2713000000000,"state":"active","ping":45},{"user_id":620,"name":"Dangerousbros","steam_id":76561198088952519,"connected_time":464000000000,"state":"active","ping":27},{"user_id":507,"name":"Patrick Basement","steam_id":76561198194562230,"connected_time":7887000000000,"state":"active","ping":79},{"user_id":621,"name":"Tortes","steam_id":76561199049185884,"connected_time":304000000000,"state":"active","ping":103},{"user_id":599,"name":"Breizbuc","steam_id":76561198118220633,"connected_time":1571000000000,"state":"active","ping":53},{"user_id":616,"name":"Moon","steam_id":76561198047535132,"connected_time":779000000000,"state":"active","ping":75},{"user_id":568,"name":"JR","steam_id":76561199013221822,"connected_time":3019000000000,"state":"active","ping":36},{"user_id":623,"name":"insanitY","steam_id":76561198055666742,"connected_time":224000000000,"state":"active","ping":102},{"user_id":619,"name":"RIP Pop RIP Von RIP X #ganja","steam_id":76561198119528210,"connected_time":565000000000,"state":"active","ping":47},{"user_id":582,"name":"Blyatwork","steam_id":76561198825379598,"connected_time":1918000000000,"state":"active","ping":45},{"user_id":603,"name":"Matth3wksy","steam_id":76561199028063968,"connected_time":1329000000000,"state":"active","ping":45},{"user_id":624,"name":"Dangs","steam_id":76561198001548885,"connected_time":134000000000,"state":"active","ping":109},{"user_id":592,"name":"Small Goodman","steam_id":76561198881753718,"connected_time":1692000000000,"state":"active","ping":80},{"user_id":572,"name":"Thesis","steam_id":76561199308784371,"connected_time":2521000000000,"state":"active","ping":50},{"user_id":614,"name":"Pancake","steam_id":76561198831844468,"connected_time":950000000000,"state":"active","ping":84},{"user_id":611,"name":"hulluheppu1","steam_id":76561198093458326,"connected_time":1137000000000,"state":"active","ping":66}]},{"server_id":320,"name":"Uncletopia | London | 3 | All Maps","name_short":"lon-3","host":"lon-1.uk.uncletopia.com","port":27035,"enabled":true,"region":"eu","cc":"gb","latitude":51.509865,"longitude":-0.118092,"reserved":0,"last_update":"0001-01-01T00:00:00Z","name_a2s":"Uncletopia | London | 3 | All Maps","protocol":17,"map":"pl_upward","folder":"tf","game":"Team Fortress","app_id":440,"player_count":24,"max_players":24,"Bots":0,"server_type":"Dedicated","server_os":"Linux","password":true,"vac":true,"version":"7742253","steam_id":85568392924510192,"keywords":["nocrits","nodmgspread","payload","uncletopia"],"game_id":440,"stv_port":27036,"stv_name":"Uncletopia | London | 3 | All Maps | STV","players":[{"user_id":361,"name":"pumpkin spice go.ggez.ro","steam_id":76561198449957490,"connected_time":2105000000000,"state":"active","ping":82},{"user_id":355,"name":"Jack","steam_id":76561198325505238,"connected_time":2537000000000,"state":"active","ping":79},{"user_id":326,"name":"luma","steam_id":76561198081649669,"connected_time":4910000000000,"state":"active","ping":76},{"user_id":362,"name":"your opinion \u003c my shit after a ","steam_id":76561198152620745,"connected_time":2096000000000,"state":"active","ping":54},{"user_id":359,"name":"Pickle_pic","steam_id":76561198414455440,"connected_time":2162000000000,"state":"active","ping":64},{"user_id":375,"name":"Hot._.Chocopops","steam_id":76561199025668594,"connected_time":1199000000000,"state":"active","ping":111},{"user_id":358,"name":"Soloman","steam_id":76561199212054667,"connected_time":2170000000000,"state":"active","ping":43},{"user_id":366,"name":"dunduu","steam_id":76561198875240717,"connected_time":2001000000000,"state":"active","ping":82},{"user_id":371,"name":"Dr Sex","steam_id":76561198029044617,"connected_time":1524000000000,"state":"active","ping":47},{"user_id":376,"name":"Billus","steam_id":76561199001397854,"connected_time":1172000000000,"state":"active","ping":117},{"user_id":357,"name":"Don Quixote","steam_id":76561197999454313,"connected_time":2413000000000,"state":"active","ping":80},{"user_id":377,"name":"ITZWBL","steam_id":76561198453173588,"connected_time":1153000000000,"state":"active","ping":91},{"user_id":343,"name":"PrimeTarget","steam_id":76561198046409289,"connected_time":3326000000000,"state":"active","ping":79},{"user_id":378,"name":"Dr. Funkenstein","steam_id":76561197977816210,"connected_time":1132000000000,"state":"active","ping":56},{"user_id":367,"name":"Carl's Marx","steam_id":76561198059700045,"connected_time":1973000000000,"state":"active","ping":57},{"user_id":373,"name":"KLAMA  ❤","steam_id":76561198351549661,"connected_time":1205000000000,"state":"active","ping":77},{"user_id":387,"name":"loveless","steam_id":76561198142256651,"connected_time":903000000000,"state":"active","ping":90},{"user_id":349,"name":"Clitorina","steam_id":76561198077570815,"connected_time":3160000000000,"state":"active","ping":45},{"user_id":380,"name":"Lightbulb Monkey","steam_id":76561198045033173,"connected_time":1091000000000,"state":"active","ping":64},{"user_id":389,"name":"PaperPlay","steam_id":76561198046838964,"connected_time":549000000000,"state":"active","ping":112},{"user_id":381,"name":"Texas Red","steam_id":76561199069782779,"connected_time":1078000000000,"state":"active","ping":76},{"user_id":336,"name":"decriminalise goblins","steam_id":76561198048257605,"connected_time":3973000000000,"state":"active","ping":55},{"user_id":372,"name":"wandermelon","steam_id":76561198158198738,"connected_time":1510000000000,"state":"active","ping":140},{"user_id":386,"name":"FoOzTV","steam_id":76561197998636728,"connected_time":954000000000,"state":"active","ping":67}]},{"server_id":321,"name":"Uncletopia | London | 4 | All Maps","name_short":"lon-4","host":"lon-1.uk.uncletopia.com","port":27045,"enabled":true,"region":"eu","cc":"gb","latitude":51.509865,"longitude":-0.118092,"reserved":0,"last_update":"0001-01-01T00:00:00Z","name_a2s":"Uncletopia | London | 4 | All Maps","protocol":17,"map":"pl_upward","folder":"tf","game":"Team Fortress","app_id":440,"player_count":23,"max_players":24,"Bots":0,"server_type":"Dedicated","server_os":"Linux","password":true,"vac":true,"version":"7742253","steam_id":85568392924510193,"keywords":["nocrits","nodmgspread","payload","uncletopia"],"game_id":440,"stv_port":27046,"stv_name":"Uncletopia | London | 4 | All Maps | STV","players":[{"user_id":140,"name":"Burpman","steam_id":76561198022897937,"connected_time":1712000000000,"state":"active","ping":46},{"user_id":163,"name":"Lag","steam_id":76561198159360376,"connected_time":77000000000,"state":"active","ping":41},{"user_id":156,"name":"axl","steam_id":76561198991661832,"connected_time":837000000000,"state":"active","ping":87},{"user_id":152,"name":"glyph","steam_id":76561197980736364,"connected_time":1085000000000,"state":"active","ping":88},{"user_id":142,"name":"LELŐNI MINDENKIT A WESTENDBEN","steam_id":76561198315642032,"connected_time":1670000000000,"state":"active","ping":69},{"user_id":153,"name":"Sgreff","steam_id":76561198036304365,"connected_time":1041000000000,"state":"active","ping":45},{"user_id":32,"name":"LasagnaLarry22","steam_id":76561198089478290,"connected_time":7577000000000,"state":"active","ping":46},{"user_id":131,"name":"UmbreonGSC","steam_id":76561198041960967,"connected_time":2156000000000,"state":"active","ping":64},{"user_id":164,"name":"Lore","steam_id":76561198399047297,"connected_time":72000000000,"state":"active","ping":75},{"user_id":162,"name":"Vince","steam_id":76561199103000131,"connected_time":221000000000,"state":"active","ping":45},{"user_id":132,"name":"orphan smeller","steam_id":76561198107876224,"connected_time":2155000000000,"state":"active","ping":49},{"user_id":109,"name":"GoodResult","steam_id":76561198934056315,"connected_time":4279000000000,"state":"active","ping":85},{"user_id":143,"name":"finger","steam_id":76561198032101031,"connected_time":1662000000000,"state":"active","ping":87},{"user_id":148,"name":"stonebum","steam_id":76561198057004606,"connected_time":1441000000000,"state":"active","ping":47},{"user_id":157,"name":"Your Lovely Medic","steam_id":76561198039326848,"connected_time":823000000000,"state":"active","ping":72},{"user_id":93,"name":"pepper","steam_id":76561198059782462,"connected_time":5092000000000,"state":"active","ping":60},{"user_id":160,"name":"MrDerp121","steam_id":76561198060827332,"connected_time":594000000000,"state":"active","ping":36},{"user_id":154,"name":"weed fairy","steam_id":76561197998843096,"connected_time":971000000000,"state":"active","ping":91},{"user_id":149,"name":"SPACEDOG//TRASHDOG","steam_id":76561199005845405,"connected_time":1437000000000,"state":"active","ping":45},{"user_id":118,"name":"the joy of recycling","steam_id":76561198415564349,"connected_time":3151000000000,"state":"active","ping":61},{"user_id":158,"name":"Campty","steam_id":76561198810134666,"connected_time":817000000000,"state":"active","ping":54},{"user_id":139,"name":"Fat Pigeon","steam_id":76561198817940142,"connected_time":1797000000000,"state":"active","ping":45},{"user_id":159,"name":"Krabs","steam_id":76561198161679477,"connected_time":812000000000,"state":"active","ping":43}]},{"server_id":21,"name":"Uncletopia | London | 5 | All Maps","name_short":"lon-5","host":"lon-1.uk.uncletopia.com","port":27055,"enabled":true,"region":"eu","cc":"gb","latitude":51.509865,"longitude":-0.118092,"reserved":0,"last_update":"0001-01-01T00:00:00Z","name_a2s":"Uncletopia | London | 5 | All Maps","protocol":17,"map":"koth_lakeside_final","folder":"tf","game":"Team Fortress","app_id":440,"player_count":24,"max_players":24,"Bots":0,"server_type":"Dedicated","server_os":"Linux","password":true,"vac":true,"version":"7742253","steam_id":85568392924742829,"keywords":["cp","nocrits","nodmgspread","uncletopia"],"game_id":440,"stv_port":27056,"stv_name":"Uncletopia | London | 5 | All Maps | STV","players":[{"user_id":205,"name":"sp00ky","steam_id":76561198279985917,"connected_time":1014000000000,"state":"active","ping":35},{"user_id":216,"name":"i love henderson","steam_id":76561199283203575,"connected_time":836000000000,"state":"active","ping":71},{"user_id":211,"name":"Toon","steam_id":76561198065421595,"connected_time":903000000000,"state":"active","ping":65},{"user_id":183,"name":"subway vergil","steam_id":76561199110064166,"connected_time":2470000000000,"state":"active","ping":53},{"user_id":208,"name":"Sparky","steam_id":76561198036754195,"connected_time":957000000000,"state":"active","ping":46},{"user_id":221,"name":"Inferno_Mode","steam_id":76561198354012382,"connected_time":743000000000,"state":"active","ping":44},{"user_id":226,"name":"Dr. Samuel Hayden","steam_id":76561198969244773,"connected_time":677000000000,"state":"active","ping":110},{"user_id":236,"name":"xXThotSlayerXx","steam_id":76561198141261296,"connected_time":100000000000,"state":"active","ping":109},{"user_id":234,"name":"AwterSix","steam_id":76561198042561678,"connected_time":539000000000,"state":"active","ping":63},{"user_id":213,"name":"Superiumentarius","steam_id":76561198081642249,"connected_time":876000000000,"state":"active","ping":65},{"user_id":235,"name":"jamsya","steam_id":76561199064667453,"connected_time":512000000000,"state":"active","ping":72},{"user_id":218,"name":"EGirl | Klarra","steam_id":76561198077745407,"connected_time":792000000000,"state":"active","ping":68},{"user_id":219,"name":"Obvi","steam_id":76561198088735927,"connected_time":790000000000,"state":"active","ping":57},{"user_id":228,"name":"GoCommitGibby","steam_id":76561198853933595,"connected_time":649000000000,"state":"active","ping":82},{"user_id":196,"name":"Kahvi","steam_id":76561198723244199,"connected_time":2146000000000,"state":"active","ping":76},{"user_id":237,"name":"RIFT","steam_id":76561198991622379,"connected_time":61000000000,"state":"active","ping":44},{"user_id":224,"name":"King Jizzard","steam_id":76561198047725816,"connected_time":719000000000,"state":"active","ping":52},{"user_id":225,"name":"Dr. Pootis","steam_id":76561198938319764,"connected_time":694000000000,"state":"active","ping":91},{"user_id":229,"name":"EinManuel","steam_id":76561198354983840,"connected_time":641000000000,"state":"active","ping":61},{"user_id":230,"name":"X-tis","steam_id":76561198043837480,"connected_time":623000000000,"state":"active","ping":71},{"user_id":232,"name":"VibeCheck","steam_id":76561198425961218,"connected_time":593000000000,"state":"active","ping":100},{"user_id":54,"name":"My ball itch","steam_id":76561199121794613,"connected_time":11510000000000,"state":"active","ping":86},{"user_id":233,"name":"IM A BARBIE GIRL IN A BARBIE WO","steam_id":76561197988733568,"connected_time":590000000000,"state":"active","ping":60},{"user_id":200,"name":"Sun...","steam_id":76561198063928904,"connected_time":1543000000000,"state":"active","ping":66}]},{"server_id":22,"name":"Uncletopia | London | 6 | All Maps","name_short":"lon-6","host":"lon-1.uk.uncletopia.com","port":27065,"enabled":true,"region":"eu","cc":"gb","latitude":51.509865,"longitude":-0.118092,"reserved":0,"last_update":"0001-01-01T00:00:00Z","name_a2s":"Uncletopia | London | 6 | All Maps","protocol":17,"map":"pl_upward","folder":"tf","game":"Team Fortress","app_id":440,"player_count":24,"max_players":24,"Bots":0,"server_type":"Dedicated","server_os":"Linux","password":true,"vac":true,"version":"7742253","steam_id":85568392924742830,"keywords":["nocrits","nodmgspread","payload","uncletopia"],"game_id":440,"stv_port":27066,"stv_name":"Uncletopia | London | 6 | All Maps | STV","players":[{"user_id":313,"name":"ViktorYoshi","steam_id":76561199157555246,"connected_time":526000000000,"state":"active","ping":66},{"user_id":282,"name":"TimeSpirit","steam_id":76561198148741159,"connected_time":2351000000000,"state":"active","ping":55},{"user_id":283,"name":"NIKKING","steam_id":76561198296190240,"connected_time":2344000000000,"state":"active","ping":67},{"user_id":304,"name":"Caliban","steam_id":76561197999696839,"connected_time":1408000000000,"state":"active","ping":110},{"user_id":288,"name":"TerraSmelter","steam_id":76561198361758900,"connected_time":2270000000000,"state":"active","ping":66},{"user_id":311,"name":"Fenev","steam_id":76561198030640908,"connected_time":553000000000,"state":"active","ping":59},{"user_id":309,"name":"|Bobby|","steam_id":76561198154208319,"connected_time":995000000000,"state":"active","ping":60},{"user_id":312,"name":"ඞbominasus 2137  #SaveTF2","steam_id":76561198030062981,"connected_time":549000000000,"state":"active","ping":73},{"user_id":318,"name":"Frazzles","steam_id":76561199228009586,"connected_time":25000000000,"state":"active","ping":41},{"user_id":305,"name":"\u003c blank \u003e","steam_id":76561199177668753,"connected_time":1356000000000,"state":"active","ping":29},{"user_id":317,"name":"Pyrolander","steam_id":76561198050785450,"connected_time":230000000000,"state":"active","ping":53},{"user_id":302,"name":"fénix","steam_id":76561198083199151,"connected_time":1993000000000,"state":"active","ping":54},{"user_id":261,"name":"Asfreild","steam_id":76561198055901120,"connected_time":4374000000000,"state":"active","ping":72},{"user_id":296,"name":"Look ass","steam_id":76561198207199727,"connected_time":2086000000000,"state":"active","ping":67},{"user_id":300,"name":"[Ṩ\u0026Ṩ]•MλYKλ-💜","steam_id":76561197998713539,"connected_time":2038000000000,"state":"active","ping":63},{"user_id":306,"name":"HRCR118","steam_id":76561199146388596,"connected_time":1322000000000,"state":"active","ping":64},{"user_id":298,"name":"Cúspide","steam_id":76561197984928034,"connected_time":2068000000000,"state":"active","ping":66},{"user_id":303,"name":"gagalak","steam_id":76561198089979108,"connected_time":1849000000000,"state":"active","ping":105},{"user_id":307,"name":"Mi Manchi","steam_id":76561198171573129,"connected_time":1270000000000,"state":"active","ping":73},{"user_id":228,"name":"DeCypher","steam_id":76561198171992619,"connected_time":7571000000000,"state":"active","ping":68},{"user_id":301,"name":"Keizer420","steam_id":76561198354567661,"connected_time":2023000000000,"state":"active","ping":43},{"user_id":315,"name":"Monkey1","steam_id":76561198085397643,"connected_time":505000000000,"state":"active","ping":32},{"user_id":247,"name":"somehow danced","steam_id":76561198128250460,"connected_time":5809000000000,"state":"active","ping":109},{"user_id":316,"name":"Fluff","steam_id":76561198010195831,"connected_time":487000000000,"state":"active","ping":46}]},{"server_id":40,"name":"Uncletopia | London | 7 | No Payload","name_short":"lon-7","host":"lon-1.uk.uncletopia.com","port":27075,"enabled":true,"region":"eu","cc":"gb","latitude":51.509865,"longitude":-0.118092,"reserved":0,"last_update":"0001-01-01T00:00:00Z","name_a2s":"Uncletopia | London | 7 | No Payload","protocol":17,"map":"koth_king","folder":"tf","game":"Team Fortress","app_id":440,"player_count":7,"max_players":24,"Bots":0,"server_type":"Dedicated","server_os":"Linux","password":true,"vac":true,"version":"7742253","steam_id":85568392924964314,"keywords":["cp","nocrits","nodmgspread","uncletopia"],"game_id":440,"stv_port":27076,"stv_name":"Uncletopia | London | 7 | No Payload | STV","players":[{"user_id":16,"name":"rolf gaming","steam_id":76561199036171269,"connected_time":2194000000000,"state":"active","ping":58},{"user_id":17,"name":"Garden Freeman","steam_id":76561199073314677,"connected_time":2087000000000,"state":"active","ping":68},{"user_id":18,"name":"TryTane","steam_id":76561198133293111,"connected_time":2016000000000,"state":"active","ping":52},{"user_id":28,"name":"snowii","steam_id":76561198836246326,"connected_time":290000000000,"state":"active","ping":44},{"user_id":26,"name":"X X","steam_id":76561199097546387,"connected_time":702000000000,"state":"active","ping":47},{"user_id":32,"name":"nvke","steam_id":76561199013475308,"connected_time":151000000000,"state":"active","ping":134},{"user_id":31,"name":"average f2p","steam_id":76561199136308055,"connected_time":181000000000,"state":"active","ping":41}]},{"server_id":41,"name":"Uncletopia | London | 8 | Community","name_short":"lon-8","host":"lon-1.uk.uncletopia.com","port":27085,"enabled":true,"region":"eu","cc":"gb","latitude":51.509865,"longitude":-0.118092,"reserved":0,"last_update":"0001-01-01T00:00:00Z","name_a2s":"Uncletopia | London | 8 | Community","protocol":17,"map":"workshop/koth_ashville_final.ugc2130459942","folder":"tf","game":"Team Fortress","app_id":440,"player_count":0,"max_players":24,"Bots":0,"server_type":"Dedicated","server_os":"Linux","password":true,"vac":true,"version":"7742253","steam_id":85568392924964315,"keywords":["cp","nocrits","nodmgspread","uncletopia"],"game_id":440,"stv_port":27086,"stv_name":"Uncletopia | London | 8 | Community | STV","players":null},{"server_id":300,"name":"Uncletopia | Montréal | 1 | All Maps","name_short":"mtl-1","host":"mtl-1.ca.uncletopia.com","port":27015,"enabled":true,"region":"us-east","cc":"ca","latitude":45.50889,"longitude":-73.56167,"reserved":0,"last_update":"0001-01-01T00:00:00Z","name_a2s":"Uncletopia | Montréal | 1 | All Maps","protocol":17,"map":"pl_badwater","folder":"tf","game":"Team Fortress","app_id":440,"player_count":0,"max_players":24,"Bots":0,"server_type":"Dedicated","server_os":"Linux","password":true,"vac":true,"version":"7742253","steam_id":85568392924500087,"keywords":["nocrits","nodmgspread","payload","uncletopia"],"game_id":440,"stv_port":27016,"stv_name":"Uncletopia | Montréal | 1 | All Maps | STV","players":null},{"server_id":301,"name":"Uncletopia | Montréal | 2 | All Maps","name_short":"mtl-2","host":"mtl-1.ca.uncletopia.com","port":27025,"enabled":true,"region":"us-east","cc":"ca","latitude":45.50889,"longitude":-73.56167,"reserved":0,"last_update":"0001-01-01T00:00:00Z","name_a2s":"Uncletopia | Montréal | 2 | All Maps","protocol":17,"map":"koth_highpass","folder":"tf","game":"Team Fortress","app_id":440,"player_count":0,"max_players":24,"Bots":0,"server_type":"Dedicated","server_os":"Linux","password":true,"vac":true,"version":"7742253","steam_id":85568392924500088,"keywords":["cp","nocrits","nodmgspread","uncletopia"],"game_id":440,"stv_port":27026,"stv_name":"Uncletopia | Montréal | 2 | All Maps | STV","players":null},{"server_id":302,"name":"Uncletopia | Montréal | 3 | All Maps","name_short":"mtl-3","host":"mtl-1.ca.uncletopia.com","port":27035,"enabled":true,"region":"us-east","cc":"ca","latitude":45.50889,"longitude":-73.56167,"reserved":0,"last_update":"0001-01-01T00:00:00Z","name_a2s":"Uncletopia | Montréal | 3 | All Maps","protocol":17,"map":"cp_mountainlab","folder":"tf","game":"Team Fortress","app_id":440,"player_count":0,"max_players":24,"Bots":0,"server_type":"Dedicated","server_os":"Linux","password":true,"vac":true,"version":"7742253","steam_id":85568392924500089,"keywords":["cp","nocrits","nodmgspread","uncletopia"],"game_id":440,"stv_port":27036,"stv_name":"Uncletopia | Montréal | 3 | All Maps | STV","players":null},{"server_id":303,"name":"Uncletopia | Montréal | 4 | No Payload","name_short":"mtl-4","host":"mtl-1.ca.uncletopia.com","port":27045,"enabled":true,"region":"us-east","cc":"ca","latitude":45.50889,"longitude":-73.56167,"reserved":0,"last_update":"0001-01-01T00:00:00Z","name_a2s":"Uncletopia | Montréal | 4 | No Payload","protocol":17,"map":"plr_bananabay","folder":"tf","game":"Team Fortress","app_id":440,"player_count":0,"max_players":24,"Bots":0,"server_type":"Dedicated","server_os":"Linux","password":true,"vac":true,"version":"7742253","steam_id":85568392924500090,"keywords":["nocrits","nodmgspread","payload","uncletopia"],"game_id":440,"stv_port":27046,"stv_name":"Uncletopia | Montréal | 4 | No Payload | STV","players":null},{"server_id":13,"name":"Uncletopia | New York City | 1 | All Maps","name_short":"nyc-1","host":"nyc-1.us.uncletopia.com","port":27015,"enabled":true,"region":"us-east","cc":"us","latitude":40.73061,"longitude":-73.93524,"reserved":0,"last_update":"0001-01-01T00:00:00Z","name_a2s":"Uncletopia | New York City | 1 | All Maps","protocol":17,"map":"koth_harvest_final","folder":"tf","game":"Team Fortress","app_id":440,"player_count":24,"max_players":24,"Bots":0,"server_type":"Dedicated","server_os":"Linux","password":true,"vac":true,"version":"7742253","steam_id":85568392924469993,"keywords":["cp","nocrits","nodmgspread","uncletopia"],"game_id":440,"stv_port":27016,"stv_name":"Uncletopia | New York City | 1 | All Maps | STV","players":[{"user_id":296,"name":"ShinyOrion (She/Her)","steam_id":76561198408378321,"connected_time":2252000000000,"state":"active","ping":55},{"user_id":305,"name":"Infinite Hyperdeath","steam_id":76561198168946002,"connected_time":1388000000000,"state":"active","ping":44},{"user_id":292,"name":"tasty","steam_id":76561198083839061,"connected_time":3122000000000,"state":"active","ping":61},{"user_id":302,"name":"Apollo","steam_id":76561198257683872,"connected_time":1536000000000,"state":"active","ping":87},{"user_id":303,"name":"des","steam_id":76561198079226634,"connected_time":1505000000000,"state":"active","ping":56},{"user_id":293,"name":"catboy phroliax","steam_id":76561198207075529,"connected_time":3108000000000,"state":"active","ping":87},{"user_id":312,"name":"WinsomeYapper9","steam_id":76561199275285546,"connected_time":920000000000,"state":"active","ping":163},{"user_id":322,"name":"QuackenBurd","steam_id":76561198090275762,"connected_time":32000000000,"state":"active","ping":74},{"user_id":318,"name":"ucdrakebros","steam_id":76561199147788726,"connected_time":423000000000,"state":"active","ping":76},{"user_id":316,"name":"Windup Monkey in a Human Suit","steam_id":76561198119501444,"connected_time":496000000000,"state":"active","ping":77},{"user_id":304,"name":"Gooey Gaped Grannys","steam_id":76561198089731303,"connected_time":1482000000000,"state":"active","ping":52},{"user_id":261,"name":"Sam B","steam_id":76561198069277952,"connected_time":6800000000000,"state":"active","ping":78},{"user_id":313,"name":"Banana Patrick","steam_id":76561198258067237,"connected_time":909000000000,"state":"active","ping":49},{"user_id":317,"name":"ROGUE-PLANET","steam_id":76561198116023052,"connected_time":485000000000,"state":"active","ping":83},{"user_id":319,"name":"Menace to Sobriety","steam_id":76561198245103000,"connected_time":319000000000,"state":"active","ping":46},{"user_id":309,"name":"Mad Cow※","steam_id":76561198132498594,"connected_time":1231000000000,"state":"active","ping":65},{"user_id":320,"name":"SquirrelAway™","steam_id":76561197998828619,"connected_time":318000000000,"state":"active","ping":62},{"user_id":294,"name":"Snake Handler","steam_id":76561198027198306,"connected_time":2690000000000,"state":"active","ping":66},{"user_id":307,"name":"Digio","steam_id":76561199065101964,"connected_time":1354000000000,"state":"active","ping":165},{"user_id":323,"name":"Meloncomic","steam_id":76561198422034220,"connected_time":1000000000,"state":"spawning","ping":64},{"user_id":281,"name":"tranquil","steam_id":76561198319990195,"connected_time":4876000000000,"state":"active","ping":75},{"user_id":155,"name":"Bravo to Alpha","steam_id":76561198149821972,"connected_time":12961000000000,"state":"active","ping":66},{"user_id":282,"name":"Elias","steam_id":76561198106431732,"connected_time":4873000000000,"state":"active","ping":74},{"user_id":314,"name":"Milk Curdle","steam_id":76561198305106477,"connected_time":769000000000,"state":"active","ping":60}]},{"server_id":14,"name":"Uncletopia | New York City | 2 | All Maps","name_short":"nyc-2","host":"nyc-1.us.uncletopia.com","port":27025,"enabled":true,"region":"us-east","cc":"us","latitude":40.73061,"longitude":-73.93524,"reserved":0,"last_update":"0001-01-01T00:00:00Z","name_a2s":"Uncletopia | New York City | 2 | All Maps","protocol":17,"map":"pl_borneo","folder":"tf","game":"Team Fortress","app_id":440,"player_count":24,"max_players":24,"Bots":0,"server_type":"Dedicated","server_os":"Linux","password":true,"vac":true,"version":"7742253","steam_id":85568392924469994,"keywords":["nocrits","nodmgspread","payload","uncletopia"],"game_id":440,"stv_port":27026,"stv_name":"Uncletopia | New York City | 2 | All Maps | STV","players":[{"user_id":316,"name":"Subborbital","steam_id":76561198360416189,"connected_time":346000000000,"state":"active","ping":46},{"user_id":232,"name":"haha","steam_id":76561198173047169,"connected_time":5463000000000,"state":"active","ping":45},{"user_id":298,"name":"Smiles","steam_id":76561198107197973,"connected_time":849000000000,"state":"active","ping":76},{"user_id":315,"name":"Vec","steam_id":76561198044505262,"connected_time":355000000000,"state":"active","ping":85},{"user_id":320,"name":"Quansen","steam_id":76561198151594550,"connected_time":310000000000,"state":"active","ping":72},{"user_id":314,"name":"goombinus","steam_id":76561198136164826,"connected_time":366000000000,"state":"active","ping":54},{"user_id":164,"name":"nalezinik","steam_id":76561198030026119,"connected_time":9810000000000,"state":"active","ping":65},{"user_id":274,"name":"FALRayne","steam_id":76561198113348816,"connected_time":2116000000000,"state":"active","ping":62},{"user_id":248,"name":"The Undead Knight","steam_id":76561198010654500,"connected_time":4553000000000,"state":"active","ping":111},{"user_id":313,"name":"Crimson","steam_id":76561198129326627,"connected_time":395000000000,"state":"active","ping":62},{"user_id":311,"name":"Joan The Kisaragi Cat","steam_id":76561199370650064,"connected_time":487000000000,"state":"active","ping":139},{"user_id":317,"name":"joe","steam_id":76561198882758067,"connected_time":344000000000,"state":"active","ping":83},{"user_id":301,"name":"srv","steam_id":76561198026589960,"connected_time":779000000000,"state":"active","ping":74},{"user_id":254,"name":"toastman","steam_id":76561198207073088,"connected_time":3776000000000,"state":"active","ping":75},{"user_id":318,"name":"Sheppy","steam_id":76561198295126940,"connected_time":334000000000,"state":"active","ping":67},{"user_id":321,"name":"Mr.Indian Jokar","steam_id":76561198381343086,"connected_time":270000000000,"state":"active","ping":113},{"user_id":289,"name":"MaryJanee","steam_id":76561198072200952,"connected_time":1593000000000,"state":"active","ping":130},{"user_id":323,"name":"lfty","steam_id":76561198283841707,"connected_time":50000000000,"state":"active","ping":54},{"user_id":284,"name":"Milk","steam_id":76561198175903221,"connected_time":1695000000000,"state":"active","ping":74},{"user_id":312,"name":"Pvt. Liver Cancer","steam_id":76561198394080554,"connected_time":410000000000,"state":"active","ping":124},{"user_id":285,"name":"Tok Hakaay","steam_id":76561199311828303,"connected_time":1689000000000,"state":"active","ping":77},{"user_id":310,"name":"Monke_Man","steam_id":76561199228154797,"connected_time":606000000000,"state":"active","ping":73},{"user_id":309,"name":"fifteen22","steam_id":76561198138781868,"connected_time":632000000000,"state":"active","ping":60},{"user_id":319,"name":"FROYO domando","steam_id":76561199150367705,"connected_time":322000000000,"state":"active","ping":77}]},{"server_id":15,"name":"Uncletopia | New York City | 3 | Stopwatch Beta","name_short":"nyc-3","host":"nyc-1.us.uncletopia.com","port":27035,"enabled":true,"region":"us-east","cc":"us","latitude":40.73061,"longitude":-73.93524,"reserved":0,"last_update":"0001-01-01T00:00:00Z","name_a2s":"Uncletopia | New York City | 3 | Stopwatch Beta","protocol":17,"map":"workshop/pl_badwater_pro_v12.ugc2142942074","folder":"tf","game":"Team Fortress","app_id":440,"player_count":0,"max_players":24,"Bots":0,"server_type":"Dedicated","server_os":"Linux","password":true,"vac":true,"version":"7742253","steam_id":85568392924742820,"keywords":["nocrits","nodmgspread","payload","uncletopia"],"game_id":440,"stv_port":27036,"stv_name":"Uncletopia | New York City | 3 | Stopwatch Beta | STV","players":null},{"server_id":16,"name":"Uncletopia | New York City | 4 | Community","name_short":"nyc-4","host":"nyc-1.us.uncletopia.com","port":27045,"enabled":true,"region":"us-east","cc":"us","latitude":40.73061,"longitude":-73.93524,"reserved":0,"last_update":"0001-01-01T00:00:00Z","name_a2s":"Uncletopia | New York City | 4 | Community","protocol":17,"map":"koth_viaduct","folder":"tf","game":"Team Fortress","app_id":440,"player_count":0,"max_players":24,"Bots":0,"server_type":"Dedicated","server_os":"Linux","password":true,"vac":true,"version":"7742253","steam_id":85568392924742821,"keywords":["cp","nocrits","nodmgspread","uncletopia"],"game_id":440,"stv_port":27046,"stv_name":"Uncletopia | New York City | 4 | Community | STV","players":null},{"server_id":142,"name":"Uncletopia | São Paulo | 1 | All Maps","name_short":"sao-1","host":"sao-1.br.uncletopia.com","port":27015,"enabled":true,"region":"sa","cc":"br","latitude":-23.533773,"longitude":-46.62529,"reserved":0,"last_update":"0001-01-01T00:00:00Z","name_a2s":"Uncletopia | São Paulo | 1 | All Maps","protocol":17,"map":"koth_viaduct","folder":"tf","game":"Team Fortress","app_id":440,"player_count":0,"max_players":24,"Bots":0,"server_type":"Dedicated","server_os":"Linux","password":true,"vac":true,"version":"7742253","steam_id":85568392924469996,"keywords":["cp","nocrits","nodmgspread","uncletopia"],"game_id":440,"stv_port":27016,"stv_name":"Uncletopia | São Paulo | 1 | All Maps | STV","players":null},{"server_id":143,"name":"Uncletopia | São Paulo | 2 | All Maps","name_short":"sao-2","host":"sao-2.br.uncletopia.com","port":27015,"enabled":true,"region":"sa","cc":"br","latitude":-23.533773,"longitude":-46.62529,"reserved":0,"last_update":"0001-01-01T00:00:00Z","name_a2s":"Uncletopia | São Paulo | 2 | All Maps","protocol":17,"map":"koth_viaduct","folder":"tf","game":"Team Fortress","app_id":440,"player_count":0,"max_players":24,"Bots":0,"server_type":"Dedicated","server_os":"Linux","password":true,"vac":true,"version":"7742253","steam_id":85568392924485349,"keywords":["cp","nocrits","nodmgspread","uncletopia"],"game_id":440,"stv_port":27016,"stv_name":"Uncletopia | São Paulo | 2 | All Maps | STV","players":null},{"server_id":7,"name":"Uncletopia | Seattle | 1 | All Maps","name_short":"sea-1","host":"sea-1.us.uncletopia.com","port":27015,"enabled":true,"region":"us-west","cc":"us","latitude":47.608013,"longitude":-122.33517,"reserved":0,"last_update":"0001-01-01T00:00:00Z","name_a2s":"Uncletopia | Seattle | 1 | All Maps","protocol":17,"map":"plr_hightower","folder":"tf","game":"Team Fortress","app_id":440,"player_count":22,"max_players":24,"Bots":0,"server_type":"Dedicated","server_os":"Linux","password":true,"vac":true,"version":"7742253","steam_id":85568392924469997,"keywords":["nocrits","nodmgspread","payload","uncletopia"],"game_id":440,"stv_port":27016,"stv_name":"Uncletopia | Seattle | 1 | All Maps | STV","players":[{"user_id":238,"name":"chiefin da oregano spliff","steam_id":76561198131166135,"connected_time":3118000000000,"state":"active","ping":36},{"user_id":240,"name":"SlowCantReach","steam_id":76561198337146021,"connected_time":3057000000000,"state":"active","ping":126},{"user_id":271,"name":"Skabbety","steam_id":76561198168044257,"connected_time":166000000000,"state":"active","ping":31},{"user_id":268,"name":"minion from minions","steam_id":76561199001464827,"connected_time":382000000000,"state":"active","ping":106},{"user_id":194,"name":"oo","steam_id":76561198119626492,"connected_time":6502000000000,"state":"active","ping":68},{"user_id":244,"name":"sevanial","steam_id":76561198071532126,"connected_time":2935000000000,"state":"active","ping":105},{"user_id":242,"name":"D'Arby","steam_id":76561198973532174,"connected_time":3018000000000,"state":"active","ping":105},{"user_id":269,"name":"Ten Years in the Joint...","steam_id":76561198841001801,"connected_time":374000000000,"state":"active","ping":53},{"user_id":270,"name":"repent-f4","steam_id":76561199012783740,"connected_time":359000000000,"state":"active","ping":123},{"user_id":264,"name":"SilentninjaTheUndefenestratable","steam_id":76561198387601885,"connected_time":806000000000,"state":"active","ping":81},{"user_id":235,"name":"Frank Accardi","steam_id":76561198017275707,"connected_time":3707000000000,"state":"active","ping":93},{"user_id":229,"name":"Aardappel","steam_id":76561198030894676,"connected_time":4210000000000,"state":"active","ping":67},{"user_id":245,"name":"Mr. Morrow","steam_id":76561198011333701,"connected_time":2925000000000,"state":"active","ping":122},{"user_id":225,"name":"Fh","steam_id":76561198000903511,"connected_time":4489000000000,"state":"active","ping":71},{"user_id":260,"name":"Rev","steam_id":76561199060355036,"connected_time":1211000000000,"state":"active","ping":47},{"user_id":201,"name":"Sloppy Joe (Extra Sauce)","steam_id":76561198359703432,"connected_time":5468000000000,"state":"active","ping":76},{"user_id":233,"name":"Can You Feel It Mr.Krabs","steam_id":76561198128302414,"connected_time":4088000000000,"state":"active","ping":87},{"user_id":272,"name":"Tarbis","steam_id":76561198032529704,"connected_time":143000000000,"state":"active","ping":113},{"user_id":247,"name":"MR.meeseeks","steam_id":76561198294943420,"connected_time":2885000000000,"state":"active","ping":62},{"user_id":261,"name":"ShredMaan","steam_id":76561198429982138,"connected_time":921000000000,"state":"active","ping":82},{"user_id":266,"name":"mu","steam_id":76561197997530228,"connected_time":523000000000,"state":"active","ping":62},{"user_id":219,"name":"RibRubz","steam_id":76561199024487700,"connected_time":4591000000000,"state":"active","ping":91}]},{"server_id":119,"name":"Uncletopia | Seattle | 2 | All Maps","name_short":"sea-2","host":"sea-1.us.uncletopia.com","port":27025,"enabled":true,"region":"us-west","cc":"us","latitude":47.608013,"longitude":-122.33517,"reserved":0,"last_update":"0001-01-01T00:00:00Z","name_a2s":"Uncletopia | Seattle | 2 | All Maps","protocol":17,"map":"koth_viaduct","folder":"tf","game":"Team Fortress","app_id":440,"player_count":23,"max_players":24,"Bots":0,"server_type":"Dedicated","server_os":"Linux","password":true,"vac":true,"version":"7742253","steam_id":85568392924469998,"keywords":["cp","nocrits","nodmgspread","uncletopia"],"game_id":440,"stv_port":27026,"stv_name":"Uncletopia | Seattle | 2 | All Maps | STV","players":[{"user_id":81,"name":"fluffypenguin","steam_id":76561199204499369,"connected_time":2110000000000,"state":"active","ping":120},{"user_id":96,"name":"Buckytr","steam_id":76561198096335025,"connected_time":660000000000,"state":"active","ping":65},{"user_id":61,"name":"We Are Marshmallow","steam_id":76561198177081638,"connected_time":3193000000000,"state":"active","ping":121},{"user_id":99,"name":"FireQuiz","steam_id":76561198107357249,"connected_time":573000000000,"state":"active","ping":62},{"user_id":73,"name":"FedSmoker","steam_id":76561198255854081,"connected_time":2433000000000,"state":"active","ping":55},{"user_id":92,"name":"BlazeHX","steam_id":76561198827408017,"connected_time":977000000000,"state":"active","ping":137},{"user_id":66,"name":"AmirKhaan","steam_id":76561198992403254,"connected_time":3074000000000,"state":"active","ping":111},{"user_id":83,"name":"Big Blue","steam_id":76561198084930108,"connected_time":1980000000000,"state":"active","ping":65},{"user_id":59,"name":"you're finally awake","steam_id":76561198046394237,"connected_time":3535000000000,"state":"active","ping":42},{"user_id":84,"name":"Local","steam_id":76561198069537437,"connected_time":1962000000000,"state":"active","ping":82},{"user_id":100,"name":"Discovery","steam_id":76561198841844093,"connected_time":473000000000,"state":"active","ping":76},{"user_id":67,"name":"hoboholden","steam_id":76561198799370303,"connected_time":3049000000000,"state":"active","ping":84},{"user_id":97,"name":"ItsDonut","steam_id":76561198862163064,"connected_time":657000000000,"state":"active","ping":72},{"user_id":68,"name":"Jarrod","steam_id":76561198992348469,"connected_time":3022000000000,"state":"active","ping":139},{"user_id":101,"name":"Stapler","steam_id":76561198099295077,"connected_time":330000000000,"state":"active","ping":67},{"user_id":50,"name":"Scoron","steam_id":76561198062099305,"connected_time":3921000000000,"state":"active","ping":75},{"user_id":70,"name":"Shark Sandwich","steam_id":76561198025007938,"connected_time":2966000000000,"state":"active","ping":86},{"user_id":93,"name":"bomb","steam_id":76561198312179067,"connected_time":947000000000,"state":"active","ping":94},{"user_id":102,"name":"HE’S IN THE GODDAMN WALLS","steam_id":76561198363267009,"connected_time":293000000000,"state":"active","ping":96},{"user_id":103,"name":"Dimple","steam_id":76561198980324190,"connected_time":89000000000,"state":"active","ping":51},{"user_id":95,"name":"Icewallowice","steam_id":76561198362334319,"connected_time":813000000000,"state":"active","ping":81},{"user_id":76,"name":"DrStarBucksCoffee","steam_id":76561198037372470,"connected_time":2386000000000,"state":"active","ping":76},{"user_id":72,"name":"The Pepsi® Superbowl®!","steam_id":76561198080828981,"connected_time":2536000000000,"state":"active","ping":69}]},{"server_id":406,"name":"Uncletopia | Seattle | 3 | Stopwatch Beta","name_short":"sea-3","host":"sea-1.us.uncletopia.com","port":27035,"enabled":true,"region":"us-west","cc":"us","latitude":47.608013,"longitude":-122.33517,"reserved":0,"last_update":"0001-01-01T00:00:00Z","name_a2s":"Uncletopia | Seattle | 3 | Stopwatch Beta","protocol":17,"map":"cp_altitude","folder":"tf","game":"Team Fortress","app_id":440,"player_count":0,"max_players":24,"Bots":0,"server_type":"Dedicated","server_os":"Linux","password":true,"vac":true,"version":"7742253","steam_id":85568392924515217,"keywords":["cp","nocrits","nodmgspread","uncletopia"],"game_id":440,"stv_port":27036,"stv_name":"Uncletopia | Seattle | 3 | Stopwatch Beta | STV","players":null},{"server_id":17,"name":"Uncletopia | San Francisco | 1 | All Maps","name_short":"sfo-1","host":"sfo-1.us.uncletopia.com","port":27015,"enabled":true,"region":"us-west","cc":"us","latitude":37.77397,"longitude":-122.4313,"reserved":0,"last_update":"0001-01-01T00:00:00Z","name_a2s":"Uncletopia | San Francisco | 1 | All Maps","protocol":17,"map":"koth_highpass","folder":"tf","game":"Team Fortress","app_id":440,"player_count":0,"max_players":24,"Bots":0,"server_type":"Dedicated","server_os":"Linux","password":true,"vac":true,"version":"7742253","steam_id":85568392924469999,"keywords":["cp","nocrits","nodmgspread","uncletopia"],"game_id":440,"stv_port":27016,"stv_name":"Uncletopia | San Francisco | 1 | All Maps | STV","players":null},{"server_id":18,"name":"Uncletopia | San Francisco | 2 | All Maps","name_short":"sfo-2","host":"sfo-1.us.uncletopia.com","port":27025,"enabled":true,"region":"us-west","cc":"us","latitude":37.77397,"longitude":-122.4313,"reserved":0,"last_update":"0001-01-01T00:00:00Z","name_a2s":"Uncletopia | San Francisco | 2 | All Maps","protocol":17,"map":"cp_altitude","folder":"tf","game":"Team Fortress","app_id":440,"player_count":0,"max_players":24,"Bots":0,"server_type":"Dedicated","server_os":"Linux","password":true,"vac":true,"version":"7742253","steam_id":85568392924470000,"keywords":["cp","nocrits","nodmgspread","uncletopia"],"game_id":440,"stv_port":27026,"stv_name":"Uncletopia | San Francisco | 2 | All Maps | STV","players":null},{"server_id":19,"name":"Uncletopia | San Francisco | 3 | Stopwatch Beta","name_short":"sfo-3","host":"sfo-1.us.uncletopia.com","port":27035,"enabled":true,"region":"us-west","cc":"us","latitude":37.77397,"longitude":-122.4313,"reserved":0,"last_update":"0001-01-01T00:00:00Z","name_a2s":"Uncletopia | San Francisco | 3 | Stopwatch Beta","protocol":17,"map":"cp_snakewater_final1","folder":"tf","game":"Team Fortress","app_id":440,"player_count":0,"max_players":24,"Bots":0,"server_type":"Dedicated","server_os":"Linux","password":true,"vac":true,"version":"7742253","steam_id":85568392924742824,"keywords":["cp","nocrits","nodmgspread","uncletopia"],"game_id":440,"stv_port":27036,"stv_name":"Uncletopia | San Francisco | 3 | Stopwatch Beta | STV","players":null},{"server_id":20,"name":"Uncletopia | San Francisco | 4 | Community","name_short":"sfo-4","host":"sfo-1.us.uncletopia.com","port":27045,"enabled":true,"region":"us-west","cc":"us","latitude":37.77397,"longitude":-122.4313,"reserved":0,"last_update":"0001-01-01T00:00:00Z","name_a2s":"Uncletopia | San Francisco | 4 | Community","protocol":17,"map":"workshop/rd_asteroid_redux_b1.ugc2154902912","folder":"tf","game":"Team Fortress","app_id":440,"player_count":0,"max_players":24,"Bots":0,"server_type":"Dedicated","server_os":"Linux","password":true,"vac":true,"version":"7742253","steam_id":85568392924742826,"keywords":["beta","nocrits","nodmgspread","rd","uncletopia"],"game_id":440,"stv_port":27046,"stv_name":"Uncletopia | San Francisco | 4 | Community | STV","players":null},{"server_id":141,"name":"Uncletopia | Sydney | 1 | All Maps","name_short":"syd-1","host":"syd-1.au.uncletopia.com","port":27015,"enabled":true,"region":"au","cc":"au","latitude":-33.865143,"longitude":151.2099,"reserved":0,"last_update":"0001-01-01T00:00:00Z","name_a2s":"Uncletopia | Sydney | 1 | All Maps","protocol":17,"map":"pl_pier","folder":"tf","game":"Team Fortress","app_id":440,"player_count":0,"max_players":24,"Bots":0,"server_type":"Dedicated","server_os":"Linux","password":true,"vac":true,"version":"7742253","steam_id":85568392924470001,"keywords":["nocrits","nodmgspread","payload","uncletopia"],"game_id":440,"stv_port":27016,"stv_name":"Uncletopia | Sydney | 1 | All Maps | STV","players":null},{"server_id":123,"name":"Uncletopia | Sydney | 2 | All Maps","name_short":"syd-2","host":"syd-1.au.uncletopia.com","port":27025,"enabled":true,"region":"au","cc":"au","latitude":-33.865143,"longitude":151.2099,"reserved":0,"last_update":"0001-01-01T00:00:00Z","name_a2s":"Uncletopia | Sydney | 2 | All Maps","protocol":17,"map":"pl_badwater","folder":"tf","game":"Team Fortress","app_id":440,"player_count":0,"max_players":24,"Bots":0,"server_type":"Dedicated","server_os":"Linux","password":true,"vac":true,"version":"7742253","steam_id":85568392924470002,"keywords":["nocrits","nodmgspread","payload","uncletopia"],"game_id":440,"stv_port":27026,"stv_name":"Uncletopia | Sydney | 2 | All Maps | STV","players":null},{"server_id":395,"name":"Uncletopia | Sydney | 3 | All Maps","name_short":"syd-3","host":"syd-1.au.uncletopia.com","port":27035,"enabled":true,"region":"au","cc":"au","latitude":-33.865143,"longitude":151.2099,"reserved":0,"last_update":"0001-01-01T00:00:00Z","name_a2s":"Uncletopia | Sydney | 3 | All Maps","protocol":17,"map":"koth_viaduct","folder":"tf","game":"Team Fortress","app_id":440,"player_count":0,"max_players":24,"Bots":0,"server_type":"Dedicated","server_os":"Linux","password":true,"vac":true,"version":"7742253","steam_id":85568392925194467,"keywords":["cp","nocrits","nodmgspread","uncletopia"],"game_id":440,"stv_port":27036,"stv_name":"Uncletopia | Sydney | 3 | All Maps | STV","players":null},{"server_id":396,"name":"Uncletopia | Sydney | 4 | All Maps","name_short":"syd-4","host":"syd-1.au.uncletopia.com","port":27045,"enabled":true,"region":"au","cc":"au","latitude":-33.865143,"longitude":151.2099,"reserved":0,"last_update":"0001-01-01T00:00:00Z","name_a2s":"Uncletopia | Sydney | 4 | All Maps","protocol":17,"map":"pl_frontier_final","folder":"tf","game":"Team Fortress","app_id":440,"player_count":0,"max_players":24,"Bots":0,"server_type":"Dedicated","server_os":"Linux","password":true,"vac":true,"version":"7742253","steam_id":85568392925397958,"keywords":["nocrits","nodmgspread","payload","uncletopia"],"game_id":440,"stv_port":27046,"stv_name":"Uncletopia | Sydney | 4 | All Maps | STV","players":null},{"server_id":58,"name":"Uncletopia | Sydney | 5 | Stopwatch Beta","name_short":"syd-5","host":"syd-1.au.uncletopia.com","port":27055,"enabled":true,"region":"au","cc":"au","latitude":-33.865143,"longitude":151.2099,"reserved":0,"last_update":"0001-01-01T00:00:00Z","name_a2s":"Uncletopia | Sydney | 5 | Stopwatch Beta","protocol":17,"map":"cp_sunshine","folder":"tf","game":"Team Fortress","app_id":440,"player_count":0,"max_players":24,"Bots":0,"server_type":"Dedicated","server_os":"Linux","password":true,"vac":true,"version":"7742253","steam_id":85568392925397959,"keywords":["cp","nocrits","nodmgspread","uncletopia"],"game_id":440,"stv_port":27056,"stv_name":"Uncletopia | Sydney | 5 | Stopwatch Beta | STV","players":null},{"server_id":59,"name":"Uncletopia | Sydney | 6 | Community","name_short":"syd-6","host":"syd-1.au.uncletopia.com","port":27065,"enabled":true,"region":"au","cc":"au","latitude":-33.865143,"longitude":151.2099,"reserved":0,"last_update":"0001-01-01T00:00:00Z","name_a2s":"Uncletopia | Sydney | 6 | Community","protocol":17,"map":"cp_dustbowl","folder":"tf","game":"Team Fortress","app_id":440,"player_count":0,"max_players":24,"Bots":0,"server_type":"Dedicated","server_os":"Linux","password":true,"vac":true,"version":"7742253","steam_id":85568392925397960,"keywords":["cp","nocrits","nodmgspread","uncletopia"],"game_id":440,"stv_port":27066,"stv_name":"Uncletopia | Sydney | 6 | Community | STV","players":null},{"server_id":49,"name":"Uncletopia | Warsaw | 1 | All Maps","name_short":"waw-1","host":"waw-1.pl.uncletopia.com","port":27015,"enabled":true,"region":"eu","cc":"pl","latitude":52.2297,"longitude":21.017532,"reserved":0,"last_update":"0001-01-01T00:00:00Z","name_a2s":"","protocol":0,"map":"","folder":"","game":"","app_id":0,"player_count":0,"max_players":0,"Bots":0,"server_type":"","server_os":"","password":false,"vac":false,"version":"","steam_id":0,"keywords":null,"game_id":0,"stv_port":0,"stv_name":"","players":null},{"server_id":50,"name":"Uncletopia | Warsaw | 2 | All Maps","name_short":"waw-2","host":"waw-1.pl.uncletopia.com","port":27025,"enabled":true,"region":"eu","cc":"pl","latitude":52.2297,"longitude":21.017532,"reserved":0,"last_update":"0001-01-01T00:00:00Z","name_a2s":"Uncletopia | Warsaw | 2 | All Maps","protocol":17,"map":"pl_pier","folder":"tf","game":"Team Fortress","app_id":440,"player_count":23,"max_players":24,"Bots":0,"server_type":"Dedicated","server_os":"Linux","password":true,"vac":true,"version":"7742253","steam_id":85568392925397851,"keywords":["nocrits","nodmgspread","payload","uncletopia"],"game_id":440,"stv_port":27026,"stv_name":"Uncletopia | Warsaw | 2 | All Maps | STV","players":[{"user_id":194,"name":"Alan_nozek-PL (-:","steam_id":76561199182106607,"connected_time":1610000000000,"state":"active","ping":55},{"user_id":210,"name":"ChickyCoop","steam_id":76561199072983488,"connected_time":320000000000,"state":"active","ping":61},{"user_id":208,"name":"Pinkchup","steam_id":76561198106802803,"connected_time":581000000000,"state":"active","ping":62},{"user_id":202,"name":"man juice","steam_id":76561198126524735,"connected_time":689000000000,"state":"active","ping":46},{"user_id":192,"name":"Minimi","steam_id":76561198873850443,"connected_time":1819000000000,"state":"active","ping":70},{"user_id":206,"name":"Walter Griffin","steam_id":76561199415989636,"connected_time":590000000000,"state":"active","ping":112},{"user_id":207,"name":"kreeekz","steam_id":76561198014431602,"connected_time":585000000000,"state":"active","ping":84},{"user_id":175,"name":"🅼🅰🆅🅴🆁🅸🅲\ufffd\ufffd\ufffd","steam_id":76561198302023920,"connected_time":3017000000000,"state":"active","ping":76},{"user_id":201,"name":"He/Him","steam_id":76561198126398022,"connected_time":988000000000,"state":"active","ping":48},{"user_id":189,"name":"Nel","steam_id":76561198335891676,"connected_time":2356000000000,"state":"active","ping":121},{"user_id":212,"name":"Drsoldier","steam_id":76561198165504766,"connected_time":147000000000,"state":"active","ping":84},{"user_id":167,"name":"Zonts","steam_id":76561198850176432,"connected_time":3667000000000,"state":"active","ping":59},{"user_id":213,"name":"Gary the plumber","steam_id":76561198345249841,"connected_time":143000000000,"state":"active","ping":76},{"user_id":149,"name":"Whirlwind","steam_id":76561198942024930,"connected_time":4355000000000,"state":"active","ping":103},{"user_id":200,"name":"xenia","steam_id":76561198062107879,"connected_time":1243000000000,"state":"active","ping":55},{"user_id":158,"name":"d u k k i","steam_id":76561198071807437,"connected_time":3946000000000,"state":"active","ping":63},{"user_id":214,"name":"Xayir","steam_id":76561198079566786,"connected_time":128000000000,"state":"active","ping":44},{"user_id":209,"name":"lolp.","steam_id":76561199197101468,"connected_time":562000000000,"state":"active","ping":70},{"user_id":178,"name":"n-ski","steam_id":76561198020550849,"connected_time":2845000000000,"state":"active","ping":98},{"user_id":179,"name":"Dunya","steam_id":76561198041371314,"connected_time":2829000000000,"state":"active","ping":103},{"user_id":180,"name":"PLUTO","steam_id":76561198312436128,"connected_time":2828000000000,"state":"active","ping":100},{"user_id":191,"name":"koziol","steam_id":76561198014716232,"connected_time":2149000000000,"state":"active","ping":44},{"user_id":203,"name":"Eyae","steam_id":76561199167361456,"connected_time":688000000000,"state":"active","ping":118}]},{"server_id":51,"name":"Uncletopia | Warsaw | 3 | All Maps","name_short":"waw-3","host":"waw-1.pl.uncletopia.com","port":27035,"enabled":true,"region":"eu","cc":"pl","latitude":52.2297,"longitude":21.017532,"reserved":0,"last_update":"0001-01-01T00:00:00Z","name_a2s":"Uncletopia | Warsaw | 3 | All Maps","protocol":17,"map":"ctf_snowfall_final","folder":"tf","game":"Team Fortress","app_id":440,"player_count":0,"max_players":24,"Bots":0,"server_type":"Dedicated","server_os":"Linux","password":true,"vac":true,"version":"7742253","steam_id":85568392925397852,"keywords":["ctf","nocrits","nodmgspread","uncletopia"],"game_id":440,"stv_port":27036,"stv_name":"Uncletopia | Warsaw | 3 | All Maps | STV","players":null},{"server_id":52,"name":"Uncletopia | Warsaw | 4 | All Maps","name_short":"waw-4","host":"waw-1.pl.uncletopia.com","port":27045,"enabled":true,"region":"eu","cc":"pl","latitude":52.2297,"longitude":21.017532,"reserved":0,"last_update":"0001-01-01T00:00:00Z","name_a2s":"Uncletopia | Warsaw | 4 | All Maps","protocol":17,"map":"pl_borneo","folder":"tf","game":"Team Fortress","app_id":440,"player_count":0,"max_players":24,"Bots":0,"server_type":"Dedicated","server_os":"Linux","password":true,"vac":true,"version":"7742253","steam_id":85568392925397853,"keywords":["nocrits","nodmgspread","payload","uncletopia"],"game_id":440,"stv_port":27046,"stv_name":"Uncletopia | Warsaw | 4 | All Maps | STV","players":null},{"server_id":53,"name":"Uncletopia | Warsaw | 5 | Stopwatch Beta","name_short":"waw-5","host":"waw-1.pl.uncletopia.com","port":27055,"enabled":true,"region":"eu","cc":"pl","latitude":52.2297,"longitude":21.017532,"reserved":0,"last_update":"0001-01-01T00:00:00Z","name_a2s":"Uncletopia | Warsaw | 5 | Stopwatch Beta","protocol":17,"map":"workshop/koth_ramjam_rc1.ugc459778887","folder":"tf","game":"Team Fortress","app_id":440,"player_count":0,"max_players":24,"Bots":0,"server_type":"Dedicated","server_os":"Linux","password":true,"vac":true,"version":"7742253","steam_id":85568392925397854,"keywords":["cp","nocrits","nodmgspread","uncletopia"],"game_id":440,"stv_port":27056,"stv_name":"Uncletopia | Warsaw | 5 | Stopwatch Beta | STV","players":null},{"server_id":54,"name":"Uncletopia | Warsaw | 6 | Community","name_short":"waw-6","host":"waw-1.pl.uncletopia.com","port":27065,"enabled":true,"region":"eu","cc":"pl","latitude":52.2297,"longitude":21.017532,"reserved":0,"last_update":"0001-01-01T00:00:00Z","name_a2s":"Uncletopia | Warsaw | 6 | Community","protocol":17,"map":"koth_highpass","folder":"tf","game":"Team Fortress","app_id":440,"player_count":0,"max_players":24,"Bots":0,"server_type":"Dedicated","server_os":"Linux","password":true,"vac":true,"version":"7742253","steam_id":85568392925397856,"keywords":["cp","nocrits","nodmgspread","uncletopia"],"game_id":440,"stv_port":27066,"stv_name":"Uncletopia | Warsaw | 6 | Community | STV","players":null}]}