{"status":true,"message":"","result":[{"server_id":9,"name":"Uncletopia | Atlanta | 1 | All Maps","name_short":"atl-1","host":"atl-1.us.uncletopia.com","port":27015,"enabled":true,"region":"us-east","cc":"us","latitude":33.753746,"longitude":-84.38633,"reserved":0,"last_update":"0001-01-01T00:00:00Z","name_a2s":"Uncletopia | Atlanta | 1 | All Maps","protocol":17,"map":"pl_swiftwater_final1","folder":"tf","game":"Team Fortress","app_id":440,"player_count":0,"max_players":24,"Bots":0,"server_type":"Dedicated","server_os":"Linux","password":true,"vac":true,"version":"7932396","steam_id":85568392924469982,"keywords":["nocrits","nodmgspread","payload","uncletopia"],"game_id":440,"stv_port":27016,"stv_name":"Uncletopia | Atlanta | 1 | All Maps | STV","players":null},{"server_id":104,"name":"Uncletopia | Atlanta | 2 | All Maps","name_short":"atl-2","host":"atl-1.us.uncletopia.com","port":27025,"enabled":true,"region":"us-east","cc":"us","latitude":33.753746,"longitude":-84.38633,"reserved":0,"last_update":"0001-01-01T00:00:00Z","name_a2s":"Uncletopia | Atlanta | 2 | All Maps","protocol":17,"map":"cp_dustbowl","folder":"tf","game":"Team Fortress","app_id":440,"player_count":10,"max_players":24,"Bots":0,"server_type":"Dedicated","server_os":"Linux","password":true,"vac":true,"version":"7932396","steam_id":85568392924469983,"keywords":["cp","nocrits","nodmgspread","uncletopia"],"game_id":440,"stv_port":27026,"stv_name":"Uncletopia | Atlanta | 2 | All Maps | STV","players":[{"user_id":718,"name":"26O3 極光面紗","steam_id":76561198964074985,"connected_time":83000000000,"state":"active","ping":127},{"user_id":713,"name":"air coming out the back of a ps","steam_id":76561198145264978,"connected_time":250000000000,"state":"active","ping":64},{"user_id":717,"name":"inax","steam_id":76561198398677744,"connected_time":87000000000,"state":"active","ping":98},{"user_id":588,"name":"Holp","steam_id":76561199019186848,"connected_time":3882000000000,"state":"active","ping":104},{"user_id":719,"name":"Glar","steam_id":76561198341907150,"connected_time":36000000000,"state":"active","ping":109},{"user_id":720,"name":"replace random crits with smirk","steam_id":76561198268348324,"connected_time":25000000000,"state":"active","ping":94},{"user_id":708,"name":"Driskull","steam_id":76561198055213549,"connected_time":448000000000,"state":"active","ping":72},{"user_id":706,"name":"dankalopacus","steam_id":76561198099254868,"connected_time":537000000000,"state":"active","ping":107},{"user_id":709,"name":"Iron Argus","steam_id":76561198181088245,"connected_time":423000000000,"state":"active","ping":95},{"user_id":679,"name":"tina hoesli","steam_id":76561198156333207,"connected_time":1587000000000,"state":"active","ping":113}]},{"server_id":400,"name":"Uncletopia | Atlanta | 3 | Community","name_short":"atl-3","host":"atl-1.us.uncletopia.com","port":27035,"enabled":true,"region":"us-east","cc":"us","latitude":33.753746,"longitude":-84.38633,"reserved":0,"last_update":"0001-01-01T00:00:00Z","name_a2s":"Uncletopia | Atlanta | 3 | Community","protocol":17,"map":"workshop/koth_trenchfoot_b1a.ugc731436616","folder":"tf","game":"Team Fortress","app_id":440,"player_count":0,"max_players":24,"Bots":0,"server_type":"Dedicated","server_os":"Linux","password":true,"vac":true,"version":"7932396","steam_id":85568392924515187,"keywords":["cp","nocrits","nodmgspread","uncletopia"],"game_id":440,"stv_port":27036,"stv_name":"Uncletopia | Atlanta | 3 | Community | STV","players":null},{"server_id":401,"name":"Uncletopia | Atlanta | 4 | No Payload","name_short":"atl-4","host":"atl-1.us.uncletopia.com","port":27045,"enabled":true,"region":"us-east","cc":"us","latitude":33.753746,"longitude":-84.38633,"reserved":0,"last_update":"0001-01-01T00:00:00Z","name_a2s":"","protocol":0,"map":"","folder":"","game":"","app_id":0,"player_count":0,"max_players":0,"Bots":0,"server_type":"","server_os":"","password":false,"vac":false,"version":"","steam_id":0,"keywords":null,"game_id":0,"stv_port":0,"stv_name":"","players":null},{"server_id":2,"name":"Uncletopia | Chicago | 1 | All Maps","name_short":"chi-1","host":"chi-1.us.uncletopia.com","port":27015,"enabled":true,"region":"us-central","cc":"us","latitude":41.881832,"longitude":-87.62318,"reserved":0,"last_update":"0001-01-01T00:00:00Z","name_a2s":"Uncletopia | Chicago | 1 | All Maps","protocol":17,"map":"pl_barnblitz","folder":"tf","game":"Team Fortress","app_id":440,"player_count":24,"max_players":24,"Bots":0,"server_type":"Dedicated","server_os":"Linux","password":true,"vac":true,"version":"7932396","steam_id":85568392924469984,"keywords":["nocrits","nodmgspread","payload","uncletopia"],"game_id":440,"stv_port":27016,"stv_name":"Uncletopia | Chicago | 1 | All Maps | STV","players":[{"user_id":489,"name":"bean d eafs","steam_id":76561199481157814,"connected_time":702000000000,"state":"active","ping":71},{"user_id":349,"name":"PigPig","steam_id":76561198068190834,"connected_time":7580000000000,"state":"active","ping":100},{"user_id":492,"name":"kite","steam_id":76561198346516392,"connected_time":99000000000,"state":"active","ping":69},{"user_id":346,"name":"Cyclops_672","steam_id":76561198080169497,"connected_time":7662000000000,"state":"active","ping":47},{"user_id":487,"name":"Joe Family guy","steam_id":76561198065327106,"connected_time":784000000000,"state":"active","ping":73},{"user_id":359,"name":"primordialheath","steam_id":76561199386942638,"connected_time":7126000000000,"state":"active","ping":57},{"user_id":476,"name":"your neighbour's garden gnome","steam_id":76561199037050183,"connected_time":1415000000000,"state":"active","ping":90},{"user_id":482,"name":"LVL 4 Dispenser Gaming","steam_id":76561198044244547,"connected_time":852000000000,"state":"active","ping":78},{"user_id":488,"name":"King Sans","steam_id":76561198294198517,"connected_time":764000000000,"state":"active","ping":54},{"user_id":491,"name":"blog","steam_id":76561198031324300,"connected_time":182000000000,"state":"active","ping":91},{"user_id":474,"name":"Maverick","steam_id":76561198322829814,"connected_time":1700000000000,"state":"active","ping":77},{"user_id":493,"name":"gannicus","steam_id":76561198257611352,"connected_time":55000000000,"state":"active","ping":118},{"user_id":455,"name":"swam","steam_id":76561198412916626,"connected_time":2953000000000,"state":"active","ping":71},{"user_id":445,"name":"DJ Chalice","steam_id":76561197974872458,"connected_time":3264000000000,"state":"active","ping":75},{"user_id":460,"name":"ZeeKThe3rd","steam_id":76561198190156546,"connected_time":2848000000000,"state":"active","ping":92},{"user_id":368,"name":"Astoriae!","steam_id":76561199090168858,"connected_time":6028000000000,"state":"active","ping":66},{"user_id":481,"name":"Gnarly Shark Bite","steam_id":76561198004058342,"connected_time":1013000000000,"state":"active","ping":74},{"user_id":465,"name":"DrGrimm (She/Her)","steam_id":76561199371072426,"connected_time":2539000000000,"state":"active","ping":80},{"user_id":340,"name":"YoursTruely","steam_id":76561198072129131,"connected_time":7809000000000,"state":"active","ping":74},{"user_id":338,"name":"Necronoxide","steam_id":76561197997856321,"connected_time":7886000000000,"state":"active","ping":86},{"user_id":421,"name":"cinamin.kake","steam_id":76561199003171233,"connected_time":3769000000000,"state":"active","ping":73},{"user_id":473,"name":"chamber valorant","steam_id":76561198341537452,"connected_time":1745000000000,"state":"active","ping":75},{"user_id":440,"name":"Voyager","steam_id":76561199128786637,"connected_time":3401000000000,"state":"active","ping":96},{"user_id":475,"name":"GRONT","steam_id":76561198040464533,"connected_time":1422000000000,"state":"active","ping":69}]},{"server_id":106,"name":"Uncletopia | Chicago | 2 | All Maps","name_short":"chi-2","host":"chi-1.us.uncletopia.com","port":27025,"enabled":true,"region":"us-central","cc":"us","latitude":41.881832,"longitude":-87.62318,"reserved":0,"last_update":"0001-01-01T00:00:00Z","name_a2s":"Uncletopia | Chicago | 2 | All Maps","protocol":17,"map":"cp_5gorge","folder":"tf","game":"Team Fortress","app_id":440,"player_count":24,"max_players":24,"Bots":0,"server_type":"Dedicated","server_os":"Linux","password":true,"vac":true,"version":"7932396","steam_id":85568392924469985,"keywords":["cp","nocrits","nodmgspread","uncletopia"],"game_id":440,"stv_port":27026,"stv_name":"Uncletopia | Chicago | 2 | All Maps | STV","players":[{"user_id":389,"name":"Mango Fanta","steam_id":76561198828945468,"connected_time":715000000000,"state":"active","ping":39},{"user_id":390,"name":"Raptortastic","steam_id":76561198105613110,"connected_time":709000000000,"state":"active","ping":46},{"user_id":391,"name":"scapegoat","steam_id":76561198188722751,"connected_time":705000000000,"state":"active","ping":97},{"user_id":333,"name":"Butters495","steam_id":76561197998689042,"connected_time":5250000000000,"state":"active","ping":89},{"user_id":377,"name":"gay sex (enjoyer of)","steam_id":76561198250068972,"connected_time":1761000000000,"state":"active","ping":96},{"user_id":371,"name":"Candy Sparkles","steam_id":76561198126871264,"connected_time":2214000000000,"state":"active","ping":85},{"user_id":392,"name":"mel","steam_id":76561198215559840,"connected_time":679000000000,"state":"active","ping":60},{"user_id":404,"name":"slimeguy76","steam_id":76561198169513712,"connected_time":131000000000,"state":"active","ping":71},{"user_id":383,"name":"Slazaa","steam_id":76561197993252446,"connected_time":1353000000000,"state":"active","ping":173},{"user_id":369,"name":"Queen Frau the Round","steam_id":76561197999942134,"connected_time":2454000000000,"state":"active","ping":46},{"user_id":394,"name":"The White Mamba","steam_id":76561198277301863,"connected_time":656000000000,"state":"active","ping":81},{"user_id":364,"name":"Rookie","steam_id":76561198191763447,"connected_time":3539000000000,"state":"active","ping":68},{"user_id":395,"name":"Santamen","steam_id":76561198119478199,"connected_time":630000000000,"state":"active","ping":56},{"user_id":385,"name":"AlcoholicDad454","steam_id":76561198157414556,"connected_time":1119000000000,"state":"active","ping":84},{"user_id":357,"name":"Skipz","steam_id":76561198425244550,"connected_time":4187000000000,"state":"active","ping":83},{"user_id":396,"name":"Cmonsta625","steam_id":76561199039277599,"connected_time":610000000000,"state":"active","ping":84},{"user_id":402,"name":"bear","steam_id":76561198301165813,"connected_time":320000000000,"state":"active","ping":70},{"user_id":401,"name":"Baconiumo","steam_id":76561198966160534,"connected_time":402000000000,"state":"active","ping":63},{"user_id":399,"name":"Lysander Crow","steam_id":76561198214659356,"connected_time":542000000000,"state":"active","ping":112},{"user_id":403,"name":"Nite","steam_id":76561199014777092,"connected_time":316000000000,"state":"active","ping":55},{"user_id":388,"name":"vulcanic09","steam_id":76561199466903667,"connected_time":882000000000,"state":"active","ping":87},{"user_id":380,"name":"ray (the based god)","steam_id":76561198311984941,"connected_time":1611000000000,"state":"active","ping":61},{"user_id":400,"name":"Sugahu17S","steam_id":76561198799403828,"connected_time":539000000000,"state":"active","ping":51},{"user_id":376,"name":"Luca!","steam_id":76561198137880777,"connected_time":1998000000000,"state":"active","ping":97}]},{"server_id":402,"name":"Uncletopia | Chicago | 3 | All Maps","name_short":"chi-3","host":"chi-1.us.uncletopia.com","port":27035,"enabled":true,"region":"us-central","cc":"us","latitude":41.881832,"longitude":-87.62318,"reserved":0,"last_update":"0001-01-01T00:00:00Z","name_a2s":"Uncletopia | Chicago | 3 | All Maps","protocol":17,"map":"cp_dustbowl","folder":"tf","game":"Team Fortress","app_id":440,"player_count":0,"max_players":24,"Bots":0,"server_type":"Dedicated","server_os":"Linux","password":true,"vac":true,"version":"7932396","steam_id":85568392924515191,"keywords":["cp","nocrits","nodmgspread","uncletopia"],"game_id":440,"stv_port":27036,"stv_name":"Uncletopia | Chicago | 3 | All Maps | STV","players":null},{"server_id":403,"name":"Uncletopia | Chicago | 4 | All Maps","name_short":"chi-4","host":"chi-1.us.uncletopia.com","port":27045,"enabled":true,"region":"us-central","cc":"us","latitude":41.881832,"longitude":-87.62318,"reserved":0,"last_update":"0001-01-01T00:00:00Z","name_a2s":"Uncletopia | Chicago | 4 | All Maps","protocol":17,"map":"cp_steel","folder":"tf","game":"Team Fortress","app_id":440,"player_count":24,"max_players":24,"Bots":0,"server_type":"Dedicated","server_os":"Linux","password":true,"vac":true,"version":"7932396","steam_id":85568392924515193,"keywords":["cp","nocrits","nodmgspread","uncletopia"],"game_id":440,"stv_port":27046,"stv_name":"Uncletopia | Chicago | 4 | All Maps | STV","players":[{"user_id":7,"name":"doamgeo468","steam_id":76561199485287045,"connected_time":2586000000000,"state":"active","ping":67},{"user_id":40,"name":"lexi","steam_id":76561198176299759,"connected_time":534000000000,"state":"active","ping":94},{"user_id":48,"name":"The World's Softest Sandwich","steam_id":76561198015577707,"connected_time":64000000000,"state":"active","ping":79},{"user_id":28,"name":"swan","steam_id":76561198012569200,"connected_time":1216000000000,"state":"active","ping":69},{"user_id":11,"name":"MonkeyNobody","steam_id":76561199451266605,"connected_time":1529000000000,"state":"active","ping":111},{"user_id":42,"name":"stagefatality","steam_id":76561198006838401,"connected_time":380000000000,"state":"active","ping":75},{"user_id":13,"name":"Robin","steam_id":76561198121165149,"connected_time":1513000000000,"state":"active","ping":42},{"user_id":14,"name":"AutoCon17","steam_id":76561198209977473,"connected_time":1506000000000,"state":"active","ping":38},{"user_id":43,"name":"Penguinammo","steam_id":76561198165774711,"connected_time":357000000000,"state":"active","ping":69},{"user_id":16,"name":"IlMostro","steam_id":76561197970514922,"connected_time":1482000000000,"state":"active","ping":97},{"user_id":22,"name":"PileofPolygons","steam_id":76561199321343460,"connected_time":1357000000000,"state":"active","ping":69},{"user_id":23,"name":"Shattered Glass","steam_id":76561198116835391,"connected_time":1355000000000,"state":"active","ping":85},{"user_id":41,"name":"cpg","steam_id":76561198853515541,"connected_time":427000000000,"state":"active","ping":93},{"user_id":20,"name":"NikoOS (NO SOUND)","steam_id":76561198180020521,"connected_time":1375000000000,"state":"active","ping":109},{"user_id":26,"name":"Fresh Lychee","steam_id":76561198045399559,"connected_time":1311000000000,"state":"active","ping":57},{"user_id":49,"name":"Littlelord062","steam_id":76561199093577889,"connected_time":10000000000,"state":"spawning","ping":305},{"user_id":34,"name":"eat Pant","steam_id":76561197974965536,"connected_time":1055000000000,"state":"active","ping":59},{"user_id":29,"name":"William Wallace","steam_id":76561199343316814,"connected_time":1209000000000,"state":"active","ping":73},{"user_id":45,"name":"Tlaloc","steam_id":76561198375215983,"connected_time":291000000000,"state":"active","ping":120},{"user_id":32,"name":"The Elder Hobo","steam_id":76561198039357659,"connected_time":1082000000000,"state":"active","ping":73},{"user_id":46,"name":"samantha","steam_id":76561198049258493,"connected_time":278000000000,"state":"active","ping":120},{"user_id":35,"name":"Cocksneed Fartin","steam_id":76561198126675787,"connected_time":975000000000,"state":"active","ping":76},{"user_id":36,"name":"Your Pal, Vegeta","steam_id":76561198064916816,"connected_time":945000000000,"state":"active","ping":74},{"user_id":37,"name":"steakfarmasian","steam_id":76561198212754036,"connected_time":944000000000,"state":"active","ping":56}]},{"server_id":36,"name":"Uncletopia | Chicago | 5 | All Maps","name_short":"chi-5","host":"chi-2.us.uncletopia.com","port":27015,"enabled":true,"region":"us-central","cc":"us","latitude":41.881832,"longitude":-87.62318,"reserved":0,"last_update":"0001-01-01T00:00:00Z","name_a2s":"Uncletopia | Chicago | 5 | All Maps","protocol":17,"map":"pl_upward","folder":"tf","game":"Team Fortress","app_id":440,"player_count":24,"max_players":24,"Bots":0,"server_type":"Dedicated","server_os":"Linux","password":true,"vac":true,"version":"7932396","steam_id":85568392924866362,"keywords":["nocrits","nodmgspread","payload","uncletopia"],"game_id":440,"stv_port":27016,"stv_name":"Uncletopia | Chicago | 5 | All Maps | STV","players":[{"user_id":42,"name":"Atlas","steam_id":76561198127975050,"connected_time":4897000000000,"state":"active","ping":70},{"user_id":80,"name":"imng","steam_id":76561198014988031,"connected_time":1834000000000,"state":"active","ping":75},{"user_id":65,"name":"hum","steam_id":76561198085457599,"connected_time":3398000000000,"state":"active","ping":77},{"user_id":82,"name":"Cold shoulder","steam_id":76561198453824178,"connected_time":1143000000000,"state":"active","ping":124},{"user_id":54,"name":"get scrongled, idiot","steam_id":76561198115874625,"connected_time":4496000000000,"state":"active","ping":65},{"user_id":86,"name":"Muscle Man","steam_id":76561198079490586,"connected_time":493000000000,"state":"active","ping":60},{"user_id":87,"name":"Sturmwolken [1312]","steam_id":76561198260905784,"connected_time":482000000000,"state":"active","ping":64},{"user_id":93,"name":"[DATS➡] Sugar Meowth","steam_id":76561197995251793,"connected_time":318000000000,"state":"active","ping":96},{"user_id":88,"name":"El Güey","steam_id":76561197970450546,"connected_time":460000000000,"state":"active","ping":114},{"user_id":89,"name":"caberknight tf2  (f2p-ish)","steam_id":76561199273882768,"connected_time":451000000000,"state":"active","ping":64},{"user_id":85,"name":"viego","steam_id":76561198273568117,"connected_time":946000000000,"state":"active","ping":60},{"user_id":100,"name":"avant","steam_id":76561198104921055,"connected_time":62000000000,"state":"active","ping":85},{"user_id":91,"name":"ビーナー","steam_id":76561199196918355,"connected_time":432000000000,"state":"active","ping":46},{"user_id":92,"name":"Float","steam_id":76561197990405845,"connected_time":428000000000,"state":"active","ping":101},{"user_id":95,"name":"gummygeek","steam_id":76561198244543486,"connected_time":272000000000,"state":"active","ping":110},{"user_id":96,"name":"Cipherlock | YT","steam_id":76561198075994493,"connected_time":263000000000,"state":"active","ping":61},{"user_id":97,"name":"Kally™","steam_id":76561198112369159,"connected_time":260000000000,"state":"active","ping":69},{"user_id":98,"name":"♥ kiss me! ♥","steam_id":76561198014557455,"connected_time":200000000000,"state":"active","ping":60},{"user_id":99,"name":"dak","steam_id":76561198076596506,"connected_time":102000000000,"state":"active","ping":64},{"user_id":75,"name":"zl","steam_id":76561198374406575,"connected_time":2250000000000,"state":"active","ping":119},{"user_id":76,"name":"Ozwald","steam_id":76561198125241562,"connected_time":2137000000000,"state":"active","ping":59},{"user_id":83,"name":"Stranger in a Strange Land","steam_id":76561198049843671,"connected_time":1030000000000,"state":"active","ping":68},{"user_id":78,"name":"madei","steam_id":76561198164460801,"connected_time":1875000000000,"state":"active","ping":75},{"user_id":79,"name":"5mech","steam_id":76561198979167520,"connected_time":1874000000000,"state":"active","ping":52}]},{"server_id":37,"name":"Uncletopia | Chicago | 6 | All Maps","name_short":"chi-6","host":"chi-2.us.uncletopia.com","port":27025,"enabled":true,"region":"us-central","cc":"us","latitude":41.881832,"longitude":-87.62318,"reserved":0,"last_update":"0001-01-01T00:00:00Z","name_a2s":"Uncletopia | Chicago | 6 | All Maps","protocol":17,"map":"koth_cascade","folder":"tf","game":"Team Fortress","app_id":440,"player_count":19,"max_players":24,"Bots":0,"server_type":"Dedicated","server_os":"Linux","password":true,"vac":true,"version":"7932396","steam_id":85568392924866363,"keywords":["cp","nocrits","nodmgspread","uncletopia"],"game_id":440,"stv_port":27026,"stv_name":"Uncletopia | Chicago | 6 | All Maps | STV","players":[{"user_id":157,"name":"A Trigger Happy Chipmunk","steam_id":76561198013608736,"connected_time":3531000000000,"state":"active","ping":42},{"user_id":182,"name":"in tempus withdrawal","steam_id":76561199001307670,"connected_time":1090000000000,"state":"active","ping":104},{"user_id":185,"name":"Nelson CSBRO","steam_id":76561198850327678,"connected_time":754000000000,"state":"active","ping":96},{"user_id":186,"name":"Robert","steam_id":76561198133200895,"connected_time":712000000000,"state":"active","ping":60},{"user_id":173,"name":"Butter","steam_id":76561199010582245,"connected_time":1425000000000,"state":"active","ping":72},{"user_id":149,"name":"flootsmcdoots","steam_id":76561198124744765,"connected_time":4027000000000,"state":"active","ping":68},{"user_id":158,"name":"Portal2Player","steam_id":76561198062870114,"connected_time":3252000000000,"state":"active","ping":90},{"user_id":170,"name":"t.tv/ibbKitty∑:3","steam_id":76561198110858518,"connected_time":1517000000000,"state":"active","ping":50},{"user_id":193,"name":"GoldtoothFour","steam_id":76561198055529332,"connected_time":52000000000,"state":"active","ping":53},{"user_id":125,"name":"C Papi","steam_id":76561198027779564,"connected_time":4695000000000,"state":"active","ping":59},{"user_id":192,"name":"Nephi","steam_id":76561198031525122,"connected_time":101000000000,"state":"active","ping":105},{"user_id":191,"name":"Goth Spy Boyfriend","steam_id":76561198104086771,"connected_time":156000000000,"state":"active","ping":98},{"user_id":183,"name":"twizted","steam_id":76561197960407274,"connected_time":1090000000000,"state":"active","ping":86},{"user_id":115,"name":"Zen56","steam_id":76561198074554894,"connected_time":5887000000000,"state":"active","ping":90},{"user_id":184,"name":"KY yourself","steam_id":76561198354622099,"connected_time":820000000000,"state":"active","ping":74},{"user_id":122,"name":"lukas","steam_id":76561198172454407,"connected_time":5430000000000,"state":"active","ping":75},{"user_id":159,"name":"Nowa","steam_id":76561198377567081,"connected_time":3252000000000,"state":"active","ping":43},{"user_id":190,"name":"deez ratz","steam_id":76561198864572366,"connected_time":533000000000,"state":"active","ping":90},{"user_id":65,"name":"daemon","steam_id":76561198001541433,"connected_time":8397000000000,"state":"active","ping":55}]},{"server_id":38,"name":"Uncletopia | Chicago | 7 | Stopwatch Beta","name_short":"chi-7","host":"chi-2.us.uncletopia.com","port":27035,"enabled":true,"region":"us-central","cc":"us","latitude":41.881832,"longitude":-87.62318,"reserved":0,"last_update":"0001-01-01T00:00:00Z","name_a2s":"Uncletopia | Chicago | 7 | Stopwatch Beta","protocol":17,"map":"pl_borneo","folder":"tf","game":"Team Fortress","app_id":440,"player_count":0,"max_players":24,"Bots":0,"server_type":"Dedicated","server_os":"Linux","password":true,"vac":true,"version":"7932396","steam_id":85568392924866364,"keywords":["nocrits","nodmgspread","payload","uncletopia"],"game_id":440,"stv_port":27036,"stv_name":"Uncletopia | Chicago | 7 | Stopwatch Beta | STV","players":null},{"server_id":39,"name":"Uncletopia | Chicago | 8 | Community","name_short":"chi-8","host":"chi-2.us.uncletopia.com","port":27045,"enabled":true,"region":"us-central","cc":"us","latitude":41.881832,"longitude":-87.62318,"reserved":0,"last_update":"0001-01-01T00:00:00Z","name_a2s":"Uncletopia | Chicago | 8 | Community","protocol":17,"map":"workshop/koth_product_final.ugc454272353","folder":"tf","game":"Team Fortress","app_id":440,"player_count":23,"max_players":24,"Bots":0,"server_type":"Dedicated","server_os":"Linux","password":true,"vac":true,"version":"7932396","steam_id":85568392924866365,"keywords":["cp","nocrits","nodmgspread","uncletopia"],"game_id":440,"stv_port":27046,"stv_name":"Uncletopia | Chicago | 8 | Community | STV","players":[{"user_id":249,"name":"Epifiny","steam_id":76561198027958086,"connected_time":3000000000,"state":"spawning","ping":64},{"user_id":243,"name":"gorf?","steam_id":76561198142286417,"connected_time":256000000000,"state":"active","ping":57},{"user_id":202,"name":"WesyUWU (The mini crit pig)","steam_id":76561198069188177,"connected_time":2398000000000,"state":"active","ping":74},{"user_id":244,"name":"Nyx","steam_id":76561198100929724,"connected_time":255000000000,"state":"active","ping":96},{"user_id":207,"name":"HUMBY","steam_id":76561198065045867,"connected_time":2230000000000,"state":"active","ping":84},{"user_id":216,"name":"Buddybudman","steam_id":76561198144316911,"connected_time":1891000000000,"state":"active","ping":66},{"user_id":239,"name":"Rin \"Hindwing\" Redtail","steam_id":76561199074865638,"connected_time":601000000000,"state":"active","ping":73},{"user_id":246,"name":"gonad epic","steam_id":76561198217435839,"connected_time":109000000000,"state":"active","ping":95},{"user_id":217,"name":"Nukeboy","steam_id":76561198147058560,"connected_time":1889000000000,"state":"active","ping":108},{"user_id":229,"name":"DanthePunman","steam_id":76561198453724913,"connected_time":1323000000000,"state":"active","ping":57},{"user_id":221,"name":"ADRIEN BRODY","steam_id":76561198009299473,"connected_time":1740000000000,"state":"active","ping":72},{"user_id":212,"name":"puppy :3","steam_id":76561198011196264,"connected_time":2039000000000,"state":"active","ping":58},{"user_id":203,"name":"entityfromohio","steam_id":76561198031675881,"connected_time":2354000000000,"state":"active","ping":42},{"user_id":236,"name":"pudl","steam_id":76561198043726592,"connected_time":972000000000,"state":"active","ping":69},{"user_id":247,"name":"Thequirka #ForFountainMann","steam_id":76561198968058652,"connected_time":100000000000,"state":"active","ping":107},{"user_id":132,"name":"Carrot","steam_id":76561198078997241,"connected_time":6669000000000,"state":"active","ping":89},{"user_id":204,"name":"Kung fu Mungus","steam_id":76561198069281556,"connected_time":2334000000000,"state":"active","ping":71},{"user_id":182,"name":"Panic Opossum","steam_id":76561198043838227,"connected_time":3214000000000,"state":"active","ping":45},{"user_id":241,"name":"flaccid","steam_id":76561198299241777,"connected_time":527000000000,"state":"active","ping":94},{"user_id":248,"name":"Zombiehunter11","steam_id":76561198237517830,"connected_time":98000000000,"state":"active","ping":87},{"user_id":235,"name":"Emerald Blaziken","steam_id":76561198821943366,"connected_time":1020000000000,"state":"active","ping":95},{"user_id":237,"name":"nhbiker","steam_id":76561198081277675,"connected_time":950000000000,"state":"active","ping":61},{"user_id":234,"name":"professional bodyshooter","steam_id":76561199200442395,"connected_time":1060000000000,"state":"active","ping":187}]},{"server_id":8,"name":"Uncletopia | Dallas | 1 | All Maps","name_short":"dal-1","host":"dal-1.us.uncletopia.com","port":27015,"enabled":true,"region":"us-central","cc":"us","latitude":32.779167,"longitude":-96.80889,"reserved":0,"last_update":"0001-01-01T00:00:00Z","name_a2s":"Uncletopia | Dallas | 1 | All Maps","protocol":17,"map":"koth_lakeside_final","folder":"tf","game":"Team Fortress","app_id":440,"player_count":22,"max_players":24,"Bots":0,"server_type":"Dedicated","server_os":"Linux","password":true,"vac":true,"version":"7932396","steam_id":85568392924469986,"keywords":["cp","nocrits","nodmgspread","uncletopia"],"game_id":440,"stv_port":27016,"stv_name":"Uncletopia | Dallas | 1 | All Maps | STV","players":[{"user_id":83,"name":"Nemir","steam_id":76561198063123150,"connected_time":1045000000000,"state":"active","ping":41},{"user_id":94,"name":"DragonHunter994","steam_id":76561199076203907,"connected_time":259000000000,"state":"active","ping":59},{"user_id":39,"name":"E P H E M E R A L","steam_id":76561198128614882,"connected_time":3443000000000,"state":"active","ping":79},{"user_id":74,"name":"nori_420","steam_id":76561199117134203,"connected_time":2073000000000,"state":"active","ping":82},{"user_id":85,"name":"average rust player","steam_id":76561198047627340,"connected_time":976000000000,"state":"active","ping":82},{"user_id":95,"name":"Broken Cereal√","steam_id":76561198087489795,"connected_time":255000000000,"state":"active","ping":85},{"user_id":96,"name":"Chase","steam_id":76561198239498628,"connected_time":216000000000,"state":"active","ping":72},{"user_id":97,"name":"pinglefingle","steam_id":76561198216580197,"connected_time":206000000000,"state":"active","ping":49},{"user_id":93,"name":"meo ♥","steam_id":76561197992719272,"connected_time":386000000000,"state":"active","ping":67},{"user_id":98,"name":"armpit fetishist","steam_id":76561199008452637,"connected_time":177000000000,"state":"active","ping":135},{"user_id":101,"name":"Ground Control to Majortom","steam_id":76561198065589126,"connected_time":29000000000,"state":"active","ping":79},{"user_id":92,"name":"David De Bergerac","steam_id":76561198010306294,"connected_time":450000000000,"state":"active","ping":85},{"user_id":46,"name":"Lolxdloldx","steam_id":76561198136887125,"connected_time":3094000000000,"state":"active","ping":98},{"user_id":102,"name":"KingSteve42","steam_id":76561198409455888,"connected_time":5000000000,"state":"spawning","ping":88},{"user_id":90,"name":"Anton","steam_id":76561198880140262,"connected_time":513000000000,"state":"active","ping":102},{"user_id":81,"name":"DylChill616","steam_id":76561198194576953,"connected_time":1424000000000,"state":"active","ping":96},{"user_id":79,"name":"nothowon","steam_id":76561198937601452,"connected_time":1681000000000,"state":"active","ping":71},{"user_id":91,"name":"afroadam","steam_id":76561197993377919,"connected_time":487000000000,"state":"active","ping":85},{"user_id":88,"name":"younggflylyfe","steam_id":76561199477357832,"connected_time":688000000000,"state":"active","ping":40},{"user_id":69,"name":"!mute","steam_id":76561198219209367,"connected_time":2291000000000,"state":"active","ping":55},{"user_id":54,"name":"♡ thedittoguy ♡","steam_id":76561199013129784,"connected_time":2937000000000,"state":"active","ping":57},{"user_id":82,"name":"Anonymous Redneck","steam_id":76561198006140954,"connected_time":1070000000000,"state":"active","ping":91}]},{"server_id":108,"name":"Uncletopia | Dallas | 2 | All Maps","name_short":"dal-2","host":"dal-1.us.uncletopia.com","port":27025,"enabled":true,"region":"us-central","cc":"us","latitude":32.779167,"longitude":-96.80889,"reserved":0,"last_update":"0001-01-01T00:00:00Z","name_a2s":"Uncletopia | Dallas | 2 | All Maps","protocol":17,"map":"koth_lakeside_final","folder":"tf","game":"Team Fortress","app_id":440,"player_count":0,"max_players":24,"Bots":0,"server_type":"Dedicated","server_os":"Linux","password":true,"vac":true,"version":"7932396","steam_id":85568392924469988,"keywords":["cp","nocrits","nodmgspread","uncletopia"],"game_id":440,"stv_port":27026,"stv_name":"Uncletopia | Dallas | 2 | All Maps | STV","players":null},{"server_id":5,"name":"Uncletopia | Frankfurt | 1 | All Maps","name_short":"frk-1","host":"frk-1.de.uncletopia.com","port":27015,"enabled":true,"region":"eu","cc":"de","latitude":50.110924,"longitude":8.682127,"reserved":0,"last_update":"0001-01-01T00:00:00Z","name_a2s":"Uncletopia | Frankfurt | 1 | All Maps","protocol":17,"map":"pl_swiftwater_final1","folder":"tf","game":"Team Fortress","app_id":440,"player_count":24,"max_players":24,"Bots":0,"server_type":"Dedicated","server_os":"Linux","password":true,"vac":true,"version":"7932396","steam_id":85568392924469989,"keywords":["nocrits","nodmgspread","payload","uncletopia"],"game_id":440,"stv_port":27016,"stv_name":"Uncletopia | Frankfurt | 1 | All Maps | STV","players":[{"user_id":591,"name":"Zina Tv","steam_id":76561198116530769,"connected_time":2108000000000,"state":"active","ping":88},{"user_id":582,"name":"flappi","steam_id":76561198072892783,"connected_time":3499000000000,"state":"active","ping":49},{"user_id":563,"name":"Googlemaps","steam_id":76561198098135409,"connected_time":4835000000000,"state":"active","ping":57},{"user_id":600,"name":"Nekramite","steam_id":76561198166617261,"connected_time":843000000000,"state":"active","ping":57},{"user_id":590,"name":"Гаврило Принцип","steam_id":76561198437974332,"connected_time":2257000000000,"state":"active","ping":51},{"user_id":598,"name":"CaveTones","steam_id":76561198257570910,"connected_time":883000000000,"state":"active","ping":93},{"user_id":588,"name":"syms","steam_id":76561198066679812,"connected_time":2283000000000,"state":"active","ping":72},{"user_id":565,"name":"Kestrel","steam_id":76561198144033005,"connected_time":4805000000000,"state":"active","ping":64},{"user_id":547,"name":"GuSkand","steam_id":76561198043775605,"connected_time":5431000000000,"state":"active","ping":77},{"user_id":599,"name":"Chicken hunter","steam_id":76561198359966356,"connected_time":877000000000,"state":"active","ping":99},{"user_id":592,"name":"nymph","steam_id":76561199249569889,"connected_time":2029000000000,"state":"active","ping":60},{"user_id":607,"name":"WATANG!","steam_id":76561198040478926,"connected_time":413000000000,"state":"active","ping":66},{"user_id":608,"name":"Lanky Hank","steam_id":76561198124243120,"connected_time":103000000000,"state":"active","ping":55},{"user_id":605,"name":"disposablesuperbread","steam_id":76561199074703607,"connected_time":419000000000,"state":"active","ping":73},{"user_id":569,"name":"Miss Asstickles","steam_id":76561198030286622,"connected_time":4144000000000,"state":"active","ping":45},{"user_id":606,"name":"ArmedWithWings","steam_id":76561198154615474,"connected_time":417000000000,"state":"active","ping":91},{"user_id":556,"name":"kevinus","steam_id":76561198059722457,"connected_time":5050000000000,"state":"active","ping":56},{"user_id":593,"name":"Master Of Noob","steam_id":76561198217926783,"connected_time":1977000000000,"state":"active","ping":70},{"user_id":583,"name":"LurkingPancake","steam_id":76561199488567082,"connected_time":3307000000000,"state":"active","ping":82},{"user_id":589,"name":"H-say","steam_id":76561198177400362,"connected_time":2270000000000,"state":"active","ping":95},{"user_id":552,"name":"MoistMomMauler","steam_id":76561198069359049,"connected_time":5237000000000,"state":"active","ping":77},{"user_id":595,"name":"Larry Penus","steam_id":76561198207546233,"connected_time":1687000000000,"state":"active","ping":60},{"user_id":604,"name":"Thors","steam_id":76561197968739075,"connected_time":728000000000,"state":"active","ping":45},{"user_id":581,"name":"Berdly","steam_id":76561199029872533,"connected_time":3517000000000,"state":"active","ping":66}]},{"server_id":110,"name":"Uncletopia | Frankfurt | 2 | All Maps","name_short":"frk-2","host":"frk-1.de.uncletopia.com","port":27025,"enabled":true,"region":"eu","cc":"de","latitude":50.110924,"longitude":8.682127,"reserved":0,"last_update":"0001-01-01T00:00:00Z","name_a2s":"Uncletopia | Frankfurt | 2 | All Maps","protocol":17,"map":"koth_viaduct","folder":"tf","game":"Team Fortress","app_id":440,"player_count":24,"max_players":24,"Bots":0,"server_type":"Dedicated","server_os":"Linux","password":true,"vac":true,"version":"7932396","steam_id":85568392924469990,"keywords":["cp","nocrits","nodmgspread","uncletopia"],"game_id":440,"stv_port":27026,"stv_name":"Uncletopia | Frankfurt | 2 | All Maps | STV","players":[{"user_id":310,"name":"mèx","steam_id":76561197975951572,"connected_time":5753000000000,"state":"active","ping":60},{"user_id":369,"name":"Gaxkang","steam_id":76561198125768571,"connected_time":3428000000000,"state":"active","ping":69},{"user_id":413,"name":"Jeerven","steam_id":76561198259189841,"connected_time":529000000000,"state":"active","ping":63},{"user_id":376,"name":"Fish 'n' Chips","steam_id":76561198033476886,"connected_time":2590000000000,"state":"active","ping":44},{"user_id":414,"name":"Gasnax","steam_id":76561198429096712,"connected_time":500000000000,"state":"active","ping":57},{"user_id":377,"name":"Avak","steam_id":76561198196506951,"connected_time":2582000000000,"state":"active","ping":59},{"user_id":381,"name":"Josip Broz Tito","steam_id":76561199445527020,"connected_time":2427000000000,"state":"active","ping":78},{"user_id":415,"name":"roblan11","steam_id":76561198066839258,"connected_time":499000000000,"state":"active","ping":45},{"user_id":412,"name":"أديب الأصفر","steam_id":76561198095691592,"connected_time":612000000000,"state":"active","ping":62},{"user_id":395,"name":"anders McFlanders","steam_id":76561198022811995,"connected_time":1199000000000,"state":"active","ping":54},{"user_id":418,"name":"Kiryust","steam_id":76561198072162886,"connected_time":262000000000,"state":"active","ping":81},{"user_id":389,"name":"curious femboy","steam_id":76561199199388221,"connected_time":1964000000000,"state":"active","ping":72},{"user_id":398,"name":"glyph","steam_id":76561197980736364,"connected_time":1138000000000,"state":"active","ping":75},{"user_id":417,"name":"big poo","steam_id":76561198129157178,"connected_time":395000000000,"state":"active","ping":90},{"user_id":401,"name":"DaiDaiMu :3","steam_id":76561198052794823,"connected_time":992000000000,"state":"active","ping":47},{"user_id":392,"name":"TAFI03","steam_id":76561198213082089,"connected_time":1758000000000,"state":"active","ping":58},{"user_id":334,"name":"shankz","steam_id":76561198128803260,"connected_time":4984000000000,"state":"active","ping":63},{"user_id":335,"name":"\u003cJACK\u003e","steam_id":76561198090405664,"connected_time":4973000000000,"state":"active","ping":64},{"user_id":407,"name":"Lux","steam_id":76561198060417740,"connected_time":761000000000,"state":"active","ping":49},{"user_id":408,"name":"Aigan","steam_id":76561198130354707,"connected_time":761000000000,"state":"active","ping":97},{"user_id":386,"name":"Valdis","steam_id":76561198057340489,"connected_time":2253000000000,"state":"active","ping":45},{"user_id":409,"name":"flange","steam_id":76561198040182692,"connected_time":749000000000,"state":"active","ping":54},{"user_id":419,"name":"Nobody","steam_id":76561198151116796,"connected_time":157000000000,"state":"active","ping":83},{"user_id":393,"name":"Dash","steam_id":76561198041329823,"connected_time":1450000000000,"state":"active","ping":87}]},{"server_id":308,"name":"Uncletopia | Frankfurt | 3 | All Maps","name_short":"frk-3","host":"frk-1.de.uncletopia.com","port":27035,"enabled":true,"region":"eu","cc":"de","latitude":50.110924,"longitude":8.682127,"reserved":0,"last_update":"0001-01-01T00:00:00Z","name_a2s":"Uncletopia | Frankfurt | 3 | All Maps","protocol":17,"map":"koth_viaduct","folder":"tf","game":"Team Fortress","app_id":440,"player_count":0,"max_players":24,"Bots":0,"server_type":"Dedicated","server_os":"Linux","password":true,"vac":true,"version":"7932396","steam_id":85568392924504274,"keywords":["cp","nocrits","nodmgspread","uncletopia"],"game_id":440,"stv_port":27036,"stv_name":"Uncletopia | Frankfurt | 3 | All Maps | STV","players":null},{"server_id":309,"name":"Uncletopia | Frankfurt | 4 | All Maps","name_short":"frk-4","host":"frk-1.de.uncletopia.com","port":27045,"enabled":true,"region":"eu","cc":"de","latitude":50.110924,"longitude":8.682127,"reserved":0,"last_update":"0001-01-01T00:00:00Z","name_a2s":"Uncletopia | Frankfurt | 4 | All Maps","protocol":17,"map":"pl_upward","folder":"tf","game":"Team Fortress","app_id":440,"player_count":23,"max_players":24,"Bots":0,"server_type":"Dedicated","server_os":"Linux","password":true,"vac":true,"version":"7932396","steam_id":85568392924504275,"keywords":["nocrits","nodmgspread","payload","uncletopia"],"game_id":440,"stv_port":27046,"stv_name":"Uncletopia | Frankfurt | 4 | All Maps | STV","players":[{"user_id":381,"name":"Garmin of Salivation","steam_id":76561197995163245,"connected_time":2535000000000,"state":"active","ping":63},{"user_id":359,"name":"Lyncurion","steam_id":76561199260022725,"connected_time":4690000000000,"state":"active","ping":72},{"user_id":323,"name":"X-tis","steam_id":76561198043837480,"connected_time":8378000000000,"state":"active","ping":74},{"user_id":386,"name":"mark of the outsider","steam_id":76561198309246388,"connected_time":2037000000000,"state":"active","ping":45},{"user_id":344,"name":"LarsInABox","steam_id":76561198028329262,"connected_time":7207000000000,"state":"active","ping":69},{"user_id":360,"name":"Koblenz 1972","steam_id":76561198077563222,"connected_time":4545000000000,"state":"active","ping":63},{"user_id":391,"name":"FoOzTV","steam_id":76561197998636728,"connected_time":1086000000000,"state":"active","ping":70},{"user_id":387,"name":"WatermelonWill32","steam_id":76561198089478290,"connected_time":1657000000000,"state":"active","ping":54},{"user_id":390,"name":"mt","steam_id":76561197961319303,"connected_time":1097000000000,"state":"active","ping":48},{"user_id":275,"name":"Fat Pigeon","steam_id":76561198817940142,"connected_time":11887000000000,"state":"active","ping":54},{"user_id":392,"name":"Mr Longbottom","steam_id":76561198359834558,"connected_time":1074000000000,"state":"active","ping":59},{"user_id":338,"name":"Elsuedi","steam_id":76561198074722832,"connected_time":7870000000000,"state":"active","ping":53},{"user_id":399,"name":"obsession with fictional women","steam_id":76561198253503043,"connected_time":355000000000,"state":"active","ping":72},{"user_id":394,"name":"☞LaZe☜","steam_id":76561198202191400,"connected_time":1039000000000,"state":"active","ping":61},{"user_id":400,"name":"Finnish Farmer","steam_id":76561198205366043,"connected_time":300000000000,"state":"active","ping":81},{"user_id":402,"name":"Fallen Dog","steam_id":76561198851387188,"connected_time":239000000000,"state":"active","ping":61},{"user_id":382,"name":"Torttu","steam_id":76561198013980029,"connected_time":2473000000000,"state":"active","ping":60},{"user_id":403,"name":"Fedm","steam_id":76561199020090514,"connected_time":205000000000,"state":"active","ping":80},{"user_id":371,"name":"cansado","steam_id":76561198003898089,"connected_time":2764000000000,"state":"active","ping":80},{"user_id":404,"name":"A-Sir","steam_id":76561197997910642,"connected_time":170000000000,"state":"active","ping":78},{"user_id":396,"name":"Peter","steam_id":76561198165604007,"connected_time":758000000000,"state":"active","ping":57},{"user_id":343,"name":"Femboypawnguy","steam_id":76561198274894771,"connected_time":7529000000000,"state":"active","ping":57},{"user_id":384,"name":"Kuntmeister","steam_id":76561198016076012,"connected_time":2459000000000,"state":"active","ping":125}]},{"server_id":310,"name":"Uncletopia | Frankfurt | 5 | All Maps","name_short":"frk-5","host":"frk-1.de.uncletopia.com","port":27055,"enabled":true,"region":"eu","cc":"de","latitude":50.110924,"longitude":8.682127,"reserved":0,"last_update":"0001-01-01T00:00:00Z","name_a2s":"Uncletopia | Frankfurt | 5 | All Maps","protocol":17,"map":"pl_thundermountain","folder":"tf","game":"Team Fortress","app_id":440,"player_count":22,"max_players":24,"Bots":0,"server_type":"Dedicated","server_os":"Linux","password":true,"vac":true,"version":"7932396","steam_id":85568392924504277,"keywords":["nocrits","nodmgspread","payload","uncletopia"],"game_id":440,"stv_port":27056,"stv_name":"Uncletopia | Frankfurt | 5 | All Maps | STV","players":[{"user_id":730,"name":"The Cockless One","steam_id":76561198808891599,"connected_time":2055000000000,"state":"active","ping":79},{"user_id":764,"name":"Artificial.Ignorance","steam_id":76561198453090180,"connected_time":3000000000,"state":"spawning","ping":160},{"user_id":757,"name":"Nosok=Headshot","steam_id":76561199330131103,"connected_time":418000000000,"state":"active","ping":81},{"user_id":709,"name":"Bakser Swagger","steam_id":76561198199774646,"connected_time":3109000000000,"state":"active","ping":76},{"user_id":759,"name":"jge","steam_id":76561198123186387,"connected_time":241000000000,"state":"active","ping":57},{"user_id":729,"name":"ANGELFISH","steam_id":76561198027536466,"connected_time":2075000000000,"state":"active","ping":98},{"user_id":754,"name":"DOMAIN","steam_id":76561199095640319,"connected_time":539000000000,"state":"active","ping":76},{"user_id":749,"name":"Happy Cat","steam_id":76561198405359788,"connected_time":893000000000,"state":"active","ping":97},{"user_id":712,"name":"kryhu","steam_id":76561198293327713,"connected_time":3050000000000,"state":"active","ping":71},{"user_id":755,"name":"pijacka","steam_id":76561198103899658,"connected_time":515000000000,"state":"active","ping":55},{"user_id":718,"name":"Barak93","steam_id":76561198044585705,"connected_time":2501000000000,"state":"active","ping":59},{"user_id":763,"name":"absolutely no fucking way","steam_id":76561198120460189,"connected_time":66000000000,"state":"active","ping":82},{"user_id":705,"name":"Fish","steam_id":76561198182278770,"connected_time":3395000000000,"state":"active","ping":81},{"user_id":738,"name":"iniT","steam_id":76561198019883794,"connected_time":1922000000000,"state":"active","ping":60},{"user_id":721,"name":"hot guy","steam_id":76561198083063005,"connected_time":2296000000000,"state":"active","ping":47},{"user_id":719,"name":"Narwhal","steam_id":76561199489020776,"connected_time":2496000000000,"state":"active","ping":61},{"user_id":702,"name":"Spectral Sloth","steam_id":76561198170083139,"connected_time":3596000000000,"state":"active","ping":85},{"user_id":756,"name":"BOOM_777","steam_id":76561198003019759,"connected_time":508000000000,"state":"active","ping":85},{"user_id":722,"name":"MrBanana","steam_id":76561198116021623,"connected_time":2296000000000,"state":"active","ping":51},{"user_id":741,"name":"devious looking apple","steam_id":76561198100414245,"connected_time":1907000000000,"state":"active","ping":69},{"user_id":760,"name":"Fenty","steam_id":76561198044991858,"connected_time":238000000000,"state":"active","ping":76},{"user_id":762,"name":"simplistic","steam_id":76561198231690748,"connected_time":168000000000,"state":"active","ping":73}]},{"server_id":311,"name":"Uncletopia | Frankfurt | 6 | All Maps","name_short":"frk-6","host":"frk-1.de.uncletopia.com","port":27065,"enabled":true,"region":"eu","cc":"de","latitude":50.110924,"longitude":8.682127,"reserved":0,"last_update":"0001-01-01T00:00:00Z","name_a2s":"Uncletopia | Frankfurt | 6 | All Maps","protocol":17,"map":"pl_snowycoast","folder":"tf","game":"Team Fortress","app_id":440,"player_count":0,"max_players":24,"Bots":0,"server_type":"Dedicated","server_os":"Linux","password":true,"vac":true,"version":"7932396","steam_id":85568392924504278,"keywords":["nocrits","nodmgspread","payload","uncletopia"],"game_id":440,"stv_port":27066,"stv_name":"Uncletopia | Frankfurt | 6 | All Maps | STV","players":null},{"server_id":23,"name":"Uncletopia | Frankfurt | 7 | Stopwatch Beta","name_short":"frk-7","host":"frk-1.de.uncletopia.com","port":27075,"enabled":true,"region":"eu","cc":"de","latitude":50.110924,"longitude":8.682127,"reserved":0,"last_update":"0001-01-01T00:00:00Z","name_a2s":"Uncletopia | Frankfurt | 7 | Stopwatch Beta","protocol":17,"map":"pl_snowycoast","folder":"tf","game":"Team Fortress","app_id":440,"player_count":0,"max_players":24,"Bots":0,"server_type":"Dedicated","server_os":"Linux","password":true,"vac":true,"version":"7932396","steam_id":85568392924742827,"keywords":["nocrits","nodmgspread","payload","uncletopia"],"game_id":440,"stv_port":27076,"stv_name":"Uncletopia | Frankfurt | 7 | Stopwatch Beta | STV","players":null},{"server_id":24,"name":"Uncletopia | Frankfurt | 8 | Community","name_short":"frk-8","host":"frk-1.de.uncletopia.com","port":27085,"enabled":true,"region":"eu","cc":"de","latitude":50.110924,"longitude":8.682127,"reserved":0,"last_update":"0001-01-01T00:00:00Z","name_a2s":"Uncletopia | Frankfurt | 8 | Community","protocol":17,"map":"workshop/koth_product_final.ugc454272353","folder":"tf","game":"Team Fortress","app_id":440,"player_count":0,"max_players":24,"Bots":0,"server_type":"Dedicated","server_os":"Linux","password":true,"vac":true,"version":"7932396","steam_id":85568392924742828,"keywords":["cp","nocrits","nodmgspread","uncletopia"],"game_id":440,"stv_port":27086,"stv_name":"Uncletopia | Frankfurt | 8 | Community | STV","players":null},{"server_id":202,"name":"Uncletopia | Hong Kong | 1 | All Maps","name_short":"hgk-1","host":"hgk-1.hk.uncletopia.com","port":27015,"enabled":true,"region":"asia","cc":"hk","latitude":22.302711,"longitude":114.177216,"reserved":0,"last_update":"0001-01-01T00:00:00Z","name_a2s":"Uncletopia | Hong Kong | 1 | All Maps","protocol":17,"map":"koth_viaduct","folder":"tf","game":"Team Fortress","app_id":440,"player_count":0,"max_players":24,"Bots":0,"server_type":"Dedicated","server_os":"Linux","password":true,"vac":true,"version":"7932396","steam_id":85568392924494504,"keywords":["cp","nocrits","nodmgspread","uncletopia"],"game_id":440,"stv_port":27016,"stv_name":"Uncletopia | Hong Kong | 1 | All Maps | STV","players":null},{"server_id":1,"name":"Uncletopia | Los Angeles | 1 | All Maps","name_short":"lax-1","host":"lax-1.us.uncletopia.com","port":27015,"enabled":true,"region":"us-west","cc":"us","latitude":33.94279,"longitude":-118.41004,"reserved":0,"last_update":"0001-01-01T00:00:00Z","name_a2s":"Uncletopia | Los Angeles | 1 | All Maps","protocol":17,"map":"koth_highpass","folder":"tf","game":"Team Fortress","app_id":440,"player_count":0,"max_players":24,"Bots":0,"server_type":"Dedicated","server_os":"Linux","password":true,"vac":true,"version":"7932396","steam_id":85568392924469991,"keywords":["cp","nocrits","nodmgspread","uncletopia"],"game_id":440,"stv_port":27016,"stv_name":"Uncletopia | Los Angeles | 1 | All Maps | STV","players":null},{"server_id":112,"name":"Uncletopia | Los Angeles | 2 | All Maps","name_short":"lax-2","host":"lax-1.us.uncletopia.com","port":27025,"enabled":true,"region":"us-west","cc":"us","latitude":33.94279,"longitude":-118.41004,"reserved":0,"last_update":"0001-01-01T00:00:00Z","name_a2s":"Uncletopia | Los Angeles | 2 | All Maps","protocol":17,"map":"pl_borneo","folder":"tf","game":"Team Fortress","app_id":440,"player_count":0,"max_players":24,"Bots":0,"server_type":"Dedicated","server_os":"Linux","password":true,"vac":true,"version":"7932396","steam_id":85568392924469992,"keywords":["nocrits","nodmgspread","payload","uncletopia"],"game_id":440,"stv_port":27026,"stv_name":"Uncletopia | Los Angeles | 2 | All Maps | STV","players":null},{"server_id":324,"name":"Uncletopia | Los Angeles | 3 | All Maps","name_short":"lax-3","host":"lax-1.us.uncletopia.com","port":27035,"enabled":true,"region":"us-west","cc":"us","latitude":33.94279,"longitude":-118.41004,"reserved":0,"last_update":"0001-01-01T00:00:00Z","name_a2s":"Uncletopia | Los Angeles | 3 | All Maps","protocol":17,"map":"koth_highpass","folder":"tf","game":"Team Fortress","app_id":440,"player_count":0,"max_players":24,"Bots":0,"server_type":"Dedicated","server_os":"Linux","password":true,"vac":true,"version":"7932396","steam_id":85568392924510198,"keywords":["cp","nocrits","nodmgspread","uncletopia"],"game_id":440,"stv_port":27036,"stv_name":"Uncletopia | Los Angeles | 3 | All Maps | STV","players":null},{"server_id":25,"name":"Uncletopia | Los Angeles | 4 | Stopwatch Beta","name_short":"lax-4","host":"lax-1.us.uncletopia.com","port":27045,"enabled":true,"region":"us-west","cc":"us","latitude":33.94279,"longitude":-118.41004,"reserved":0,"last_update":"0001-01-01T00:00:00Z","name_a2s":"Uncletopia | Los Angeles | 4 | Stopwatch Beta","protocol":17,"map":"cp_altitude","folder":"tf","game":"Team Fortress","app_id":440,"player_count":0,"max_players":24,"Bots":0,"server_type":"Dedicated","server_os":"Linux","password":true,"vac":true,"version":"7932396","steam_id":85568392924510199,"keywords":["cp","nocrits","nodmgspread","uncletopia"],"game_id":440,"stv_port":27046,"stv_name":"Uncletopia | Los Angeles | 4 | Stopwatch Beta | STV","players":null},{"server_id":11,"name":"Uncletopia | London | 1 | All Maps","name_short":"lon-1","host":"lon-1.uk.uncletopia.com","port":27015,"enabled":true,"region":"eu","cc":"gb","latitude":51.509865,"longitude":-0.118092,"reserved":0,"last_update":"0001-01-01T00:00:00Z","name_a2s":"Uncletopia | London | 1 | All Maps","protocol":17,"map":"pl_badwater","folder":"tf","game":"Team Fortress","app_id":440,"player_count":24,"max_players":24,"Bots":0,"server_type":"Dedicated","server_os":"Linux","password":true,"vac":true,"version":"7932396","steam_id":85568392924367362,"keywords":["nocrits","nodmgspread","payload","uncletopia"],"game_id":440,"stv_port":27016,"stv_name":"Uncletopia | London | 1 | All Maps | STV","players":[{"user_id":845,"name":"full extent of the jam","steam_id":76561198033728176,"connected_time":609000000000,"state":"active","ping":103},{"user_id":846,"name":"fence_","steam_id":76561198150386379,"connected_time":608000000000,"state":"active","ping":48},{"user_id":779,"name":"Jedi doggo","steam_id":76561198360026202,"connected_time":6692000000000,"state":"active","ping":77},{"user_id":769,"name":"K.V. #RemoveRandomCrits","steam_id":76561197994832993,"connected_time":6937000000000,"state":"active","ping":82},{"user_id":802,"name":"Bonkovich","steam_id":76561198256800084,"connected_time":5585000000000,"state":"active","ping":121},{"user_id":749,"name":"violent monkey porn","steam_id":76561199285074344,"connected_time":7643000000000,"state":"active","ping":142},{"user_id":840,"name":"wal","steam_id":76561198066043883,"connected_time":1567000000000,"state":"active","ping":48},{"user_id":847,"name":"Castellan","steam_id":76561197994861142,"connected_time":586000000000,"state":"active","ping":61},{"user_id":841,"name":"gnarly business","steam_id":76561198832688767,"connected_time":1306000000000,"state":"active","ping":47},{"user_id":830,"name":"transgender e-girl","steam_id":76561198168589809,"connected_time":2911000000000,"state":"active","ping":44},{"user_id":851,"name":"Tywhip","steam_id":76561199207545191,"connected_time":401000000000,"state":"active","ping":56},{"user_id":837,"name":"Replica","steam_id":76561198243258784,"connected_time":1865000000000,"state":"active","ping":71},{"user_id":824,"name":"wrapper steen","steam_id":76561198042930461,"connected_time":4270000000000,"state":"active","ping":56},{"user_id":854,"name":"♥ Emma ♥","steam_id":76561198046796406,"connected_time":76000000000,"state":"active","ping":45},{"user_id":778,"name":"Сношал ВебCUMщицу","steam_id":76561198049926576,"connected_time":6694000000000,"state":"active","ping":95},{"user_id":853,"name":"astra","steam_id":76561198042980579,"connected_time":201000000000,"state":"active","ping":69},{"user_id":825,"name":"please do not the cat","steam_id":76561198089003514,"connected_time":3590000000000,"state":"active","ping":58},{"user_id":848,"name":"PingouinPoilu","steam_id":76561198025089253,"connected_time":561000000000,"state":"active","ping":67},{"user_id":849,"name":"Diggity","steam_id":76561198297157085,"connected_time":526000000000,"state":"active","ping":34},{"user_id":850,"name":"\u003c(sur)\u003esquigly","steam_id":76561198134646151,"connected_time":476000000000,"state":"active","ping":106},{"user_id":833,"name":"LegoBoy","steam_id":76561197983095579,"connected_time":2370000000000,"state":"active","ping":95},{"user_id":843,"name":"Frylock","steam_id":76561198050292560,"connected_time":850000000000,"state":"active","ping":56},{"user_id":819,"name":"Max Power","steam_id":76561198019269089,"connected_time":4832000000000,"state":"active","ping":61},{"user_id":852,"name":"SunZi","steam_id":76561198139243535,"connected_time":289000000000,"state":"active","ping":78}]},{"server_id":114,"name":"Uncletopia | London | 2 | All Maps","name_short":"lon-2","host":"lon-1.uk.uncletopia.com","port":27025,"enabled":true,"region":"eu","cc":"gb","latitude":51.509865,"longitude":-0.118092,"reserved":0,"last_update":"0001-01-01T00:00:00Z","name_a2s":"Uncletopia | London | 2 | All Maps","protocol":17,"map":"pl_thundermountain","folder":"tf","game":"Team Fortress","app_id":440,"player_count":20,"max_players":24,"Bots":0,"server_type":"Dedicated","server_os":"Linux","password":true,"vac":true,"version":"7932396","steam_id":85568392924470941,"keywords":["nocrits","nodmgspread","payload","uncletopia"],"game_id":440,"stv_port":27026,"stv_name":"Uncletopia | London | 2 | All Maps | STV","players":[{"user_id":296,"name":"Freedoomrocks","steam_id":76561198392511189,"connected_time":2589000000000,"state":"active","ping":72},{"user_id":335,"name":"Necris","steam_id":76561198253337830,"connected_time":720000000000,"state":"active","ping":47},{"user_id":316,"name":"shadow39344","steam_id":76561198090639618,"connected_time":2001000000000,"state":"active","ping":61},{"user_id":298,"name":"sleepybunny","steam_id":76561199448537504,"connected_time":2560000000000,"state":"active","ping":64},{"user_id":336,"name":"Hidegkúti Nándor Stadion","steam_id":76561198165730257,"connected_time":714000000000,"state":"active","ping":79},{"user_id":333,"name":"Malorn Aetherius","steam_id":76561198068257989,"connected_time":782000000000,"state":"active","ping":52},{"user_id":317,"name":"Burpman","steam_id":76561198022897937,"connected_time":1750000000000,"state":"active","ping":47},{"user_id":337,"name":"Sivik","steam_id":76561198370329466,"connected_time":676000000000,"state":"active","ping":52},{"user_id":270,"name":"Plep","steam_id":76561198840259819,"connected_time":4658000000000,"state":"active","ping":54},{"user_id":338,"name":"TC Chasing","steam_id":76561198046964317,"connected_time":674000000000,"state":"active","ping":42},{"user_id":328,"name":"crimson","steam_id":76561198208349835,"connected_time":930000000000,"state":"active","ping":74},{"user_id":341,"name":"Walter Hartwell White","steam_id":76561199242777363,"connected_time":589000000000,"state":"active","ping":64},{"user_id":331,"name":"Aximus","steam_id":76561198024575710,"connected_time":849000000000,"state":"active","ping":69},{"user_id":318,"name":"RLCrazyCat3","steam_id":76561197983757878,"connected_time":1727000000000,"state":"active","ping":68},{"user_id":342,"name":"Na'vi Misato (by popular demand","steam_id":76561198130860698,"connected_time":416000000000,"state":"active","ping":57},{"user_id":340,"name":"nalapl3","steam_id":76561198197607383,"connected_time":630000000000,"state":"active","ping":79},{"user_id":263,"name":"cYSSING","steam_id":76561197987942964,"connected_time":5558000000000,"state":"active","ping":57},{"user_id":322,"name":"MondoDong","steam_id":76561197991400109,"connected_time":1394000000000,"state":"active","ping":131},{"user_id":325,"name":"SPOOKY_","steam_id":76561198073395404,"connected_time":1109000000000,"state":"active","ping":75},{"user_id":243,"name":"Eoi","steam_id":76561198066980960,"connected_time":5741000000000,"state":"active","ping":59}]},{"server_id":320,"name":"Uncletopia | London | 3 | All Maps","name_short":"lon-3","host":"lon-1.uk.uncletopia.com","port":27035,"enabled":true,"region":"eu","cc":"gb","latitude":51.509865,"longitude":-0.118092,"reserved":0,"last_update":"0001-01-01T00:00:00Z","name_a2s":"Uncletopia | London | 3 | All Maps","protocol":17,"map":"pl_borneo","folder":"tf","game":"Team Fortress","app_id":440,"player_count":22,"max_players":24,"Bots":0,"server_type":"Dedicated","server_os":"Linux","password":true,"vac":true,"version":"7932396","steam_id":85568392924510192,"keywords":["nocrits","nodmgspread","payload","uncletopia"],"game_id":440,"stv_port":27036,"stv_name":"Uncletopia | London | 3 | All Maps | STV","players":[{"user_id":643,"name":"[Éire] Hype!","steam_id":76561198061449287,"connected_time":1416000000000,"state":"active","ping":52},{"user_id":646,"name":"$799 Sak of Cheese","steam_id":76561198066642220,"connected_time":1374000000000,"state":"active","ping":70},{"user_id":583,"name":"night.s","steam_id":76561198326287823,"connected_time":2522000000000,"state":"active","ping":75},{"user_id":651,"name":"Michael","steam_id":76561198003146906,"connected_time":224000000000,"state":"active","ping":42},{"user_id":542,"name":"PlushtrapDev","steam_id":76561199109026519,"connected_time":4361000000000,"state":"active","ping":105},{"user_id":585,"name":"Dr Ludwig","steam_id":76561198426522902,"connected_time":2485000000000,"state":"active","ping":55},{"user_id":594,"name":"Tea","steam_id":76561198799243030,"connected_time":2290000000000,"state":"active","ping":71},{"user_id":652,"name":"i am bread","steam_id":76561199180277321,"connected_time":202000000000,"state":"active","ping":63},{"user_id":592,"name":"Proud Jojo Fan #TF2SP","steam_id":76561198847327216,"connected_time":2322000000000,"state":"active","ping":74},{"user_id":591,"name":"Well, off to hang myself","steam_id":76561198053374944,"connected_time":2360000000000,"state":"active","ping":67},{"user_id":653,"name":"Half Dane","steam_id":76561198170255465,"connected_time":133000000000,"state":"active","ping":63},{"user_id":654,"name":"Kaishakunin","steam_id":76561198028123874,"connected_time":130000000000,"state":"active","ping":98},{"user_id":579,"name":"Snake-chan","steam_id":76561199044755854,"connected_time":2872000000000,"state":"active","ping":86},{"user_id":655,"name":"Lilliputt","steam_id":76561198090146457,"connected_time":34000000000,"state":"spawning","ping":60},{"user_id":645,"name":"Mr_Pulse_","steam_id":76561198095001602,"connected_time":1392000000000,"state":"active","ping":103},{"user_id":647,"name":"Akkie.","steam_id":76561198017619091,"connected_time":1370000000000,"state":"active","ping":65},{"user_id":564,"name":"tradcath texan latinx","steam_id":76561198168180501,"connected_time":4157000000000,"state":"active","ping":95},{"user_id":593,"name":"junkfilter178","steam_id":76561198099005384,"connected_time":2306000000000,"state":"active","ping":62},{"user_id":648,"name":"TJ1212","steam_id":76561199013575313,"connected_time":1344000000000,"state":"active","ping":74},{"user_id":540,"name":"Sir Cauterize","steam_id":76561198047079422,"connected_time":4456000000000,"state":"active","ping":50},{"user_id":565,"name":"Watermelon","steam_id":76561198078349914,"connected_time":4071000000000,"state":"active","ping":45},{"user_id":609,"name":"zorze supreme.exe","steam_id":76561198996333022,"connected_time":1992000000000,"state":"active","ping":72}]},{"server_id":321,"name":"Uncletopia | London | 4 | All Maps","name_short":"lon-4","host":"lon-1.uk.uncletopia.com","port":27045,"enabled":true,"region":"eu","cc":"gb","latitude":51.509865,"longitude":-0.118092,"reserved":0,"last_update":"0001-01-01T00:00:00Z","name_a2s":"Uncletopia | London | 4 | All Maps","protocol":17,"map":"pl_barnblitz","folder":"tf","game":"Team Fortress","app_id":440,"player_count":22,"max_players":24,"Bots":0,"server_type":"Dedicated","server_os":"Linux","password":true,"vac":true,"version":"7932396","steam_id":85568392924510193,"keywords":["nocrits","nodmgspread","payload","uncletopia"],"game_id":440,"stv_port":27046,"stv_name":"Uncletopia | London | 4 | All Maps | STV","players":[{"user_id":421,"name":"I did it like this","steam_id":76561197971248391,"connected_time":85000000000,"state":"active","ping":129},{"user_id":373,"name":"Buddy","steam_id":76561198050185582,"connected_time":2071000000000,"state":"active","ping":49},{"user_id":394,"name":"JustNo.","steam_id":76561199025402885,"connected_time":1176000000000,"state":"active","ping":45},{"user_id":371,"name":"Stop Yelling at me :(","steam_id":76561198362116755,"connected_time":2100000000000,"state":"active","ping":154},{"user_id":396,"name":"Let's Get Retarded","steam_id":76561198342570528,"connected_time":1155000000000,"state":"active","ping":73},{"user_id":391,"name":"Professional facestab","steam_id":76561198258721056,"connected_time":1590000000000,"state":"active","ping":48},{"user_id":376,"name":"Spliffendor","steam_id":76561198144020209,"connected_time":2032000000000,"state":"active","ping":53},{"user_id":416,"name":"ack","steam_id":76561198139796077,"connected_time":721000000000,"state":"active","ping":46},{"user_id":375,"name":"Puss in Boots","steam_id":76561198211599767,"connected_time":2045000000000,"state":"active","ping":60},{"user_id":403,"name":"oultimosuicida","steam_id":76561198051429942,"connected_time":1096000000000,"state":"active","ping":77},{"user_id":406,"name":"Fargoth","steam_id":76561198044618640,"connected_time":957000000000,"state":"active","ping":62},{"user_id":404,"name":"Crisp Rat","steam_id":76561198252853460,"connected_time":1094000000000,"state":"active","ping":84},{"user_id":400,"name":"Profesorius Kalėdauskas","steam_id":76561198078263504,"connected_time":1115000000000,"state":"active","ping":74},{"user_id":386,"name":"Mr.O #deletesniper","steam_id":76561198039567498,"connected_time":1657000000000,"state":"active","ping":54},{"user_id":381,"name":"gabagool","steam_id":76561198307111838,"connected_time":1706000000000,"state":"active","ping":28},{"user_id":412,"name":"Oki (Bon)","steam_id":76561199047748534,"connected_time":842000000000,"state":"active","ping":54},{"user_id":361,"name":"Foreskin Washing Advisory Board","steam_id":76561198051685232,"connected_time":2369000000000,"state":"active","ping":49},{"user_id":317,"name":"Jackie Chan","steam_id":76561199378865926,"connected_time":6438000000000,"state":"active","ping":80},{"user_id":419,"name":"Antiparticle #SaveTF2","steam_id":76561197990545681,"connected_time":435000000000,"state":"active","ping":49},{"user_id":382,"name":"DelaNo","steam_id":76561199125086655,"connected_time":1701000000000,"state":"active","ping":40},{"user_id":410,"name":"YARrICk.«+»","steam_id":76561197990126485,"connected_time":865000000000,"state":"active","ping":53},{"user_id":420,"name":"Mixandmatt","steam_id":76561198155123140,"connected_time":432000000000,"state":"active","ping":55}]},{"server_id":21,"name":"Uncletopia | London | 5 | All Maps","name_short":"lon-5","host":"lon-1.uk.uncletopia.com","port":27055,"enabled":true,"region":"eu","cc":"gb","latitude":51.509865,"longitude":-0.118092,"reserved":0,"last_update":"0001-01-01T00:00:00Z","name_a2s":"Uncletopia | London | 5 | All Maps","protocol":17,"map":"cp_mountainlab","folder":"tf","game":"Team Fortress","app_id":440,"player_count":22,"max_players":24,"Bots":0,"server_type":"Dedicated","server_os":"Linux","password":true,"vac":true,"version":"7932396","steam_id":85568392924742829,"keywords":["cp","nocrits","nodmgspread","uncletopia"],"game_id":440,"stv_port":27056,"stv_name":"Uncletopia | London | 5 | All Maps | STV","players":[{"user_id":142,"name":"Wafflesky","steam_id":76561198109973821,"connected_time":81000000000,"state":"active","ping":62},{"user_id":105,"name":"El Duderino","steam_id":76561198084404539,"connected_time":2713000000000,"state":"active","ping":139},{"user_id":67,"name":"Tsuwu","steam_id":76561198354596897,"connected_time":5882000000000,"state":"active","ping":97},{"user_id":139,"name":"Lubrsi","steam_id":76561198040208195,"connected_time":386000000000,"state":"active","ping":47},{"user_id":141,"name":"Mahitmal","steam_id":76561198254664484,"connected_time":259000000000,"state":"active","ping":50},{"user_id":143,"name":"Genesis","steam_id":76561198999652040,"connected_time":72000000000,"state":"active","ping":60},{"user_id":115,"name":"Mr.Schnittlauch","steam_id":76561198295868113,"connected_time":1462000000000,"state":"active","ping":60},{"user_id":144,"name":"Zappron","steam_id":76561198058014558,"connected_time":67000000000,"state":"active","ping":84},{"user_id":120,"name":"yuck","steam_id":76561197987249568,"connected_time":1296000000000,"state":"active","ping":111},{"user_id":145,"name":"DoingYourDad","steam_id":76561198060638325,"connected_time":17000000000,"state":"spawning","ping":44},{"user_id":109,"name":"Krusander","steam_id":76561198369954900,"connected_time":2308000000000,"state":"active","ping":87},{"user_id":146,"name":"we ball","steam_id":76561198208740557,"connected_time":8000000000,"state":"spawning","ping":69},{"user_id":106,"name":"Spillefuglen","steam_id":76561198065670387,"connected_time":2379000000000,"state":"active","ping":81},{"user_id":111,"name":"THE CLUELESS CLOWN","steam_id":76561198246990590,"connected_time":2247000000000,"state":"active","ping":56},{"user_id":135,"name":"Petight","steam_id":76561197999438798,"connected_time":994000000000,"state":"active","ping":45},{"user_id":32,"name":"driz","steam_id":76561198069462235,"connected_time":8641000000000,"state":"active","ping":44},{"user_id":107,"name":"W","steam_id":76561198273623211,"connected_time":2378000000000,"state":"active","ping":92},{"user_id":55,"name":"froglids","steam_id":76561198045466919,"connected_time":7212000000000,"state":"active","ping":73},{"user_id":112,"name":"stephenshields2020","steam_id":76561199063375137,"connected_time":2242000000000,"state":"active","ping":60},{"user_id":103,"name":"DJPNK","steam_id":76561197989948420,"connected_time":3048000000000,"state":"active","ping":50},{"user_id":117,"name":"Rask","steam_id":76561198052934944,"connected_time":1405000000000,"state":"active","ping":94},{"user_id":123,"name":"Osmo","steam_id":76561199286764992,"connected_time":1203000000000,"state":"active","ping":88}]},{"server_id":22,"name":"Uncletopia | London | 6 | All Maps","name_short":"lon-6","host":"lon-1.uk.uncletopia.com","port":27065,"enabled":true,"region":"eu","cc":"gb","latitude":51.509865,"longitude":-0.118092,"reserved":0,"last_update":"0001-01-01T00:00:00Z","name_a2s":"Uncletopia | London | 6 | All Maps","protocol":17,"map":"pl_upward","folder":"tf","game":"Team Fortress","app_id":440,"player_count":23,"max_players":24,"Bots":0,"server_type":"Dedicated","server_os":"Linux","password":true,"vac":true,"version":"7932396","steam_id":85568392924742830,"keywords":["nocrits","nodmgspread","payload","uncletopia"],"game_id":440,"stv_port":27066,"stv_name":"Uncletopia | London | 6 | All Maps | STV","players":[{"user_id":61,"name":"The Lady","steam_id":76561198029895809,"connected_time":1162000000000,"state":"active","ping":86},{"user_id":130,"name":"Christopher Gonzales Maria John","steam_id":76561198809697283,"connected_time":278000000000,"state":"active","ping":49},{"user_id":32,"name":"Vigilanis","steam_id":76561198349099737,"connected_time":2266000000000,"state":"active","ping":49},{"user_id":67,"name":"impossible","steam_id":76561198405428143,"connected_time":907000000000,"state":"active","ping":46},{"user_id":120,"name":"Eqxd","steam_id":76561199055592635,"connected_time":470000000000,"state":"active","ping":57},{"user_id":132,"name":"[NPC]Unknown","steam_id":76561198007835506,"connected_time":152000000000,"state":"active","ping":98},{"user_id":133,"name":"[NPC]SCUBA","steam_id":76561198067383004,"connected_time":135000000000,"state":"active","ping":88},{"user_id":26,"name":"Doctor Glizzy","steam_id":76561198315474018,"connected_time":2750000000000,"state":"active","ping":69},{"user_id":134,"name":"The Sex Defender","steam_id":76561198165732391,"connected_time":59000000000,"state":"active","ping":85},{"user_id":128,"name":"Iountzul","steam_id":76561198956308470,"connected_time":344000000000,"state":"active","ping":89},{"user_id":53,"name":"Just_another_zombie","steam_id":76561198375305253,"connected_time":1716000000000,"state":"active","ping":134},{"user_id":51,"name":"teleporter main","steam_id":76561198851157897,"connected_time":1810000000000,"state":"active","ping":70},{"user_id":43,"name":"FentzFire","steam_id":76561198156577909,"connected_time":1967000000000,"state":"active","ping":126},{"user_id":131,"name":"sork","steam_id":76561198082446459,"connected_time":248000000000,"state":"active","ping":75},{"user_id":36,"name":"agreeable wood angles","steam_id":76561198013502376,"connected_time":2191000000000,"state":"active","ping":54},{"user_id":63,"name":"Dabadyeet","steam_id":76561198047359132,"connected_time":1139000000000,"state":"active","ping":73},{"user_id":39,"name":"smile","steam_id":76561198365841841,"connected_time":2097000000000,"state":"active","ping":70},{"user_id":135,"name":"Dictatorial Karelian","steam_id":76561198196736457,"connected_time":1000000000,"state":"spawning","ping":62},{"user_id":64,"name":"alan","steam_id":76561198306947435,"connected_time":1120000000000,"state":"active","ping":66},{"user_id":46,"name":"Voks_","steam_id":76561198159687785,"connected_time":1914000000000,"state":"active","ping":83},{"user_id":47,"name":"NAHIDA","steam_id":76561198349648942,"connected_time":1892000000000,"state":"active","ping":88},{"user_id":48,"name":"uwuGirlieWITdaddYiSSU3suwu","steam_id":76561197994492154,"connected_time":1873000000000,"state":"active","ping":71},{"user_id":119,"name":"Mrbluuub","steam_id":76561199273847084,"connected_time":481000000000,"state":"active","ping":98}]},{"server_id":40,"name":"Uncletopia | London | 7 | No Payload","name_short":"lon-7","host":"lon-1.uk.uncletopia.com","port":27075,"enabled":true,"region":"eu","cc":"gb","latitude":51.509865,"longitude":-0.118092,"reserved":0,"last_update":"0001-01-01T00:00:00Z","name_a2s":"Uncletopia | London | 7 | No Payload","protocol":17,"map":"ctf_sawmill","folder":"tf","game":"Team Fortress","app_id":440,"player_count":0,"max_players":24,"Bots":0,"server_type":"Dedicated","server_os":"Linux","password":true,"vac":true,"version":"7932396","steam_id":85568392924964314,"keywords":["ctf","nocrits","nodmgspread","uncletopia"],"game_id":440,"stv_port":27076,"stv_name":"Uncletopia | London | 7 | No Payload | STV","players":null},{"server_id":41,"name":"Uncletopia | London | 8 | Community","name_short":"lon-8","host":"lon-1.uk.uncletopia.com","port":27085,"enabled":true,"region":"eu","cc":"gb","latitude":51.509865,"longitude":-0.118092,"reserved":0,"last_update":"0001-01-01T00:00:00Z","name_a2s":"Uncletopia | London | 8 | Community","protocol":17,"map":"workshop/koth_product_final.ugc454272353","folder":"tf","game":"Team Fortress","app_id":440,"player_count":2,"max_players":24,"Bots":0,"server_type":"Dedicated","server_os":"Linux","password":true,"vac":true,"version":"7932396","steam_id":85568392924964315,"keywords":["cp","nocrits","nodmgspread","uncletopia"],"game_id":440,"stv_port":27086,"stv_name":"Uncletopia | London | 8 | Community | STV","players":[{"user_id":23,"name":"sexmaster67","steam_id":76561198209602131,"connected_time":1031000000000,"state":"active","ping":56},{"user_id":24,"name":"fucklord15","steam_id":76561198872866010,"connected_time":1003000000000,"state":"active","ping":58}]},{"server_id":300,"name":"Uncletopia | Montréal | 1 | All Maps","name_short":"mtl-1","host":"mtl-1.ca.uncletopia.com","port":27015,"enabled":true,"region":"us-east","cc":"ca","latitude":45.50889,"longitude":-73.56167,"reserved":0,"last_update":"0001-01-01T00:00:00Z","name_a2s":"Uncletopia | Montréal | 1 | All Maps","protocol":17,"map":"cp_altitude","folder":"tf","game":"Team Fortress","app_id":440,"player_count":0,"max_players":24,"Bots":0,"server_type":"Dedicated","server_os":"Linux","password":true,"vac":true,"version":"7932396","steam_id":85568392924500087,"keywords":["cp","nocrits","nodmgspread","uncletopia"],"game_id":440,"stv_port":27016,"stv_name":"Uncletopia | Montréal | 1 | All Maps | STV","players":null},{"server_id":301,"name":"Uncletopia | Montréal | 2 | All Maps","name_short":"mtl-2","host":"mtl-1.ca.uncletopia.com","port":27025,"enabled":true,"region":"us-east","cc":"ca","latitude":45.50889,"longitude":-73.56167,"reserved":0,"last_update":"0001-01-01T00:00:00Z","name_a2s":"Uncletopia | Montréal | 2 | All Maps","protocol":17,"map":"koth_lakeside_final","folder":"tf","game":"Team Fortress","app_id":440,"player_count":0,"max_players":24,"Bots":0,"server_type":"Dedicated","server_os":"Linux","password":true,"vac":true,"version":"7932396","steam_id":85568392924500088,"keywords":["cp","nocrits","nodmgspread","uncletopia"],"game_id":440,"stv_port":27026,"stv_name":"Uncletopia | Montréal | 2 | All Maps | STV","players":null},{"server_id":302,"name":"Uncletopia | Montréal | 3 | All Maps","name_short":"mtl-3","host":"mtl-1.ca.uncletopia.com","port":27035,"enabled":true,"region":"us-east","cc":"ca","latitude":45.50889,"longitude":-73.56167,"reserved":0,"last_update":"0001-01-01T00:00:00Z","name_a2s":"Uncletopia | Montréal | 3 | All Maps","protocol":17,"map":"cp_process_final","folder":"tf","game":"Team Fortress","app_id":440,"player_count":0,"max_players":24,"Bots":0,"server_type":"Dedicated","server_os":"Linux","password":true,"vac":true,"version":"7932396","steam_id":85568392924500089,"keywords":["cp","nocrits","nodmgspread","uncletopia"],"game_id":440,"stv_port":27036,"stv_name":"Uncletopia | Montréal | 3 | All Maps | STV","players":null},{"server_id":303,"name":"Uncletopia | Montréal | 4 | No Payload","name_short":"mtl-4","host":"mtl-1.ca.uncletopia.com","port":27045,"enabled":true,"region":"us-east","cc":"ca","latitude":45.50889,"longitude":-73.56167,"reserved":0,"last_update":"0001-01-01T00:00:00Z","name_a2s":"Uncletopia | Montréal | 4 | No Payload","protocol":17,"map":"cp_snakewater_final1","folder":"tf","game":"Team Fortress","app_id":440,"player_count":0,"max_players":24,"Bots":0,"server_type":"Dedicated","server_os":"Linux","password":true,"vac":true,"version":"7932396","steam_id":85568392924500090,"keywords":["cp","nocrits","nodmgspread","uncletopia"],"game_id":440,"stv_port":27046,"stv_name":"Uncletopia | Montréal | 4 | No Payload | STV","players":null},{"server_id":13,"name":"Uncletopia | New York City | 1 | All Maps","name_short":"nyc-1","host":"nyc-1.us.uncletopia.com","port":27015,"enabled":true,"region":"us-east","cc":"us","latitude":40.73061,"longitude":-73.93524,"reserved":0,"last_update":"0001-01-01T00:00:00Z","name_a2s":"Uncletopia | New York City | 1 | All Maps","protocol":17,"map":"pl_barnblitz","folder":"tf","game":"Team Fortress","app_id":440,"player_count":24,"max_players":24,"Bots":0,"server_type":"Dedicated","server_os":"Linux","password":true,"vac":true,"version":"7932396","steam_id":85568392924469993,"keywords":["nocrits","nodmgspread","payload","uncletopia"],"game_id":440,"stv_port":27016,"stv_name":"Uncletopia | New York City | 1 | All Maps | STV","players":[{"user_id":114,"name":"dangergirl99","steam_id":76561198121651564,"connected_time":1816000000000,"state":"active","ping":40},{"user_id":78,"name":"The REAL Drake","steam_id":76561199070125903,"connected_time":3578000000000,"state":"active","ping":72},{"user_id":106,"name":"mr.edderkopper","steam_id":76561198152614478,"connected_time":2493000000000,"state":"active","ping":62},{"user_id":77,"name":"Wire  Bash","steam_id":76561198033268371,"connected_time":3602000000000,"state":"active","ping":135},{"user_id":79,"name":"Norman","steam_id":76561198154715990,"connected_time":3560000000000,"state":"active","ping":110},{"user_id":80,"name":"B∞p | ❤Fasto❤","steam_id":76561198118298527,"connected_time":3558000000000,"state":"active","ping":137},{"user_id":133,"name":"Fallen_Crusade72","steam_id":76561199239498526,"connected_time":864000000000,"state":"active","ping":57},{"user_id":126,"name":"JoCaleb02","steam_id":76561198272389829,"connected_time":1294000000000,"state":"active","ping":51},{"user_id":131,"name":"pickup truck with huge honks","steam_id":76561198111447214,"connected_time":895000000000,"state":"active","ping":68},{"user_id":118,"name":"lost in spaaaaace","steam_id":76561199085974120,"connected_time":1683000000000,"state":"active","ping":62},{"user_id":132,"name":"surrender to the void","steam_id":76561198055494039,"connected_time":890000000000,"state":"active","ping":65},{"user_id":108,"name":"lich gaming","steam_id":76561198299094088,"connected_time":2309000000000,"state":"active","ping":76},{"user_id":92,"name":"lance armstrong fan","steam_id":76561198350747953,"connected_time":3078000000000,"state":"active","ping":58},{"user_id":93,"name":"Brown_Dream","steam_id":76561198975766145,"connected_time":3066000000000,"state":"active","ping":68},{"user_id":110,"name":"nilftb","steam_id":76561198161952186,"connected_time":2166000000000,"state":"active","ping":58},{"user_id":134,"name":"agert","steam_id":76561199028751406,"connected_time":838000000000,"state":"active","ping":104},{"user_id":139,"name":"BroBama","steam_id":76561198203732587,"connected_time":347000000000,"state":"active","ping":91},{"user_id":122,"name":"Yoshimelon","steam_id":76561198253054325,"connected_time":1471000000000,"state":"active","ping":86},{"user_id":99,"name":"Broadsword","steam_id":76561198011160411,"connected_time":2816000000000,"state":"active","ping":88},{"user_id":100,"name":"Chezaus","steam_id":76561198317397837,"connected_time":2804000000000,"state":"active","ping":79},{"user_id":121,"name":"Kickpuncher","steam_id":76561198121528357,"connected_time":1517000000000,"state":"active","ping":67},{"user_id":138,"name":"Papy_rat","steam_id":76561198088207937,"connected_time":480000000000,"state":"active","ping":70},{"user_id":103,"name":"CHAIRMAN MAO GAMING","steam_id":76561198066018972,"connected_time":2769000000000,"state":"active","ping":84},{"user_id":130,"name":"Molten Pancake","steam_id":76561199085340387,"connected_time":917000000000,"state":"active","ping":118}]},{"server_id":14,"name":"Uncletopia | New York City | 2 | All Maps","name_short":"nyc-2","host":"nyc-1.us.uncletopia.com","port":27025,"enabled":true,"region":"us-east","cc":"us","latitude":40.73061,"longitude":-73.93524,"reserved":0,"last_update":"0001-01-01T00:00:00Z","name_a2s":"Uncletopia | New York City | 2 | All Maps","protocol":17,"map":"pl_snowycoast","folder":"tf","game":"Team Fortress","app_id":440,"player_count":24,"max_players":24,"Bots":0,"server_type":"Dedicated","server_os":"Linux","password":true,"vac":true,"version":"7932396","steam_id":85568392924469994,"keywords":["nocrits","nodmgspread","payload","uncletopia"],"game_id":440,"stv_port":27026,"stv_name":"Uncletopia | New York City | 2 | All Maps | STV","players":[{"user_id":11,"name":"SpongedSocks","steam_id":76561198374009086,"connected_time":2628000000000,"state":"active","ping":45},{"user_id":37,"name":"VALENCE","steam_id":76561198118492031,"connected_time":919000000000,"state":"active","ping":87},{"user_id":14,"name":"Blooby","steam_id":76561199013299586,"connected_time":2348000000000,"state":"active","ping":55},{"user_id":48,"name":"Clef","steam_id":76561198985096335,"connected_time":109000000000,"state":"active","ping":59},{"user_id":38,"name":"DivanIsAhero","steam_id":76561199055414329,"connected_time":880000000000,"state":"active","ping":84},{"user_id":42,"name":"KooKooKachue","steam_id":76561198391195262,"connected_time":365000000000,"state":"active","ping":95},{"user_id":44,"name":"Funee","steam_id":76561198041048289,"connected_time":224000000000,"state":"active","ping":44},{"user_id":20,"name":"Steve (from Minecraft)","steam_id":76561198232026076,"connected_time":1519000000000,"state":"active","ping":65},{"user_id":21,"name":"Al Cabone","steam_id":76561198956823243,"connected_time":1462000000000,"state":"active","ping":56},{"user_id":45,"name":"MatterOfGames","steam_id":76561198036818532,"connected_time":224000000000,"state":"active","ping":102},{"user_id":46,"name":"Mediocre Gaming","steam_id":76561199230467980,"connected_time":164000000000,"state":"active","ping":85},{"user_id":24,"name":"TheSmolPopato","steam_id":76561199076606348,"connected_time":1202000000000,"state":"active","ping":82},{"user_id":27,"name":"Goose of Wisdom","steam_id":76561198233465044,"connected_time":1156000000000,"state":"active","ping":77},{"user_id":26,"name":"Ad Astra","steam_id":76561198355662980,"connected_time":1166000000000,"state":"active","ping":78},{"user_id":28,"name":"mytoyo2k2","steam_id":76561199486326945,"connected_time":1110000000000,"state":"active","ping":88},{"user_id":30,"name":"vectorman","steam_id":76561198274544005,"connected_time":1012000000000,"state":"active","ping":72},{"user_id":47,"name":"Infinity","steam_id":76561199134919099,"connected_time":137000000000,"state":"active","ping":75},{"user_id":32,"name":"Caleb","steam_id":76561198106328125,"connected_time":995000000000,"state":"active","ping":105},{"user_id":34,"name":"Scientist005","steam_id":76561198117825609,"connected_time":975000000000,"state":"active","ping":185},{"user_id":35,"name":"MajorPancake","steam_id":76561198068713831,"connected_time":974000000000,"state":"active","ping":55},{"user_id":36,"name":"Samoth_Five","steam_id":76561199009152688,"connected_time":952000000000,"state":"active","ping":57},{"user_id":49,"name":"sad boi","steam_id":76561198395577807,"connected_time":72000000000,"state":"active","ping":46},{"user_id":40,"name":"Paint Enjoyer","steam_id":76561198257410914,"connected_time":847000000000,"state":"active","ping":77},{"user_id":41,"name":"flr","steam_id":76561198249327786,"connected_time":765000000000,"state":"active","ping":151}]},{"server_id":15,"name":"Uncletopia | New York City | 3 | Stopwatch Beta","name_short":"nyc-3","host":"nyc-1.us.uncletopia.com","port":27035,"enabled":true,"region":"us-east","cc":"us","latitude":40.73061,"longitude":-73.93524,"reserved":0,"last_update":"0001-01-01T00:00:00Z","name_a2s":"Uncletopia | New York City | 3 | Stopwatch Beta","protocol":17,"map":"workshop/koth_clearcut_b15.ugc2107050255","folder":"tf","game":"Team Fortress","app_id":440,"player_count":1,"max_players":24,"Bots":0,"server_type":"Dedicated","server_os":"Linux","password":true,"vac":true,"version":"7932396","steam_id":85568392924742820,"keywords":["cp","nocrits","nodmgspread","uncletopia"],"game_id":440,"stv_port":27036,"stv_name":"Uncletopia | New York City | 3 | Stopwatch Beta | STV","players":[{"user_id":7,"name":"MeKaso TropStar","steam_id":76561199109895840,"connected_time":618000000000,"state":"active","ping":44}]},{"server_id":16,"name":"Uncletopia | New York City | 4 | Community","name_short":"nyc-4","host":"nyc-1.us.uncletopia.com","port":27045,"enabled":true,"region":"us-east","cc":"us","latitude":40.73061,"longitude":-73.93524,"reserved":0,"last_update":"0001-01-01T00:00:00Z","name_a2s":"Uncletopia | New York City | 4 | Community","protocol":17,"map":"workshop/rd_asteroid_redux_b1.ugc2154902912","folder":"tf","game":"Team Fortress","app_id":440,"player_count":21,"max_players":24,"Bots":0,"server_type":"Dedicated","server_os":"Linux","password":true,"vac":true,"version":"7932396","steam_id":85568392924742821,"keywords":["beta","nocrits","nodmgspread","rd","uncletopia"],"game_id":440,"stv_port":27046,"stv_name":"Uncletopia | New York City | 4 | Community | STV","players":[{"user_id":95,"name":"Borat Voice My Wife","steam_id":76561198020474727,"connected_time":2350000000000,"state":"active","ping":54},{"user_id":110,"name":"Nag","steam_id":76561197970488206,"connected_time":1382000000000,"state":"spawning","ping":226},{"user_id":69,"name":"Bee_Pirate","steam_id":76561199000599111,"connected_time":3914000000000,"state":"spawning","ping":147},{"user_id":100,"name":"Uncle Majic the Hip Hop Magicia","steam_id":76561198107924303,"connected_time":1704000000000,"state":"active","ping":51},{"user_id":117,"name":"Stupid Monkey =3","steam_id":76561198024580166,"connected_time":20000000000,"state":"active","ping":117},{"user_id":80,"name":"uhooter","steam_id":76561198007829078,"connected_time":3437000000000,"state":"active","ping":99},{"user_id":112,"name":"GotYourNose","steam_id":76561198803527852,"connected_time":1172000000000,"state":"spawning","ping":70},{"user_id":86,"name":"Carmaggedon","steam_id":76561198098744340,"connected_time":3101000000000,"state":"active","ping":179},{"user_id":96,"name":"You like Mending?","steam_id":76561198135731629,"connected_time":2029000000000,"state":"active","ping":70},{"user_id":116,"name":"Matchstick","steam_id":76561198399856863,"connected_time":31000000000,"state":"spawning","ping":371},{"user_id":118,"name":"Gofoto","steam_id":76561199106987583,"connected_time":8000000000,"state":"spawning","ping":150},{"user_id":83,"name":"shelf","steam_id":76561198260021696,"connected_time":3378000000000,"state":"active","ping":134},{"user_id":77,"name":"StormyBoyo","steam_id":76561198273482774,"connected_time":3490000000000,"state":"spawning","ping":207},{"user_id":101,"name":"Squope","steam_id":76561198983129293,"connected_time":1688000000000,"state":"active","ping":40},{"user_id":115,"name":"Piss Covered","steam_id":76561198379727826,"connected_time":116000000000,"state":"spawning","ping":279},{"user_id":105,"name":"paddy","steam_id":76561198097588802,"connected_time":1584000000000,"state":"spawning","ping":157},{"user_id":106,"name":"Absurdly Obese Cat","steam_id":76561198073202543,"connected_time":1552000000000,"state":"spawning","ping":175},{"user_id":108,"name":"pinple","steam_id":76561198167075606,"connected_time":1498000000000,"state":"spawning","ping":343},{"user_id":111,"name":"E4Estrogen","steam_id":76561198085813708,"connected_time":1357000000000,"state":"spawning","ping":126},{"user_id":113,"name":"fred","steam_id":76561199065834574,"connected_time":1141000000000,"state":"spawning","ping":180},{"user_id":93,"name":"Nerrrd_","steam_id":76561198870129960,"connected_time":2469000000000,"state":"active","ping":62}]},{"server_id":142,"name":"Uncletopia | São Paulo | 1 | All Maps","name_short":"sao-1","host":"sao-1.br.uncletopia.com","port":27015,"enabled":true,"region":"sa","cc":"br","latitude":-23.533773,"longitude":-46.62529,"reserved":0,"last_update":"0001-01-01T00:00:00Z","name_a2s":"Uncletopia | São Paulo | 1 | All Maps","protocol":17,"map":"koth_lakeside_final","folder":"tf","game":"Team Fortress","app_id":440,"player_count":0,"max_players":24,"Bots":0,"server_type":"Dedicated","server_os":"Linux","password":true,"vac":true,"version":"7932396","steam_id":85568392924469996,"keywords":["cp","nocrits","nodmgspread","uncletopia"],"game_id":440,"stv_port":27016,"stv_name":"Uncletopia | São Paulo | 1 | All Maps | STV","players":null},{"server_id":143,"name":"Uncletopia | São Paulo | 2 | All Maps","name_short":"sao-2","host":"sao-2.br.uncletopia.com","port":27015,"enabled":true,"region":"sa","cc":"br","latitude":-23.533773,"longitude":-46.62529,"reserved":0,"last_update":"0001-01-01T00:00:00Z","name_a2s":"Uncletopia | São Paulo | 2 | All Maps","protocol":17,"map":"koth_cascade","folder":"tf","game":"Team Fortress","app_id":440,"player_count":0,"max_players":24,"Bots":0,"server_type":"Dedicated","server_os":"Linux","password":true,"vac":true,"version":"7932396","steam_id":85568392924485349,"keywords":["cp","nocrits","nodmgspread","uncletopia"],"game_id":440,"stv_port":27016,"stv_name":"Uncletopia | São Paulo | 2 | All Maps | STV","players":null},{"server_id":7,"name":"Uncletopia | Seattle | 1 | All Maps","name_short":"sea-1","host":"sea-1.us.uncletopia.com","port":27015,"enabled":true,"region":"us-west","cc":"us","latitude":47.608013,"longitude":-122.33517,"reserved":0,"last_update":"0001-01-01T00:00:00Z","name_a2s":"Uncletopia | Seattle | 1 | All Maps","protocol":17,"map":"pl_upward","folder":"tf","game":"Team Fortress","app_id":440,"player_count":2,"max_players":24,"Bots":0,"server_type":"Dedicated","server_os":"Linux","password":true,"vac":true,"version":"7932396","steam_id":85568392924469997,"keywords":["nocrits","nodmgspread","payload","uncletopia"],"game_id":440,"stv_port":27016,"stv_name":"Uncletopia | Seattle | 1 | All Maps | STV","players":[{"user_id":42,"name":"Ira","steam_id":76561198855586261,"connected_time":445000000000,"state":"active","ping":63},{"user_id":43,"name":"Themasterman75","steam_id":76561199385573293,"connected_time":411000000000,"state":"active","ping":57}]},{"server_id":119,"name":"Uncletopia | Seattle | 2 | All Maps","name_short":"sea-2","host":"sea-1.us.uncletopia.com","port":27025,"enabled":true,"region":"us-west","cc":"us","latitude":47.608013,"longitude":-122.33517,"reserved":0,"last_update":"0001-01-01T00:00:00Z","name_a2s":"Uncletopia | Seattle | 2 | All Maps","protocol":17,"map":"pl_badwater","folder":"tf","game":"Team Fortress","app_id":440,"player_count":24,"max_players":24,"Bots":0,"server_type":"Dedicated","server_os":"Linux","password":true,"vac":true,"version":"7932396","steam_id":85568392924469998,"keywords":["nocrits","nodmgspread","payload","uncletopia"],"game_id":440,"stv_port":27026,"stv_name":"Uncletopia | Seattle | 2 | All Maps | STV","players":[{"user_id":437,"name":"Emperor Mollusk","steam_id":76561197972382839,"connected_time":1044000000000,"state":"active","ping":59},{"user_id":430,"name":"Potato Knishes","steam_id":76561198063539547,"connected_time":1744000000000,"state":"active","ping":55},{"user_id":434,"name":"brhm","steam_id":76561198199604767,"connected_time":1186000000000,"state":"active","ping":48},{"user_id":438,"name":"||BassMan||","steam_id":76561198279865229,"connected_time":1015000000000,"state":"active","ping":91},{"user_id":429,"name":"The Good Shrek","steam_id":76561198138437738,"connected_time":1787000000000,"state":"active","ping":80},{"user_id":369,"name":"Dimple #TF2Center","steam_id":76561198980324190,"connected_time":5582000000000,"state":"active","ping":44},{"user_id":435,"name":"Sovereign","steam_id":76561198018841787,"connected_time":1110000000000,"state":"active","ping":30},{"user_id":442,"name":"Snozlar","steam_id":76561198113377459,"connected_time":13000000000,"state":"active","ping":46},{"user_id":433,"name":"Verdant","steam_id":76561198175496506,"connected_time":1200000000000,"state":"active","ping":72},{"user_id":428,"name":"Rebel_Vix","steam_id":76561199065107504,"connected_time":1911000000000,"state":"active","ping":100},{"user_id":425,"name":"Greskrendtregk","steam_id":76561197969553142,"connected_time":2089000000000,"state":"active","ping":51},{"user_id":410,"name":"louise sneeze","steam_id":76561198062451648,"connected_time":3083000000000,"state":"active","ping":88},{"user_id":439,"name":"oil","steam_id":76561198099980149,"connected_time":709000000000,"state":"active","ping":75},{"user_id":441,"name":"Feasent","steam_id":76561198987316504,"connected_time":16000000000,"state":"active","ping":54},{"user_id":389,"name":"Keamy","steam_id":76561199471434875,"connected_time":4479000000000,"state":"active","ping":35},{"user_id":420,"name":"litcherally in vents","steam_id":76561199169558959,"connected_time":2274000000000,"state":"active","ping":36},{"user_id":400,"name":"GudeGuy","steam_id":76561198011801747,"connected_time":3771000000000,"state":"active","ping":62},{"user_id":394,"name":"Fernando","steam_id":76561198443038047,"connected_time":4150000000000,"state":"active","ping":81},{"user_id":432,"name":"onlyfans ceo","steam_id":76561199013461400,"connected_time":1315000000000,"state":"active","ping":133},{"user_id":443,"name":"MyMonkeyBaby","steam_id":76561198046896670,"connected_time":8000000000,"state":"spawning","ping":44},{"user_id":444,"name":"Ockulus","steam_id":76561199069638460,"connected_time":7000000000,"state":"spawning","ping":73},{"user_id":408,"name":"greens beans","steam_id":76561198153611491,"connected_time":3425000000000,"state":"active","ping":37},{"user_id":406,"name":"selvhat","steam_id":76561198114225509,"connected_time":3530000000000,"state":"active","ping":72},{"user_id":436,"name":"trackpad gaming | f2p","steam_id":76561198840414371,"connected_time":1100000000000,"state":"active","ping":66}]},{"server_id":406,"name":"Uncletopia | Seattle | 3 | Stopwatch Beta","name_short":"sea-3","host":"sea-1.us.uncletopia.com","port":27035,"enabled":true,"region":"us-west","cc":"us","latitude":47.608013,"longitude":-122.33517,"reserved":0,"last_update":"0001-01-01T00:00:00Z","name_a2s":"Uncletopia | Seattle | 3 | Stopwatch Beta","protocol":17,"map":"workshop/koth_bagel_rc6.ugc2514036946","folder":"tf","game":"Team Fortress","app_id":440,"player_count":0,"max_players":24,"Bots":0,"server_type":"Dedicated","server_os":"Linux","password":true,"vac":true,"version":"7932396","steam_id":85568392924515217,"keywords":["cp","nocrits","nodmgspread","uncletopia"],"game_id":440,"stv_port":27036,"stv_name":"Uncletopia | Seattle | 3 | Stopwatch Beta | STV","players":null},{"server_id":17,"name":"Uncletopia | San Francisco | 1 | All Maps","name_short":"sfo-1","host":"sfo-1.us.uncletopia.com","port":27015,"enabled":true,"region":"us-west","cc":"us","latitude":37.77397,"longitude":-122.4313,"reserved":0,"last_update":"0001-01-01T00:00:00Z","name_a2s":"Uncletopia | San Francisco | 1 | All Maps","protocol":17,"map":"pl_badwater","folder":"tf","game":"Team Fortress","app_id":440,"player_count":0,"max_players":24,"Bots":0,"server_type":"Dedicated","server_os":"Linux","password":true,"vac":true,"version":"7932396","steam_id":85568392924469999,"keywords":["nocrits","nodmgspread","payload","uncletopia"],"game_id":440,"stv_port":27016,"stv_name":"Uncletopia | San Francisco | 1 | All Maps | STV","players":null},{"server_id":18,"name":"Uncletopia | San Francisco | 2 | All Maps","name_short":"sfo-2","host":"sfo-1.us.uncletopia.com","port":27025,"enabled":true,"region":"us-west","cc":"us","latitude":37.77397,"longitude":-122.4313,"reserved":0,"last_update":"0001-01-01T00:00:00Z","name_a2s":"Uncletopia | San Francisco | 2 | All Maps","protocol":17,"map":"cp_snakewater_final1","folder":"tf","game":"Team Fortress","app_id":440,"player_count":0,"max_players":24,"Bots":0,"server_type":"Dedicated","server_os":"Linux","password":true,"vac":true,"version":"7932396","steam_id":85568392924470000,"keywords":["cp","nocrits","nodmgspread","uncletopia"],"game_id":440,"stv_port":27026,"stv_name":"Uncletopia | San Francisco | 2 | All Maps | STV","players":null},{"server_id":19,"name":"Uncletopia | San Francisco | 3 | Stopwatch Beta","name_short":"sfo-3","host":"sfo-1.us.uncletopia.com","port":27035,"enabled":true,"region":"us-west","cc":"us","latitude":37.77397,"longitude":-122.4313,"reserved":0,"last_update":"0001-01-01T00:00:00Z","name_a2s":"Uncletopia | San Francisco | 3 | Stopwatch Beta","protocol":17,"map":"workshop/pl_vigil_rc9.ugc1266210012","folder":"tf","game":"Team Fortress","app_id":440,"player_count":0,"max_players":24,"Bots":0,"server_type":"Dedicated","server_os":"Linux","password":true,"vac":true,"version":"7932396","steam_id":85568392924742824,"keywords":["nocrits","nodmgspread","payload","uncletopia"],"game_id":440,"stv_port":27036,"stv_name":"Uncletopia | San Francisco | 3 | Stopwatch Beta | STV","players":null},{"server_id":20,"name":"Uncletopia | San Francisco | 4 | Community","name_short":"sfo-4","host":"sfo-1.us.uncletopia.com","port":27045,"enabled":true,"region":"us-west","cc":"us","latitude":37.77397,"longitude":-122.4313,"reserved":0,"last_update":"0001-01-01T00:00:00Z","name_a2s":"Uncletopia | San Francisco | 4 | Community","protocol":17,"map":"pl_borneo","folder":"tf","game":"Team Fortress","app_id":440,"player_count":0,"max_players":24,"Bots":0,"server_type":"Dedicated","server_os":"Linux","password":true,"vac":true,"version":"7932396","steam_id":85568392924742826,"keywords":["nocrits","nodmgspread","payload","uncletopia"],"game_id":440,"stv_port":27046,"stv_name":"Uncletopia | San Francisco | 4 | Community | STV","players":null},{"server_id":141,"name":"Uncletopia | Sydney | 1 | All Maps","name_short":"syd-1","host":"syd-1.au.uncletopia.com","port":27015,"enabled":true,"region":"au","cc":"au","latitude":-33.865143,"longitude":151.2099,"reserved":0,"last_update":"0001-01-01T00:00:00Z","name_a2s":"Uncletopia | Sydney | 1 | All Maps","protocol":17,"map":"pl_pier","folder":"tf","game":"Team Fortress","app_id":440,"player_count":0,"max_players":24,"Bots":0,"server_type":"Dedicated","server_os":"Linux","password":true,"vac":true,"version":"7932396","steam_id":85568392924470001,"keywords":["nocrits","nodmgspread","payload","uncletopia"],"game_id":440,"stv_port":27016,"stv_name":"Uncletopia | Sydney | 1 | All Maps | STV","players":null},{"server_id":123,"name":"Uncletopia | Sydney | 2 | All Maps","name_short":"syd-2","host":"syd-1.au.uncletopia.com","port":27025,"enabled":true,"region":"au","cc":"au","latitude":-33.865143,"longitude":151.2099,"reserved":0,"last_update":"0001-01-01T00:00:00Z","name_a2s":"Uncletopia | Sydney | 2 | All Maps","protocol":17,"map":"koth_lakeside_final","folder":"tf","game":"Team Fortress","app_id":440,"player_count":0,"max_players":24,"Bots":0,"server_type":"Dedicated","server_os":"Linux","password":true,"vac":true,"version":"7932396","steam_id":85568392924470002,"keywords":["cp","nocrits","nodmgspread","uncletopia"],"game_id":440,"stv_port":27026,"stv_name":"Uncletopia | Sydney | 2 | All Maps | STV","players":null},{"server_id":395,"name":"Uncletopia | Sydney | 3 | All Maps","name_short":"syd-3","host":"syd-1.au.uncletopia.com","port":27035,"enabled":true,"region":"au","cc":"au","latitude":-33.865143,"longitude":151.2099,"reserved":0,"last_update":"0001-01-01T00:00:00Z","name_a2s":"Uncletopia | Sydney | 3 | All Maps","protocol":17,"map":"pl_barnblitz","folder":"tf","game":"Team Fortress","app_id":440,"player_count":0,"max_players":24,"Bots":0,"server_type":"Dedicated","server_os":"Linux","password":true,"vac":true,"version":"7932396","steam_id":85568392925194467,"keywords":["nocrits","nodmgspread","payload","uncletopia"],"game_id":440,"stv_port":27036,"stv_name":"Uncletopia | Sydney | 3 | All Maps | STV","players":null},{"server_id":396,"name":"Uncletopia | Sydney | 4 | All Maps","name_short":"syd-4","host":"syd-1.au.uncletopia.com","port":27045,"enabled":true,"region":"au","cc":"au","latitude":-33.865143,"longitude":151.2099,"reserved":0,"last_update":"0001-01-01T00:00:00Z","name_a2s":"Uncletopia | Sydney | 4 | All Maps","protocol":17,"map":"pl_pier","folder":"tf","game":"Team Fortress","app_id":440,"player_count":0,"max_players":24,"Bots":0,"server_type":"Dedicated","server_os":"Linux","password":true,"vac":true,"version":"7932396","steam_id":85568392925397958,"keywords":["nocrits","nodmgspread","payload","uncletopia"],"game_id":440,"stv_port":27046,"stv_name":"Uncletopia | Sydney | 4 | All Maps | STV","players":null},{"server_id":58,"name":"Uncletopia | Sydney | 5 | Stopwatch Beta","name_short":"syd-5","host":"syd-1.au.uncletopia.com","port":27055,"enabled":true,"region":"au","cc":"au","latitude":-33.865143,"longitude":151.2099,"reserved":0,"last_update":"0001-01-01T00:00:00Z","name_a2s":"Uncletopia | Sydney | 5 | Stopwatch Beta","protocol":17,"map":"pl_borneo","folder":"tf","game":"Team Fortress","app_id":440,"player_count":0,"max_players":24,"Bots":0,"server_type":"Dedicated","server_os":"Linux","password":true,"vac":true,"version":"7932396","steam_id":85568392925397959,"keywords":["nocrits","nodmgspread","payload","uncletopia"],"game_id":440,"stv_port":27056,"stv_name":"Uncletopia | Sydney | 5 | Stopwatch Beta | STV","players":null},{"server_id":59,"name":"Uncletopia | Sydney | 6 | Community","name_short":"syd-6","host":"syd-1.au.uncletopia.com","port":27065,"enabled":true,"region":"au","cc":"au","latitude":-33.865143,"longitude":151.2099,"reserved":0,"last_update":"0001-01-01T00:00:00Z","name_a2s":"Uncletopia | Sydney | 6 | Community","protocol":17,"map":"pl_badwater","folder":"tf","game":"Team Fortress","app_id":440,"player_count":0,"max_players":24,"Bots":0,"server_type":"Dedicated","server_os":"Linux","password":true,"vac":true,"version":"7932396","steam_id":85568392925397960,"keywords":["nocrits","nodmgspread","payload","uncletopia"],"game_id":440,"stv_port":27066,"stv_name":"Uncletopia | Sydney | 6 | Community | STV","players":null},{"server_id":49,"name":"Uncletopia | Warsaw | 1 | All Maps","name_short":"waw-1","host":"waw-1.pl.uncletopia.com","port":27015,"enabled":true,"region":"eu","cc":"pl","latitude":52.2297,"longitude":21.017532,"reserved":0,"last_update":"0001-01-01T00:00:00Z","name_a2s":"","protocol":0,"map":"","folder":"","game":"","app_id":0,"player_count":0,"max_players":0,"Bots":0,"server_type":"","server_os":"","password":false,"vac":false,"version":"","steam_id":0,"keywords":null,"game_id":0,"stv_port":0,"stv_name":"","players":null},{"server_id":50,"name":"Uncletopia | Warsaw | 2 | All Maps","name_short":"waw-2","host":"waw-1.pl.uncletopia.com","port":27025,"enabled":true,"region":"eu","cc":"pl","latitude":52.2297,"longitude":21.017532,"reserved":0,"last_update":"0001-01-01T00:00:00Z","name_a2s":"Uncletopia | Warsaw | 2 | All Maps","protocol":17,"map":"pl_swiftwater_final1","folder":"tf","game":"Team Fortress","app_id":440,"player_count":23,"max_players":24,"Bots":0,"server_type":"Dedicated","server_os":"Linux","password":true,"vac":true,"version":"7932396","steam_id":85568392925397851,"keywords":["nocrits","nodmgspread","payload","uncletopia"],"game_id":440,"stv_port":27026,"stv_name":"Uncletopia | Warsaw | 2 | All Maps | STV","players":[{"user_id":253,"name":"ScudFXX","steam_id":76561198136603848,"connected_time":841000000000,"state":"active","ping":90},{"user_id":237,"name":"aki","steam_id":76561198997320513,"connected_time":2255000000000,"state":"active","ping":81},{"user_id":254,"name":"UglyTwinYgor","steam_id":76561198132718039,"connected_time":828000000000,"state":"active","ping":84},{"user_id":239,"name":"MyNameFish","steam_id":76561198286436653,"connected_time":2238000000000,"state":"active","ping":76},{"user_id":215,"name":"Alice can't hit pipes","steam_id":76561198052410860,"connected_time":3651000000000,"state":"active","ping":114},{"user_id":240,"name":"Rospower3","steam_id":76561198275432423,"connected_time":2140000000000,"state":"active","ping":79},{"user_id":241,"name":"lofimonkeyjazz","steam_id":76561198117059662,"connected_time":2126000000000,"state":"active","ping":101},{"user_id":70,"name":"Ixsus\u003c3","steam_id":76561198094756869,"connected_time":13646000000000,"state":"active","ping":76},{"user_id":220,"name":"Pacanaz","steam_id":76561198011514552,"connected_time":3256000000000,"state":"active","ping":63},{"user_id":255,"name":"V1","steam_id":76561198860424456,"connected_time":597000000000,"state":"active","ping":69},{"user_id":256,"name":"szmen","steam_id":76561198072569764,"connected_time":561000000000,"state":"active","ping":70},{"user_id":218,"name":"Syd","steam_id":76561198020515027,"connected_time":3489000000000,"state":"active","ping":67},{"user_id":139,"name":"1914","steam_id":76561198257383813,"connected_time":8627000000000,"state":"active","ping":45},{"user_id":140,"name":"real open player","steam_id":76561198148115584,"connected_time":8609000000000,"state":"active","ping":90},{"user_id":243,"name":"QR code 78","steam_id":76561198073749509,"connected_time":2101000000000,"state":"active","ping":69},{"user_id":244,"name":"KiT","steam_id":76561198043770371,"connected_time":2098000000000,"state":"active","ping":78},{"user_id":257,"name":"the catboy","steam_id":76561198236015506,"connected_time":555000000000,"state":"active","ping":125},{"user_id":229,"name":"confuseduser","steam_id":76561198269071237,"connected_time":2513000000000,"state":"active","ping":66},{"user_id":245,"name":"SunSill","steam_id":76561198159219899,"connected_time":2087000000000,"state":"active","ping":82},{"user_id":246,"name":"mike","steam_id":76561198365300285,"connected_time":2073000000000,"state":"active","ping":69},{"user_id":258,"name":"vurtun","steam_id":76561198857395274,"connected_time":374000000000,"state":"active","ping":72},{"user_id":259,"name":"Bydgoszcz Fighter","steam_id":76561199241107897,"connected_time":17000000000,"state":"spawning","ping":45},{"user_id":233,"name":"HayLeX","steam_id":76561198130997343,"connected_time":2419000000000,"state":"active","ping":107}]},{"server_id":51,"name":"Uncletopia | Warsaw | 3 | All Maps","name_short":"waw-3","host":"waw-1.pl.uncletopia.com","port":27035,"enabled":true,"region":"eu","cc":"pl","latitude":52.2297,"longitude":21.017532,"reserved":0,"last_update":"0001-01-01T00:00:00Z","name_a2s":"Uncletopia | Warsaw | 3 | All Maps","protocol":17,"map":"koth_lakeside_final","folder":"tf","game":"Team Fortress","app_id":440,"player_count":0,"max_players":24,"Bots":0,"server_type":"Dedicated","server_os":"Linux","password":true,"vac":true,"version":"7932396","steam_id":85568392925397852,"keywords":["cp","nocrits","nodmgspread","uncletopia"],"game_id":440,"stv_port":27036,"stv_name":"Uncletopia | Warsaw | 3 | All Maps | STV","players":null},{"server_id":52,"name":"Uncletopia | Warsaw | 4 | All Maps","name_short":"waw-4","host":"waw-1.pl.uncletopia.com","port":27045,"enabled":true,"region":"eu","cc":"pl","latitude":52.2297,"longitude":21.017532,"reserved":0,"last_update":"0001-01-01T00:00:00Z","name_a2s":"Uncletopia | Warsaw | 4 | All Maps","protocol":17,"map":"cp_mountainlab","folder":"tf","game":"Team Fortress","app_id":440,"player_count":2,"max_players":24,"Bots":0,"server_type":"Dedicated","server_os":"Linux","password":true,"vac":true,"version":"7932396","steam_id":85568392925397853,"keywords":["cp","nocrits","nodmgspread","uncletopia"],"game_id":440,"stv_port":27046,"stv_name":"Uncletopia | Warsaw | 4 | All Maps | STV","players":[{"user_id":6,"name":"Baffi Veirdo","steam_id":76561199087427800,"connected_time":265000000000,"state":"active","ping":30},{"user_id":7,"name":"emilsidor11","steam_id":76561199378001306,"connected_time":54000000000,"state":"active","ping":80}]},{"server_id":53,"name":"Uncletopia | Warsaw | 5 | Stopwatch Beta","name_short":"waw-5","host":"waw-1.pl.uncletopia.com","port":27055,"enabled":true,"region":"eu","cc":"pl","latitude":52.2297,"longitude":21.017532,"reserved":0,"last_update":"0001-01-01T00:00:00Z","name_a2s":"Uncletopia | Warsaw | 5 | Stopwatch Beta","protocol":17,"map":"pl_upward","folder":"tf","game":"Team Fortress","app_id":440,"player_count":0,"max_players":24,"Bots":0,"server_type":"Dedicated","server_os":"Linux","password":true,"vac":true,"version":"7932396","steam_id":85568392925397854,"keywords":["nocrits","nodmgspread","payload","uncletopia"],"game_id":440,"stv_port":27056,"stv_name":"Uncletopia | Warsaw | 5 | Stopwatch Beta | STV","players":null},{"server_id":54,"name":"Uncletopia | Warsaw | 6 | Community","name_short":"waw-6","host":"waw-1.pl.uncletopia.com","port":27065,"enabled":true,"region":"eu","cc":"pl","latitude":52.2297,"longitude":21.017532,"reserved":0,"last_update":"0001-01-01T00:00:00Z","name_a2s":"Uncletopia | Warsaw | 6 | Community","protocol":17,"map":"workshop/cp_bruhstbowl_b6.ugc2878604990","folder":"tf","game":"Team Fortress","app_id":440,"player_count":0,"max_players":24,"Bots":0,"server_type":"Dedicated","server_os":"Linux","password":true,"vac":true,"version":"7932396","steam_id":85568392925397856,"keywords":["cp","nocrits","nodmgspread","uncletopia"],"game_id":440,"stv_port":27066,"stv_name":"Uncletopia | Warsaw | 6 | Community | STV","players":null}]}