{"status":true,"message":"","result":[{"server_id":9,"name":"Uncletopia | Atlanta | 1 | All Maps","name_short":"atl-1","host":"atl-1.us.uncletopia.com","port":27015,"enabled":true,"region":"us-east","cc":"us","latitude":33.753746,"longitude":-84.38633,"reserved":0,"last_update":"0001-01-01T00:00:00Z","name_a2s":"Uncletopia | Atlanta | 1 | All Maps","protocol":17,"map":"pl_badwater","folder":"tf","game":"Team Fortress","app_id":440,"player_count":24,"max_players":24,"Bots":0,"server_type":"Dedicated","server_os":"Linux","password":true,"vac":true,"version":"7961495","steam_id":85568392924469982,"keywords":["nocrits","nodmgspread","payload","uncletopia"],"game_id":440,"stv_port":27016,"stv_name":"Uncletopia | Atlanta | 1 | All Maps | STV","players":[{"user_id":364,"name":"Intro Bonito","steam_id":76561198119478838,"connected_time":31000000000,"state":"active","ping":66},{"user_id":293,"name":"rose","steam_id":76561198048882285,"connected_time":4519000000000,"state":"active","ping":64},{"user_id":318,"name":"Sadge","steam_id":76561199087928712,"connected_time":2339000000000,"state":"active","ping":58},{"user_id":365,"name":"kite","steam_id":76561198346516392,"connected_time":28000000000,"state":"active","ping":77},{"user_id":304,"name":"SLaPPy- oNaSiS","steam_id":76561198009286862,"connected_time":3212000000000,"state":"active","ping":91},{"user_id":298,"name":"\u003e:3c","steam_id":76561198085815757,"connected_time":3804000000000,"state":"active","ping":75},{"user_id":243,"name":"ATL1 | on my hunting trip","steam_id":76561198315341646,"connected_time":6683000000000,"state":"active","ping":72},{"user_id":316,"name":"Lilith","steam_id":76561198125102885,"connected_time":2706000000000,"state":"active","ping":62},{"user_id":326,"name":"Krissy","steam_id":76561197960848174,"connected_time":1849000000000,"state":"active","ping":59},{"user_id":366,"name":"Λlxium","steam_id":76561198131272900,"connected_time":28000000000,"state":"active","ping":73},{"user_id":295,"name":"loot","steam_id":76561198069954956,"connected_time":4021000000000,"state":"active","ping":47},{"user_id":248,"name":"Nyle","steam_id":76561198045652639,"connected_time":6140000000000,"state":"active","ping":112},{"user_id":235,"name":"squaggles!","steam_id":76561197994995011,"connected_time":7343000000000,"state":"active","ping":30},{"user_id":323,"name":"Amestris","steam_id":76561198097284610,"connected_time":2057000000000,"state":"active","ping":67},{"user_id":324,"name":"sonikro","steam_id":76561197989428692,"connected_time":2050000000000,"state":"active","ping":62},{"user_id":355,"name":"Shame","steam_id":76561198100490994,"connected_time":930000000000,"state":"active","ping":56},{"user_id":317,"name":"hayes","steam_id":76561198057101042,"connected_time":2445000000000,"state":"active","ping":70},{"user_id":325,"name":"señor COCK","steam_id":76561198041643833,"connected_time":2028000000000,"state":"active","ping":92},{"user_id":296,"name":"Boneless Blithen","steam_id":76561197989955619,"connected_time":3816000000000,"state":"active","ping":125},{"user_id":344,"name":"HarryjusttHarry","steam_id":76561198982810452,"connected_time":1259000000000,"state":"active","ping":88},{"user_id":360,"name":"juanjoesc","steam_id":76561198186368430,"connected_time":520000000000,"state":"active","ping":108},{"user_id":358,"name":"[F2P] Chionophile Princess","steam_id":76561198082693090,"connected_time":568000000000,"state":"active","ping":63},{"user_id":320,"name":"Le4n!!!","steam_id":76561198045522596,"connected_time":2338000000000,"state":"active","ping":65},{"user_id":363,"name":"Jeane","steam_id":76561198151019322,"connected_time":498000000000,"state":"active","ping":87}]},{"server_id":104,"name":"Uncletopia | Atlanta | 2 | All Maps","name_short":"atl-2","host":"atl-1.us.uncletopia.com","port":27025,"enabled":true,"region":"us-east","cc":"us","latitude":33.753746,"longitude":-84.38633,"reserved":0,"last_update":"0001-01-01T00:00:00Z","name_a2s":"Uncletopia | Atlanta | 2 | All Maps","protocol":17,"map":"cp_fastlane","folder":"tf","game":"Team Fortress","app_id":440,"player_count":24,"max_players":24,"Bots":0,"server_type":"Dedicated","server_os":"Linux","password":true,"vac":true,"version":"7961495","steam_id":85568392924469983,"keywords":["cp","nocrits","nodmgspread","uncletopia"],"game_id":440,"stv_port":27026,"stv_name":"Uncletopia | Atlanta | 2 | All Maps | STV","players":[{"user_id":11,"name":"tac","steam_id":76561198408477421,"connected_time":13849000000000,"state":"active","ping":114},{"user_id":191,"name":"YoteDab McFapDab.jpg","steam_id":76561197984870380,"connected_time":2204000000000,"state":"active","ping":69},{"user_id":229,"name":"TheParanoidAndroid","steam_id":76561198024940715,"connected_time":223000000000,"state":"active","ping":77},{"user_id":165,"name":"The One True Luke","steam_id":76561198180891187,"connected_time":3692000000000,"state":"active","ping":68},{"user_id":226,"name":"Wooden E","steam_id":76561198020308956,"connected_time":268000000000,"state":"active","ping":46},{"user_id":232,"name":"Fourth Wall Repair Guy","steam_id":76561199038566105,"connected_time":91000000000,"state":"active","ping":72},{"user_id":221,"name":"Knuckles","steam_id":76561198000704259,"connected_time":550000000000,"state":"active","ping":57},{"user_id":161,"name":"brg","steam_id":76561197998415548,"connected_time":3797000000000,"state":"active","ping":69},{"user_id":228,"name":"antoniov00gaming","steam_id":76561198364632073,"connected_time":228000000000,"state":"active","ping":55},{"user_id":231,"name":"cotton","steam_id":76561198018652890,"connected_time":170000000000,"state":"active","ping":60},{"user_id":199,"name":"Tarr Boy","steam_id":76561198025775376,"connected_time":1390000000000,"state":"active","ping":76},{"user_id":215,"name":"King Cephalopod","steam_id":76561198040844220,"connected_time":720000000000,"state":"active","ping":76},{"user_id":213,"name":"Klip","steam_id":76561198316254429,"connected_time":735000000000,"state":"active","ping":75},{"user_id":189,"name":"WungoMungo","steam_id":76561198123039025,"connected_time":2240000000000,"state":"active","ping":77},{"user_id":140,"name":"Tang","steam_id":76561198121340574,"connected_time":4643000000000,"state":"active","ping":116},{"user_id":227,"name":"Pie","steam_id":76561198996610188,"connected_time":261000000000,"state":"active","ping":67},{"user_id":169,"name":"Micah","steam_id":76561198006837982,"connected_time":3271000000000,"state":"active","ping":88},{"user_id":209,"name":"Mr_MagicMan","steam_id":76561198372713689,"connected_time":1080000000000,"state":"active","ping":90},{"user_id":224,"name":"Okpar","steam_id":76561199221067945,"connected_time":341000000000,"state":"active","ping":71},{"user_id":203,"name":"murfree","steam_id":76561198045335319,"connected_time":1277000000000,"state":"active","ping":74},{"user_id":233,"name":"noel","steam_id":76561198128280883,"connected_time":90000000000,"state":"active","ping":85},{"user_id":216,"name":"Zhenaj","steam_id":76561199209016136,"connected_time":710000000000,"state":"active","ping":92},{"user_id":225,"name":"Agent Escoteiro","steam_id":76561198050994994,"connected_time":269000000000,"state":"active","ping":113},{"user_id":234,"name":"MrRojan","steam_id":76561197993760849,"connected_time":63000000000,"state":"active","ping":124}]},{"server_id":400,"name":"Uncletopia | Atlanta | 3 | Stopwatch","name_short":"atl-3","host":"atl-1.us.uncletopia.com","port":27035,"enabled":true,"region":"us-east","cc":"us","latitude":33.753746,"longitude":-84.38633,"reserved":0,"last_update":"0001-01-01T00:00:00Z","name_a2s":"Uncletopia | Atlanta | 3 | Stopwatch","protocol":17,"map":"workshop/pl_badwater_pro_v12.ugc2142942074","folder":"tf","game":"Team Fortress","app_id":440,"player_count":0,"max_players":24,"Bots":0,"server_type":"Dedicated","server_os":"Linux","password":true,"vac":true,"version":"7961495","steam_id":85568392924515187,"keywords":["nocrits","nodmgspread","payload","uncletopia"],"game_id":440,"stv_port":27036,"stv_name":"Uncletopia | Atlanta | 3 | Stopwatch | STV","players":null},{"server_id":401,"name":"Uncletopia | Atlanta | 4 | Community","name_short":"atl-4","host":"atl-1.us.uncletopia.com","port":27045,"enabled":true,"region":"us-east","cc":"us","latitude":33.753746,"longitude":-84.38633,"reserved":0,"last_update":"0001-01-01T00:00:00Z","name_a2s":"Uncletopia | Atlanta | 4 | Community","protocol":17,"map":"workshop/cp_alloy_rc3.ugc592805587","folder":"tf","game":"Team Fortress","app_id":440,"player_count":0,"max_players":24,"Bots":0,"server_type":"Dedicated","server_os":"Linux","password":true,"vac":true,"version":"7961495","steam_id":85568392924515188,"keywords":["cp","nocrits","nodmgspread","uncletopia"],"game_id":440,"stv_port":27046,"stv_name":"Uncletopia | Atlanta | 4 | Community | STV","players":null},{"server_id":2,"name":"Uncletopia | Chicago | 1 | All Maps","name_short":"chi-1","host":"chi-1.us.uncletopia.com","port":27015,"enabled":true,"region":"us-central","cc":"us","latitude":41.881832,"longitude":-87.62318,"reserved":0,"last_update":"0001-01-01T00:00:00Z","name_a2s":"Uncletopia | Chicago | 1 | All Maps","protocol":17,"map":"pl_barnblitz","folder":"tf","game":"Team Fortress","app_id":440,"player_count":24,"max_players":24,"Bots":0,"server_type":"Dedicated","server_os":"Linux","password":true,"vac":true,"version":"7961495","steam_id":85568392924469984,"keywords":["nocrits","nodmgspread","payload","uncletopia"],"game_id":440,"stv_port":27016,"stv_name":"Uncletopia | Chicago | 1 | All Maps | STV","players":[{"user_id":429,"name":"Filthy Acts at Reasonable Price","steam_id":76561198354615890,"connected_time":14000000000,"state":"active","ping":105},{"user_id":418,"name":"janitor","steam_id":76561198166433332,"connected_time":1062000000000,"state":"active","ping":100},{"user_id":360,"name":"SenpaiZetch","steam_id":76561199132227118,"connected_time":5216000000000,"state":"active","ping":81},{"user_id":419,"name":"flamingcookies","steam_id":76561198280864779,"connected_time":1058000000000,"state":"active","ping":62},{"user_id":382,"name":"Dogma","steam_id":76561198879961615,"connected_time":3548000000000,"state":"active","ping":56},{"user_id":402,"name":"FrostStorm","steam_id":76561198142685151,"connected_time":2879000000000,"state":"active","ping":66},{"user_id":416,"name":"White_Wizard_Named_Corona","steam_id":76561198055652735,"connected_time":1127000000000,"state":"active","ping":95},{"user_id":413,"name":"Astoriae!","steam_id":76561199090168858,"connected_time":1443000000000,"state":"active","ping":70},{"user_id":357,"name":"Your Local Queer Librarian","steam_id":76561198013077080,"connected_time":5573000000000,"state":"active","ping":59},{"user_id":381,"name":"Brawns","steam_id":76561198045190199,"connected_time":3633000000000,"state":"active","ping":73},{"user_id":428,"name":"Talented","steam_id":76561198800259660,"connected_time":66000000000,"state":"active","ping":58},{"user_id":320,"name":"richard clock","steam_id":76561198048455671,"connected_time":8245000000000,"state":"active","ping":61},{"user_id":420,"name":"autisthicc","steam_id":76561198003918928,"connected_time":1044000000000,"state":"active","ping":155},{"user_id":400,"name":"RealStanzy","steam_id":76561199060261003,"connected_time":2954000000000,"state":"active","ping":86},{"user_id":350,"name":"NeoTenico","steam_id":76561198025938411,"connected_time":6313000000000,"state":"active","ping":79},{"user_id":387,"name":"NikoOS (NO SOUND)","steam_id":76561198180020521,"connected_time":3490000000000,"state":"active","ping":117},{"user_id":406,"name":"You hate kissing boys,Don't you","steam_id":76561198996218460,"connected_time":2469000000000,"state":"active","ping":86},{"user_id":422,"name":"Zhukov","steam_id":76561199006602717,"connected_time":1002000000000,"state":"active","ping":83},{"user_id":361,"name":"Redsight","steam_id":76561198204999529,"connected_time":5160000000000,"state":"active","ping":88},{"user_id":412,"name":"Milkmur","steam_id":76561198210043821,"connected_time":1646000000000,"state":"active","ping":70},{"user_id":426,"name":"DJ Hogan","steam_id":76561198079963566,"connected_time":148000000000,"state":"active","ping":51},{"user_id":399,"name":"Gealach","steam_id":76561198803757663,"connected_time":3174000000000,"state":"active","ping":112},{"user_id":421,"name":"Cap'n Bill","steam_id":76561197969559549,"connected_time":1041000000000,"state":"active","ping":58},{"user_id":415,"name":"general.b","steam_id":76561198162480519,"connected_time":1311000000000,"state":"active","ping":56}]},{"server_id":106,"name":"Uncletopia | Chicago | 2 | All Maps","name_short":"chi-2","host":"chi-1.us.uncletopia.com","port":27025,"enabled":true,"region":"us-central","cc":"us","latitude":41.881832,"longitude":-87.62318,"reserved":0,"last_update":"0001-01-01T00:00:00Z","name_a2s":"Uncletopia | Chicago | 2 | All Maps","protocol":17,"map":"pl_frontier_final","folder":"tf","game":"Team Fortress","app_id":440,"player_count":24,"max_players":24,"Bots":0,"server_type":"Dedicated","server_os":"Linux","password":true,"vac":true,"version":"7961495","steam_id":85568392924469985,"keywords":["nocrits","nodmgspread","payload","uncletopia"],"game_id":440,"stv_port":27026,"stv_name":"Uncletopia | Chicago | 2 | All Maps | STV","players":[{"user_id":303,"name":"Captain","steam_id":76561198155723294,"connected_time":2789000000000,"state":"active","ping":53},{"user_id":328,"name":"fuck cheaters fr fr","steam_id":76561199060552704,"connected_time":992000000000,"state":"active","ping":71},{"user_id":331,"name":"phantom","steam_id":76561197963860777,"connected_time":550000000000,"state":"active","ping":58},{"user_id":327,"name":"Frost ♥","steam_id":76561198168870617,"connected_time":1064000000000,"state":"active","ping":70},{"user_id":338,"name":"Gram Tokers Count Doinkula","steam_id":76561198112811565,"connected_time":176000000000,"state":"active","ping":71},{"user_id":308,"name":"Beebo, Son of Beebo","steam_id":76561198055948497,"connected_time":2191000000000,"state":"active","ping":54},{"user_id":337,"name":"Dallas","steam_id":76561198066542919,"connected_time":183000000000,"state":"active","ping":96},{"user_id":280,"name":"HalfDead","steam_id":76561198049700226,"connected_time":4136000000000,"state":"active","ping":88},{"user_id":332,"name":"Monte","steam_id":76561198097499917,"connected_time":545000000000,"state":"active","ping":92},{"user_id":298,"name":"Xavibite","steam_id":76561198209380493,"connected_time":3262000000000,"state":"active","ping":62},{"user_id":333,"name":"a table","steam_id":76561198158461279,"connected_time":515000000000,"state":"active","ping":90},{"user_id":287,"name":"Remix.SMG","steam_id":76561198052895933,"connected_time":3917000000000,"state":"active","ping":75},{"user_id":325,"name":"PinkLemonade","steam_id":76561198799286228,"connected_time":1370000000000,"state":"active","ping":69},{"user_id":334,"name":"DuckKey","steam_id":76561198904477889,"connected_time":469000000000,"state":"active","ping":56},{"user_id":329,"name":"SANTA IS REAL","steam_id":76561199103766971,"connected_time":913000000000,"state":"active","ping":58},{"user_id":345,"name":"KillHard","steam_id":76561198169161972,"connected_time":44000000000,"state":"active","ping":83},{"user_id":315,"name":"booze cruiser","steam_id":76561198203395648,"connected_time":1795000000000,"state":"active","ping":81},{"user_id":344,"name":"YaBoyUlyssesG","steam_id":76561198042482742,"connected_time":56000000000,"state":"active","ping":86},{"user_id":306,"name":"DJThunderHeart","steam_id":76561198274197575,"connected_time":2549000000000,"state":"active","ping":71},{"user_id":326,"name":"Russet-Burbank Potato","steam_id":76561198010147684,"connected_time":1271000000000,"state":"active","ping":154},{"user_id":263,"name":"Snivy64","steam_id":76561198423445376,"connected_time":5567000000000,"state":"active","ping":96},{"user_id":335,"name":"Mickey","steam_id":76561197976868960,"connected_time":467000000000,"state":"active","ping":157},{"user_id":341,"name":"Snek","steam_id":76561199213496927,"connected_time":159000000000,"state":"active","ping":103},{"user_id":343,"name":"swagaholic","steam_id":76561199014715203,"connected_time":109000000000,"state":"active","ping":113}]},{"server_id":402,"name":"Uncletopia | Chicago | 3 | All Maps","name_short":"chi-3","host":"chi-1.us.uncletopia.com","port":27035,"enabled":true,"region":"us-central","cc":"us","latitude":41.881832,"longitude":-87.62318,"reserved":0,"last_update":"0001-01-01T00:00:00Z","name_a2s":"Uncletopia | Chicago | 3 | All Maps","protocol":17,"map":"pl_badwater","folder":"tf","game":"Team Fortress","app_id":440,"player_count":24,"max_players":24,"Bots":0,"server_type":"Dedicated","server_os":"Linux","password":true,"vac":true,"version":"7961495","steam_id":85568392924515191,"keywords":["nocrits","nodmgspread","payload","uncletopia"],"game_id":440,"stv_port":27036,"stv_name":"Uncletopia | Chicago | 3 | All Maps | STV","players":[{"user_id":288,"name":"himbo destroyer","steam_id":76561198268006443,"connected_time":437000000000,"state":"active","ping":81},{"user_id":289,"name":"dip n dops","steam_id":76561198115578117,"connected_time":436000000000,"state":"active","ping":82},{"user_id":283,"name":"silly lil guy (very whimsical)","steam_id":76561198420849507,"connected_time":664000000000,"state":"active","ping":70},{"user_id":284,"name":"sugoiboi48","steam_id":76561198060056280,"connected_time":632000000000,"state":"active","ping":59},{"user_id":199,"name":"Andrew Weber","steam_id":76561199359977174,"connected_time":5106000000000,"state":"active","ping":95},{"user_id":276,"name":"Ono","steam_id":76561198024377986,"connected_time":1135000000000,"state":"active","ping":89},{"user_id":290,"name":"Big Manny","steam_id":76561198999284997,"connected_time":377000000000,"state":"active","ping":114},{"user_id":245,"name":"Haha you didn't watch your back","steam_id":76561197987073279,"connected_time":2585000000000,"state":"active","ping":81},{"user_id":286,"name":"BooceMaster","steam_id":76561198148520318,"connected_time":589000000000,"state":"active","ping":71},{"user_id":293,"name":"PISS MANN","steam_id":76561199121903803,"connected_time":117000000000,"state":"active","ping":97},{"user_id":279,"name":"RestingImmortal","steam_id":76561198254240564,"connected_time":931000000000,"state":"active","ping":75},{"user_id":275,"name":"BOUZENZEL","steam_id":76561198095000722,"connected_time":1183000000000,"state":"active","ping":59},{"user_id":201,"name":"TrashPanda (she/her)","steam_id":76561198447864095,"connected_time":5048000000000,"state":"active","ping":89},{"user_id":292,"name":"P.C. Baby","steam_id":76561198067011379,"connected_time":132000000000,"state":"active","ping":117},{"user_id":280,"name":"lotus","steam_id":76561198177893343,"connected_time":930000000000,"state":"active","ping":76},{"user_id":281,"name":"midijamshred","steam_id":76561197999416403,"connected_time":852000000000,"state":"active","ping":60},{"user_id":191,"name":"yes daddy","steam_id":76561198166100997,"connected_time":6313000000000,"state":"active","ping":74},{"user_id":251,"name":"dogerich404","steam_id":76561199124102546,"connected_time":2282000000000,"state":"active","ping":111},{"user_id":248,"name":"A Puppy","steam_id":76561198828184456,"connected_time":2435000000000,"state":"active","ping":60},{"user_id":255,"name":"Kiss Master","steam_id":76561198289572271,"connected_time":1679000000000,"state":"active","ping":74},{"user_id":282,"name":"igotmail","steam_id":76561198070631899,"connected_time":792000000000,"state":"active","ping":68},{"user_id":230,"name":"Bobbn","steam_id":76561198876124683,"connected_time":3490000000000,"state":"active","ping":74},{"user_id":265,"name":"SIN K4RMA","steam_id":76561198869287223,"connected_time":1571000000000,"state":"active","ping":82}]},{"server_id":403,"name":"Uncletopia | Chicago | 4 | All Maps","name_short":"chi-4","host":"chi-1.us.uncletopia.com","port":27045,"enabled":true,"region":"us-central","cc":"us","latitude":41.881832,"longitude":-87.62318,"reserved":0,"last_update":"0001-01-01T00:00:00Z","name_a2s":"Uncletopia | Chicago | 4 | All Maps","protocol":17,"map":"pl_swiftwater_final1","folder":"tf","game":"Team Fortress","app_id":440,"player_count":24,"max_players":24,"Bots":0,"server_type":"Dedicated","server_os":"Linux","password":true,"vac":true,"version":"7961495","steam_id":85568392924515193,"keywords":["nocrits","nodmgspread","payload","uncletopia"],"game_id":440,"stv_port":27046,"stv_name":"Uncletopia | Chicago | 4 | All Maps | STV","players":[{"user_id":375,"name":"The Grim Heaper","steam_id":76561197987759101,"connected_time":1605000000000,"state":"active","ping":104},{"user_id":371,"name":"Anamm","steam_id":76561198328762510,"connected_time":1663000000000,"state":"active","ping":62},{"user_id":391,"name":"6 million bees","steam_id":76561198400438007,"connected_time":95000000000,"state":"active","ping":47},{"user_id":369,"name":"|WS| Don't_Taze_Me_Bro","steam_id":76561198043289495,"connected_time":1896000000000,"state":"active","ping":72},{"user_id":384,"name":"Kuwait Grips","steam_id":76561198292689973,"connected_time":1021000000000,"state":"active","ping":49},{"user_id":385,"name":"MelonLikeAFelon","steam_id":76561198060170336,"connected_time":1006000000000,"state":"active","ping":67},{"user_id":345,"name":"[SAW] Lost Darkrai","steam_id":76561198021034873,"connected_time":3965000000000,"state":"active","ping":70},{"user_id":338,"name":"FreshlyBrewed","steam_id":76561198181099881,"connected_time":4446000000000,"state":"active","ping":60},{"user_id":346,"name":"dave :3","steam_id":76561198135961731,"connected_time":3956000000000,"state":"active","ping":91},{"user_id":354,"name":"Jack Celliers","steam_id":76561198060983357,"connected_time":2745000000000,"state":"active","ping":62},{"user_id":331,"name":"mushroom taco","steam_id":76561198097554694,"connected_time":5105000000000,"state":"active","ping":63},{"user_id":392,"name":"Norriss","steam_id":76561198920296293,"connected_time":78000000000,"state":"active","ping":92},{"user_id":378,"name":"pogo","steam_id":76561198148913461,"connected_time":1348000000000,"state":"active","ping":60},{"user_id":366,"name":"Lord of Lizards","steam_id":76561198881852468,"connected_time":2377000000000,"state":"active","ping":79},{"user_id":395,"name":"Very Small Giant","steam_id":76561199187337967,"connected_time":37000000000,"state":"active","ping":61},{"user_id":381,"name":"rapscallion","steam_id":76561198188722751,"connected_time":1190000000000,"state":"active","ping":92},{"user_id":389,"name":"Cosmic Torgue","steam_id":76561198828724945,"connected_time":392000000000,"state":"active","ping":83},{"user_id":352,"name":"Erectnophobia","steam_id":76561198053743602,"connected_time":3164000000000,"state":"active","ping":41},{"user_id":393,"name":"chimpin","steam_id":76561198858089300,"connected_time":66000000000,"state":"active","ping":70},{"user_id":394,"name":"Specific Ocean","steam_id":76561198306922719,"connected_time":57000000000,"state":"active","ping":99},{"user_id":388,"name":"jehdye","steam_id":76561198284388342,"connected_time":488000000000,"state":"active","ping":45},{"user_id":383,"name":"[TF2Apples] Intense Green Apple","steam_id":76561198803561622,"connected_time":1135000000000,"state":"active","ping":88},{"user_id":396,"name":"Dzhoshua","steam_id":76561198071915251,"connected_time":26000000000,"state":"active","ping":69},{"user_id":397,"name":"lalman","steam_id":76561198196605887,"connected_time":17000000000,"state":"spawning","ping":68}]},{"server_id":36,"name":"Uncletopia | Chicago | 5 | All Maps","name_short":"chi-5","host":"chi-2.us.uncletopia.com","port":27015,"enabled":true,"region":"us-central","cc":"us","latitude":41.881832,"longitude":-87.62318,"reserved":0,"last_update":"0001-01-01T00:00:00Z","name_a2s":"Uncletopia | Chicago | 5 | All Maps","protocol":17,"map":"cp_snakewater_final1","folder":"tf","game":"Team Fortress","app_id":440,"player_count":24,"max_players":24,"Bots":0,"server_type":"Dedicated","server_os":"Linux","password":true,"vac":true,"version":"7961495","steam_id":85568392924866362,"keywords":["cp","nocrits","nodmgspread","uncletopia"],"game_id":440,"stv_port":27016,"stv_name":"Uncletopia | Chicago | 5 | All Maps | STV","players":[{"user_id":223,"name":"Adam (Cursed Confetti Creature)","steam_id":76561198317690197,"connected_time":3763000000000,"state":"active","ping":46},{"user_id":256,"name":"Garfield","steam_id":76561198147300599,"connected_time":1232000000000,"state":"active","ping":57},{"user_id":168,"name":"NUt","steam_id":76561198031007966,"connected_time":6961000000000,"state":"active","ping":60},{"user_id":254,"name":"Tom Dude","steam_id":76561198093913484,"connected_time":1431000000000,"state":"active","ping":52},{"user_id":257,"name":"dox","steam_id":76561198838245430,"connected_time":1206000000000,"state":"active","ping":69},{"user_id":231,"name":"Miner2495","steam_id":76561198445904523,"connected_time":3450000000000,"state":"active","ping":72},{"user_id":249,"name":"Marc Antony","steam_id":76561198011366517,"connected_time":1630000000000,"state":"active","ping":56},{"user_id":268,"name":"Master Oogway","steam_id":76561198051869638,"connected_time":231000000000,"state":"active","ping":60},{"user_id":246,"name":"CheekiBreeki","steam_id":76561198008596138,"connected_time":2003000000000,"state":"active","ping":83},{"user_id":217,"name":"[GU1Z] Palamute Jho","steam_id":76561199219936729,"connected_time":4134000000000,"state":"active","ping":85},{"user_id":250,"name":"Bucket Hat Trick","steam_id":76561198381785132,"connected_time":1628000000000,"state":"active","ping":94},{"user_id":215,"name":"I have no idea what I am doing?","steam_id":76561198093152207,"connected_time":4319000000000,"state":"active","ping":102},{"user_id":229,"name":"Lia_Rein TTV","steam_id":76561198151569597,"connected_time":3507000000000,"state":"active","ping":152},{"user_id":266,"name":"Sunflower","steam_id":76561198081223793,"connected_time":389000000000,"state":"active","ping":62},{"user_id":251,"name":"I Eat Money","steam_id":76561199226007666,"connected_time":1621000000000,"state":"active","ping":87},{"user_id":175,"name":"Odd Life","steam_id":76561198244979998,"connected_time":6387000000000,"state":"active","ping":110},{"user_id":244,"name":"Word To Your Mothership","steam_id":76561198034329138,"connected_time":2872000000000,"state":"active","ping":100},{"user_id":258,"name":"bladees realest, saddest verse","steam_id":76561198098099826,"connected_time":1206000000000,"state":"active","ping":107},{"user_id":260,"name":"Printypro","steam_id":76561199063254804,"connected_time":811000000000,"state":"active","ping":81},{"user_id":203,"name":"Frog Finance Gutter Justice","steam_id":76561198067247951,"connected_time":4969000000000,"state":"active","ping":62},{"user_id":267,"name":"dr. Doofenshmirtz","steam_id":76561199128878523,"connected_time":239000000000,"state":"active","ping":116},{"user_id":269,"name":"Darkmaen","steam_id":76561198060543390,"connected_time":226000000000,"state":"active","ping":142},{"user_id":237,"name":"MechaSixVII","steam_id":76561198014927379,"connected_time":3377000000000,"state":"active","ping":71},{"user_id":263,"name":"AbbyRoads","steam_id":76561198868564212,"connected_time":661000000000,"state":"active","ping":91}]},{"server_id":37,"name":"Uncletopia | Chicago | 6 | All Maps","name_short":"chi-6","host":"chi-2.us.uncletopia.com","port":27025,"enabled":true,"region":"us-central","cc":"us","latitude":41.881832,"longitude":-87.62318,"reserved":0,"last_update":"0001-01-01T00:00:00Z","name_a2s":"Uncletopia | Chicago | 6 | All Maps","protocol":17,"map":"pl_borneo","folder":"tf","game":"Team Fortress","app_id":440,"player_count":24,"max_players":24,"Bots":0,"server_type":"Dedicated","server_os":"Linux","password":true,"vac":true,"version":"7961495","steam_id":85568392924866363,"keywords":["nocrits","nodmgspread","payload","uncletopia"],"game_id":440,"stv_port":27026,"stv_name":"Uncletopia | Chicago | 6 | All Maps | STV","players":[{"user_id":116,"name":"TheOnlyDj101","steam_id":76561198798152859,"connected_time":1399000000000,"state":"active","ping":61},{"user_id":119,"name":"Sheev Palpatine","steam_id":76561198252332430,"connected_time":1380000000000,"state":"active","ping":65},{"user_id":115,"name":"Shrebbie","steam_id":76561198875230824,"connected_time":1428000000000,"state":"active","ping":57},{"user_id":136,"name":"canakblasteran","steam_id":76561199472518822,"connected_time":298000000000,"state":"active","ping":104},{"user_id":124,"name":"Yoshikage Kira","steam_id":76561198848930696,"connected_time":1237000000000,"state":"active","ping":48},{"user_id":64,"name":"TheGreythreat","steam_id":76561198021995538,"connected_time":5489000000000,"state":"active","ping":62},{"user_id":137,"name":"Seskova","steam_id":76561198090207032,"connected_time":295000000000,"state":"active","ping":112},{"user_id":66,"name":"HexT","steam_id":76561199085359931,"connected_time":5403000000000,"state":"active","ping":60},{"user_id":127,"name":"Nephi","steam_id":76561198031525122,"connected_time":978000000000,"state":"active","ping":85},{"user_id":133,"name":"Kaypo","steam_id":76561198262420097,"connected_time":531000000000,"state":"active","ping":61},{"user_id":135,"name":"King","steam_id":76561198123927752,"connected_time":404000000000,"state":"active","ping":47},{"user_id":120,"name":"alibi","steam_id":76561198079490000,"connected_time":1380000000000,"state":"active","ping":162},{"user_id":113,"name":"leeroy","steam_id":76561198226418600,"connected_time":2332000000000,"state":"active","ping":82},{"user_id":134,"name":"Inevitable","steam_id":76561198210050169,"connected_time":523000000000,"state":"active","ping":73},{"user_id":123,"name":"werecat","steam_id":76561198005091213,"connected_time":1293000000000,"state":"active","ping":62},{"user_id":109,"name":"mansteam905","steam_id":76561199488421021,"connected_time":3099000000000,"state":"active","ping":90},{"user_id":125,"name":"Yam Jazzy Jim","steam_id":76561198000788950,"connected_time":1203000000000,"state":"active","ping":71},{"user_id":104,"name":"doorlarkeded","steam_id":76561199439227968,"connected_time":3615000000000,"state":"active","ping":73},{"user_id":107,"name":"Rick Assley","steam_id":76561198365019199,"connected_time":3546000000000,"state":"active","ping":65},{"user_id":79,"name":"CyborgHexapus4","steam_id":76561198160335724,"connected_time":5237000000000,"state":"active","ping":104},{"user_id":122,"name":"dannytheboy","steam_id":76561198033042412,"connected_time":1367000000000,"state":"active","ping":48},{"user_id":132,"name":"JACK BRUNO","steam_id":76561198027957690,"connected_time":681000000000,"state":"active","ping":111},{"user_id":129,"name":"Boxcars","steam_id":76561198120978767,"connected_time":796000000000,"state":"active","ping":112},{"user_id":98,"name":"fish (2:3)","steam_id":76561198134331073,"connected_time":4282000000000,"state":"active","ping":110}]},{"server_id":38,"name":"Uncletopia | Chicago | 7 | Stopwatch","name_short":"chi-7","host":"chi-2.us.uncletopia.com","port":27035,"enabled":true,"region":"us-central","cc":"us","latitude":41.881832,"longitude":-87.62318,"reserved":0,"last_update":"0001-01-01T00:00:00Z","name_a2s":"Uncletopia | Chicago | 7 | Stopwatch","protocol":17,"map":"pl_badwater","folder":"tf","game":"Team Fortress","app_id":440,"player_count":0,"max_players":24,"Bots":0,"server_type":"Dedicated","server_os":"Linux","password":true,"vac":true,"version":"7961495","steam_id":85568392924866364,"keywords":["nocrits","nodmgspread","payload","uncletopia"],"game_id":440,"stv_port":27036,"stv_name":"Uncletopia | Chicago | 7 | Stopwatch | STV","players":null},{"server_id":39,"name":"Uncletopia | Chicago | 8 | Community","name_short":"chi-8","host":"chi-2.us.uncletopia.com","port":27045,"enabled":true,"region":"us-central","cc":"us","latitude":41.881832,"longitude":-87.62318,"reserved":0,"last_update":"0001-01-01T00:00:00Z","name_a2s":"Uncletopia | Chicago | 8 | Community","protocol":17,"map":"pl_pier","folder":"tf","game":"Team Fortress","app_id":440,"player_count":0,"max_players":24,"Bots":0,"server_type":"Dedicated","server_os":"Linux","password":true,"vac":true,"version":"7961495","steam_id":85568392924866365,"keywords":["nocrits","nodmgspread","payload","uncletopia"],"game_id":440,"stv_port":27046,"stv_name":"Uncletopia | Chicago | 8 | Community | STV","players":null},{"server_id":8,"name":"Uncletopia | Dallas | 1 | All Maps","name_short":"dal-1","host":"dal-1.us.uncletopia.com","port":27015,"enabled":true,"region":"us-central","cc":"us","latitude":32.779167,"longitude":-96.80889,"reserved":0,"last_update":"0001-01-01T00:00:00Z","name_a2s":"Uncletopia | Dallas | 1 | All Maps","protocol":17,"map":"pl_barnblitz","folder":"tf","game":"Team Fortress","app_id":440,"player_count":18,"max_players":24,"Bots":0,"server_type":"Dedicated","server_os":"Linux","password":true,"vac":true,"version":"7961495","steam_id":85568392924469986,"keywords":["nocrits","nodmgspread","payload","uncletopia"],"game_id":440,"stv_port":27016,"stv_name":"Uncletopia | Dallas | 1 | All Maps | STV","players":[{"user_id":310,"name":"vastrobotmax","steam_id":76561198417110724,"connected_time":1773000000000,"state":"active","ping":92},{"user_id":342,"name":"Rearranging furniture","steam_id":76561199054971009,"connected_time":1000000000,"state":"spawning","ping":50},{"user_id":339,"name":"xplodingminion","steam_id":76561199112173549,"connected_time":85000000000,"state":"active","ping":124},{"user_id":325,"name":"meat gun","steam_id":76561198029276785,"connected_time":1059000000000,"state":"active","ping":45},{"user_id":341,"name":"eh","steam_id":76561199132516320,"connected_time":50000000000,"state":"active","ping":102},{"user_id":326,"name":"Butt Cheese Wanky","steam_id":76561198006569710,"connected_time":997000000000,"state":"active","ping":94},{"user_id":327,"name":"Serenue","steam_id":76561199040361250,"connected_time":980000000000,"state":"active","ping":107},{"user_id":294,"name":"squarg","steam_id":76561198857911015,"connected_time":2598000000000,"state":"active","ping":55},{"user_id":330,"name":"NFL.com","steam_id":76561198113405376,"connected_time":779000000000,"state":"active","ping":75},{"user_id":331,"name":"Chalks","steam_id":76561198045978275,"connected_time":716000000000,"state":"active","ping":90},{"user_id":292,"name":"CadenLCheese","steam_id":76561199105517435,"connected_time":2737000000000,"state":"active","ping":99},{"user_id":324,"name":"tsz","steam_id":76561199246231090,"connected_time":1118000000000,"state":"active","ping":75},{"user_id":314,"name":"Horrowes","steam_id":76561198318446417,"connected_time":1545000000000,"state":"active","ping":94},{"user_id":336,"name":"Iaskedgaming","steam_id":76561199191154439,"connected_time":293000000000,"state":"active","ping":62},{"user_id":329,"name":"plutonium isotope","steam_id":76561198319442494,"connected_time":944000000000,"state":"active","ping":86},{"user_id":271,"name":"AKK0","steam_id":76561199063194145,"connected_time":3890000000000,"state":"active","ping":61},{"user_id":337,"name":"sobaka","steam_id":76561198116008934,"connected_time":199000000000,"state":"spawning","ping":75},{"user_id":323,"name":"walrus","steam_id":76561198057853319,"connected_time":1182000000000,"state":"active","ping":78}]},{"server_id":108,"name":"Uncletopia | Dallas | 2 | All Maps","name_short":"dal-2","host":"dal-1.us.uncletopia.com","port":27025,"enabled":true,"region":"us-central","cc":"us","latitude":32.779167,"longitude":-96.80889,"reserved":0,"last_update":"0001-01-01T00:00:00Z","name_a2s":"Uncletopia | Dallas | 2 | All Maps","protocol":17,"map":"pl_swiftwater_final1","folder":"tf","game":"Team Fortress","app_id":440,"player_count":24,"max_players":24,"Bots":0,"server_type":"Dedicated","server_os":"Linux","password":true,"vac":true,"version":"7961495","steam_id":85568392924469988,"keywords":["nocrits","nodmgspread","payload","uncletopia"],"game_id":440,"stv_port":27026,"stv_name":"Uncletopia | Dallas | 2 | All Maps | STV","players":[{"user_id":288,"name":"bhop","steam_id":76561198064885639,"connected_time":2545000000000,"state":"active","ping":99},{"user_id":312,"name":"og biden pack cart","steam_id":76561198253731826,"connected_time":629000000000,"state":"active","ping":80},{"user_id":155,"name":"Tabby!!!!","steam_id":76561198018288153,"connected_time":12285000000000,"state":"active","ping":61},{"user_id":321,"name":"Tommy Provolone","steam_id":76561198170062377,"connected_time":155000000000,"state":"active","ping":66},{"user_id":260,"name":"BitPieStudios","steam_id":76561198059216393,"connected_time":4278000000000,"state":"active","ping":81},{"user_id":294,"name":"CyMeryy","steam_id":76561197984986540,"connected_time":2401000000000,"state":"active","ping":60},{"user_id":313,"name":"mr poop","steam_id":76561199195196632,"connected_time":612000000000,"state":"active","ping":116},{"user_id":307,"name":"Angelmaster","steam_id":76561198815474379,"connected_time":1496000000000,"state":"active","ping":84},{"user_id":300,"name":"pyrotechnic","steam_id":76561198043558709,"connected_time":2138000000000,"state":"active","ping":104},{"user_id":304,"name":"Alkimia","steam_id":76561198385763137,"connected_time":1684000000000,"state":"active","ping":183},{"user_id":314,"name":"xXxSMASHERxXx","steam_id":76561198086907573,"connected_time":605000000000,"state":"active","ping":47},{"user_id":324,"name":"TofuCat","steam_id":76561198416746118,"connected_time":100000000000,"state":"active","ping":45},{"user_id":308,"name":"Lrd shwag","steam_id":76561198841016072,"connected_time":1278000000000,"state":"active","ping":111},{"user_id":229,"name":"baedeker","steam_id":76561199081837220,"connected_time":6134000000000,"state":"active","ping":71},{"user_id":292,"name":"Sergeant Joker LFT","steam_id":76561198854616604,"connected_time":2471000000000,"state":"active","ping":90},{"user_id":320,"name":"Smug","steam_id":76561198448205229,"connected_time":390000000000,"state":"active","ping":75},{"user_id":310,"name":"♦♣Quadric♥♠","steam_id":76561198061003853,"connected_time":742000000000,"state":"active","ping":91},{"user_id":315,"name":"bluedino1025","steam_id":76561198271910607,"connected_time":601000000000,"state":"active","ping":95},{"user_id":298,"name":"mokely","steam_id":76561198076483785,"connected_time":2254000000000,"state":"active","ping":45},{"user_id":299,"name":"Luggy","steam_id":76561198070559361,"connected_time":2243000000000,"state":"active","ping":62},{"user_id":316,"name":"IPad Gamer","steam_id":76561198151556270,"connected_time":596000000000,"state":"active","ping":74},{"user_id":317,"name":"K2f","steam_id":76561198049600563,"connected_time":578000000000,"state":"active","ping":80},{"user_id":287,"name":"zfasty","steam_id":76561198866750128,"connected_time":2719000000000,"state":"active","ping":43},{"user_id":318,"name":"Lain","steam_id":76561198029303534,"connected_time":516000000000,"state":"active","ping":70}]},{"server_id":404,"name":"Uncletopia | Dallas | 3 | All Maps","name_short":"dal-3","host":"dal-1.us.uncletopia.com","port":27035,"enabled":true,"region":"us-central","cc":"us","latitude":32.779167,"longitude":-96.80889,"reserved":0,"last_update":"0001-01-01T00:00:00Z","name_a2s":"Uncletopia | Dallas | 3 | All Maps","protocol":17,"map":"ctf_turbine","folder":"tf","game":"Team Fortress","app_id":440,"player_count":24,"max_players":24,"Bots":0,"server_type":"Dedicated","server_os":"Linux","password":true,"vac":true,"version":"7961495","steam_id":85568392924515219,"keywords":["ctf","nocrits","nodmgspread","uncletopia"],"game_id":440,"stv_port":27036,"stv_name":"Uncletopia | Dallas | 3 | All Maps | STV","players":[{"user_id":120,"name":"garf","steam_id":76561198451939128,"connected_time":3218000000000,"state":"active","ping":87},{"user_id":159,"name":"Jpxfred","steam_id":76561199414783749,"connected_time":577000000000,"state":"active","ping":88},{"user_id":166,"name":"American freedom bird","steam_id":76561198366142388,"connected_time":266000000000,"state":"active","ping":96},{"user_id":141,"name":"DJ_Smooth_Killa Games","steam_id":76561199051362337,"connected_time":1912000000000,"state":"active","ping":70},{"user_id":164,"name":"Ginger Jesus","steam_id":76561198052386458,"connected_time":281000000000,"state":"active","ping":88},{"user_id":142,"name":"minesert","steam_id":76561198372489883,"connected_time":1903000000000,"state":"active","ping":91},{"user_id":143,"name":"GothicRogue48","steam_id":76561199246864422,"connected_time":1897000000000,"state":"active","ping":89},{"user_id":160,"name":"PiolaCat","steam_id":76561199100535345,"connected_time":574000000000,"state":"active","ping":114},{"user_id":161,"name":"$limek✔ngEM0.an1me.B0Y_33309","steam_id":76561198283687382,"connected_time":565000000000,"state":"active","ping":69},{"user_id":98,"name":"Burny Sanders","steam_id":76561197961879048,"connected_time":5960000000000,"state":"active","ping":43},{"user_id":136,"name":"Grand Piano Tuna","steam_id":76561198135137213,"connected_time":2687000000000,"state":"active","ping":51},{"user_id":165,"name":"swagerman90020 from oblock","steam_id":76561199196918355,"connected_time":269000000000,"state":"active","ping":75},{"user_id":167,"name":"SolarusD","steam_id":76561198029279861,"connected_time":238000000000,"state":"active","ping":83},{"user_id":148,"name":"Mephein","steam_id":76561198189391623,"connected_time":1732000000000,"state":"active","ping":67},{"user_id":153,"name":"Chafn","steam_id":76561197969386702,"connected_time":1427000000000,"state":"active","ping":84},{"user_id":155,"name":"Humwrecker","steam_id":76561199003607331,"connected_time":1331000000000,"state":"active","ping":81},{"user_id":162,"name":"Matthew 10:39","steam_id":76561198121933439,"connected_time":554000000000,"state":"active","ping":87},{"user_id":157,"name":"Dinosaur","steam_id":76561199079626189,"connected_time":1207000000000,"state":"active","ping":75},{"user_id":126,"name":"Zana","steam_id":76561198075908156,"connected_time":3081000000000,"state":"active","ping":105},{"user_id":169,"name":"big play","steam_id":76561198011675372,"connected_time":198000000000,"state":"active","ping":111},{"user_id":93,"name":"R8 Me M8 8/8","steam_id":76561198025280917,"connected_time":6084000000000,"state":"active","ping":84},{"user_id":156,"name":"THE man is EPIC","steam_id":76561198085410777,"connected_time":1260000000000,"state":"active","ping":105},{"user_id":158,"name":"Rob","steam_id":76561199187786660,"connected_time":971000000000,"state":"active","ping":56},{"user_id":135,"name":"catfish from toontown","steam_id":76561198060070002,"connected_time":2723000000000,"state":"active","ping":59}]},{"server_id":405,"name":"Uncletopia | Dallas | 4 | Community","name_short":"dal-4","host":"dal-1.us.uncletopia.com","port":27045,"enabled":true,"region":"us-central","cc":"us","latitude":32.779167,"longitude":-96.80889,"reserved":0,"last_update":"0001-01-01T00:00:00Z","name_a2s":"Uncletopia | Dallas | 4 | Community","protocol":17,"map":"workshop/koth_slaughter_rc1.ugc1712845210","folder":"tf","game":"Team Fortress","app_id":440,"player_count":0,"max_players":24,"Bots":0,"server_type":"Dedicated","server_os":"Linux","password":true,"vac":true,"version":"7961495","steam_id":85568392924515220,"keywords":["cp","nocrits","nodmgspread","uncletopia"],"game_id":440,"stv_port":27046,"stv_name":"Uncletopia | Dallas | 4 | Community | STV","players":null},{"server_id":5,"name":"Uncletopia | Frankfurt | 1 | All Maps","name_short":"frk-1","host":"frk-1.de.uncletopia.com","port":27015,"enabled":true,"region":"eu","cc":"de","latitude":50.110924,"longitude":8.682127,"reserved":0,"last_update":"0001-01-01T00:00:00Z","name_a2s":"Uncletopia | Frankfurt | 1 | All Maps","protocol":17,"map":"cp_mercenarypark","folder":"tf","game":"Team Fortress","app_id":440,"player_count":15,"max_players":24,"Bots":0,"server_type":"Dedicated","server_os":"Linux","password":true,"vac":true,"version":"7961495","steam_id":85568392924469989,"keywords":["cp","nocrits","nodmgspread","uncletopia"],"game_id":440,"stv_port":27016,"stv_name":"Uncletopia | Frankfurt | 1 | All Maps | STV","players":[{"user_id":702,"name":"Ross from F.R.I.E.N.D.S.","steam_id":76561198008511665,"connected_time":139000000000,"state":"active","ping":55},{"user_id":690,"name":"Khrinde","steam_id":76561198036744526,"connected_time":1314000000000,"state":"active","ping":98},{"user_id":701,"name":"HRCR118","steam_id":76561199146388596,"connected_time":259000000000,"state":"active","ping":83},{"user_id":684,"name":"WasserGurke","steam_id":76561198372482746,"connected_time":1552000000000,"state":"active","ping":64},{"user_id":700,"name":"Dr. Gruno","steam_id":76561198815633513,"connected_time":371000000000,"state":"active","ping":107},{"user_id":654,"name":"Pathetic","steam_id":76561198081807049,"connected_time":3292000000000,"state":"active","ping":76},{"user_id":691,"name":"Khvicha Kvaraskhelia","steam_id":76561198985309519,"connected_time":1256000000000,"state":"active","ping":73},{"user_id":659,"name":"Gen","steam_id":76561198021775885,"connected_time":3068000000000,"state":"active","ping":46},{"user_id":683,"name":"Skyrider of Spaceways","steam_id":76561197991678236,"connected_time":1560000000000,"state":"active","ping":136},{"user_id":679,"name":"peeka","steam_id":76561198221122068,"connected_time":1738000000000,"state":"active","ping":60},{"user_id":646,"name":"Vershal Smershal","steam_id":76561198116223995,"connected_time":3396000000000,"state":"active","ping":65},{"user_id":686,"name":"Fidacha","steam_id":76561198003060881,"connected_time":1476000000000,"state":"active","ping":60},{"user_id":650,"name":"doug walker's trans awakening","steam_id":76561198190073005,"connected_time":3389000000000,"state":"active","ping":56},{"user_id":692,"name":"freeze9","steam_id":76561198062856371,"connected_time":998000000000,"state":"active","ping":93},{"user_id":653,"name":"agent youppii","steam_id":76561198055264447,"connected_time":3377000000000,"state":"active","ping":74}]},{"server_id":110,"name":"Uncletopia | Frankfurt | 2 | All Maps","name_short":"frk-2","host":"frk-1.de.uncletopia.com","port":27025,"enabled":true,"region":"eu","cc":"de","latitude":50.110924,"longitude":8.682127,"reserved":0,"last_update":"0001-01-01T00:00:00Z","name_a2s":"Uncletopia | Frankfurt | 2 | All Maps","protocol":17,"map":"pl_badwater","folder":"tf","game":"Team Fortress","app_id":440,"player_count":24,"max_players":24,"Bots":0,"server_type":"Dedicated","server_os":"Linux","password":true,"vac":true,"version":"7961495","steam_id":85568392924469990,"keywords":["nocrits","nodmgspread","payload","uncletopia"],"game_id":440,"stv_port":27026,"stv_name":"Uncletopia | Frankfurt | 2 | All Maps | STV","players":[{"user_id":614,"name":"Keith","steam_id":76561197988849295,"connected_time":1067000000000,"state":"active","ping":70},{"user_id":625,"name":"魔術師","steam_id":76561198049639319,"connected_time":196000000000,"state":"active","ping":68},{"user_id":584,"name":"Guy who did a thing","steam_id":76561199229531332,"connected_time":2155000000000,"state":"active","ping":168},{"user_id":590,"name":"Reimu","steam_id":76561198101532240,"connected_time":1859000000000,"state":"active","ping":71},{"user_id":598,"name":"A Pigeon","steam_id":76561198114090555,"connected_time":1455000000000,"state":"active","ping":64},{"user_id":604,"name":"Cosmic Gamer","steam_id":76561198027357981,"connected_time":1245000000000,"state":"active","ping":86},{"user_id":606,"name":"Dani","steam_id":76561198211627920,"connected_time":1214000000000,"state":"active","ping":75},{"user_id":626,"name":"mex :3","steam_id":76561198091083324,"connected_time":195000000000,"state":"active","ping":64},{"user_id":623,"name":"YAMOMOTO SHIGIKUNY","steam_id":76561198334724460,"connected_time":229000000000,"state":"active","ping":99},{"user_id":594,"name":"lawn","steam_id":76561198001243486,"connected_time":1615000000000,"state":"active","ping":60},{"user_id":607,"name":"Fabric","steam_id":76561198118742661,"connected_time":1213000000000,"state":"active","ping":97},{"user_id":624,"name":"Avalon","steam_id":76561199176781811,"connected_time":220000000000,"state":"active","ping":86},{"user_id":608,"name":"Vendedor de sacos do LIDL","steam_id":76561198301838757,"connected_time":1210000000000,"state":"active","ping":79},{"user_id":581,"name":"fl1p","steam_id":76561198148565659,"connected_time":2414000000000,"state":"active","ping":75},{"user_id":549,"name":"Accident","steam_id":76561198115160396,"connected_time":4574000000000,"state":"active","ping":70},{"user_id":609,"name":"kilo","steam_id":76561198015641339,"connected_time":1194000000000,"state":"active","ping":70},{"user_id":615,"name":"thia","steam_id":76561198186366599,"connected_time":1041000000000,"state":"active","ping":77},{"user_id":566,"name":"niremmar","steam_id":76561198031915349,"connected_time":3840000000000,"state":"active","ping":47},{"user_id":586,"name":"Constropic","steam_id":76561199433555557,"connected_time":2132000000000,"state":"active","ping":160},{"user_id":612,"name":"Futaro","steam_id":76561198084534929,"connected_time":1138000000000,"state":"active","ping":61},{"user_id":588,"name":"Hildreth","steam_id":76561197995254867,"connected_time":2080000000000,"state":"active","ping":59},{"user_id":582,"name":"_Starlight_","steam_id":76561197993885738,"connected_time":2402000000000,"state":"active","ping":86},{"user_id":622,"name":"Vitamin Weee","steam_id":76561199183937747,"connected_time":269000000000,"state":"active","ping":84},{"user_id":617,"name":"luma","steam_id":76561198081649669,"connected_time":956000000000,"state":"active","ping":61}]},{"server_id":308,"name":"Uncletopia | Frankfurt | 3 | All Maps","name_short":"frk-3","host":"frk-1.de.uncletopia.com","port":27035,"enabled":true,"region":"eu","cc":"de","latitude":50.110924,"longitude":8.682127,"reserved":0,"last_update":"0001-01-01T00:00:00Z","name_a2s":"Uncletopia | Frankfurt | 3 | All Maps","protocol":17,"map":"pl_borneo","folder":"tf","game":"Team Fortress","app_id":440,"player_count":24,"max_players":24,"Bots":0,"server_type":"Dedicated","server_os":"Linux","password":true,"vac":true,"version":"7961495","steam_id":85568392924504274,"keywords":["nocrits","nodmgspread","payload","uncletopia"],"game_id":440,"stv_port":27036,"stv_name":"Uncletopia | Frankfurt | 3 | All Maps | STV","players":[{"user_id":606,"name":"Mister","steam_id":76561199049647854,"connected_time":6628000000000,"state":"active","ping":51},{"user_id":668,"name":"Alibi","steam_id":76561198061845595,"connected_time":967000000000,"state":"active","ping":62},{"user_id":644,"name":"S. Krypt","steam_id":76561199387501738,"connected_time":3735000000000,"state":"active","ping":55},{"user_id":645,"name":"MR BUBBLES","steam_id":76561198019005259,"connected_time":3512000000000,"state":"active","ping":101},{"user_id":687,"name":"svift ceo","steam_id":76561198056930504,"connected_time":120000000000,"state":"active","ping":45},{"user_id":667,"name":"Silvio Dante","steam_id":76561198963804772,"connected_time":1317000000000,"state":"active","ping":88},{"user_id":675,"name":"hahaha","steam_id":76561198061233344,"connected_time":402000000000,"state":"active","ping":58},{"user_id":685,"name":"Lyncurion","steam_id":76561199260022725,"connected_time":151000000000,"state":"active","ping":76},{"user_id":688,"name":"Paste","steam_id":76561198139275322,"connected_time":78000000000,"state":"active","ping":89},{"user_id":618,"name":"mr.resetti","steam_id":76561198974520642,"connected_time":6185000000000,"state":"active","ping":59},{"user_id":672,"name":"Mr. Luigi","steam_id":76561198167312951,"connected_time":682000000000,"state":"active","ping":62},{"user_id":676,"name":"pootis sentry","steam_id":76561199225363633,"connected_time":392000000000,"state":"active","ping":120},{"user_id":632,"name":"Rebeliondog","steam_id":76561198056815609,"connected_time":4454000000000,"state":"active","ping":66},{"user_id":665,"name":"Relic","steam_id":76561199499093258,"connected_time":1984000000000,"state":"active","ping":58},{"user_id":643,"name":"MIGHTY PISS","steam_id":76561198226378616,"connected_time":3786000000000,"state":"active","ping":76},{"user_id":689,"name":"DOME","steam_id":76561198085155381,"connected_time":45000000000,"state":"active","ping":63},{"user_id":671,"name":"Christmas Ham","steam_id":76561198119601623,"connected_time":726000000000,"state":"active","ping":67},{"user_id":690,"name":"Jimmy Poppadopolos","steam_id":76561198044825612,"connected_time":42000000000,"state":"active","ping":57},{"user_id":660,"name":"Hellheim_Prime","steam_id":76561198379799377,"connected_time":2386000000000,"state":"active","ping":90},{"user_id":692,"name":"Ghento","steam_id":76561198029052762,"connected_time":25000000000,"state":"active","ping":37},{"user_id":655,"name":"Gaxkang","steam_id":76561198125768571,"connected_time":3136000000000,"state":"active","ping":69},{"user_id":670,"name":"Adamkarz","steam_id":76561198796428403,"connected_time":900000000000,"state":"active","ping":96},{"user_id":642,"name":"The Lady","steam_id":76561198029895809,"connected_time":3904000000000,"state":"active","ping":75},{"user_id":678,"name":"snakeghoul","steam_id":76561199018056408,"connected_time":379000000000,"state":"active","ping":74}]},{"server_id":309,"name":"Uncletopia | Frankfurt | 4 | All Maps","name_short":"frk-4","host":"frk-1.de.uncletopia.com","port":27045,"enabled":true,"region":"eu","cc":"de","latitude":50.110924,"longitude":8.682127,"reserved":0,"last_update":"0001-01-01T00:00:00Z","name_a2s":"Uncletopia | Frankfurt | 4 | All Maps","protocol":17,"map":"pl_borneo","folder":"tf","game":"Team Fortress","app_id":440,"player_count":24,"max_players":24,"Bots":0,"server_type":"Dedicated","server_os":"Linux","password":true,"vac":true,"version":"7961495","steam_id":85568392924504275,"keywords":["nocrits","nodmgspread","payload","uncletopia"],"game_id":440,"stv_port":27046,"stv_name":"Uncletopia | Frankfurt | 4 | All Maps | STV","players":[{"user_id":600,"name":"[HOL] Solringen","steam_id":76561198003584681,"connected_time":540000000000,"state":"active","ping":66},{"user_id":601,"name":"Cosmetic brain","steam_id":76561198055936410,"connected_time":419000000000,"state":"active","ping":90},{"user_id":554,"name":"Happy Broccol","steam_id":76561198180667795,"connected_time":2720000000000,"state":"active","ping":72},{"user_id":615,"name":"Andrea","steam_id":76561199487380678,"connected_time":233000000000,"state":"active","ping":99},{"user_id":598,"name":"Francis","steam_id":76561198987134265,"connected_time":757000000000,"state":"active","ping":73},{"user_id":492,"name":"Dr.eggmans Warcrime Lawyer","steam_id":76561198057707263,"connected_time":6157000000000,"state":"active","ping":62},{"user_id":545,"name":"Dirocks","steam_id":76561198138494815,"connected_time":2817000000000,"state":"active","ping":75},{"user_id":623,"name":"sleep addict","steam_id":76561198100694096,"connected_time":63000000000,"state":"active","ping":171},{"user_id":561,"name":"Der Herr Doktor","steam_id":76561198119476089,"connected_time":1931000000000,"state":"active","ping":110},{"user_id":566,"name":"corro","steam_id":76561197982510441,"connected_time":1855000000000,"state":"active","ping":45},{"user_id":562,"name":"Sunshine Moon","steam_id":76561198022604491,"connected_time":1919000000000,"state":"active","ping":91},{"user_id":624,"name":"finbar","steam_id":76561198056812396,"connected_time":38000000000,"state":"active","ping":82},{"user_id":604,"name":"Milk","steam_id":76561198125876588,"connected_time":409000000000,"state":"active","ping":55},{"user_id":605,"name":"Acey","steam_id":76561198114457284,"connected_time":373000000000,"state":"active","ping":60},{"user_id":616,"name":"Alessandro","steam_id":76561198167886699,"connected_time":217000000000,"state":"active","ping":59},{"user_id":572,"name":"highest noon","steam_id":76561199103959197,"connected_time":1757000000000,"state":"active","ping":86},{"user_id":579,"name":"tjuvjakt","steam_id":76561198214848887,"connected_time":1574000000000,"state":"active","ping":61},{"user_id":607,"name":"SDDA","steam_id":76561198932081702,"connected_time":338000000000,"state":"active","ping":89},{"user_id":609,"name":"cycusr","steam_id":76561198192249221,"connected_time":285000000000,"state":"active","ping":129},{"user_id":610,"name":"My left foot itches","steam_id":76561198078411001,"connected_time":270000000000,"state":"active","ping":78},{"user_id":614,"name":"waffle","steam_id":76561198298982212,"connected_time":248000000000,"state":"active","ping":74},{"user_id":619,"name":"pavyonspor","steam_id":76561198116530769,"connected_time":171000000000,"state":"active","ping":89},{"user_id":568,"name":"Dommy","steam_id":76561197990864747,"connected_time":1821000000000,"state":"active","ping":53},{"user_id":567,"name":"randompixel","steam_id":76561198003941207,"connected_time":1846000000000,"state":"active","ping":69}]},{"server_id":310,"name":"Uncletopia | Frankfurt | 5 | All Maps","name_short":"frk-5","host":"frk-1.de.uncletopia.com","port":27055,"enabled":true,"region":"eu","cc":"de","latitude":50.110924,"longitude":8.682127,"reserved":0,"last_update":"0001-01-01T00:00:00Z","name_a2s":"Uncletopia | Frankfurt | 5 | All Maps","protocol":17,"map":"pl_borneo","folder":"tf","game":"Team Fortress","app_id":440,"player_count":16,"max_players":24,"Bots":0,"server_type":"Dedicated","server_os":"Linux","password":true,"vac":true,"version":"7961495","steam_id":85568392924504277,"keywords":["nocrits","nodmgspread","payload","uncletopia"],"game_id":440,"stv_port":27056,"stv_name":"Uncletopia | Frankfurt | 5 | All Maps | STV","players":[{"user_id":858,"name":"cold#panda","steam_id":76561199220136710,"connected_time":177000000000,"state":"spawning","ping":134},{"user_id":849,"name":"Qwertuss","steam_id":76561198026305366,"connected_time":1366000000000,"state":"spawning","ping":56},{"user_id":853,"name":"smooth boy","steam_id":76561198370662372,"connected_time":666000000000,"state":"spawning","ping":71},{"user_id":778,"name":"Fat Scout","steam_id":76561199025316887,"connected_time":6016000000000,"state":"spawning","ping":75},{"user_id":859,"name":"Fikus","steam_id":76561198351444483,"connected_time":154000000000,"state":"active","ping":249},{"user_id":848,"name":"Flohr","steam_id":76561198191948841,"connected_time":1413000000000,"state":"active","ping":110},{"user_id":860,"name":"koffei","steam_id":76561198065683178,"connected_time":135000000000,"state":"spawning","ping":60},{"user_id":838,"name":"Noo-Noo","steam_id":76561198060242978,"connected_time":1695000000000,"state":"active","ping":88},{"user_id":855,"name":"TheWinter","steam_id":76561198285640556,"connected_time":530000000000,"state":"spawning","ping":336},{"user_id":857,"name":"Blax","steam_id":76561198377155387,"connected_time":314000000000,"state":"spawning","ping":63},{"user_id":815,"name":"chmiel156","steam_id":76561198079226529,"connected_time":3534000000000,"state":"active","ping":300},{"user_id":861,"name":"Miky","steam_id":76561198930263990,"connected_time":87000000000,"state":"spawning","ping":121},{"user_id":862,"name":"Moe Swanson","steam_id":76561198120035423,"connected_time":56000000000,"state":"spawning","ping":69},{"user_id":829,"name":"Memper","steam_id":76561198066700614,"connected_time":2193000000000,"state":"spawning","ping":262},{"user_id":797,"name":"smiley","steam_id":76561198042245117,"connected_time":4805000000000,"state":"active","ping":128},{"user_id":847,"name":"Vulgar Sexist","steam_id":76561198030598279,"connected_time":1485000000000,"state":"spawning","ping":308}]},{"server_id":311,"name":"Uncletopia | Frankfurt | 6 | All Maps","name_short":"frk-6","host":"frk-1.de.uncletopia.com","port":27065,"enabled":true,"region":"eu","cc":"de","latitude":50.110924,"longitude":8.682127,"reserved":0,"last_update":"0001-01-01T00:00:00Z","name_a2s":"Uncletopia | Frankfurt | 6 | All Maps","protocol":17,"map":"pl_badwater","folder":"tf","game":"Team Fortress","app_id":440,"player_count":23,"max_players":24,"Bots":0,"server_type":"Dedicated","server_os":"Linux","password":true,"vac":true,"version":"7961495","steam_id":85568392924504278,"keywords":["nocrits","nodmgspread","payload","uncletopia"],"game_id":440,"stv_port":27066,"stv_name":"Uncletopia | Frankfurt | 6 | All Maps | STV","players":[{"user_id":662,"name":"Ott","steam_id":76561198276464481,"connected_time":100000000000,"state":"active","ping":67},{"user_id":644,"name":"Elsuedi","steam_id":76561198074722832,"connected_time":3015000000000,"state":"active","ping":48},{"user_id":643,"name":"Frögg-Kät","steam_id":76561198263561004,"connected_time":3085000000000,"state":"active","ping":59},{"user_id":649,"name":"marty","steam_id":76561198082934864,"connected_time":2319000000000,"state":"active","ping":82},{"user_id":635,"name":"Lemon","steam_id":76561198188535947,"connected_time":3623000000000,"state":"active","ping":69},{"user_id":634,"name":"Mister Spuds","steam_id":76561198000878240,"connected_time":3801000000000,"state":"active","ping":59},{"user_id":609,"name":"ran is running","steam_id":76561199443185667,"connected_time":5298000000000,"state":"active","ping":131},{"user_id":650,"name":"the cart is not movin lads","steam_id":76561199184578185,"connected_time":2199000000000,"state":"active","ping":58},{"user_id":664,"name":"PxE","steam_id":76561198038034899,"connected_time":10000000000,"state":"spawning","ping":45},{"user_id":663,"name":"Limmy","steam_id":76561199369984807,"connected_time":65000000000,"state":"active","ping":80},{"user_id":591,"name":"Lartay","steam_id":76561198015277868,"connected_time":6785000000000,"state":"active","ping":45},{"user_id":653,"name":"1# autistic beast","steam_id":76561198451638173,"connected_time":1574000000000,"state":"active","ping":60},{"user_id":531,"name":"CzechMate #SaveTF2","steam_id":76561198012687703,"connected_time":10837000000000,"state":"active","ping":47},{"user_id":658,"name":"Yuval™ ❤Lennox","steam_id":76561198069144388,"connected_time":1096000000000,"state":"active","ping":121},{"user_id":602,"name":"Lord of Birds","steam_id":76561198268952995,"connected_time":5540000000000,"state":"active","ping":72},{"user_id":590,"name":"CT-9904","steam_id":76561199386703896,"connected_time":6885000000000,"state":"active","ping":61},{"user_id":604,"name":"\u003cGNGWD\u003e CrocAsaurus","steam_id":76561198213982408,"connected_time":5534000000000,"state":"active","ping":60},{"user_id":665,"name":"Silver","steam_id":76561198175238807,"connected_time":0,"state":"spawning","ping":43},{"user_id":654,"name":"hananamanna","steam_id":76561198006570285,"connected_time":1562000000000,"state":"active","ping":105},{"user_id":661,"name":"Snowmotion","steam_id":76561198075022454,"connected_time":668000000000,"state":"active","ping":56},{"user_id":575,"name":"Geit","steam_id":76561197998342021,"connected_time":8141000000000,"state":"active","ping":45},{"user_id":659,"name":"Xiqui","steam_id":76561198818386611,"connected_time":1007000000000,"state":"active","ping":83},{"user_id":660,"name":"TidB","steam_id":76561198055342304,"connected_time":837000000000,"state":"active","ping":47}]},{"server_id":23,"name":"Uncletopia | Frankfurt | 7 | Stopwatch","name_short":"frk-7","host":"frk-1.de.uncletopia.com","port":27075,"enabled":true,"region":"eu","cc":"de","latitude":50.110924,"longitude":8.682127,"reserved":0,"last_update":"0001-01-01T00:00:00Z","name_a2s":"Uncletopia | Frankfurt | 7 | Stopwatch","protocol":17,"map":"workshop/cp_process_f12.ugc2302948105","folder":"tf","game":"Team Fortress","app_id":440,"player_count":19,"max_players":24,"Bots":0,"server_type":"Dedicated","server_os":"Linux","password":true,"vac":true,"version":"7961495","steam_id":85568392924742827,"keywords":["cp","nocrits","nodmgspread","uncletopia"],"game_id":440,"stv_port":27076,"stv_name":"Uncletopia | Frankfurt | 7 | Stopwatch | STV","players":[{"user_id":597,"name":"CiVillain","steam_id":76561198059617732,"connected_time":112000000000,"state":"spawning","ping":107},{"user_id":589,"name":"Ozzie","steam_id":76561197992915315,"connected_time":571000000000,"state":"spawning","ping":95},{"user_id":554,"name":"lisivi","steam_id":76561198365503306,"connected_time":3247000000000,"state":"active","ping":95},{"user_id":577,"name":"Indomitable Truck-sama","steam_id":76561198826861582,"connected_time":1100000000000,"state":"spawning","ping":70},{"user_id":557,"name":"fifrok","steam_id":76561198799267621,"connected_time":2974000000000,"state":"spawning","ping":64},{"user_id":578,"name":"edward cullen from twilight","steam_id":76561198038827937,"connected_time":1069000000000,"state":"spawning","ping":93},{"user_id":558,"name":"Ptyś Pogromca","steam_id":76561199004413101,"connected_time":2962000000000,"state":"spawning","ping":149},{"user_id":593,"name":"Albon","steam_id":76561198060378881,"connected_time":221000000000,"state":"spawning","ping":88},{"user_id":549,"name":"LaZe","steam_id":76561198202191400,"connected_time":3607000000000,"state":"spawning","ping":198},{"user_id":560,"name":"prophits","steam_id":76561198011854314,"connected_time":2455000000000,"state":"active","ping":303},{"user_id":564,"name":"dirhs","steam_id":76561198383867611,"connected_time":2160000000000,"state":"spawning","ping":106},{"user_id":509,"name":"vi","steam_id":76561198303147966,"connected_time":5911000000000,"state":"spawning","ping":260},{"user_id":568,"name":"g19","steam_id":76561198159769052,"connected_time":1843000000000,"state":"spawning","ping":77},{"user_id":580,"name":"sloppy transgirl toppy","steam_id":76561198057092208,"connected_time":978000000000,"state":"spawning","ping":83},{"user_id":581,"name":"Guildy","steam_id":76561198015604164,"connected_time":975000000000,"state":"spawning","ping":79},{"user_id":587,"name":"Magnum Carlos","steam_id":76561197986026985,"connected_time":795000000000,"state":"spawning","ping":64},{"user_id":539,"name":"Rock..","steam_id":76561198004641963,"connected_time":4931000000000,"state":"active","ping":113},{"user_id":599,"name":"AsianPersuasion","steam_id":76561198202112536,"connected_time":58000000000,"state":"spawning","ping":75},{"user_id":595,"name":"slimcake07","steam_id":76561198826766828,"connected_time":212000000000,"state":"spawning","ping":64}]},{"server_id":24,"name":"Uncletopia | Frankfurt | 8 | Community","name_short":"frk-8","host":"frk-1.de.uncletopia.com","port":27085,"enabled":true,"region":"eu","cc":"de","latitude":50.110924,"longitude":8.682127,"reserved":0,"last_update":"0001-01-01T00:00:00Z","name_a2s":"Uncletopia | Frankfurt | 8 | Community","protocol":17,"map":"workshop/cp_fulgur_rc2a.ugc2068252300","folder":"tf","game":"Team Fortress","app_id":440,"player_count":0,"max_players":24,"Bots":0,"server_type":"Dedicated","server_os":"Linux","password":true,"vac":true,"version":"7961495","steam_id":85568392924742828,"keywords":["cp","nocrits","nodmgspread","uncletopia"],"game_id":440,"stv_port":27086,"stv_name":"Uncletopia | Frankfurt | 8 | Community | STV","players":null},{"server_id":202,"name":"Uncletopia | Hong Kong | 1 | All Maps","name_short":"hgk-1","host":"hgk-1.hk.uncletopia.com","port":27015,"enabled":true,"region":"asia","cc":"hk","latitude":22.302711,"longitude":114.177216,"reserved":0,"last_update":"0001-01-01T00:00:00Z","name_a2s":"Uncletopia | Hong Kong | 1 | All Maps","protocol":17,"map":"cp_altitude","folder":"tf","game":"Team Fortress","app_id":440,"player_count":0,"max_players":24,"Bots":0,"server_type":"Dedicated","server_os":"Linux","password":true,"vac":true,"version":"7961495","steam_id":85568392924494504,"keywords":["cp","nocrits","nodmgspread","uncletopia"],"game_id":440,"stv_port":27016,"stv_name":"Uncletopia | Hong Kong | 1 | All Maps | STV","players":null},{"server_id":1,"name":"Uncletopia | Los Angeles | 1 | All Maps","name_short":"lax-1","host":"lax-1.us.uncletopia.com","port":27015,"enabled":true,"region":"us-west","cc":"us","latitude":33.94279,"longitude":-118.41004,"reserved":0,"last_update":"0001-01-01T00:00:00Z","name_a2s":"Uncletopia | Los Angeles | 1 | All Maps","protocol":17,"map":"koth_lakeside_final","folder":"tf","game":"Team Fortress","app_id":440,"player_count":0,"max_players":24,"Bots":0,"server_type":"Dedicated","server_os":"Linux","password":true,"vac":true,"version":"7961495","steam_id":85568392924469991,"keywords":["cp","nocrits","nodmgspread","uncletopia"],"game_id":440,"stv_port":27016,"stv_name":"Uncletopia | Los Angeles | 1 | All Maps | STV","players":null},{"server_id":112,"name":"Uncletopia | Los Angeles | 2 | All Maps","name_short":"lax-2","host":"lax-1.us.uncletopia.com","port":27025,"enabled":true,"region":"us-west","cc":"us","latitude":33.94279,"longitude":-118.41004,"reserved":0,"last_update":"0001-01-01T00:00:00Z","name_a2s":"Uncletopia | Los Angeles | 2 | All Maps","protocol":17,"map":"koth_highpass","folder":"tf","game":"Team Fortress","app_id":440,"player_count":0,"max_players":24,"Bots":0,"server_type":"Dedicated","server_os":"Linux","password":true,"vac":true,"version":"7961495","steam_id":85568392924469992,"keywords":["cp","nocrits","nodmgspread","uncletopia"],"game_id":440,"stv_port":27026,"stv_name":"Uncletopia | Los Angeles | 2 | All Maps | STV","players":null},{"server_id":324,"name":"Uncletopia | Los Angeles | 3 | All Maps","name_short":"lax-3","host":"lax-1.us.uncletopia.com","port":27035,"enabled":true,"region":"us-west","cc":"us","latitude":33.94279,"longitude":-118.41004,"reserved":0,"last_update":"0001-01-01T00:00:00Z","name_a2s":"Uncletopia | Los Angeles | 3 | All Maps","protocol":17,"map":"pl_upward","folder":"tf","game":"Team Fortress","app_id":440,"player_count":24,"max_players":24,"Bots":0,"server_type":"Dedicated","server_os":"Linux","password":true,"vac":true,"version":"7961495","steam_id":85568392924510198,"keywords":["nocrits","nodmgspread","payload","uncletopia"],"game_id":440,"stv_port":27036,"stv_name":"Uncletopia | Los Angeles | 3 | All Maps | STV","players":[{"user_id":15,"name":"wizerd","steam_id":76561198342480009,"connected_time":2697000000000,"state":"active","ping":57},{"user_id":12,"name":"cielael","steam_id":76561198043971956,"connected_time":2882000000000,"state":"active","ping":47},{"user_id":13,"name":"hoOmIN","steam_id":76561198334947079,"connected_time":2747000000000,"state":"active","ping":43},{"user_id":14,"name":"heck","steam_id":76561198315694520,"connected_time":2741000000000,"state":"active","ping":47},{"user_id":22,"name":"♥ur :3 medic gf♥ (51ref/hr)","steam_id":76561198816778484,"connected_time":2233000000000,"state":"active","ping":85},{"user_id":17,"name":"noproblem82","steam_id":76561198370431307,"connected_time":2614000000000,"state":"active","ping":37},{"user_id":18,"name":"Brody Yukin","steam_id":76561198084712019,"connected_time":2569000000000,"state":"active","ping":55},{"user_id":36,"name":"lol","steam_id":76561198026491738,"connected_time":1931000000000,"state":"active","ping":69},{"user_id":38,"name":"NASA PEEPO","steam_id":76561198024982267,"connected_time":1853000000000,"state":"active","ping":62},{"user_id":56,"name":"rilby","steam_id":76561198132755619,"connected_time":779000000000,"state":"active","ping":37},{"user_id":48,"name":"philio2010","steam_id":76561199086384636,"connected_time":1294000000000,"state":"active","ping":61},{"user_id":27,"name":"hyaz, +rep.","steam_id":76561199100342013,"connected_time":2030000000000,"state":"active","ping":47},{"user_id":53,"name":"Bl0ckM4n","steam_id":76561199016413171,"connected_time":1046000000000,"state":"active","ping":84},{"user_id":30,"name":"lshot23432","steam_id":76561199122349101,"connected_time":2011000000000,"state":"active","ping":76},{"user_id":37,"name":"no vc no c","steam_id":76561197989503095,"connected_time":1909000000000,"state":"active","ping":165},{"user_id":57,"name":"He Come Down","steam_id":76561198232500756,"connected_time":775000000000,"state":"active","ping":88},{"user_id":60,"name":"Alice Hiiragi","steam_id":76561198094078478,"connected_time":735000000000,"state":"active","ping":52},{"user_id":63,"name":"KevinKendrick","steam_id":76561198364706359,"connected_time":230000000000,"state":"active","ping":83},{"user_id":55,"name":"Ethanol Buttchugger","steam_id":76561199127590316,"connected_time":832000000000,"state":"active","ping":63},{"user_id":62,"name":"moe","steam_id":76561198929586245,"connected_time":667000000000,"state":"active","ping":43},{"user_id":43,"name":"exx","steam_id":76561198090552145,"connected_time":1748000000000,"state":"active","ping":50},{"user_id":41,"name":"OutgoingBlur","steam_id":76561199087497070,"connected_time":1820000000000,"state":"active","ping":77},{"user_id":42,"name":"Bowling Alley Strike Animation","steam_id":76561198378587138,"connected_time":1812000000000,"state":"active","ping":55},{"user_id":66,"name":"Cheeseburglar","steam_id":76561198880267007,"connected_time":34000000000,"state":"spawning","ping":236}]},{"server_id":25,"name":"Uncletopia | Los Angeles | 4 | Stopwatch","name_short":"lax-4","host":"lax-1.us.uncletopia.com","port":27045,"enabled":true,"region":"us-west","cc":"us","latitude":33.94279,"longitude":-118.41004,"reserved":0,"last_update":"0001-01-01T00:00:00Z","name_a2s":"Uncletopia | Los Angeles | 4 | Stopwatch","protocol":17,"map":"pl_barnblitz","folder":"tf","game":"Team Fortress","app_id":440,"player_count":0,"max_players":24,"Bots":0,"server_type":"Dedicated","server_os":"Linux","password":true,"vac":true,"version":"7961495","steam_id":85568392924510199,"keywords":["nocrits","nodmgspread","payload","uncletopia"],"game_id":440,"stv_port":27046,"stv_name":"Uncletopia | Los Angeles | 4 | Stopwatch | STV","players":null},{"server_id":11,"name":"Uncletopia | London | 1 | All Maps","name_short":"lon-1","host":"lon-1.uk.uncletopia.com","port":27015,"enabled":true,"region":"eu","cc":"gb","latitude":51.509865,"longitude":-0.118092,"reserved":0,"last_update":"0001-01-01T00:00:00Z","name_a2s":"Uncletopia | London | 1 | All Maps","protocol":17,"map":"cp_sunshine","folder":"tf","game":"Team Fortress","app_id":440,"player_count":24,"max_players":24,"Bots":0,"server_type":"Dedicated","server_os":"Linux","password":true,"vac":true,"version":"7961495","steam_id":85568392924367362,"keywords":["cp","nocrits","nodmgspread","uncletopia"],"game_id":440,"stv_port":27016,"stv_name":"Uncletopia | London | 1 | All Maps | STV","players":[{"user_id":430,"name":"Trans Femtress 2","steam_id":76561198014056212,"connected_time":6414000000000,"state":"active","ping":69},{"user_id":414,"name":"getpost","steam_id":76561198260064876,"connected_time":8366000000000,"state":"active","ping":99},{"user_id":458,"name":"whimsy.","steam_id":76561198878171763,"connected_time":3172000000000,"state":"active","ping":48},{"user_id":457,"name":"SOPHIIAA","steam_id":76561198443798981,"connected_time":3190000000000,"state":"active","ping":73},{"user_id":454,"name":"hmscole09","steam_id":76561198811362788,"connected_time":3856000000000,"state":"active","ping":56},{"user_id":475,"name":"CRASH","steam_id":76561198125498315,"connected_time":903000000000,"state":"active","ping":50},{"user_id":477,"name":"Mirror","steam_id":76561197963954925,"connected_time":413000000000,"state":"active","ping":42},{"user_id":408,"name":"Finkaksu Devourer of Sour Candy","steam_id":76561198201389163,"connected_time":8566000000000,"state":"active","ping":69},{"user_id":472,"name":"Aaron","steam_id":76561197990046953,"connected_time":927000000000,"state":"active","ping":53},{"user_id":377,"name":"god's eepiest girl","steam_id":76561198128327529,"connected_time":11381000000000,"state":"active","ping":46},{"user_id":474,"name":"Bobirulez","steam_id":76561198009125458,"connected_time":917000000000,"state":"active","ping":89},{"user_id":476,"name":"Testy","steam_id":76561198169996602,"connected_time":900000000000,"state":"active","ping":57},{"user_id":455,"name":"Clown :o)","steam_id":76561198074657015,"connected_time":3484000000000,"state":"active","ping":55},{"user_id":442,"name":"Minimi","steam_id":76561198873850443,"connected_time":4787000000000,"state":"active","ping":43},{"user_id":427,"name":"❤aura❤","steam_id":76561198066258544,"connected_time":7151000000000,"state":"active","ping":63},{"user_id":456,"name":"Fwebbie","steam_id":76561199006875621,"connected_time":3245000000000,"state":"active","ping":49},{"user_id":363,"name":"goff","steam_id":76561198118989010,"connected_time":12116000000000,"state":"active","ping":59},{"user_id":439,"name":"impossible whopper eater","steam_id":76561198058641805,"connected_time":5555000000000,"state":"active","ping":59},{"user_id":470,"name":"Purps","steam_id":76561198053886680,"connected_time":937000000000,"state":"active","ping":33},{"user_id":441,"name":"Anri Okita's Massive Milkers","steam_id":76561199186352720,"connected_time":4958000000000,"state":"active","ping":60},{"user_id":444,"name":"Pinkchup","steam_id":76561198106802803,"connected_time":4768000000000,"state":"active","ping":76},{"user_id":451,"name":"♥ඞlilyඞ♥","steam_id":76561198049840460,"connected_time":3989000000000,"state":"active","ping":59},{"user_id":467,"name":"beebo","steam_id":76561199120277007,"connected_time":1992000000000,"state":"active","ping":41},{"user_id":424,"name":"gnarly business","steam_id":76561198832688767,"connected_time":7269000000000,"state":"active","ping":47}]},{"server_id":114,"name":"Uncletopia | London | 2 | All Maps","name_short":"lon-2","host":"lon-1.uk.uncletopia.com","port":27025,"enabled":true,"region":"eu","cc":"gb","latitude":51.509865,"longitude":-0.118092,"reserved":0,"last_update":"0001-01-01T00:00:00Z","name_a2s":"Uncletopia | London | 2 | All Maps","protocol":17,"map":"pl_upward","folder":"tf","game":"Team Fortress","app_id":440,"player_count":0,"max_players":24,"Bots":0,"server_type":"Dedicated","server_os":"Linux","password":true,"vac":true,"version":"7961495","steam_id":85568392924470941,"keywords":["nocrits","nodmgspread","payload","uncletopia"],"game_id":440,"stv_port":27026,"stv_name":"Uncletopia | London | 2 | All Maps | STV","players":null},{"server_id":320,"name":"Uncletopia | London | 3 | All Maps","name_short":"lon-3","host":"lon-1.uk.uncletopia.com","port":27035,"enabled":true,"region":"eu","cc":"gb","latitude":51.509865,"longitude":-0.118092,"reserved":0,"last_update":"0001-01-01T00:00:00Z","name_a2s":"Uncletopia | London | 3 | All Maps","protocol":17,"map":"koth_viaduct","folder":"tf","game":"Team Fortress","app_id":440,"player_count":24,"max_players":24,"Bots":0,"server_type":"Dedicated","server_os":"Linux","password":true,"vac":true,"version":"7961495","steam_id":85568392924510192,"keywords":["cp","nocrits","nodmgspread","uncletopia"],"game_id":440,"stv_port":27036,"stv_name":"Uncletopia | London | 3 | All Maps | STV","players":[{"user_id":705,"name":"Adwulf","steam_id":76561198045489942,"connected_time":931000000000,"state":"active","ping":40},{"user_id":664,"name":"Nox Equites","steam_id":76561198115438449,"connected_time":3890000000000,"state":"active","ping":86},{"user_id":685,"name":"ExtraFlames","steam_id":76561199136146246,"connected_time":2277000000000,"state":"active","ping":57},{"user_id":682,"name":"Just washed","steam_id":76561199030160932,"connected_time":2629000000000,"state":"active","ping":168},{"user_id":683,"name":"=flashpoint=","steam_id":76561197976774456,"connected_time":2447000000000,"state":"active","ping":40},{"user_id":692,"name":"Pvt. Prinny","steam_id":76561198030278562,"connected_time":1997000000000,"state":"active","ping":45},{"user_id":699,"name":"Gety0","steam_id":76561198044387185,"connected_time":1191000000000,"state":"active","ping":84},{"user_id":706,"name":"31","steam_id":76561198070639180,"connected_time":878000000000,"state":"active","ping":72},{"user_id":693,"name":"Dr. Peppino Spaghetti","steam_id":76561199121285443,"connected_time":1747000000000,"state":"active","ping":119},{"user_id":701,"name":"GoblinGaming","steam_id":76561198360395476,"connected_time":1058000000000,"state":"active","ping":40},{"user_id":663,"name":"Thobias18","steam_id":76561198232561380,"connected_time":3946000000000,"state":"active","ping":109},{"user_id":658,"name":"moocow916","steam_id":76561198040954339,"connected_time":4609000000000,"state":"active","ping":39},{"user_id":641,"name":"PeskyPlumber","steam_id":76561198241999094,"connected_time":6085000000000,"state":"active","ping":39},{"user_id":649,"name":"los pollos hermanos","steam_id":76561198988867951,"connected_time":5490000000000,"state":"active","ping":60},{"user_id":675,"name":"sv_MrGibbs","steam_id":76561198114071972,"connected_time":2811000000000,"state":"active","ping":47},{"user_id":657,"name":"omnibombulator","steam_id":76561198025858897,"connected_time":5047000000000,"state":"active","ping":51},{"user_id":645,"name":"mfw0071","steam_id":76561198111713446,"connected_time":5939000000000,"state":"active","ping":50},{"user_id":708,"name":"Fourged","steam_id":76561198082830930,"connected_time":220000000000,"state":"active","ping":63},{"user_id":695,"name":"thatCerv","steam_id":76561198037798308,"connected_time":1603000000000,"state":"active","ping":58},{"user_id":698,"name":"gaming (official)","steam_id":76561198106012909,"connected_time":1369000000000,"state":"active","ping":82},{"user_id":703,"name":"Prox","steam_id":76561198351490981,"connected_time":995000000000,"state":"active","ping":41},{"user_id":700,"name":"C3il_def.0","steam_id":76561198446759372,"connected_time":1072000000000,"state":"active","ping":97},{"user_id":707,"name":"Scottishwolf12","steam_id":76561199263476623,"connected_time":828000000000,"state":"active","ping":85},{"user_id":694,"name":"v0ddo","steam_id":76561198092745537,"connected_time":1630000000000,"state":"active","ping":58}]},{"server_id":321,"name":"Uncletopia | London | 4 | All Maps","name_short":"lon-4","host":"lon-1.uk.uncletopia.com","port":27045,"enabled":true,"region":"eu","cc":"gb","latitude":51.509865,"longitude":-0.118092,"reserved":0,"last_update":"0001-01-01T00:00:00Z","name_a2s":"Uncletopia | London | 4 | All Maps","protocol":17,"map":"cp_dustbowl","folder":"tf","game":"Team Fortress","app_id":440,"player_count":24,"max_players":24,"Bots":0,"server_type":"Dedicated","server_os":"Linux","password":true,"vac":true,"version":"7961495","steam_id":85568392924510193,"keywords":["cp","nocrits","nodmgspread","uncletopia"],"game_id":440,"stv_port":27046,"stv_name":"Uncletopia | London | 4 | All Maps | STV","players":[{"user_id":385,"name":"Przemomalin","steam_id":76561197987528170,"connected_time":3094000000000,"state":"active","ping":97},{"user_id":394,"name":"Amandus","steam_id":76561198036281079,"connected_time":1866000000000,"state":"active","ping":70},{"user_id":395,"name":"binhuwu","steam_id":76561198079200985,"connected_time":1864000000000,"state":"active","ping":59},{"user_id":407,"name":"BOZZO","steam_id":76561198044210844,"connected_time":927000000000,"state":"active","ping":85},{"user_id":408,"name":"._.","steam_id":76561198300316801,"connected_time":708000000000,"state":"active","ping":108},{"user_id":409,"name":"Themasterofgunz","steam_id":76561199180799338,"connected_time":700000000000,"state":"active","ping":62},{"user_id":380,"name":"siriusplay116","steam_id":76561199403847433,"connected_time":3305000000000,"state":"active","ping":56},{"user_id":400,"name":"King Sans","steam_id":76561198294198517,"connected_time":1773000000000,"state":"active","ping":110},{"user_id":410,"name":"Nick Chinchill","steam_id":76561198010601935,"connected_time":575000000000,"state":"active","ping":70},{"user_id":401,"name":"MinerJoe","steam_id":76561198152965734,"connected_time":1740000000000,"state":"active","ping":65},{"user_id":402,"name":"Sad","steam_id":76561198186704095,"connected_time":1721000000000,"state":"active","ping":55},{"user_id":386,"name":"Fifibat","steam_id":76561198132981027,"connected_time":3093000000000,"state":"active","ping":99},{"user_id":387,"name":"Ｌｕｎｄｅｒｓ儚","steam_id":76561198001599722,"connected_time":3045000000000,"state":"active","ping":94},{"user_id":388,"name":"❤G a n K","steam_id":76561199125995565,"connected_time":3011000000000,"state":"active","ping":78},{"user_id":397,"name":"Crimson","steam_id":76561197987552332,"connected_time":1847000000000,"state":"active","ping":56},{"user_id":406,"name":"Batters🌸","steam_id":76561198927992205,"connected_time":1178000000000,"state":"active","ping":51},{"user_id":390,"name":"simeswipe","steam_id":76561198188471097,"connected_time":2928000000000,"state":"active","ping":77},{"user_id":392,"name":"CrangSign","steam_id":76561198370580355,"connected_time":1902000000000,"state":"active","ping":49},{"user_id":367,"name":"cowböy","steam_id":76561198048990716,"connected_time":4078000000000,"state":"active","ping":96},{"user_id":398,"name":"TPD16","steam_id":76561198354138834,"connected_time":1829000000000,"state":"active","ping":66},{"user_id":405,"name":"Lunaria","steam_id":76561198175428545,"connected_time":1196000000000,"state":"active","ping":60},{"user_id":383,"name":"Zonddey","steam_id":76561198134885222,"connected_time":3240000000000,"state":"active","ping":56},{"user_id":384,"name":"jerkwaterberg","steam_id":76561198134165667,"connected_time":3225000000000,"state":"active","ping":48},{"user_id":399,"name":"Werjor","steam_id":76561198845777888,"connected_time":1817000000000,"state":"active","ping":45}]},{"server_id":21,"name":"Uncletopia | London | 5 | All Maps","name_short":"lon-5","host":"lon-1.uk.uncletopia.com","port":27055,"enabled":true,"region":"eu","cc":"gb","latitude":51.509865,"longitude":-0.118092,"reserved":0,"last_update":"0001-01-01T00:00:00Z","name_a2s":"Uncletopia | London | 5 | All Maps","protocol":17,"map":"pl_badwater","folder":"tf","game":"Team Fortress","app_id":440,"player_count":24,"max_players":24,"Bots":0,"server_type":"Dedicated","server_os":"Linux","password":true,"vac":true,"version":"7961495","steam_id":85568392924742829,"keywords":["nocrits","nodmgspread","payload","uncletopia"],"game_id":440,"stv_port":27056,"stv_name":"Uncletopia | London | 5 | All Maps | STV","players":[{"user_id":263,"name":"протыгаз","steam_id":76561198007822012,"connected_time":2107000000000,"state":"active","ping":76},{"user_id":282,"name":"Glitchas","steam_id":76561198883610618,"connected_time":1290000000000,"state":"active","ping":104},{"user_id":288,"name":"help","steam_id":76561199056338917,"connected_time":534000000000,"state":"active","ping":161},{"user_id":264,"name":"SpicyBoy","steam_id":76561198307856007,"connected_time":2071000000000,"state":"active","ping":98},{"user_id":277,"name":"NeonNewt","steam_id":76561198066699212,"connected_time":1413000000000,"state":"active","ping":54},{"user_id":246,"name":"Lappy","steam_id":76561198271783717,"connected_time":2916000000000,"state":"active","ping":65},{"user_id":252,"name":"RazingKain","steam_id":76561198271702102,"connected_time":2526000000000,"state":"active","ping":69},{"user_id":266,"name":"Loberless","steam_id":76561198277844777,"connected_time":2002000000000,"state":"active","ping":47},{"user_id":220,"name":"HoneyBe_","steam_id":76561198288930154,"connected_time":5177000000000,"state":"active","ping":63},{"user_id":248,"name":"Mr Wafflez72","steam_id":76561198098692698,"connected_time":2808000000000,"state":"active","ping":71},{"user_id":286,"name":"Luke SpyWalker","steam_id":76561198008643276,"connected_time":608000000000,"state":"active","ping":75},{"user_id":253,"name":"C++, Git and Linux Enjoyer","steam_id":76561198277310442,"connected_time":2516000000000,"state":"active","ping":85},{"user_id":254,"name":"jjbros68","steam_id":76561198193427089,"connected_time":2422000000000,"state":"active","ping":63},{"user_id":257,"name":"Bepis","steam_id":76561198139719533,"connected_time":2332000000000,"state":"active","ping":53},{"user_id":265,"name":"Narvhalø","steam_id":76561198147495474,"connected_time":2061000000000,"state":"active","ping":44},{"user_id":258,"name":"Oak","steam_id":76561198067315672,"connected_time":2320000000000,"state":"active","ping":45},{"user_id":292,"name":"9c","steam_id":76561198315632083,"connected_time":424000000000,"state":"active","ping":80},{"user_id":268,"name":"Hayds Gaming [TER] [TTN]","steam_id":76561199461851882,"connected_time":1980000000000,"state":"active","ping":61},{"user_id":289,"name":"Special Agent Big Smoke","steam_id":76561198154468827,"connected_time":500000000000,"state":"active","ping":73},{"user_id":290,"name":"Koroshy","steam_id":76561198104002221,"connected_time":480000000000,"state":"active","ping":56},{"user_id":293,"name":"f","steam_id":76561198382509396,"connected_time":18000000000,"state":"spawning","ping":59},{"user_id":272,"name":"OutOfDucks","steam_id":76561198166376227,"connected_time":1875000000000,"state":"active","ping":57},{"user_id":287,"name":"Qdarks","steam_id":76561198013391340,"connected_time":575000000000,"state":"active","ping":143},{"user_id":271,"name":"Nincom Poop","steam_id":76561198212368827,"connected_time":1963000000000,"state":"active","ping":87}]},{"server_id":22,"name":"Uncletopia | London | 6 | All Maps","name_short":"lon-6","host":"lon-1.uk.uncletopia.com","port":27065,"enabled":true,"region":"eu","cc":"gb","latitude":51.509865,"longitude":-0.118092,"reserved":0,"last_update":"0001-01-01T00:00:00Z","name_a2s":"Uncletopia | London | 6 | All Maps","protocol":17,"map":"pl_frontier_final","folder":"tf","game":"Team Fortress","app_id":440,"player_count":24,"max_players":24,"Bots":0,"server_type":"Dedicated","server_os":"Linux","password":true,"vac":true,"version":"7961495","steam_id":85568392924742830,"keywords":["nocrits","nodmgspread","payload","uncletopia"],"game_id":440,"stv_port":27066,"stv_name":"Uncletopia | London | 6 | All Maps | STV","players":[{"user_id":465,"name":"Margaret Thatcher","steam_id":76561198124463930,"connected_time":2442000000000,"state":"active","ping":43},{"user_id":466,"name":"TheBeardedM1G","steam_id":76561198040208946,"connected_time":2419000000000,"state":"active","ping":44},{"user_id":419,"name":"irritable vowel syndrome","steam_id":76561198117033273,"connected_time":6144000000000,"state":"active","ping":51},{"user_id":373,"name":"A Monster in Paris","steam_id":76561199067658590,"connected_time":8497000000000,"state":"active","ping":123},{"user_id":454,"name":"Demicore","steam_id":76561197976922136,"connected_time":3266000000000,"state":"active","ping":68},{"user_id":490,"name":"[FP] Rune","steam_id":76561198030842879,"connected_time":907000000000,"state":"active","ping":35},{"user_id":442,"name":"Locke","steam_id":76561198339408300,"connected_time":3902000000000,"state":"active","ping":55},{"user_id":474,"name":"Real (Real)","steam_id":76561198323425034,"connected_time":2020000000000,"state":"active","ping":71},{"user_id":402,"name":"Scout","steam_id":76561198992898803,"connected_time":6853000000000,"state":"active","ping":61},{"user_id":470,"name":"Ano","steam_id":76561198075054392,"connected_time":2115000000000,"state":"active","ping":71},{"user_id":445,"name":"Texan texting","steam_id":76561198833868695,"connected_time":3813000000000,"state":"active","ping":148},{"user_id":471,"name":"FROG IndigoJones","steam_id":76561198050284262,"connected_time":2090000000000,"state":"active","ping":47},{"user_id":480,"name":"Vastly Rigged","steam_id":76561198212991935,"connected_time":1769000000000,"state":"active","ping":96},{"user_id":498,"name":"MustangCricket","steam_id":76561197963408317,"connected_time":133000000000,"state":"active","ping":67},{"user_id":394,"name":"Nonok","steam_id":76561199480685498,"connected_time":6903000000000,"state":"active","ping":63},{"user_id":491,"name":"Chat Noir","steam_id":76561198069513598,"connected_time":816000000000,"state":"active","ping":73},{"user_id":492,"name":"Gerald Sprinter","steam_id":76561198110773463,"connected_time":810000000000,"state":"active","ping":84},{"user_id":475,"name":"Hurbalerb","steam_id":76561198175683646,"connected_time":2014000000000,"state":"active","ping":68},{"user_id":476,"name":"BLÅHAJ","steam_id":76561197996473698,"connected_time":2009000000000,"state":"active","ping":61},{"user_id":458,"name":"(MAC) [BN] Crazyking","steam_id":76561198001668616,"connected_time":3078000000000,"state":"active","ping":62},{"user_id":497,"name":"Keany","steam_id":76561199041393458,"connected_time":331000000000,"state":"active","ping":53},{"user_id":459,"name":"heavy sings (real)","steam_id":76561199023804405,"connected_time":3077000000000,"state":"active","ping":63},{"user_id":485,"name":"ROX","steam_id":76561198272289320,"connected_time":1588000000000,"state":"active","ping":57},{"user_id":495,"name":"Step back","steam_id":76561198063855616,"connected_time":719000000000,"state":"active","ping":74}]},{"server_id":40,"name":"Uncletopia | London | 7 | Stopwatch","name_short":"lon-7","host":"lon-1.uk.uncletopia.com","port":27075,"enabled":true,"region":"eu","cc":"gb","latitude":51.509865,"longitude":-0.118092,"reserved":0,"last_update":"0001-01-01T00:00:00Z","name_a2s":"Uncletopia | London | 7 | Stopwatch","protocol":17,"map":"workshop/koth_ramjam_rc1.ugc459778887","folder":"tf","game":"Team Fortress","app_id":440,"player_count":0,"max_players":24,"Bots":0,"server_type":"Dedicated","server_os":"Linux","password":true,"vac":true,"version":"7961495","steam_id":85568392924964314,"keywords":["cp","nocrits","nodmgspread","uncletopia"],"game_id":440,"stv_port":27076,"stv_name":"Uncletopia | London | 7 | Stopwatch | STV","players":null},{"server_id":41,"name":"Uncletopia | London | 8 | Community","name_short":"lon-8","host":"lon-1.uk.uncletopia.com","port":27085,"enabled":true,"region":"eu","cc":"gb","latitude":51.509865,"longitude":-0.118092,"reserved":0,"last_update":"0001-01-01T00:00:00Z","name_a2s":"Uncletopia | London | 8 | Community","protocol":17,"map":"workshop/cp_reckoner_rc6.ugc674719999","folder":"tf","game":"Team Fortress","app_id":440,"player_count":0,"max_players":24,"Bots":0,"server_type":"Dedicated","server_os":"Linux","password":true,"vac":true,"version":"7961495","steam_id":85568392924964315,"keywords":["cp","nocrits","nodmgspread","uncletopia"],"game_id":440,"stv_port":27086,"stv_name":"Uncletopia | London | 8 | Community | STV","players":null},{"server_id":300,"name":"Uncletopia | Montréal | 1 | One Thousand Uncles","name_short":"mtl-1","host":"mtl-1.ca.uncletopia.com","port":27015,"enabled":true,"region":"us-east","cc":"ca","latitude":45.50889,"longitude":-73.56167,"reserved":0,"last_update":"0001-01-01T00:00:00Z","name_a2s":"","protocol":0,"map":"","folder":"","game":"","app_id":0,"player_count":8,"max_players":0,"Bots":0,"server_type":"","server_os":"","password":false,"vac":false,"version":"","steam_id":0,"keywords":null,"game_id":0,"stv_port":0,"stv_name":"","players":[{"user_id":275,"name":"DjFloppy","steam_id":76561198212014625,"connected_time":236000000000,"state":"active","ping":110},{"user_id":276,"name":"con","steam_id":76561198850438326,"connected_time":133000000000,"state":"active","ping":49},{"user_id":252,"name":"5oc","steam_id":76561199196300397,"connected_time":1973000000000,"state":"active","ping":106},{"user_id":216,"name":"petitjayd22","steam_id":76561199389238003,"connected_time":3256000000000,"state":"active","ping":30},{"user_id":271,"name":"Strange Festive Femboy","steam_id":76561198050385093,"connected_time":1182000000000,"state":"active","ping":58},{"user_id":272,"name":"BIGMOOD","steam_id":76561199086966716,"connected_time":853000000000,"state":"active","ping":111},{"user_id":189,"name":"DrMisteryous2","steam_id":76561198336307012,"connected_time":5743000000000,"state":"active","ping":163},{"user_id":168,"name":"Opera","steam_id":76561198023557977,"connected_time":8654000000000,"state":"active","ping":84}]},{"server_id":301,"name":"Uncletopia | Montréal | 2 | One Thousand Uncles","name_short":"mtl-2","host":"mtl-1.ca.uncletopia.com","port":27025,"enabled":true,"region":"us-east","cc":"ca","latitude":45.50889,"longitude":-73.56167,"reserved":0,"last_update":"0001-01-01T00:00:00Z","name_a2s":"","protocol":0,"map":"","folder":"","game":"","app_id":0,"player_count":3,"max_players":0,"Bots":0,"server_type":"","server_os":"","password":false,"vac":false,"version":"","steam_id":0,"keywords":null,"game_id":0,"stv_port":0,"stv_name":"","players":[{"user_id":198,"name":"neo :)","steam_id":76561199092954930,"connected_time":888000000000,"state":"active","ping":45},{"user_id":170,"name":"BreadBread06","steam_id":76561198196914050,"connected_time":2170000000000,"state":"active","ping":101},{"user_id":176,"name":"ConnorWRM","steam_id":76561199350333302,"connected_time":1896000000000,"state":"active","ping":122}]},{"server_id":302,"name":"Uncletopia | Montréal | 3 | One Thousand Uncles","name_short":"mtl-3","host":"mtl-1.ca.uncletopia.com","port":27035,"enabled":true,"region":"us-east","cc":"ca","latitude":45.50889,"longitude":-73.56167,"reserved":0,"last_update":"0001-01-01T00:00:00Z","name_a2s":"","protocol":0,"map":"","folder":"","game":"","app_id":0,"player_count":0,"max_players":0,"Bots":0,"server_type":"","server_os":"","password":false,"vac":false,"version":"","steam_id":0,"keywords":null,"game_id":0,"stv_port":0,"stv_name":"","players":null},{"server_id":13,"name":"Uncletopia | New York City | 1 | All Maps","name_short":"nyc-1","host":"nyc-1.us.uncletopia.com","port":27015,"enabled":true,"region":"us-east","cc":"us","latitude":40.73061,"longitude":-73.93524,"reserved":0,"last_update":"0001-01-01T00:00:00Z","name_a2s":"Uncletopia | New York City | 1 | All Maps","protocol":17,"map":"pl_goldrush","folder":"tf","game":"Team Fortress","app_id":440,"player_count":24,"max_players":24,"Bots":0,"server_type":"Dedicated","server_os":"Linux","password":true,"vac":true,"version":"7961495","steam_id":85568392924469993,"keywords":["nocrits","nodmgspread","payload","uncletopia"],"game_id":440,"stv_port":27016,"stv_name":"Uncletopia | New York City | 1 | All Maps | STV","players":[{"user_id":381,"name":"Mooseanator 3000","steam_id":76561198060821243,"connected_time":2306000000000,"state":"active","ping":76},{"user_id":364,"name":"Necron","steam_id":76561197970864818,"connected_time":3249000000000,"state":"active","ping":85},{"user_id":397,"name":"Drake the Pixel","steam_id":76561198131824401,"connected_time":1014000000000,"state":"active","ping":40},{"user_id":403,"name":"Branston Pickle","steam_id":76561198071434716,"connected_time":452000000000,"state":"active","ping":69},{"user_id":402,"name":"Hellmonger","steam_id":76561198016058155,"connected_time":471000000000,"state":"active","ping":63},{"user_id":363,"name":"Cloud","steam_id":76561198954987128,"connected_time":3310000000000,"state":"active","ping":75},{"user_id":379,"name":"DeadSea","steam_id":76561198060532840,"connected_time":2351000000000,"state":"active","ping":88},{"user_id":369,"name":"flange","steam_id":76561198040182692,"connected_time":3152000000000,"state":"active","ping":107},{"user_id":399,"name":"ndvr","steam_id":76561199379200102,"connected_time":762000000000,"state":"active","ping":55},{"user_id":347,"name":"feleven","steam_id":76561198853721046,"connected_time":4180000000000,"state":"active","ping":56},{"user_id":322,"name":"tacofever","steam_id":76561198010966507,"connected_time":5273000000000,"state":"active","ping":110},{"user_id":388,"name":"Raven","steam_id":76561198112988615,"connected_time":1912000000000,"state":"active","ping":64},{"user_id":404,"name":"oink","steam_id":76561198111477518,"connected_time":369000000000,"state":"active","ping":150},{"user_id":374,"name":"Kraftlos","steam_id":76561198074350350,"connected_time":2747000000000,"state":"active","ping":60},{"user_id":367,"name":"wakeyfield","steam_id":76561198045675356,"connected_time":3209000000000,"state":"active","ping":64},{"user_id":400,"name":"BarrowBaron","steam_id":76561198013633236,"connected_time":725000000000,"state":"active","ping":65},{"user_id":394,"name":"Good Seed","steam_id":76561198013443319,"connected_time":1445000000000,"state":"active","ping":54},{"user_id":345,"name":"ottergauze","steam_id":76561198050523315,"connected_time":4285000000000,"state":"active","ping":123},{"user_id":393,"name":"shadow6","steam_id":76561197979807910,"connected_time":1640000000000,"state":"active","ping":107},{"user_id":401,"name":"Kale","steam_id":76561198088293094,"connected_time":473000000000,"state":"active","ping":38},{"user_id":405,"name":"mrappledumb","steam_id":76561199133590774,"connected_time":280000000000,"state":"active","ping":66},{"user_id":355,"name":"leer.","steam_id":76561198864458303,"connected_time":3997000000000,"state":"active","ping":59},{"user_id":361,"name":"Bigsumoslammer","steam_id":76561198044505076,"connected_time":3545000000000,"state":"active","ping":45},{"user_id":343,"name":"Xavi","steam_id":76561198337783795,"connected_time":4481000000000,"state":"active","ping":50}]},{"server_id":14,"name":"Uncletopia | New York City | 2 | All Maps","name_short":"nyc-2","host":"nyc-1.us.uncletopia.com","port":27025,"enabled":true,"region":"us-east","cc":"us","latitude":40.73061,"longitude":-73.93524,"reserved":0,"last_update":"0001-01-01T00:00:00Z","name_a2s":"Uncletopia | New York City | 2 | All Maps","protocol":17,"map":"koth_harvest_final","folder":"tf","game":"Team Fortress","app_id":440,"player_count":19,"max_players":24,"Bots":0,"server_type":"Dedicated","server_os":"Linux","password":true,"vac":true,"version":"7961495","steam_id":85568392924469994,"keywords":["cp","nocrits","nodmgspread","uncletopia"],"game_id":440,"stv_port":27026,"stv_name":"Uncletopia | New York City | 2 | All Maps | STV","players":[{"user_id":267,"name":"Bananaman","steam_id":76561198859221895,"connected_time":1233000000000,"state":"active","ping":70},{"user_id":278,"name":"Wafflehead","steam_id":76561198051895288,"connected_time":469000000000,"state":"active","ping":68},{"user_id":291,"name":"TheSmolPopato","steam_id":76561199076606348,"connected_time":59000000000,"state":"active","ping":80},{"user_id":242,"name":"BungusBillingsly","steam_id":76561198157542591,"connected_time":2437000000000,"state":"active","ping":65},{"user_id":272,"name":"Dieu-Sama","steam_id":76561198002075862,"connected_time":1157000000000,"state":"active","ping":74},{"user_id":280,"name":"carrot cake","steam_id":76561198055174915,"connected_time":407000000000,"state":"active","ping":74},{"user_id":269,"name":"Lex Fridman","steam_id":76561198353840477,"connected_time":1217000000000,"state":"active","ping":67},{"user_id":289,"name":"AstronautPug","steam_id":76561198162372709,"connected_time":225000000000,"state":"active","ping":74},{"user_id":282,"name":"frid","steam_id":76561198005806915,"connected_time":364000000000,"state":"active","ping":71},{"user_id":275,"name":"Unholy","steam_id":76561198058312481,"connected_time":1020000000000,"state":"active","ping":58},{"user_id":290,"name":"Prsm","steam_id":76561198053344995,"connected_time":203000000000,"state":"active","ping":40},{"user_id":283,"name":"Ashes | (She/Her)","steam_id":76561198122027532,"connected_time":361000000000,"state":"active","ping":84},{"user_id":284,"name":"milky","steam_id":76561198799267765,"connected_time":350000000000,"state":"active","ping":67},{"user_id":286,"name":"frenemy","steam_id":76561198011363677,"connected_time":296000000000,"state":"active","ping":81},{"user_id":287,"name":"this guys a real hoss haywood","steam_id":76561198016826181,"connected_time":291000000000,"state":"active","ping":57},{"user_id":178,"name":"Wahooka","steam_id":76561197962240925,"connected_time":7068000000000,"state":"active","ping":45},{"user_id":277,"name":"wowie","steam_id":76561199258176303,"connected_time":604000000000,"state":"active","ping":61},{"user_id":244,"name":"saurhead","steam_id":76561198132937722,"connected_time":2375000000000,"state":"active","ping":44},{"user_id":258,"name":"t.tv/FamilyGuyFunnyMoments277","steam_id":76561198416047580,"connected_time":2095000000000,"state":"active","ping":67}]},{"server_id":15,"name":"Uncletopia | New York City | 3 | Stopwatch","name_short":"nyc-3","host":"nyc-1.us.uncletopia.com","port":27035,"enabled":true,"region":"us-east","cc":"us","latitude":40.73061,"longitude":-73.93524,"reserved":0,"last_update":"0001-01-01T00:00:00Z","name_a2s":"Uncletopia | New York City | 3 | Stopwatch","protocol":17,"map":"workshop/koth_bagel_rc6.ugc2514036946","folder":"tf","game":"Team Fortress","app_id":440,"player_count":2,"max_players":24,"Bots":0,"server_type":"Dedicated","server_os":"Linux","password":true,"vac":true,"version":"7961495","steam_id":85568392924742820,"keywords":["cp","nocrits","nodmgspread","uncletopia"],"game_id":440,"stv_port":27036,"stv_name":"Uncletopia | New York City | 3 | Stopwatch | STV","players":[{"user_id":484,"name":"schizophrenic pyro","steam_id":76561198805603832,"connected_time":401000000000,"state":"active","ping":73},{"user_id":485,"name":"sloth (be nice im cringe)","steam_id":76561198047098172,"connected_time":342000000000,"state":"active","ping":62}]},{"server_id":16,"name":"Uncletopia | New York City | 4 | Community","name_short":"nyc-4","host":"nyc-1.us.uncletopia.com","port":27045,"enabled":true,"region":"us-east","cc":"us","latitude":40.73061,"longitude":-73.93524,"reserved":0,"last_update":"0001-01-01T00:00:00Z","name_a2s":"Uncletopia | New York City | 4 | Community","protocol":17,"map":"workshop/cp_glassworks_rc7a.ugc454118349","folder":"tf","game":"Team Fortress","app_id":440,"player_count":0,"max_players":24,"Bots":0,"server_type":"Dedicated","server_os":"Linux","password":true,"vac":true,"version":"7961495","steam_id":85568392924742821,"keywords":["cp","nocrits","nodmgspread","uncletopia"],"game_id":440,"stv_port":27046,"stv_name":"Uncletopia | New York City | 4 | Community | STV","players":null},{"server_id":142,"name":"Uncletopia | São Paulo | 1 | All Maps","name_short":"sao-1","host":"sao-1.br.uncletopia.com","port":27015,"enabled":true,"region":"sa","cc":"br","latitude":-23.533773,"longitude":-46.62529,"reserved":0,"last_update":"0001-01-01T00:00:00Z","name_a2s":"Uncletopia | São Paulo | 1 | All Maps","protocol":17,"map":"cp_altitude","folder":"tf","game":"Team Fortress","app_id":440,"player_count":0,"max_players":24,"Bots":0,"server_type":"Dedicated","server_os":"Linux","password":true,"vac":true,"version":"7961495","steam_id":85568392924469996,"keywords":["cp","nocrits","nodmgspread","uncletopia"],"game_id":440,"stv_port":27016,"stv_name":"Uncletopia | São Paulo | 1 | All Maps | STV","players":null},{"server_id":143,"name":"Uncletopia | São Paulo | 2 | Community","name_short":"sao-2","host":"sao-2.br.uncletopia.com","port":27015,"enabled":true,"region":"sa","cc":"br","latitude":-23.533773,"longitude":-46.62529,"reserved":0,"last_update":"0001-01-01T00:00:00Z","name_a2s":"Uncletopia | São Paulo | 2 | Community","protocol":17,"map":"workshop/cp_bruhstbowl_b6.ugc2878604990","folder":"tf","game":"Team Fortress","app_id":440,"player_count":0,"max_players":24,"Bots":0,"server_type":"Dedicated","server_os":"Linux","password":true,"vac":true,"version":"7961495","steam_id":85568392924485349,"keywords":["cp","nocrits","nodmgspread","uncletopia"],"game_id":440,"stv_port":27016,"stv_name":"Uncletopia | São Paulo | 2 | Community | STV","players":null},{"server_id":7,"name":"Uncletopia | Seattle | 1 | All Maps","name_short":"sea-1","host":"sea-1.us.uncletopia.com","port":27015,"enabled":true,"region":"us-west","cc":"us","latitude":47.608013,"longitude":-122.33517,"reserved":0,"last_update":"0001-01-01T00:00:00Z","name_a2s":"Uncletopia | Seattle | 1 | All Maps","protocol":17,"map":"cp_gullywash_final1","folder":"tf","game":"Team Fortress","app_id":440,"player_count":24,"max_players":24,"Bots":0,"server_type":"Dedicated","server_os":"Linux","password":true,"vac":true,"version":"7961495","steam_id":85568392924469997,"keywords":["cp","nocrits","nodmgspread","uncletopia"],"game_id":440,"stv_port":27016,"stv_name":"Uncletopia | Seattle | 1 | All Maps | STV","players":[{"user_id":314,"name":"assassincrazy18","steam_id":76561199465661561,"connected_time":3151000000000,"state":"active","ping":44},{"user_id":279,"name":"Fh","steam_id":76561198000903511,"connected_time":6234000000000,"state":"active","ping":69},{"user_id":326,"name":"Whimsy!","steam_id":76561197989578836,"connected_time":100000000000,"state":"active","ping":62},{"user_id":274,"name":"Cosmo","steam_id":76561199085643398,"connected_time":6282000000000,"state":"active","ping":77},{"user_id":303,"name":"evilOlive","steam_id":76561198106222025,"connected_time":4658000000000,"state":"active","ping":76},{"user_id":293,"name":"Melly","steam_id":76561198045867175,"connected_time":5122000000000,"state":"active","ping":62},{"user_id":319,"name":"Cheezbeargur","steam_id":76561198164702899,"connected_time":1795000000000,"state":"active","ping":69},{"user_id":260,"name":"Darkgigglemonster","steam_id":76561198870649125,"connected_time":7969000000000,"state":"active","ping":87},{"user_id":300,"name":"Batso","steam_id":76561198106589452,"connected_time":4867000000000,"state":"active","ping":76},{"user_id":321,"name":"amaz","steam_id":76561198386233160,"connected_time":1771000000000,"state":"active","ping":119},{"user_id":310,"name":"DaddyGalaxy","steam_id":76561198139697796,"connected_time":3535000000000,"state":"active","ping":57},{"user_id":315,"name":"zinnk","steam_id":76561198092081825,"connected_time":2783000000000,"state":"active","ping":57},{"user_id":262,"name":"Peppy","steam_id":76561198866629645,"connected_time":7956000000000,"state":"active","ping":60},{"user_id":307,"name":"♂ boss of this gym ♂","steam_id":76561198027102212,"connected_time":3822000000000,"state":"active","ping":60},{"user_id":318,"name":"slushy :))","steam_id":76561198135281802,"connected_time":2065000000000,"state":"active","ping":41},{"user_id":130,"name":"YOU WHAT?!","steam_id":76561198418679471,"connected_time":21728000000000,"state":"active","ping":105},{"user_id":259,"name":"sudoku_fiend","steam_id":76561198152029104,"connected_time":7987000000000,"state":"active","ping":79},{"user_id":304,"name":"Spectre","steam_id":76561198037535169,"connected_time":4295000000000,"state":"active","ping":71},{"user_id":320,"name":"lavender","steam_id":76561199069518286,"connected_time":1791000000000,"state":"active","ping":74},{"user_id":323,"name":"qck","steam_id":76561198075447647,"connected_time":1393000000000,"state":"active","ping":44},{"user_id":301,"name":"Whyamidoingthisaaaa","steam_id":76561199168837342,"connected_time":4852000000000,"state":"active","ping":106},{"user_id":322,"name":"Quigi","steam_id":76561198144645874,"connected_time":1715000000000,"state":"active","ping":75},{"user_id":287,"name":"Gm_Sweet","steam_id":76561199445091548,"connected_time":5631000000000,"state":"active","ping":60},{"user_id":325,"name":"camp3r","steam_id":76561197992870439,"connected_time":779000000000,"state":"active","ping":36}]},{"server_id":119,"name":"Uncletopia | Seattle | 2 | All Maps","name_short":"sea-2","host":"sea-1.us.uncletopia.com","port":27025,"enabled":true,"region":"us-west","cc":"us","latitude":47.608013,"longitude":-122.33517,"reserved":0,"last_update":"0001-01-01T00:00:00Z","name_a2s":"Uncletopia | Seattle | 2 | All Maps","protocol":17,"map":"cp_steel","folder":"tf","game":"Team Fortress","app_id":440,"player_count":24,"max_players":24,"Bots":0,"server_type":"Dedicated","server_os":"Linux","password":true,"vac":true,"version":"7961495","steam_id":85568392924469998,"keywords":["cp","nocrits","nodmgspread","uncletopia"],"game_id":440,"stv_port":27026,"stv_name":"Uncletopia | Seattle | 2 | All Maps | STV","players":[{"user_id":79,"name":"Noah1k","steam_id":76561199428633514,"connected_time":4423000000000,"state":"active","ping":54},{"user_id":126,"name":"Keamy","steam_id":76561199471434875,"connected_time":1925000000000,"state":"active","ping":43},{"user_id":150,"name":"randy from rimworld","steam_id":76561198030846888,"connected_time":343000000000,"state":"active","ping":105},{"user_id":127,"name":"SoldMyKidneyForCollege","steam_id":76561198096329559,"connected_time":1775000000000,"state":"active","ping":60},{"user_id":137,"name":"Spam The Alien","steam_id":76561199122290968,"connected_time":1038000000000,"state":"active","ping":55},{"user_id":151,"name":"yoshido","steam_id":76561198846313229,"connected_time":15000000000,"state":"spawning","ping":91},{"user_id":133,"name":"jayeskae","steam_id":76561198144220801,"connected_time":1174000000000,"state":"active","ping":44},{"user_id":139,"name":"Sudsen","steam_id":76561198370603787,"connected_time":991000000000,"state":"active","ping":62},{"user_id":146,"name":"Shrim","steam_id":76561198068455981,"connected_time":544000000000,"state":"active","ping":75},{"user_id":136,"name":"BlazedBunny","steam_id":76561198243610560,"connected_time":1112000000000,"state":"active","ping":68},{"user_id":118,"name":"Spare(8)Ball","steam_id":76561197982432995,"connected_time":2480000000000,"state":"active","ping":71},{"user_id":116,"name":"resh!","steam_id":76561198066619792,"connected_time":2762000000000,"state":"active","ping":75},{"user_id":119,"name":"MrYadaization","steam_id":76561198050770818,"connected_time":2477000000000,"state":"active","ping":46},{"user_id":125,"name":"wmjledger","steam_id":76561198443046861,"connected_time":2087000000000,"state":"active","ping":48},{"user_id":135,"name":"Sassy","steam_id":76561197977382238,"connected_time":1158000000000,"state":"active","ping":59},{"user_id":82,"name":"ArjayTheWeenie","steam_id":76561198275999294,"connected_time":4405000000000,"state":"active","ping":45},{"user_id":121,"name":"Jeeby","steam_id":76561198080299839,"connected_time":2385000000000,"state":"active","ping":60},{"user_id":84,"name":"Nassu","steam_id":76561198147367577,"connected_time":4385000000000,"state":"active","ping":104},{"user_id":130,"name":"Dimple","steam_id":76561198980324190,"connected_time":1364000000000,"state":"active","ping":58},{"user_id":148,"name":"Reiner","steam_id":76561199201762178,"connected_time":388000000000,"state":"active","ping":115},{"user_id":140,"name":"GamerPuff","steam_id":76561198364506859,"connected_time":987000000000,"state":"active","ping":110},{"user_id":147,"name":"Boone","steam_id":76561198398931575,"connected_time":462000000000,"state":"active","ping":86},{"user_id":143,"name":"Random Person","steam_id":76561198990531385,"connected_time":953000000000,"state":"active","ping":67},{"user_id":131,"name":"havarti gaming","steam_id":76561198069895678,"connected_time":1364000000000,"state":"active","ping":60}]},{"server_id":406,"name":"Uncletopia | Seattle | 3 | Stopwatch","name_short":"sea-3","host":"sea-1.us.uncletopia.com","port":27035,"enabled":true,"region":"us-west","cc":"us","latitude":47.608013,"longitude":-122.33517,"reserved":0,"last_update":"0001-01-01T00:00:00Z","name_a2s":"Uncletopia | Seattle | 3 | Stopwatch","protocol":17,"map":"pl_upward","folder":"tf","game":"Team Fortress","app_id":440,"player_count":0,"max_players":24,"Bots":0,"server_type":"Dedicated","server_os":"Linux","password":true,"vac":true,"version":"7961495","steam_id":85568392924515217,"keywords":["nocrits","nodmgspread","payload","uncletopia"],"game_id":440,"stv_port":27036,"stv_name":"Uncletopia | Seattle | 3 | Stopwatch | STV","players":null},{"server_id":17,"name":"Uncletopia | San Francisco | 1 | All Maps","name_short":"sfo-1","host":"sfo-1.us.uncletopia.com","port":27015,"enabled":true,"region":"us-west","cc":"us","latitude":37.77397,"longitude":-122.4313,"reserved":0,"last_update":"0001-01-01T00:00:00Z","name_a2s":"Uncletopia | San Francisco | 1 | All Maps","protocol":17,"map":"koth_cascade","folder":"tf","game":"Team Fortress","app_id":440,"player_count":0,"max_players":24,"Bots":0,"server_type":"Dedicated","server_os":"Linux","password":true,"vac":true,"version":"7961495","steam_id":85568392924469999,"keywords":["cp","nocrits","nodmgspread","uncletopia"],"game_id":440,"stv_port":27016,"stv_name":"Uncletopia | San Francisco | 1 | All Maps | STV","players":null},{"server_id":18,"name":"Uncletopia | San Francisco | 2 | All Maps","name_short":"sfo-2","host":"sfo-1.us.uncletopia.com","port":27025,"enabled":true,"region":"us-west","cc":"us","latitude":37.77397,"longitude":-122.4313,"reserved":0,"last_update":"0001-01-01T00:00:00Z","name_a2s":"Uncletopia | San Francisco | 2 | All Maps","protocol":17,"map":"pl_barnblitz","folder":"tf","game":"Team Fortress","app_id":440,"player_count":0,"max_players":24,"Bots":0,"server_type":"Dedicated","server_os":"Linux","password":true,"vac":true,"version":"7961495","steam_id":85568392924470000,"keywords":["nocrits","nodmgspread","payload","uncletopia"],"game_id":440,"stv_port":27026,"stv_name":"Uncletopia | San Francisco | 2 | All Maps | STV","players":null},{"server_id":19,"name":"Uncletopia | San Francisco | 3 | Stopwatch","name_short":"sfo-3","host":"sfo-1.us.uncletopia.com","port":27035,"enabled":true,"region":"us-west","cc":"us","latitude":37.77397,"longitude":-122.4313,"reserved":0,"last_update":"0001-01-01T00:00:00Z","name_a2s":"Uncletopia | San Francisco | 3 | Stopwatch","protocol":17,"map":"pl_upward","folder":"tf","game":"Team Fortress","app_id":440,"player_count":0,"max_players":24,"Bots":0,"server_type":"Dedicated","server_os":"Linux","password":true,"vac":true,"version":"7961495","steam_id":85568392924742824,"keywords":["nocrits","nodmgspread","payload","uncletopia"],"game_id":440,"stv_port":27036,"stv_name":"Uncletopia | San Francisco | 3 | Stopwatch | STV","players":null},{"server_id":20,"name":"Uncletopia | San Francisco | 4 | Community","name_short":"sfo-4","host":"sfo-1.us.uncletopia.com","port":27045,"enabled":true,"region":"us-west","cc":"us","latitude":37.77397,"longitude":-122.4313,"reserved":0,"last_update":"0001-01-01T00:00:00Z","name_a2s":"Uncletopia | San Francisco | 4 | Community","protocol":17,"map":"pl_pier","folder":"tf","game":"Team Fortress","app_id":440,"player_count":0,"max_players":24,"Bots":0,"server_type":"Dedicated","server_os":"Linux","password":true,"vac":true,"version":"7961495","steam_id":85568392924742826,"keywords":["nocrits","nodmgspread","payload","uncletopia"],"game_id":440,"stv_port":27046,"stv_name":"Uncletopia | San Francisco | 4 | Community | STV","players":null},{"server_id":141,"name":"Uncletopia | Sydney | 1 | All Maps","name_short":"syd-1","host":"syd-1.au.uncletopia.com","port":27015,"enabled":true,"region":"au","cc":"au","latitude":-33.865143,"longitude":151.2099,"reserved":0,"last_update":"0001-01-01T00:00:00Z","name_a2s":"Uncletopia | Sydney | 1 | All Maps","protocol":17,"map":"koth_viaduct","folder":"tf","game":"Team Fortress","app_id":440,"player_count":0,"max_players":24,"Bots":0,"server_type":"Dedicated","server_os":"Linux","password":true,"vac":true,"version":"7961495","steam_id":85568392924470001,"keywords":["cp","nocrits","nodmgspread","uncletopia"],"game_id":440,"stv_port":27016,"stv_name":"Uncletopia | Sydney | 1 | All Maps | STV","players":null},{"server_id":123,"name":"Uncletopia | Sydney | 2 | All Maps","name_short":"syd-2","host":"syd-1.au.uncletopia.com","port":27025,"enabled":true,"region":"au","cc":"au","latitude":-33.865143,"longitude":151.2099,"reserved":0,"last_update":"0001-01-01T00:00:00Z","name_a2s":"Uncletopia | Sydney | 2 | All Maps","protocol":17,"map":"koth_lakeside_final","folder":"tf","game":"Team Fortress","app_id":440,"player_count":0,"max_players":24,"Bots":0,"server_type":"Dedicated","server_os":"Linux","password":true,"vac":true,"version":"7961495","steam_id":85568392924470002,"keywords":["cp","nocrits","nodmgspread","uncletopia"],"game_id":440,"stv_port":27026,"stv_name":"Uncletopia | Sydney | 2 | All Maps | STV","players":null},{"server_id":395,"name":"Uncletopia | Sydney | 3 | All Maps","name_short":"syd-3","host":"syd-1.au.uncletopia.com","port":27035,"enabled":true,"region":"au","cc":"au","latitude":-33.865143,"longitude":151.2099,"reserved":0,"last_update":"0001-01-01T00:00:00Z","name_a2s":"Uncletopia | Sydney | 3 | All Maps","protocol":17,"map":"pl_frontier_final","folder":"tf","game":"Team Fortress","app_id":440,"player_count":0,"max_players":24,"Bots":0,"server_type":"Dedicated","server_os":"Linux","password":true,"vac":true,"version":"7961495","steam_id":85568392925194467,"keywords":["nocrits","nodmgspread","payload","uncletopia"],"game_id":440,"stv_port":27036,"stv_name":"Uncletopia | Sydney | 3 | All Maps | STV","players":null},{"server_id":396,"name":"Uncletopia | Sydney | 4 | All Maps","name_short":"syd-4","host":"syd-1.au.uncletopia.com","port":27045,"enabled":true,"region":"au","cc":"au","latitude":-33.865143,"longitude":151.2099,"reserved":0,"last_update":"0001-01-01T00:00:00Z","name_a2s":"Uncletopia | Sydney | 4 | All Maps","protocol":17,"map":"cp_process_final","folder":"tf","game":"Team Fortress","app_id":440,"player_count":0,"max_players":24,"Bots":0,"server_type":"Dedicated","server_os":"Linux","password":true,"vac":true,"version":"7961495","steam_id":85568392925397958,"keywords":["cp","nocrits","nodmgspread","uncletopia"],"game_id":440,"stv_port":27046,"stv_name":"Uncletopia | Sydney | 4 | All Maps | STV","players":null},{"server_id":58,"name":"Uncletopia | Sydney | 5 | Stopwatch","name_short":"syd-5","host":"syd-1.au.uncletopia.com","port":27055,"enabled":true,"region":"au","cc":"au","latitude":-33.865143,"longitude":151.2099,"reserved":0,"last_update":"0001-01-01T00:00:00Z","name_a2s":"Uncletopia | Sydney | 5 | Stopwatch","protocol":17,"map":"pl_frontier_final","folder":"tf","game":"Team Fortress","app_id":440,"player_count":0,"max_players":24,"Bots":0,"server_type":"Dedicated","server_os":"Linux","password":true,"vac":true,"version":"7961495","steam_id":85568392925397959,"keywords":["nocrits","nodmgspread","payload","uncletopia"],"game_id":440,"stv_port":27056,"stv_name":"Uncletopia | Sydney | 5 | Stopwatch | STV","players":null},{"server_id":59,"name":"Uncletopia | Sydney | 6 | Community","name_short":"syd-6","host":"syd-1.au.uncletopia.com","port":27065,"enabled":true,"region":"au","cc":"au","latitude":-33.865143,"longitude":151.2099,"reserved":0,"last_update":"0001-01-01T00:00:00Z","name_a2s":"Uncletopia | Sydney | 6 | Community","protocol":17,"map":"cp_sunshine","folder":"tf","game":"Team Fortress","app_id":440,"player_count":0,"max_players":24,"Bots":0,"server_type":"Dedicated","server_os":"Linux","password":true,"vac":true,"version":"7961495","steam_id":85568392925397960,"keywords":["cp","nocrits","nodmgspread","uncletopia"],"game_id":440,"stv_port":27066,"stv_name":"Uncletopia | Sydney | 6 | Community | STV","players":null},{"server_id":49,"name":"Uncletopia | Warsaw | 1 | One Thousand Uncles","name_short":"waw-1","host":"waw-1.pl.uncletopia.com","port":27015,"enabled":true,"region":"eu","cc":"pl","latitude":52.2297,"longitude":21.017532,"reserved":0,"last_update":"0001-01-01T00:00:00Z","name_a2s":"Uncletopia | Warsaw | 1 | One Thousand Uncles","protocol":17,"map":"pl_barnblitz","folder":"tf","game":"Team Fortress","app_id":440,"player_count":25,"max_players":32,"Bots":16,"server_type":"Dedicated","server_os":"Linux","password":true,"vac":true,"version":"7961495","steam_id":85568392925397850,"keywords":["alltalk","bots","danepve","increased_maxplayers","nocrits","norespawntime","payload","uncletopia"],"game_id":440,"stv_port":0,"stv_name":"","players":[{"user_id":304,"name":"Voks_","steam_id":76561198159687785,"connected_time":46000000000,"state":"active","ping":64},{"user_id":300,"name":"Milo the dodo arsonist","steam_id":76561199212110488,"connected_time":503000000000,"state":"active","ping":52},{"user_id":301,"name":"The one True Mads","steam_id":76561197999204692,"connected_time":497000000000,"state":"active","ping":67},{"user_id":277,"name":"Benzo Fury","steam_id":76561198025259336,"connected_time":2109000000000,"state":"active","ping":73},{"user_id":227,"name":"El Wiwi","steam_id":76561198134378108,"connected_time":6182000000000,"state":"active","ping":87},{"user_id":295,"name":"joachym","steam_id":76561198428579761,"connected_time":1777000000000,"state":"active","ping":73},{"user_id":219,"name":"nelipa84","steam_id":76561199259397833,"connected_time":8329000000000,"state":"active","ping":51},{"user_id":303,"name":"pierogi","steam_id":76561198718760200,"connected_time":311000000000,"state":"active","ping":75},{"user_id":259,"name":"[HK]我係香港人","steam_id":76561198165376815,"connected_time":4968000000000,"state":"active","ping":83}]},{"server_id":50,"name":"Uncletopia | Warsaw | 2 | One Thousand Uncles","name_short":"waw-2","host":"waw-1.pl.uncletopia.com","port":27025,"enabled":true,"region":"eu","cc":"pl","latitude":52.2297,"longitude":21.017532,"reserved":0,"last_update":"0001-01-01T00:00:00Z","name_a2s":"Uncletopia | Warsaw | 2 | One Thousand Uncles","protocol":17,"map":"cp_dustbowl","folder":"tf","game":"Team Fortress","app_id":440,"player_count":19,"max_players":32,"Bots":16,"server_type":"Dedicated","server_os":"Linux","password":true,"vac":true,"version":"7961495","steam_id":85568392925397851,"keywords":["alltalk","bots","cp","danepve","increased_maxplayers","nocrits","norespawntime","uncletopia"],"game_id":440,"stv_port":0,"stv_name":"","players":[{"user_id":400,"name":"C.E.O. of stab industry","steam_id":76561198242840202,"connected_time":2910000000000,"state":"active","ping":66},{"user_id":419,"name":"Brozy","steam_id":76561199014951849,"connected_time":1233000000000,"state":"active","ping":86},{"user_id":420,"name":"klim01112010","steam_id":76561199401455959,"connected_time":593000000000,"state":"active","ping":50}]},{"server_id":51,"name":"Uncletopia | Warsaw | 3 | All Maps","name_short":"waw-3","host":"waw-1.pl.uncletopia.com","port":27035,"enabled":true,"region":"eu","cc":"pl","latitude":52.2297,"longitude":21.017532,"reserved":0,"last_update":"0001-01-01T00:00:00Z","name_a2s":"Uncletopia | Warsaw | 3 | All Maps","protocol":17,"map":"koth_highpass","folder":"tf","game":"Team Fortress","app_id":440,"player_count":1,"max_players":24,"Bots":0,"server_type":"Dedicated","server_os":"Linux","password":true,"vac":true,"version":"7961495","steam_id":85568392925397852,"keywords":["cp","nocrits","nodmgspread","uncletopia"],"game_id":440,"stv_port":27036,"stv_name":"Uncletopia | Warsaw | 3 | All Maps | STV","players":[{"user_id":68,"name":"Waltism","steam_id":76561199447676489,"connected_time":49000000000,"state":"active","ping":82}]},{"server_id":52,"name":"Uncletopia | Warsaw | 4 | All Maps","name_short":"waw-4","host":"waw-1.pl.uncletopia.com","port":27045,"enabled":true,"region":"eu","cc":"pl","latitude":52.2297,"longitude":21.017532,"reserved":0,"last_update":"0001-01-01T00:00:00Z","name_a2s":"Uncletopia | Warsaw | 4 | All Maps","protocol":17,"map":"koth_highpass","folder":"tf","game":"Team Fortress","app_id":440,"player_count":0,"max_players":24,"Bots":0,"server_type":"Dedicated","server_os":"Linux","password":true,"vac":true,"version":"7961495","steam_id":85568392925397853,"keywords":["cp","nocrits","nodmgspread","uncletopia"],"game_id":440,"stv_port":27046,"stv_name":"Uncletopia | Warsaw | 4 | All Maps | STV","players":null},{"server_id":53,"name":"Uncletopia | Warsaw | 5 | Stopwatch","name_short":"waw-5","host":"waw-1.pl.uncletopia.com","port":27055,"enabled":true,"region":"eu","cc":"pl","latitude":52.2297,"longitude":21.017532,"reserved":0,"last_update":"0001-01-01T00:00:00Z","name_a2s":"Uncletopia | Warsaw | 5 | Stopwatch","protocol":17,"map":"pl_upward","folder":"tf","game":"Team Fortress","app_id":440,"player_count":0,"max_players":24,"Bots":0,"server_type":"Dedicated","server_os":"Linux","password":true,"vac":true,"version":"7961495","steam_id":85568392925397854,"keywords":["nocrits","nodmgspread","payload","uncletopia"],"game_id":440,"stv_port":27056,"stv_name":"Uncletopia | Warsaw | 5 | Stopwatch | STV","players":null},{"server_id":54,"name":"Uncletopia | Warsaw | 6 | Community","name_short":"waw-6","host":"waw-1.pl.uncletopia.com","port":27065,"enabled":true,"region":"eu","cc":"pl","latitude":52.2297,"longitude":21.017532,"reserved":0,"last_update":"0001-01-01T00:00:00Z","name_a2s":"Uncletopia | Warsaw | 6 | Community","protocol":17,"map":"workshop/cp_hazyfort_rc6.ugc1365963729","folder":"tf","game":"Team Fortress","app_id":440,"player_count":0,"max_players":24,"Bots":0,"server_type":"Dedicated","server_os":"Linux","password":true,"vac":true,"version":"7961495","steam_id":85568392925397856,"keywords":["cp","nocrits","nodmgspread","uncletopia"],"game_id":440,"stv_port":27066,"stv_name":"Uncletopia | Warsaw | 6 | Community | STV","players":null}]}