{"status":true,"message":"","result":[{"server_id":9,"name":"Uncletopia | Atlanta | 1 | All Maps","name_short":"atl-1","host":"atl-1.us.uncletopia.com","port":27015,"enabled":true,"region":"us-east","cc":"us","latitude":33.753746,"longitude":-84.38633,"reserved":0,"last_update":"0001-01-01T00:00:00Z","name_a2s":"Uncletopia | Atlanta | 1 | All Maps","protocol":17,"map":"pl_borneo","folder":"tf","game":"Team Fortress","app_id":440,"player_count":24,"max_players":24,"Bots":0,"server_type":"Dedicated","server_os":"Linux","password":true,"vac":true,"version":"7882260","steam_id":85568392924469982,"keywords":["nocrits","nodmgspread","payload","uncletopia"],"game_id":440,"stv_port":27016,"stv_name":"Uncletopia | Atlanta | 1 | All Maps | STV","players":[{"user_id":626,"name":"Roald (Solemn Vow Collector)","steam_id":76561198143182772,"connected_time":4160000000000,"state":"active","ping":74},{"user_id":683,"name":"freaking","steam_id":76561198148132163,"connected_time":280000000000,"state":"active","ping":85},{"user_id":656,"name":"El Dorito","steam_id":76561198044544789,"connected_time":2136000000000,"state":"active","ping":45},{"user_id":654,"name":"Sophie","steam_id":76561198170408057,"connected_time":2322000000000,"state":"active","ping":49},{"user_id":684,"name":"BuncusBeffer","steam_id":76561198285936616,"connected_time":99000000000,"state":"active","ping":115},{"user_id":607,"name":"rose","steam_id":76561198048882285,"connected_time":5884000000000,"state":"active","ping":67},{"user_id":666,"name":"Universe Man","steam_id":76561197997710655,"connected_time":1394000000000,"state":"active","ping":73},{"user_id":622,"name":"Orko (Third Degree Enjoyer)","steam_id":76561198162232131,"connected_time":4625000000000,"state":"active","ping":84},{"user_id":669,"name":"lightning","steam_id":76561199214359565,"connected_time":1263000000000,"state":"active","ping":106},{"user_id":670,"name":"Giant tf2 heavy","steam_id":76561198847085833,"connected_time":1225000000000,"state":"active","ping":113},{"user_id":673,"name":"Hey","steam_id":76561198447517893,"connected_time":1129000000000,"state":"active","ping":66},{"user_id":674,"name":"Titar Industries","steam_id":76561198143078476,"connected_time":1123000000000,"state":"active","ping":86},{"user_id":678,"name":"Rudy","steam_id":76561198013456828,"connected_time":1000000000000,"state":"active","ping":62},{"user_id":675,"name":"Kidzbopsicle","steam_id":76561198047660691,"connected_time":1107000000000,"state":"active","ping":60},{"user_id":557,"name":"Onyx","steam_id":76561198275349640,"connected_time":10519000000000,"state":"active","ping":75},{"user_id":635,"name":"kasper lft","steam_id":76561198263271697,"connected_time":3772000000000,"state":"active","ping":62},{"user_id":619,"name":"DragonFalcon‚Ñ¢","steam_id":76561198044559930,"connected_time":4956000000000,"state":"active","ping":52},{"user_id":623,"name":"nomad","steam_id":76561197998740399,"connected_time":4618000000000,"state":"active","ping":71},{"user_id":679,"name":"Person","steam_id":76561198093244204,"connected_time":996000000000,"state":"active","ping":77},{"user_id":603,"name":"Toonice","steam_id":76561198402994885,"connected_time":6184000000000,"state":"active","ping":89},{"user_id":639,"name":"ash","steam_id":76561198127890645,"connected_time":3242000000000,"state":"active","ping":67},{"user_id":568,"name":"eish","steam_id":76561198089463603,"connected_time":9784000000000,"state":"active","ping":122},{"user_id":604,"name":"Am da Best","steam_id":76561198163825955,"connected_time":6161000000000,"state":"active","ping":104},{"user_id":682,"name":"QUINZEL","steam_id":76561198096738991,"connected_time":430000000000,"state":"active","ping":82}]},{"server_id":104,"name":"Uncletopia | Atlanta | 2 | All Maps","name_short":"atl-2","host":"atl-1.us.uncletopia.com","port":27025,"enabled":true,"region":"us-east","cc":"us","latitude":33.753746,"longitude":-84.38633,"reserved":0,"last_update":"0001-01-01T00:00:00Z","name_a2s":"Uncletopia | Atlanta | 2 | All Maps","protocol":17,"map":"koth_lakeside_final","folder":"tf","game":"Team Fortress","app_id":440,"player_count":0,"max_players":24,"Bots":0,"server_type":"Dedicated","server_os":"Linux","password":true,"vac":true,"version":"7882260","steam_id":85568392924469983,"keywords":["cp","nocrits","nodmgspread","uncletopia"],"game_id":440,"stv_port":27026,"stv_name":"Uncletopia | Atlanta | 2 | All Maps | STV","players":null},{"server_id":400,"name":"Uncletopia | Atlanta | 3 | Community","name_short":"atl-3","host":"atl-1.us.uncletopia.com","port":27035,"enabled":true,"region":"us-east","cc":"us","latitude":33.753746,"longitude":-84.38633,"reserved":0,"last_update":"0001-01-01T00:00:00Z","name_a2s":"Uncletopia | Atlanta | 3 | Community","protocol":17,"map":"workshop/koth_product_final.ugc454272353","folder":"tf","game":"Team Fortress","app_id":440,"player_count":0,"max_players":24,"Bots":0,"server_type":"Dedicated","server_os":"Linux","password":true,"vac":true,"version":"7882260","steam_id":85568392924515187,"keywords":["cp","nocrits","nodmgspread","uncletopia"],"game_id":440,"stv_port":27036,"stv_name":"Uncletopia | Atlanta | 3 | Community | STV","players":null},{"server_id":401,"name":"Uncletopia | Atlanta | 4 | No Payload","name_short":"atl-4","host":"atl-1.us.uncletopia.com","port":27045,"enabled":true,"region":"us-east","cc":"us","latitude":33.753746,"longitude":-84.38633,"reserved":0,"last_update":"0001-01-01T00:00:00Z","name_a2s":"","protocol":0,"map":"","folder":"","game":"","app_id":0,"player_count":0,"max_players":0,"Bots":0,"server_type":"","server_os":"","password":false,"vac":false,"version":"","steam_id":0,"keywords":null,"game_id":0,"stv_port":0,"stv_name":"","players":null},{"server_id":2,"name":"Uncletopia | Chicago | 1 | All Maps","name_short":"chi-1","host":"chi-1.us.uncletopia.com","port":27015,"enabled":true,"region":"us-central","cc":"us","latitude":41.881832,"longitude":-87.62318,"reserved":0,"last_update":"0001-01-01T00:00:00Z","name_a2s":"Uncletopia | Chicago | 1 | All Maps","protocol":17,"map":"cp_snakewater_final1","folder":"tf","game":"Team Fortress","app_id":440,"player_count":24,"max_players":24,"Bots":0,"server_type":"Dedicated","server_os":"Linux","password":true,"vac":true,"version":"7882260","steam_id":85568392924469984,"keywords":["cp","nocrits","nodmgspread","uncletopia"],"game_id":440,"stv_port":27016,"stv_name":"Uncletopia | Chicago | 1 | All Maps | STV","players":[{"user_id":909,"name":"Zizen","steam_id":76561199011832069,"connected_time":1846000000000,"state":"active","ping":102},{"user_id":869,"name":"Flayre","steam_id":76561198803036389,"connected_time":5120000000000,"state":"active","ping":61},{"user_id":928,"name":"ark","steam_id":76561198041066271,"connected_time":637000000000,"state":"active","ping":81},{"user_id":911,"name":"BigShwarma","steam_id":76561198259380127,"connected_time":1625000000000,"state":"active","ping":70},{"user_id":915,"name":"Grognak","steam_id":76561198044710527,"connected_time":1161000000000,"state":"active","ping":98},{"user_id":821,"name":"River Rat","steam_id":76561198116383976,"connected_time":9957000000000,"state":"active","ping":116},{"user_id":842,"name":"eloressa","steam_id":76561198120330867,"connected_time":9239000000000,"state":"active","ping":59},{"user_id":934,"name":"Xruffel :3 (gay)","steam_id":76561198067697879,"connected_time":447000000000,"state":"active","ping":50},{"user_id":929,"name":"TF2C | fac -AA-","steam_id":76561198009818412,"connected_time":630000000000,"state":"active","ping":63},{"user_id":887,"name":"unfathomable depths of sadness ","steam_id":76561198048925904,"connected_time":3501000000000,"state":"active","ping":108},{"user_id":932,"name":"Zorlovo","steam_id":76561198006443283,"connected_time":472000000000,"state":"active","ping":115},{"user_id":933,"name":"Cy4nideCutie","steam_id":76561198126686695,"connected_time":468000000000,"state":"active","ping":74},{"user_id":931,"name":"Gnumbers","steam_id":76561198008140272,"connected_time":584000000000,"state":"active","ping":83},{"user_id":923,"name":"kree","steam_id":76561197979960008,"connected_time":879000000000,"state":"active","ping":47},{"user_id":936,"name":"Animal Slices","steam_id":76561198137545511,"connected_time":341000000000,"state":"active","ping":62},{"user_id":935,"name":"A Can of Arizona Green Tea","steam_id":76561198062481133,"connected_time":399000000000,"state":"active","ping":80},{"user_id":937,"name":"honked off the bobo","steam_id":76561198123287268,"connected_time":323000000000,"state":"active","ping":45},{"user_id":805,"name":"„ÄéHazon„Äè","steam_id":76561198119852107,"connected_time":11697000000000,"state":"active","ping":72},{"user_id":913,"name":"*","steam_id":76561198173047169,"connected_time":1539000000000,"state":"active","ping":60},{"user_id":938,"name":"de casual spy","steam_id":76561199205773751,"connected_time":264000000000,"state":"active","ping":192},{"user_id":843,"name":"CertainlyMe","steam_id":76561198039564401,"connected_time":9023000000000,"state":"active","ping":65},{"user_id":898,"name":"emseaeye","steam_id":76561198161499803,"connected_time":3043000000000,"state":"active","ping":72},{"user_id":866,"name":"Swiftmend","steam_id":76561197995595692,"connected_time":6158000000000,"state":"active","ping":75},{"user_id":939,"name":"Remmy","steam_id":76561198268857418,"connected_time":199000000000,"state":"active","ping":58}]},{"server_id":106,"name":"Uncletopia | Chicago | 2 | All Maps","name_short":"chi-2","host":"chi-1.us.uncletopia.com","port":27025,"enabled":true,"region":"us-central","cc":"us","latitude":41.881832,"longitude":-87.62318,"reserved":0,"last_update":"0001-01-01T00:00:00Z","name_a2s":"Uncletopia | Chicago | 2 | All Maps","protocol":17,"map":"koth_cascade","folder":"tf","game":"Team Fortress","app_id":440,"player_count":0,"max_players":24,"Bots":0,"server_type":"Dedicated","server_os":"Linux","password":true,"vac":true,"version":"7882260","steam_id":85568392924469985,"keywords":["cp","nocrits","nodmgspread","uncletopia"],"game_id":440,"stv_port":27026,"stv_name":"Uncletopia | Chicago | 2 | All Maps | STV","players":null},{"server_id":402,"name":"Uncletopia | Chicago | 3 | All Maps","name_short":"chi-3","host":"chi-1.us.uncletopia.com","port":27035,"enabled":true,"region":"us-central","cc":"us","latitude":41.881832,"longitude":-87.62318,"reserved":0,"last_update":"0001-01-01T00:00:00Z","name_a2s":"Uncletopia | Chicago | 3 | All Maps","protocol":17,"map":"cp_snakewater_final1","folder":"tf","game":"Team Fortress","app_id":440,"player_count":24,"max_players":24,"Bots":0,"server_type":"Dedicated","server_os":"Linux","password":true,"vac":true,"version":"7882260","steam_id":85568392924515191,"keywords":["cp","nocrits","nodmgspread","uncletopia"],"game_id":440,"stv_port":27036,"stv_name":"Uncletopia | Chicago | 3 | All Maps | STV","players":[{"user_id":741,"name":"indigo kid","steam_id":76561198203885895,"connected_time":1252000000000,"state":"active","ping":79},{"user_id":747,"name":"IGNORE ME","steam_id":76561198054390505,"connected_time":831000000000,"state":"active","ping":44},{"user_id":736,"name":"Seaport Hime","steam_id":76561198055914224,"connected_time":1508000000000,"state":"active","ping":60},{"user_id":721,"name":"‚í∑‚ì™‚ì™‚ì£‚ì®‚ìí‚ìê‚ìö‚ìî‚ì¢","steam_id":76561198088776421,"connected_time":2251000000000,"state":"active","ping":60},{"user_id":722,"name":"onetickledpickle","steam_id":76561199445983352,"connected_time":2240000000000,"state":"active","ping":77},{"user_id":737,"name":"gome","steam_id":76561198080784921,"connected_time":1504000000000,"state":"active","ping":74},{"user_id":718,"name":"BooG","steam_id":76561198879345384,"connected_time":2951000000000,"state":"active","ping":83},{"user_id":691,"name":"President William Howard Taft","steam_id":76561198047691108,"connected_time":4400000000000,"state":"active","ping":70},{"user_id":739,"name":"bocaJ","steam_id":76561198374535092,"connected_time":1425000000000,"state":"active","ping":76},{"user_id":742,"name":"hatty","steam_id":76561198300727403,"connected_time":1227000000000,"state":"active","ping":75},{"user_id":725,"name":"FazeCumShot69","steam_id":76561199248475270,"connected_time":2020000000000,"state":"active","ping":85},{"user_id":690,"name":"Happy Yaoi Friday","steam_id":76561198111290441,"connected_time":4476000000000,"state":"active","ping":57},{"user_id":748,"name":"soona","steam_id":76561198127325351,"connected_time":715000000000,"state":"active","ping":76},{"user_id":713,"name":"x","steam_id":76561198973457538,"connected_time":3316000000000,"state":"active","ping":184},{"user_id":726,"name":"Black Tiger Sex Machine","steam_id":76561198060078398,"connected_time":1937000000000,"state":"active","ping":97},{"user_id":696,"name":"[Colorbomb]","steam_id":76561198006316527,"connected_time":4104000000000,"state":"active","ping":100},{"user_id":749,"name":"duckypotato","steam_id":76561198047703790,"connected_time":654000000000,"state":"active","ping":60},{"user_id":752,"name":"bunger? bunger! bungerbungbungb","steam_id":76561198243695590,"connected_time":292000000000,"state":"active","ping":103},{"user_id":728,"name":"Aegis","steam_id":76561198272052750,"connected_time":1908000000000,"state":"active","ping":83},{"user_id":700,"name":"JHLO","steam_id":76561198074359967,"connected_time":4029000000000,"state":"active","ping":95},{"user_id":733,"name":"Klip","steam_id":76561198316254429,"connected_time":1622000000000,"state":"active","ping":81},{"user_id":703,"name":"Penser","steam_id":76561198798194358,"connected_time":3973000000000,"state":"active","ping":78},{"user_id":750,"name":"Grand","steam_id":76561198290143399,"connected_time":602000000000,"state":"active","ping":61},{"user_id":751,"name":"Dreamzapp","steam_id":76561199084936632,"connected_time":512000000000,"state":"active","ping":116}]},{"server_id":403,"name":"Uncletopia | Chicago | 4 | All Maps","name_short":"chi-4","host":"chi-1.us.uncletopia.com","port":27045,"enabled":true,"region":"us-central","cc":"us","latitude":41.881832,"longitude":-87.62318,"reserved":0,"last_update":"0001-01-01T00:00:00Z","name_a2s":"Uncletopia | Chicago | 4 | All Maps","protocol":17,"map":"pl_borneo","folder":"tf","game":"Team Fortress","app_id":440,"player_count":18,"max_players":24,"Bots":0,"server_type":"Dedicated","server_os":"Linux","password":true,"vac":true,"version":"7882260","steam_id":85568392924515193,"keywords":["nocrits","nodmgspread","payload","uncletopia"],"game_id":440,"stv_port":27046,"stv_name":"Uncletopia | Chicago | 4 | All Maps | STV","players":[{"user_id":900,"name":"Moonadoo","steam_id":76561198133377546,"connected_time":2772000000000,"state":"active","ping":62},{"user_id":874,"name":"Castroy","steam_id":76561198108160099,"connected_time":4266000000000,"state":"active","ping":66},{"user_id":931,"name":"TheXenoKing","steam_id":76561198127424141,"connected_time":54000000000,"state":"active","ping":97},{"user_id":916,"name":"Tavern Dweller","steam_id":76561198033349519,"connected_time":930000000000,"state":"active","ping":67},{"user_id":932,"name":"Sprinklingmydoughnut","steam_id":76561198168009092,"connected_time":21000000000,"state":"active","ping":91},{"user_id":899,"name":"itssagebro","steam_id":76561198280331638,"connected_time":3093000000000,"state":"active","ping":73},{"user_id":890,"name":"Marshmallow Supreme","steam_id":76561198057291909,"connected_time":3714000000000,"state":"active","ping":53},{"user_id":921,"name":"gnome","steam_id":76561198052978969,"connected_time":562000000000,"state":"active","ping":70},{"user_id":918,"name":"Antifascist catgirl","steam_id":76561198149806947,"connected_time":647000000000,"state":"active","ping":62},{"user_id":846,"name":"Dr. B.S. O'Dee","steam_id":76561198199978731,"connected_time":6043000000000,"state":"active","ping":167},{"user_id":924,"name":"Mustachacre","steam_id":76561198056309992,"connected_time":348000000000,"state":"active","ping":104},{"user_id":925,"name":"Bot Maxwell","steam_id":76561198040781615,"connected_time":333000000000,"state":"active","ping":89},{"user_id":928,"name":"0","steam_id":76561198277439816,"connected_time":186000000000,"state":"active","ping":75},{"user_id":923,"name":"Debomba kong","steam_id":76561198361254937,"connected_time":448000000000,"state":"active","ping":64},{"user_id":902,"name":"Shulky.png","steam_id":76561198135403153,"connected_time":2668000000000,"state":"active","ping":89},{"user_id":927,"name":"LilDreamer","steam_id":76561198804054102,"connected_time":290000000000,"state":"active","ping":48},{"user_id":929,"name":"sr7988","steam_id":76561199483394752,"connected_time":165000000000,"state":"active","ping":82},{"user_id":908,"name":"JonBoy","steam_id":76561198082052480,"connected_time":2092000000000,"state":"active","ping":182}]},{"server_id":36,"name":"Uncletopia | Chicago | 5 | All Maps","name_short":"chi-5","host":"chi-2.us.uncletopia.com","port":27015,"enabled":true,"region":"us-central","cc":"us","latitude":41.881832,"longitude":-87.62318,"reserved":0,"last_update":"0001-01-01T00:00:00Z","name_a2s":"Uncletopia | Chicago | 5 | All Maps","protocol":17,"map":"pl_upward","folder":"tf","game":"Team Fortress","app_id":440,"player_count":22,"max_players":24,"Bots":0,"server_type":"Dedicated","server_os":"Linux","password":true,"vac":true,"version":"7882260","steam_id":85568392924866362,"keywords":["nocrits","nodmgspread","payload","uncletopia"],"game_id":440,"stv_port":27016,"stv_name":"Uncletopia | Chicago | 5 | All Maps | STV","players":[{"user_id":440,"name":"Lxst","steam_id":76561198849797797,"connected_time":973000000000,"state":"active","ping":66},{"user_id":432,"name":"soupy","steam_id":76561197974283797,"connected_time":1462000000000,"state":"active","ping":41},{"user_id":395,"name":"critically in need of za","steam_id":76561198144766439,"connected_time":5469000000000,"state":"active","ping":43},{"user_id":441,"name":"V5 ‚ñ£","steam_id":76561198094469642,"connected_time":943000000000,"state":"active","ping":74},{"user_id":399,"name":"BigDeac","steam_id":76561198091237274,"connected_time":5028000000000,"state":"active","ping":54},{"user_id":400,"name":"noah","steam_id":76561198173310157,"connected_time":4963000000000,"state":"active","ping":45},{"user_id":453,"name":"invb","steam_id":76561197998263914,"connected_time":100000000000,"state":"active","ping":52},{"user_id":416,"name":"it's peanut time","steam_id":76561198236028020,"connected_time":3284000000000,"state":"active","ping":145},{"user_id":450,"name":"BigPharmaRep","steam_id":76561199487422909,"connected_time":654000000000,"state":"active","ping":56},{"user_id":443,"name":"Teh_Bonerpants","steam_id":76561199151283481,"connected_time":891000000000,"state":"active","ping":116},{"user_id":429,"name":"twinkhole sinkhole","steam_id":76561198149775502,"connected_time":1904000000000,"state":"active","ping":74},{"user_id":444,"name":"Doubting Dave","steam_id":76561198066410749,"connected_time":833000000000,"state":"active","ping":112},{"user_id":446,"name":"Saucy Boy","steam_id":76561198178332031,"connected_time":771000000000,"state":"active","ping":68},{"user_id":402,"name":"SodaKid_7","steam_id":76561198079419485,"connected_time":4946000000000,"state":"active","ping":93},{"user_id":412,"name":"raya","steam_id":76561198051504581,"connected_time":4167000000000,"state":"active","ping":61},{"user_id":437,"name":"Spooks","steam_id":76561198295582418,"connected_time":1241000000000,"state":"active","ping":64},{"user_id":447,"name":"josh","steam_id":76561198077902438,"connected_time":723000000000,"state":"active","ping":73},{"user_id":448,"name":"Reflector","steam_id":76561198078999855,"connected_time":718000000000,"state":"active","ping":55},{"user_id":427,"name":"WillieMakit","steam_id":76561197985391684,"connected_time":2140000000000,"state":"active","ping":123},{"user_id":452,"name":"Coms","steam_id":76561198204995668,"connected_time":456000000000,"state":"active","ping":76},{"user_id":449,"name":"Ludcmorais","steam_id":76561198359217809,"connected_time":671000000000,"state":"active","ping":183},{"user_id":451,"name":"izzydex","steam_id":76561199101531034,"connected_time":628000000000,"state":"active","ping":56}]},{"server_id":37,"name":"Uncletopia | Chicago | 6 | All Maps","name_short":"chi-6","host":"chi-2.us.uncletopia.com","port":27025,"enabled":true,"region":"us-central","cc":"us","latitude":41.881832,"longitude":-87.62318,"reserved":0,"last_update":"0001-01-01T00:00:00Z","name_a2s":"Uncletopia | Chicago | 6 | All Maps","protocol":17,"map":"pl_swiftwater_final1","folder":"tf","game":"Team Fortress","app_id":440,"player_count":20,"max_players":24,"Bots":0,"server_type":"Dedicated","server_os":"Linux","password":true,"vac":true,"version":"7882260","steam_id":85568392924866363,"keywords":["nocrits","nodmgspread","payload","uncletopia"],"game_id":440,"stv_port":27026,"stv_name":"Uncletopia | Chicago | 6 | All Maps | STV","players":[{"user_id":385,"name":"Ise no Kami","steam_id":76561198106886518,"connected_time":2000000000,"state":"spawning","ping":138},{"user_id":370,"name":"SanitysEdge","steam_id":76561198130732813,"connected_time":1469000000000,"state":"active","ping":99},{"user_id":372,"name":"a_10warthog5_56","steam_id":76561199388748730,"connected_time":612000000000,"state":"active","ping":111},{"user_id":346,"name":"come to butthead","steam_id":76561198020322241,"connected_time":2974000000000,"state":"active","ping":73},{"user_id":329,"name":"stoppen","steam_id":76561197960281482,"connected_time":3790000000000,"state":"active","ping":143},{"user_id":374,"name":"Second Hand Smoke Gaming","steam_id":76561198380926090,"connected_time":518000000000,"state":"active","ping":45},{"user_id":375,"name":"George Orwell's 1984","steam_id":76561199121158746,"connected_time":512000000000,"state":"active","ping":75},{"user_id":334,"name":"Samurai Gaming","steam_id":76561198080758365,"connected_time":3394000000000,"state":"active","ping":59},{"user_id":376,"name":"carmen.sandiego.1985","steam_id":76561198324457668,"connected_time":446000000000,"state":"active","ping":60},{"user_id":353,"name":"Kdash","steam_id":76561198043829155,"connected_time":2757000000000,"state":"active","ping":80},{"user_id":377,"name":"tina hoesli","steam_id":76561198156333207,"connected_time":282000000000,"state":"active","ping":104},{"user_id":368,"name":"BlizZzard","steam_id":76561199107709623,"connected_time":1667000000000,"state":"active","ping":115},{"user_id":383,"name":"dabob","steam_id":76561198133102865,"connected_time":63000000000,"state":"active","ping":63},{"user_id":379,"name":"Blitzy","steam_id":76561198149472890,"connected_time":248000000000,"state":"active","ping":76},{"user_id":381,"name":"jooce","steam_id":76561198325093063,"connected_time":132000000000,"state":"active","ping":77},{"user_id":345,"name":"Spooby","steam_id":76561198168114366,"connected_time":3001000000000,"state":"active","ping":63},{"user_id":369,"name":"crime (Tenju)","steam_id":76561198088178129,"connected_time":1633000000000,"state":"active","ping":71},{"user_id":384,"name":"godtierJack.jpeg","steam_id":76561198089827454,"connected_time":15000000000,"state":"spawning","ping":55},{"user_id":366,"name":"flooreater419","steam_id":76561198098656830,"connected_time":2079000000000,"state":"active","ping":81},{"user_id":348,"name":"wsg","steam_id":76561197967761806,"connected_time":2957000000000,"state":"active","ping":164}]},{"server_id":38,"name":"Uncletopia | Chicago | 7 | Stopwatch Beta","name_short":"chi-7","host":"chi-2.us.uncletopia.com","port":27035,"enabled":true,"region":"us-central","cc":"us","latitude":41.881832,"longitude":-87.62318,"reserved":0,"last_update":"0001-01-01T00:00:00Z","name_a2s":"Uncletopia | Chicago | 7 | Stopwatch Beta","protocol":17,"map":"pl_upward","folder":"tf","game":"Team Fortress","app_id":440,"player_count":0,"max_players":24,"Bots":0,"server_type":"Dedicated","server_os":"Linux","password":true,"vac":true,"version":"7882260","steam_id":85568392924866364,"keywords":["nocrits","nodmgspread","payload","uncletopia"],"game_id":440,"stv_port":27036,"stv_name":"Uncletopia | Chicago | 7 | Stopwatch Beta | STV","players":null},{"server_id":39,"name":"Uncletopia | Chicago | 8 | Community","name_short":"chi-8","host":"chi-2.us.uncletopia.com","port":27045,"enabled":true,"region":"us-central","cc":"us","latitude":41.881832,"longitude":-87.62318,"reserved":0,"last_update":"0001-01-01T00:00:00Z","name_a2s":"Uncletopia | Chicago | 8 | Community","protocol":17,"map":"workshop/koth_product_final.ugc454272353","folder":"tf","game":"Team Fortress","app_id":440,"player_count":0,"max_players":24,"Bots":0,"server_type":"Dedicated","server_os":"Linux","password":true,"vac":true,"version":"7882260","steam_id":85568392924866365,"keywords":["cp","nocrits","nodmgspread","uncletopia"],"game_id":440,"stv_port":27046,"stv_name":"Uncletopia | Chicago | 8 | Community | STV","players":null},{"server_id":8,"name":"Uncletopia | Dallas | 1 | All Maps","name_short":"dal-1","host":"dal-1.us.uncletopia.com","port":27015,"enabled":true,"region":"us-central","cc":"us","latitude":32.779167,"longitude":-96.80889,"reserved":0,"last_update":"0001-01-01T00:00:00Z","name_a2s":"Uncletopia | Dallas | 1 | All Maps","protocol":17,"map":"pl_snowycoast","folder":"tf","game":"Team Fortress","app_id":440,"player_count":23,"max_players":24,"Bots":0,"server_type":"Dedicated","server_os":"Linux","password":true,"vac":true,"version":"7882260","steam_id":85568392924469986,"keywords":["nocrits","nodmgspread","payload","uncletopia"],"game_id":440,"stv_port":27016,"stv_name":"Uncletopia | Dallas | 1 | All Maps | STV","players":[{"user_id":922,"name":"Alejandro","steam_id":76561197970051493,"connected_time":2351000000000,"state":"active","ping":145},{"user_id":962,"name":"Anomic","steam_id":76561198044000414,"connected_time":167000000000,"state":"active","ping":94},{"user_id":923,"name":"Etomb","steam_id":76561198210017208,"connected_time":2323000000000,"state":"active","ping":73},{"user_id":951,"name":"Female Gamer","steam_id":76561199366482682,"connected_time":492000000000,"state":"active","ping":112},{"user_id":924,"name":"SleeplessCollin","steam_id":76561198968140914,"connected_time":2270000000000,"state":"active","ping":63},{"user_id":942,"name":"LucentOwl","steam_id":76561198140978957,"connected_time":1007000000000,"state":"active","ping":50},{"user_id":958,"name":"Sirgioblayde","steam_id":76561198059445113,"connected_time":215000000000,"state":"active","ping":65},{"user_id":949,"name":"Catmasta","steam_id":76561198819255576,"connected_time":547000000000,"state":"active","ping":70},{"user_id":953,"name":"Manic","steam_id":76561198128149670,"connected_time":483000000000,"state":"active","ping":45},{"user_id":960,"name":"cringeass nae-nae girl","steam_id":76561198108753857,"connected_time":206000000000,"state":"active","ping":86},{"user_id":954,"name":"bunga unga","steam_id":76561198093353303,"connected_time":419000000000,"state":"active","ping":69},{"user_id":945,"name":"Moffein","steam_id":76561198016739296,"connected_time":944000000000,"state":"active","ping":78},{"user_id":941,"name":"Frank Forearms.","steam_id":76561198225910596,"connected_time":1169000000000,"state":"active","ping":57},{"user_id":931,"name":"Eins","steam_id":76561199030343810,"connected_time":1757000000000,"state":"active","ping":62},{"user_id":940,"name":"the.land.of.avalon","steam_id":76561198245431668,"connected_time":1488000000000,"state":"active","ping":73},{"user_id":955,"name":"BADWOLF42","steam_id":76561198055447523,"connected_time":388000000000,"state":"active","ping":50},{"user_id":948,"name":"AzuriousAlex","steam_id":76561198158026405,"connected_time":745000000000,"state":"active","ping":69},{"user_id":934,"name":"Lore","steam_id":76561198098407538,"connected_time":1676000000000,"state":"active","ping":74},{"user_id":935,"name":"GuyGoom","steam_id":76561198254522178,"connected_time":1670000000000,"state":"active","ping":74},{"user_id":947,"name":"Zaku Bazooker","steam_id":76561198304408666,"connected_time":875000000000,"state":"active","ping":134},{"user_id":956,"name":"Michaelpc1","steam_id":76561198088365519,"connected_time":359000000000,"state":"active","ping":89},{"user_id":963,"name":"Lumina","steam_id":76561198089227368,"connected_time":73000000000,"state":"active","ping":225},{"user_id":905,"name":"Father Jon","steam_id":76561198324730919,"connected_time":3723000000000,"state":"active","ping":70}]},{"server_id":108,"name":"Uncletopia | Dallas | 2 | All Maps","name_short":"dal-2","host":"dal-1.us.uncletopia.com","port":27025,"enabled":true,"region":"us-central","cc":"us","latitude":32.779167,"longitude":-96.80889,"reserved":0,"last_update":"0001-01-01T00:00:00Z","name_a2s":"Uncletopia | Dallas | 2 | All Maps","protocol":17,"map":"cp_process_final","folder":"tf","game":"Team Fortress","app_id":440,"player_count":10,"max_players":24,"Bots":0,"server_type":"Dedicated","server_os":"Linux","password":true,"vac":true,"version":"7882260","steam_id":85568392924469988,"keywords":["cp","nocrits","nodmgspread","uncletopia"],"game_id":440,"stv_port":27026,"stv_name":"Uncletopia | Dallas | 2 | All Maps | STV","players":[{"user_id":565,"name":"Garfelf","steam_id":76561198419850129,"connected_time":3376000000000,"state":"active","ping":100},{"user_id":588,"name":"OneManEnsemble","steam_id":76561198200890163,"connected_time":1609000000000,"state":"active","ping":88},{"user_id":562,"name":"STILLZ","steam_id":76561198131892406,"connected_time":4285000000000,"state":"active","ping":81},{"user_id":599,"name":"Sarachnid","steam_id":76561198067163856,"connected_time":338000000000,"state":"active","ping":86},{"user_id":560,"name":"Teddy Roosebelt","steam_id":76561198045493149,"connected_time":4672000000000,"state":"active","ping":87},{"user_id":601,"name":"Poor Drunk Scot","steam_id":76561199465805056,"connected_time":78000000000,"state":"active","ping":79},{"user_id":590,"name":"WhiskyTK","steam_id":76561198015080616,"connected_time":1476000000000,"state":"active","ping":115},{"user_id":592,"name":"skegeton","steam_id":76561198095581099,"connected_time":1461000000000,"state":"active","ping":57},{"user_id":551,"name":"dtee","steam_id":76561198860201521,"connected_time":5329000000000,"state":"active","ping":128},{"user_id":572,"name":"Pocket Kobold","steam_id":76561198311221554,"connected_time":2945000000000,"state":"active","ping":70}]},{"server_id":5,"name":"Uncletopia | Frankfurt | 1 | All Maps","name_short":"frk-1","host":"frk-1.de.uncletopia.com","port":27015,"enabled":true,"region":"eu","cc":"de","latitude":50.110924,"longitude":8.682127,"reserved":0,"last_update":"0001-01-01T00:00:00Z","name_a2s":"Uncletopia | Frankfurt | 1 | All Maps","protocol":17,"map":"pl_snowycoast","folder":"tf","game":"Team Fortress","app_id":440,"player_count":0,"max_players":24,"Bots":0,"server_type":"Dedicated","server_os":"Linux","password":true,"vac":true,"version":"7882260","steam_id":85568392924469989,"keywords":["nocrits","nodmgspread","payload","uncletopia"],"game_id":440,"stv_port":27016,"stv_name":"Uncletopia | Frankfurt | 1 | All Maps | STV","players":null},{"server_id":110,"name":"Uncletopia | Frankfurt | 2 | All Maps","name_short":"frk-2","host":"frk-1.de.uncletopia.com","port":27025,"enabled":true,"region":"eu","cc":"de","latitude":50.110924,"longitude":8.682127,"reserved":0,"last_update":"0001-01-01T00:00:00Z","name_a2s":"Uncletopia | Frankfurt | 2 | All Maps","protocol":17,"map":"pl_upward","folder":"tf","game":"Team Fortress","app_id":440,"player_count":0,"max_players":24,"Bots":0,"server_type":"Dedicated","server_os":"Linux","password":true,"vac":true,"version":"7882260","steam_id":85568392924469990,"keywords":["nocrits","nodmgspread","payload","uncletopia"],"game_id":440,"stv_port":27026,"stv_name":"Uncletopia | Frankfurt | 2 | All Maps | STV","players":null},{"server_id":308,"name":"Uncletopia | Frankfurt | 3 | All Maps","name_short":"frk-3","host":"frk-1.de.uncletopia.com","port":27035,"enabled":true,"region":"eu","cc":"de","latitude":50.110924,"longitude":8.682127,"reserved":0,"last_update":"0001-01-01T00:00:00Z","name_a2s":"Uncletopia | Frankfurt | 3 | All Maps","protocol":17,"map":"cp_process_final","folder":"tf","game":"Team Fortress","app_id":440,"player_count":0,"max_players":24,"Bots":0,"server_type":"Dedicated","server_os":"Linux","password":true,"vac":true,"version":"7882260","steam_id":85568392924504274,"keywords":["cp","nocrits","nodmgspread","uncletopia"],"game_id":440,"stv_port":27036,"stv_name":"Uncletopia | Frankfurt | 3 | All Maps | STV","players":null},{"server_id":309,"name":"Uncletopia | Frankfurt | 4 | All Maps","name_short":"frk-4","host":"frk-1.de.uncletopia.com","port":27045,"enabled":true,"region":"eu","cc":"de","latitude":50.110924,"longitude":8.682127,"reserved":0,"last_update":"0001-01-01T00:00:00Z","name_a2s":"Uncletopia | Frankfurt | 4 | All Maps","protocol":17,"map":"pl_swiftwater_final1","folder":"tf","game":"Team Fortress","app_id":440,"player_count":0,"max_players":24,"Bots":0,"server_type":"Dedicated","server_os":"Linux","password":true,"vac":true,"version":"7882260","steam_id":85568392924504275,"keywords":["nocrits","nodmgspread","payload","uncletopia"],"game_id":440,"stv_port":27046,"stv_name":"Uncletopia | Frankfurt | 4 | All Maps | STV","players":null},{"server_id":310,"name":"Uncletopia | Frankfurt | 5 | All Maps","name_short":"frk-5","host":"frk-1.de.uncletopia.com","port":27055,"enabled":true,"region":"eu","cc":"de","latitude":50.110924,"longitude":8.682127,"reserved":0,"last_update":"0001-01-01T00:00:00Z","name_a2s":"Uncletopia | Frankfurt | 5 | All Maps","protocol":17,"map":"pl_borneo","folder":"tf","game":"Team Fortress","app_id":440,"player_count":0,"max_players":24,"Bots":0,"server_type":"Dedicated","server_os":"Linux","password":true,"vac":true,"version":"7882260","steam_id":85568392924504277,"keywords":["nocrits","nodmgspread","payload","uncletopia"],"game_id":440,"stv_port":27056,"stv_name":"Uncletopia | Frankfurt | 5 | All Maps | STV","players":null},{"server_id":311,"name":"Uncletopia | Frankfurt | 6 | All Maps","name_short":"frk-6","host":"frk-1.de.uncletopia.com","port":27065,"enabled":true,"region":"eu","cc":"de","latitude":50.110924,"longitude":8.682127,"reserved":0,"last_update":"0001-01-01T00:00:00Z","name_a2s":"Uncletopia | Frankfurt | 6 | All Maps","protocol":17,"map":"cp_snakewater_final1","folder":"tf","game":"Team Fortress","app_id":440,"player_count":0,"max_players":24,"Bots":0,"server_type":"Dedicated","server_os":"Linux","password":true,"vac":true,"version":"7882260","steam_id":85568392924504278,"keywords":["cp","nocrits","nodmgspread","uncletopia"],"game_id":440,"stv_port":27066,"stv_name":"Uncletopia | Frankfurt | 6 | All Maps | STV","players":null},{"server_id":23,"name":"Uncletopia | Frankfurt | 7 | Stopwatch Beta","name_short":"frk-7","host":"frk-1.de.uncletopia.com","port":27075,"enabled":true,"region":"eu","cc":"de","latitude":50.110924,"longitude":8.682127,"reserved":0,"last_update":"0001-01-01T00:00:00Z","name_a2s":"Uncletopia | Frankfurt | 7 | Stopwatch Beta","protocol":17,"map":"cp_snakewater_final1","folder":"tf","game":"Team Fortress","app_id":440,"player_count":0,"max_players":24,"Bots":0,"server_type":"Dedicated","server_os":"Linux","password":true,"vac":true,"version":"7882260","steam_id":85568392924742827,"keywords":["cp","nocrits","nodmgspread","uncletopia"],"game_id":440,"stv_port":27076,"stv_name":"Uncletopia | Frankfurt | 7 | Stopwatch Beta | STV","players":null},{"server_id":24,"name":"Uncletopia | Frankfurt | 8 | Community","name_short":"frk-8","host":"frk-1.de.uncletopia.com","port":27085,"enabled":true,"region":"eu","cc":"de","latitude":50.110924,"longitude":8.682127,"reserved":0,"last_update":"0001-01-01T00:00:00Z","name_a2s":"Uncletopia | Frankfurt | 8 | Community","protocol":17,"map":"cp_mountainlab","folder":"tf","game":"Team Fortress","app_id":440,"player_count":0,"max_players":24,"Bots":0,"server_type":"Dedicated","server_os":"Linux","password":true,"vac":true,"version":"7882260","steam_id":85568392924742828,"keywords":["cp","nocrits","nodmgspread","uncletopia"],"game_id":440,"stv_port":27086,"stv_name":"Uncletopia | Frankfurt | 8 | Community | STV","players":null},{"server_id":202,"name":"Uncletopia | Hong Kong | 1 | All Maps","name_short":"hgk-1","host":"hgk-1.hk.uncletopia.com","port":27015,"enabled":true,"region":"asia","cc":"hk","latitude":22.302711,"longitude":114.177216,"reserved":0,"last_update":"0001-01-01T00:00:00Z","name_a2s":"Uncletopia | Hong Kong | 1 | All Maps","protocol":17,"map":"pl_upward","folder":"tf","game":"Team Fortress","app_id":440,"player_count":24,"max_players":24,"Bots":0,"server_type":"Dedicated","server_os":"Linux","password":true,"vac":true,"version":"7882260","steam_id":85568392924494504,"keywords":["nocrits","nodmgspread","payload","uncletopia"],"game_id":440,"stv_port":27016,"stv_name":"Uncletopia | Hong Kong | 1 | All Maps | STV","players":[{"user_id":214,"name":"Green","steam_id":76561198391718463,"connected_time":816000000000,"state":"active","ping":57},{"user_id":163,"name":"3wfFbdrjEze5d2G","steam_id":76561198435900451,"connected_time":5328000000000,"state":"active","ping":148},{"user_id":203,"name":"spinach (old mouse)","steam_id":76561198042539541,"connected_time":2681000000000,"state":"active","ping":83},{"user_id":186,"name":"momosneakeradventure","steam_id":76561199046440440,"connected_time":4513000000000,"state":"active","ping":40},{"user_id":209,"name":"stupendous sycophant","steam_id":76561198055553140,"connected_time":2403000000000,"state":"active","ping":76},{"user_id":156,"name":"Poli","steam_id":76561199118278155,"connected_time":5866000000000,"state":"active","ping":86},{"user_id":207,"name":"Cornelius Cuntwad","steam_id":76561199122491157,"connected_time":2432000000000,"state":"active","ping":181},{"user_id":150,"name":"Your Eternal Reward","steam_id":76561199230196794,"connected_time":6197000000000,"state":"active","ping":162},{"user_id":195,"name":"‚ô±  I LuV Loona  ‚ô±","steam_id":76561199020745258,"connected_time":3992000000000,"state":"active","ping":86},{"user_id":208,"name":"Nephew Nate","steam_id":76561199137872034,"connected_time":2422000000000,"state":"active","ping":106},{"user_id":205,"name":"sloth of the fragment clan","steam_id":76561198214192048,"connected_time":2520000000000,"state":"active","ping":88},{"user_id":166,"name":"erwynmurphy711","steam_id":76561198288311270,"connected_time":5281000000000,"state":"active","ping":122},{"user_id":193,"name":"TheChainsaw","steam_id":76561198312001455,"connected_time":4047000000000,"state":"active","ping":114},{"user_id":168,"name":"infra","steam_id":76561198924576271,"connected_time":5244000000000,"state":"active","ping":124},{"user_id":177,"name":"Hrodvitnir","steam_id":76561198405366616,"connected_time":4733000000000,"state":"active","ping":55},{"user_id":206,"name":"Vortex Swagger","steam_id":76561198833527091,"connected_time":2442000000000,"state":"active","ping":99},{"user_id":213,"name":"Lelouch","steam_id":76561198828840546,"connected_time":1001000000000,"state":"active","ping":79},{"user_id":174,"name":"El Blanco","steam_id":76561198100044991,"connected_time":4863000000000,"state":"active","ping":132},{"user_id":199,"name":"huoh (cant chat)","steam_id":76561199480939609,"connected_time":3791000000000,"state":"active","ping":77},{"user_id":200,"name":"Chomer","steam_id":76561199034546642,"connected_time":3717000000000,"state":"active","ping":115},{"user_id":187,"name":"Samoyed","steam_id":76561198299150410,"connected_time":4426000000000,"state":"active","ping":102},{"user_id":211,"name":"juice","steam_id":76561199009556495,"connected_time":2357000000000,"state":"active","ping":104},{"user_id":182,"name":"cstr","steam_id":76561198125946388,"connected_time":4638000000000,"state":"active","ping":90},{"user_id":202,"name":"Theducktube","steam_id":76561198137265224,"connected_time":3379000000000,"state":"active","ping":139}]},{"server_id":1,"name":"Uncletopia | Los Angeles | 1 | All Maps","name_short":"lax-1","host":"lax-1.us.uncletopia.com","port":27015,"enabled":true,"region":"us-west","cc":"us","latitude":33.94279,"longitude":-118.41004,"reserved":0,"last_update":"0001-01-01T00:00:00Z","name_a2s":"Uncletopia | Los Angeles | 1 | All Maps","protocol":17,"map":"plr_pipeline","folder":"tf","game":"Team Fortress","app_id":440,"player_count":23,"max_players":24,"Bots":0,"server_type":"Dedicated","server_os":"Linux","password":true,"vac":true,"version":"7882260","steam_id":85568392924469991,"keywords":["nocrits","nodmgspread","payload","uncletopia"],"game_id":440,"stv_port":27016,"stv_name":"Uncletopia | Los Angeles | 1 | All Maps | STV","players":[{"user_id":378,"name":"jadesouledout","steam_id":76561198866936507,"connected_time":2202000000000,"state":"active","ping":55},{"user_id":352,"name":"Dongus","steam_id":76561197979056451,"connected_time":4284000000000,"state":"active","ping":75},{"user_id":387,"name":"joe mama","steam_id":76561198044597012,"connected_time":1140000000000,"state":"active","ping":71},{"user_id":385,"name":"Nez","steam_id":76561197963109059,"connected_time":1224000000000,"state":"active","ping":62},{"user_id":399,"name":"Tcmano","steam_id":76561198057233847,"connected_time":100000000000,"state":"active","ping":45},{"user_id":370,"name":"Thundeer","steam_id":76561198353425202,"connected_time":2723000000000,"state":"active","ping":138},{"user_id":397,"name":"Âú®ÂÆöÂà∂Ë•øË£ù‰∏äÁ∏´ÁøÖËÜÄ","steam_id":76561198068672882,"connected_time":313000000000,"state":"active","ping":53},{"user_id":392,"name":"cumster dumpster","steam_id":76561198858328080,"connected_time":896000000000,"state":"active","ping":43},{"user_id":369,"name":"Huh?","steam_id":76561198054866271,"connected_time":2751000000000,"state":"active","ping":76},{"user_id":311,"name":"Feel the bern","steam_id":76561198078824519,"connected_time":8407000000000,"state":"active","ping":48},{"user_id":394,"name":"Noxglyph","steam_id":76561198836814730,"connected_time":768000000000,"state":"active","ping":59},{"user_id":386,"name":"LX-24","steam_id":76561198016168993,"connected_time":1184000000000,"state":"active","ping":85},{"user_id":339,"name":"grunt","steam_id":76561198860913617,"connected_time":5446000000000,"state":"active","ping":88},{"user_id":336,"name":"Ryshy02","steam_id":76561198055425447,"connected_time":5821000000000,"state":"active","ping":71},{"user_id":372,"name":"Obama Gaming 2023","steam_id":76561199006905645,"connected_time":2700000000000,"state":"active","ping":106},{"user_id":322,"name":"Schnitz","steam_id":76561198265484253,"connected_time":7272000000000,"state":"active","ping":55},{"user_id":373,"name":"carpe diem","steam_id":76561198094396873,"connected_time":2643000000000,"state":"active","ping":44},{"user_id":388,"name":"SQbuilder","steam_id":76561198076473375,"connected_time":1129000000000,"state":"active","ping":38},{"user_id":395,"name":"a chicken","steam_id":76561198313121580,"connected_time":760000000000,"state":"active","ping":48},{"user_id":391,"name":"Yep Im Ethan","steam_id":76561199066140775,"connected_time":969000000000,"state":"active","ping":80},{"user_id":384,"name":"[√òWQJ√ò]chubacaalatake","steam_id":76561198136201697,"connected_time":1235000000000,"state":"active","ping":90},{"user_id":400,"name":"Dylanxp300","steam_id":76561198271974937,"connected_time":54000000000,"state":"active","ping":120},{"user_id":401,"name":"JJP","steam_id":76561198032914094,"connected_time":50000000000,"state":"active","ping":48}]},{"server_id":112,"name":"Uncletopia | Los Angeles | 2 | All Maps","name_short":"lax-2","host":"lax-1.us.uncletopia.com","port":27025,"enabled":true,"region":"us-west","cc":"us","latitude":33.94279,"longitude":-118.41004,"reserved":0,"last_update":"0001-01-01T00:00:00Z","name_a2s":"Uncletopia | Los Angeles | 2 | All Maps","protocol":17,"map":"koth_cascade","folder":"tf","game":"Team Fortress","app_id":440,"player_count":0,"max_players":24,"Bots":0,"server_type":"Dedicated","server_os":"Linux","password":true,"vac":true,"version":"7882260","steam_id":85568392924469992,"keywords":["cp","nocrits","nodmgspread","uncletopia"],"game_id":440,"stv_port":27026,"stv_name":"Uncletopia | Los Angeles | 2 | All Maps | STV","players":null},{"server_id":324,"name":"Uncletopia | Los Angeles | 3 | All Maps","name_short":"lax-3","host":"lax-1.us.uncletopia.com","port":27035,"enabled":true,"region":"us-west","cc":"us","latitude":33.94279,"longitude":-118.41004,"reserved":0,"last_update":"0001-01-01T00:00:00Z","name_a2s":"Uncletopia | Los Angeles | 3 | All Maps","protocol":17,"map":"koth_cascade","folder":"tf","game":"Team Fortress","app_id":440,"player_count":0,"max_players":24,"Bots":0,"server_type":"Dedicated","server_os":"Linux","password":true,"vac":true,"version":"7882260","steam_id":85568392924510198,"keywords":["cp","nocrits","nodmgspread","uncletopia"],"game_id":440,"stv_port":27036,"stv_name":"Uncletopia | Los Angeles | 3 | All Maps | STV","players":null},{"server_id":25,"name":"Uncletopia | Los Angeles | 4 | Stopwatch Beta","name_short":"lax-4","host":"lax-1.us.uncletopia.com","port":27045,"enabled":true,"region":"us-west","cc":"us","latitude":33.94279,"longitude":-118.41004,"reserved":0,"last_update":"0001-01-01T00:00:00Z","name_a2s":"Uncletopia | Los Angeles | 4 | Stopwatch Beta","protocol":17,"map":"koth_viaduct","folder":"tf","game":"Team Fortress","app_id":440,"player_count":0,"max_players":24,"Bots":0,"server_type":"Dedicated","server_os":"Linux","password":true,"vac":true,"version":"7882260","steam_id":85568392924510199,"keywords":["cp","nocrits","nodmgspread","uncletopia"],"game_id":440,"stv_port":27046,"stv_name":"Uncletopia | Los Angeles | 4 | Stopwatch Beta | STV","players":null},{"server_id":11,"name":"Uncletopia | London | 1 | All Maps","name_short":"lon-1","host":"lon-1.uk.uncletopia.com","port":27015,"enabled":true,"region":"eu","cc":"gb","latitude":51.509865,"longitude":-0.118092,"reserved":0,"last_update":"0001-01-01T00:00:00Z","name_a2s":"Uncletopia | London | 1 | All Maps","protocol":17,"map":"pl_upward","folder":"tf","game":"Team Fortress","app_id":440,"player_count":24,"max_players":24,"Bots":0,"server_type":"Dedicated","server_os":"Linux","password":true,"vac":true,"version":"7882260","steam_id":85568392924367362,"keywords":["nocrits","nodmgspread","payload","uncletopia"],"game_id":440,"stv_port":27016,"stv_name":"Uncletopia | London | 1 | All Maps | STV","players":[{"user_id":3,"name":"spxcy","steam_id":76561198080296853,"connected_time":3212000000000,"state":"active","ping":88},{"user_id":4,"name":"modavak","steam_id":76561198946290908,"connected_time":3208000000000,"state":"active","ping":105},{"user_id":5,"name":"Coca162","steam_id":76561198230656540,"connected_time":3205000000000,"state":"active","ping":45},{"user_id":38,"name":"RiSlava","steam_id":76561198084071930,"connected_time":1584000000000,"state":"active","ping":94},{"user_id":8,"name":"üÉî Nugg1t(she/they)","steam_id":76561198065652251,"connected_time":3195000000000,"state":"active","ping":42},{"user_id":50,"name":"Coconut James","steam_id":76561198081770619,"connected_time":428000000000,"state":"active","ping":118},{"user_id":51,"name":"Dr.Nefario","steam_id":76561198874586020,"connected_time":45000000000,"state":"active","ping":72},{"user_id":14,"name":"ja","steam_id":76561199228540618,"connected_time":3165000000000,"state":"active","ping":70},{"user_id":46,"name":"Nagisatt","steam_id":76561198050455847,"connected_time":952000000000,"state":"active","ping":59},{"user_id":13,"name":"Imperator komedii","steam_id":76561198963841479,"connected_time":3179000000000,"state":"active","ping":93},{"user_id":29,"name":"anzurin","steam_id":76561198043953503,"connected_time":2670000000000,"state":"active","ping":75},{"user_id":35,"name":"KLAMA  ‚ù§","steam_id":76561198351549661,"connected_time":2147000000000,"state":"active","ping":74},{"user_id":40,"name":"Doctor Marijuana","steam_id":76561198288289879,"connected_time":1375000000000,"state":"active","ping":47},{"user_id":48,"name":"dunduu","steam_id":76561198875240717,"connected_time":695000000000,"state":"active","ping":77},{"user_id":19,"name":"N√∫√∫b","steam_id":76561198111933414,"connected_time":3081000000000,"state":"active","ping":75},{"user_id":45,"name":"Jiipeeze","steam_id":76561198316154333,"connected_time":1034000000000,"state":"active","ping":88},{"user_id":21,"name":"Valkyrie","steam_id":76561198998403448,"connected_time":3011000000000,"state":"active","ping":89},{"user_id":24,"name":"Neimon","steam_id":76561198343485710,"connected_time":2934000000000,"state":"active","ping":121},{"user_id":44,"name":"Zedifo","steam_id":76561198044032070,"connected_time":1124000000000,"state":"active","ping":43},{"user_id":26,"name":"Tout Petit Cerveau","steam_id":76561198120837915,"connected_time":2922000000000,"state":"active","ping":42},{"user_id":43,"name":"Mc Cheezy","steam_id":76561198834780242,"connected_time":1215000000000,"state":"active","ping":107},{"user_id":33,"name":"Stefan","steam_id":76561198983111090,"connected_time":2234000000000,"state":"active","ping":75},{"user_id":37,"name":".::[SerafeTTiN]::.","steam_id":76561198009471724,"connected_time":1706000000000,"state":"active","ping":98},{"user_id":49,"name":"KGiorgios_Bully","steam_id":76561198825392728,"connected_time":693000000000,"state":"active","ping":109}]},{"server_id":114,"name":"Uncletopia | London | 2 | All Maps","name_short":"lon-2","host":"lon-1.uk.uncletopia.com","port":27025,"enabled":true,"region":"eu","cc":"gb","latitude":51.509865,"longitude":-0.118092,"reserved":0,"last_update":"0001-01-01T00:00:00Z","name_a2s":"Uncletopia | London | 2 | All Maps","protocol":17,"map":"koth_highpass","folder":"tf","game":"Team Fortress","app_id":440,"player_count":0,"max_players":24,"Bots":0,"server_type":"Dedicated","server_os":"Linux","password":true,"vac":true,"version":"7882260","steam_id":85568392924470941,"keywords":["cp","nocrits","nodmgspread","uncletopia"],"game_id":440,"stv_port":27026,"stv_name":"Uncletopia | London | 2 | All Maps | STV","players":null},{"server_id":320,"name":"Uncletopia | London | 3 | All Maps","name_short":"lon-3","host":"lon-1.uk.uncletopia.com","port":27035,"enabled":true,"region":"eu","cc":"gb","latitude":51.509865,"longitude":-0.118092,"reserved":0,"last_update":"0001-01-01T00:00:00Z","name_a2s":"Uncletopia | London | 3 | All Maps","protocol":17,"map":"pl_upward","folder":"tf","game":"Team Fortress","app_id":440,"player_count":0,"max_players":24,"Bots":0,"server_type":"Dedicated","server_os":"Linux","password":true,"vac":true,"version":"7882260","steam_id":85568392924510192,"keywords":["nocrits","nodmgspread","payload","uncletopia"],"game_id":440,"stv_port":27036,"stv_name":"Uncletopia | London | 3 | All Maps | STV","players":null},{"server_id":321,"name":"Uncletopia | London | 4 | All Maps","name_short":"lon-4","host":"lon-1.uk.uncletopia.com","port":27045,"enabled":true,"region":"eu","cc":"gb","latitude":51.509865,"longitude":-0.118092,"reserved":0,"last_update":"0001-01-01T00:00:00Z","name_a2s":"Uncletopia | London | 4 | All Maps","protocol":17,"map":"cp_dustbowl","folder":"tf","game":"Team Fortress","app_id":440,"player_count":2,"max_players":24,"Bots":0,"server_type":"Dedicated","server_os":"Linux","password":true,"vac":true,"version":"7882260","steam_id":85568392924510193,"keywords":["cp","nocrits","nodmgspread","uncletopia"],"game_id":440,"stv_port":27046,"stv_name":"Uncletopia | London | 4 | All Maps | STV","players":[{"user_id":8,"name":"Mooza","steam_id":76561199375654650,"connected_time":308000000000,"state":"active","ping":113},{"user_id":5,"name":"Sex Man TF2","steam_id":76561198798657045,"connected_time":441000000000,"state":"active","ping":72}]},{"server_id":21,"name":"Uncletopia | London | 5 | All Maps","name_short":"lon-5","host":"lon-1.uk.uncletopia.com","port":27055,"enabled":true,"region":"eu","cc":"gb","latitude":51.509865,"longitude":-0.118092,"reserved":0,"last_update":"0001-01-01T00:00:00Z","name_a2s":"Uncletopia | London | 5 | All Maps","protocol":17,"map":"koth_viaduct","folder":"tf","game":"Team Fortress","app_id":440,"player_count":0,"max_players":24,"Bots":0,"server_type":"Dedicated","server_os":"Linux","password":true,"vac":true,"version":"7882260","steam_id":85568392924742829,"keywords":["cp","nocrits","nodmgspread","uncletopia"],"game_id":440,"stv_port":27056,"stv_name":"Uncletopia | London | 5 | All Maps | STV","players":null},{"server_id":22,"name":"Uncletopia | London | 6 | All Maps","name_short":"lon-6","host":"lon-1.uk.uncletopia.com","port":27065,"enabled":true,"region":"eu","cc":"gb","latitude":51.509865,"longitude":-0.118092,"reserved":0,"last_update":"0001-01-01T00:00:00Z","name_a2s":"Uncletopia | London | 6 | All Maps","protocol":17,"map":"koth_lakeside_final","folder":"tf","game":"Team Fortress","app_id":440,"player_count":0,"max_players":24,"Bots":0,"server_type":"Dedicated","server_os":"Linux","password":true,"vac":true,"version":"7882260","steam_id":85568392924742830,"keywords":["cp","nocrits","nodmgspread","uncletopia"],"game_id":440,"stv_port":27066,"stv_name":"Uncletopia | London | 6 | All Maps | STV","players":null},{"server_id":40,"name":"Uncletopia | London | 7 | No Payload","name_short":"lon-7","host":"lon-1.uk.uncletopia.com","port":27075,"enabled":true,"region":"eu","cc":"gb","latitude":51.509865,"longitude":-0.118092,"reserved":0,"last_update":"0001-01-01T00:00:00Z","name_a2s":"Uncletopia | London | 7 | No Payload","protocol":17,"map":"pl_upward","folder":"tf","game":"Team Fortress","app_id":440,"player_count":0,"max_players":24,"Bots":0,"server_type":"Dedicated","server_os":"Linux","password":true,"vac":true,"version":"7882260","steam_id":85568392924964314,"keywords":["nocrits","nodmgspread","payload","uncletopia"],"game_id":440,"stv_port":27076,"stv_name":"Uncletopia | London | 7 | No Payload | STV","players":null},{"server_id":41,"name":"Uncletopia | London | 8 | Community","name_short":"lon-8","host":"lon-1.uk.uncletopia.com","port":27085,"enabled":true,"region":"eu","cc":"gb","latitude":51.509865,"longitude":-0.118092,"reserved":0,"last_update":"0001-01-01T00:00:00Z","name_a2s":"Uncletopia | London | 8 | Community","protocol":17,"map":"pl_upward","folder":"tf","game":"Team Fortress","app_id":440,"player_count":0,"max_players":24,"Bots":0,"server_type":"Dedicated","server_os":"Linux","password":true,"vac":true,"version":"7882260","steam_id":85568392924964315,"keywords":["nocrits","nodmgspread","payload","uncletopia"],"game_id":440,"stv_port":27086,"stv_name":"Uncletopia | London | 8 | Community | STV","players":null},{"server_id":300,"name":"Uncletopia | Montr√©al | 1 | All Maps","name_short":"mtl-1","host":"mtl-1.ca.uncletopia.com","port":27015,"enabled":true,"region":"us-east","cc":"ca","latitude":45.50889,"longitude":-73.56167,"reserved":0,"last_update":"0001-01-01T00:00:00Z","name_a2s":"Uncletopia | Montr√©al | 1 | All Maps","protocol":17,"map":"cp_dustbowl","folder":"tf","game":"Team Fortress","app_id":440,"player_count":0,"max_players":24,"Bots":0,"server_type":"Dedicated","server_os":"Linux","password":true,"vac":true,"version":"7882260","steam_id":85568392924500087,"keywords":["cp","nocrits","nodmgspread","uncletopia"],"game_id":440,"stv_port":27016,"stv_name":"Uncletopia | Montr√©al | 1 | All Maps | STV","players":null},{"server_id":301,"name":"Uncletopia | Montr√©al | 2 | All Maps","name_short":"mtl-2","host":"mtl-1.ca.uncletopia.com","port":27025,"enabled":true,"region":"us-east","cc":"ca","latitude":45.50889,"longitude":-73.56167,"reserved":0,"last_update":"0001-01-01T00:00:00Z","name_a2s":"Uncletopia | Montr√©al | 2 | All Maps","protocol":17,"map":"koth_cascade","folder":"tf","game":"Team Fortress","app_id":440,"player_count":0,"max_players":24,"Bots":0,"server_type":"Dedicated","server_os":"Linux","password":true,"vac":true,"version":"7882260","steam_id":85568392924500088,"keywords":["cp","nocrits","nodmgspread","uncletopia"],"game_id":440,"stv_port":27026,"stv_name":"Uncletopia | Montr√©al | 2 | All Maps | STV","players":null},{"server_id":302,"name":"Uncletopia | Montr√©al | 3 | All Maps","name_short":"mtl-3","host":"mtl-1.ca.uncletopia.com","port":27035,"enabled":true,"region":"us-east","cc":"ca","latitude":45.50889,"longitude":-73.56167,"reserved":0,"last_update":"0001-01-01T00:00:00Z","name_a2s":"Uncletopia | Montr√©al | 3 | All Maps","protocol":17,"map":"pl_barnblitz","folder":"tf","game":"Team Fortress","app_id":440,"player_count":0,"max_players":24,"Bots":0,"server_type":"Dedicated","server_os":"Linux","password":true,"vac":true,"version":"7882260","steam_id":85568392924500089,"keywords":["nocrits","nodmgspread","payload","uncletopia"],"game_id":440,"stv_port":27036,"stv_name":"Uncletopia | Montr√©al | 3 | All Maps | STV","players":null},{"server_id":303,"name":"Uncletopia | Montr√©al | 4 | No Payload","name_short":"mtl-4","host":"mtl-1.ca.uncletopia.com","port":27045,"enabled":true,"region":"us-east","cc":"ca","latitude":45.50889,"longitude":-73.56167,"reserved":0,"last_update":"0001-01-01T00:00:00Z","name_a2s":"Uncletopia | Montr√©al | 4 | No Payload","protocol":17,"map":"koth_highpass","folder":"tf","game":"Team Fortress","app_id":440,"player_count":0,"max_players":24,"Bots":0,"server_type":"Dedicated","server_os":"Linux","password":true,"vac":true,"version":"7882260","steam_id":85568392924500090,"keywords":["cp","nocrits","nodmgspread","uncletopia"],"game_id":440,"stv_port":27046,"stv_name":"Uncletopia | Montr√©al | 4 | No Payload | STV","players":null},{"server_id":13,"name":"Uncletopia | New York City | 1 | All Maps","name_short":"nyc-1","host":"nyc-1.us.uncletopia.com","port":27015,"enabled":true,"region":"us-east","cc":"us","latitude":40.73061,"longitude":-73.93524,"reserved":0,"last_update":"0001-01-01T00:00:00Z","name_a2s":"Uncletopia | New York City | 1 | All Maps","protocol":17,"map":"pl_pier","folder":"tf","game":"Team Fortress","app_id":440,"player_count":0,"max_players":24,"Bots":0,"server_type":"Dedicated","server_os":"Linux","password":true,"vac":true,"version":"7882260","steam_id":85568392924469993,"keywords":["nocrits","nodmgspread","payload","uncletopia"],"game_id":440,"stv_port":27016,"stv_name":"Uncletopia | New York City | 1 | All Maps | STV","players":null},{"server_id":14,"name":"Uncletopia | New York City | 2 | All Maps","name_short":"nyc-2","host":"nyc-1.us.uncletopia.com","port":27025,"enabled":true,"region":"us-east","cc":"us","latitude":40.73061,"longitude":-73.93524,"reserved":0,"last_update":"0001-01-01T00:00:00Z","name_a2s":"Uncletopia | New York City | 2 | All Maps","protocol":17,"map":"koth_lakeside_final","folder":"tf","game":"Team Fortress","app_id":440,"player_count":0,"max_players":24,"Bots":0,"server_type":"Dedicated","server_os":"Linux","password":true,"vac":true,"version":"7882260","steam_id":85568392924469994,"keywords":["cp","nocrits","nodmgspread","uncletopia"],"game_id":440,"stv_port":27026,"stv_name":"Uncletopia | New York City | 2 | All Maps | STV","players":null},{"server_id":15,"name":"Uncletopia | New York City | 3 | Stopwatch Beta","name_short":"nyc-3","host":"nyc-1.us.uncletopia.com","port":27035,"enabled":true,"region":"us-east","cc":"us","latitude":40.73061,"longitude":-73.93524,"reserved":0,"last_update":"0001-01-01T00:00:00Z","name_a2s":"Uncletopia | New York City | 3 | Stopwatch Beta","protocol":17,"map":"pl_borneo","folder":"tf","game":"Team Fortress","app_id":440,"player_count":0,"max_players":24,"Bots":0,"server_type":"Dedicated","server_os":"Linux","password":true,"vac":true,"version":"7882260","steam_id":85568392924742820,"keywords":["nocrits","nodmgspread","payload","uncletopia"],"game_id":440,"stv_port":27036,"stv_name":"Uncletopia | New York City | 3 | Stopwatch Beta | STV","players":null},{"server_id":16,"name":"Uncletopia | New York City | 4 | Community","name_short":"nyc-4","host":"nyc-1.us.uncletopia.com","port":27045,"enabled":true,"region":"us-east","cc":"us","latitude":40.73061,"longitude":-73.93524,"reserved":0,"last_update":"0001-01-01T00:00:00Z","name_a2s":"Uncletopia | New York City | 4 | Community","protocol":17,"map":"workshop/rd_asteroid_redux_b1.ugc2154902912","folder":"tf","game":"Team Fortress","app_id":440,"player_count":0,"max_players":24,"Bots":0,"server_type":"Dedicated","server_os":"Linux","password":true,"vac":true,"version":"7882260","steam_id":85568392924742821,"keywords":["beta","nocrits","nodmgspread","rd","uncletopia"],"game_id":440,"stv_port":27046,"stv_name":"Uncletopia | New York City | 4 | Community | STV","players":null},{"server_id":142,"name":"Uncletopia | S√£o Paulo | 1 | All Maps","name_short":"sao-1","host":"sao-1.br.uncletopia.com","port":27015,"enabled":true,"region":"sa","cc":"br","latitude":-23.533773,"longitude":-46.62529,"reserved":0,"last_update":"0001-01-01T00:00:00Z","name_a2s":"Uncletopia | S√£o Paulo | 1 | All Maps","protocol":17,"map":"pl_badwater","folder":"tf","game":"Team Fortress","app_id":440,"player_count":0,"max_players":24,"Bots":0,"server_type":"Dedicated","server_os":"Linux","password":true,"vac":true,"version":"7882260","steam_id":85568392924469996,"keywords":["nocrits","nodmgspread","payload","uncletopia"],"game_id":440,"stv_port":27016,"stv_name":"Uncletopia | S√£o Paulo | 1 | All Maps | STV","players":null},{"server_id":143,"name":"Uncletopia | S√£o Paulo | 2 | All Maps","name_short":"sao-2","host":"sao-2.br.uncletopia.com","port":27015,"enabled":true,"region":"sa","cc":"br","latitude":-23.533773,"longitude":-46.62529,"reserved":0,"last_update":"0001-01-01T00:00:00Z","name_a2s":"Uncletopia | S√£o Paulo | 2 | All Maps","protocol":17,"map":"cp_sunshine","folder":"tf","game":"Team Fortress","app_id":440,"player_count":0,"max_players":24,"Bots":0,"server_type":"Dedicated","server_os":"Linux","password":true,"vac":true,"version":"7882260","steam_id":85568392924485349,"keywords":["cp","nocrits","nodmgspread","uncletopia"],"game_id":440,"stv_port":27016,"stv_name":"Uncletopia | S√£o Paulo | 2 | All Maps | STV","players":null},{"server_id":7,"name":"Uncletopia | Seattle | 1 | All Maps","name_short":"sea-1","host":"sea-1.us.uncletopia.com","port":27015,"enabled":true,"region":"us-west","cc":"us","latitude":47.608013,"longitude":-122.33517,"reserved":0,"last_update":"0001-01-01T00:00:00Z","name_a2s":"Uncletopia | Seattle | 1 | All Maps","protocol":17,"map":"pl_upward","folder":"tf","game":"Team Fortress","app_id":440,"player_count":24,"max_players":24,"Bots":0,"server_type":"Dedicated","server_os":"Linux","password":true,"vac":true,"version":"7882260","steam_id":85568392924469997,"keywords":["nocrits","nodmgspread","payload","uncletopia"],"game_id":440,"stv_port":27016,"stv_name":"Uncletopia | Seattle | 1 | All Maps | STV","players":[{"user_id":612,"name":"Coowil","steam_id":76561198070985437,"connected_time":2250000000000,"state":"active","ping":44},{"user_id":574,"name":"An Old Lady","steam_id":76561198047480318,"connected_time":4783000000000,"state":"active","ping":65},{"user_id":617,"name":"Strikerbolt","steam_id":76561199095622897,"connected_time":1302000000000,"state":"active","ping":76},{"user_id":557,"name":"Sniff","steam_id":76561198010270922,"connected_time":6446000000000,"state":"active","ping":45},{"user_id":620,"name":"nell","steam_id":76561198136225723,"connected_time":1202000000000,"state":"active","ping":101},{"user_id":142,"name":"lili","steam_id":76561199391478575,"connected_time":40763000000000,"state":"active","ping":74},{"user_id":627,"name":"BlazedBunny","steam_id":76561198243610560,"connected_time":134000000000,"state":"active","ping":67},{"user_id":576,"name":"SAP","steam_id":76561198005186905,"connected_time":4720000000000,"state":"active","ping":69},{"user_id":629,"name":"[ G R * T T Y ]","steam_id":76561198048986218,"connected_time":104000000000,"state":"active","ping":105},{"user_id":546,"name":"Reven596","steam_id":76561198885592765,"connected_time":6869000000000,"state":"active","ping":70},{"user_id":593,"name":"UneditedAndy","steam_id":76561198982544947,"connected_time":3452000000000,"state":"active","ping":97},{"user_id":609,"name":"spiderland","steam_id":76561198335992132,"connected_time":2481000000000,"state":"active","ping":53},{"user_id":618,"name":":Closed.","steam_id":76561198212598967,"connected_time":1226000000000,"state":"active","ping":76},{"user_id":604,"name":"Clornk (Destroyer of Happiness)","steam_id":76561198360396485,"connected_time":2948000000000,"state":"active","ping":81},{"user_id":561,"name":"The King of Piss World","steam_id":76561198082806956,"connected_time":6193000000000,"state":"active","ping":155},{"user_id":549,"name":"AngryTurtle","steam_id":76561199056534728,"connected_time":6857000000000,"state":"active","ping":43},{"user_id":630,"name":"kwetzal","steam_id":76561198845749671,"connected_time":91000000000,"state":"active","ping":79},{"user_id":615,"name":"Sentient Trash Can","steam_id":76561199438622491,"connected_time":1794000000000,"state":"active","ping":42},{"user_id":614,"name":"bugsnaxdrainer","steam_id":76561198258221077,"connected_time":1882000000000,"state":"active","ping":52},{"user_id":552,"name":"theslayert4","steam_id":76561199258578780,"connected_time":6849000000000,"state":"active","ping":74},{"user_id":623,"name":"CaiGaming","steam_id":76561198313023508,"connected_time":670000000000,"state":"active","ping":76},{"user_id":616,"name":"El Gato Paranoico","steam_id":76561198116567116,"connected_time":1636000000000,"state":"active","ping":120},{"user_id":584,"name":"NOT FRIENDLY","steam_id":76561198041327231,"connected_time":4100000000000,"state":"active","ping":57},{"user_id":626,"name":"my monitor is off","steam_id":76561198074499537,"connected_time":405000000000,"state":"active","ping":78}]},{"server_id":119,"name":"Uncletopia | Seattle | 2 | All Maps","name_short":"sea-2","host":"sea-1.us.uncletopia.com","port":27025,"enabled":true,"region":"us-west","cc":"us","latitude":47.608013,"longitude":-122.33517,"reserved":0,"last_update":"0001-01-01T00:00:00Z","name_a2s":"Uncletopia | Seattle | 2 | All Maps","protocol":17,"map":"pl_badwater","folder":"tf","game":"Team Fortress","app_id":440,"player_count":24,"max_players":24,"Bots":0,"server_type":"Dedicated","server_os":"Linux","password":true,"vac":true,"version":"7882260","steam_id":85568392924469998,"keywords":["nocrits","nodmgspread","payload","uncletopia"],"game_id":440,"stv_port":27026,"stv_name":"Uncletopia | Seattle | 2 | All Maps | STV","players":[{"user_id":615,"name":"i.love.ants.321","steam_id":76561198169755734,"connected_time":4366000000000,"state":"active","ping":68},{"user_id":617,"name":"CasemanTheBlondeBear","steam_id":76561198144862404,"connected_time":3397000000000,"state":"active","ping":67},{"user_id":637,"name":"Wavelengths (they/it)","steam_id":76561197997621320,"connected_time":1090000000000,"state":"active","ping":107},{"user_id":532,"name":"John Calibur","steam_id":76561197999986606,"connected_time":7279000000000,"state":"active","ping":75},{"user_id":625,"name":"sillyjack","steam_id":76561198844273999,"connected_time":2974000000000,"state":"active","ping":42},{"user_id":632,"name":"Agent Mania","steam_id":76561198029741272,"connected_time":2113000000000,"state":"active","ping":82},{"user_id":630,"name":"Mr.Beast","steam_id":76561198100385184,"connected_time":2354000000000,"state":"active","ping":95},{"user_id":626,"name":"mega","steam_id":76561198089520959,"connected_time":2919000000000,"state":"active","ping":105},{"user_id":641,"name":"Tyronican","steam_id":76561198168864083,"connected_time":1047000000000,"state":"active","ping":67},{"user_id":613,"name":"Cr0w!","steam_id":76561198178437265,"connected_time":4634000000000,"state":"active","ping":63},{"user_id":475,"name":"hosewater","steam_id":76561198023383126,"connected_time":11680000000000,"state":"active","ping":67},{"user_id":646,"name":"Grill Skills","steam_id":76561198053575147,"connected_time":403000000000,"state":"active","ping":60},{"user_id":638,"name":"NEBULA","steam_id":76561198086878595,"connected_time":1088000000000,"state":"active","ping":78},{"user_id":647,"name":"gorlab","steam_id":76561198025089694,"connected_time":0,"state":"spawning","ping":30},{"user_id":631,"name":"Rise for the National Spamton","steam_id":76561198138468982,"connected_time":2327000000000,"state":"active","ping":42},{"user_id":644,"name":"WhyRoman f2p with experience","steam_id":76561199484705544,"connected_time":851000000000,"state":"active","ping":84},{"user_id":640,"name":"Flex Pexico","steam_id":76561198041838930,"connected_time":1068000000000,"state":"active","ping":58},{"user_id":572,"name":"Optimore","steam_id":76561198047662990,"connected_time":5745000000000,"state":"active","ping":80},{"user_id":612,"name":"jorts","steam_id":76561199041179985,"connected_time":4965000000000,"state":"active","ping":64},{"user_id":635,"name":"gloobern","steam_id":76561198341190679,"connected_time":1206000000000,"state":"active","ping":58},{"user_id":643,"name":"Zenire","steam_id":76561199087298510,"connected_time":1021000000000,"state":"active","ping":62},{"user_id":526,"name":"RIP LANCE REDDICK","steam_id":76561198099980149,"connected_time":7481000000000,"state":"active","ping":83},{"user_id":609,"name":"delight","steam_id":76561197980280272,"connected_time":5001000000000,"state":"active","ping":52},{"user_id":611,"name":"roryisreallyoutofit","steam_id":76561198065825165,"connected_time":4977000000000,"state":"active","ping":115}]},{"server_id":406,"name":"Uncletopia | Seattle | 3 | Stopwatch Beta","name_short":"sea-3","host":"sea-1.us.uncletopia.com","port":27035,"enabled":true,"region":"us-west","cc":"us","latitude":47.608013,"longitude":-122.33517,"reserved":0,"last_update":"0001-01-01T00:00:00Z","name_a2s":"Uncletopia | Seattle | 3 | Stopwatch Beta","protocol":17,"map":"workshop/cp_process_f12.ugc2302948105","folder":"tf","game":"Team Fortress","app_id":440,"player_count":0,"max_players":24,"Bots":0,"server_type":"Dedicated","server_os":"Linux","password":true,"vac":true,"version":"7882260","steam_id":85568392924515217,"keywords":["cp","nocrits","nodmgspread","uncletopia"],"game_id":440,"stv_port":27036,"stv_name":"Uncletopia | Seattle | 3 | Stopwatch Beta | STV","players":null},{"server_id":17,"name":"Uncletopia | San Francisco | 1 | All Maps","name_short":"sfo-1","host":"sfo-1.us.uncletopia.com","port":27015,"enabled":true,"region":"us-west","cc":"us","latitude":37.77397,"longitude":-122.4313,"reserved":0,"last_update":"0001-01-01T00:00:00Z","name_a2s":"Uncletopia | San Francisco | 1 | All Maps","protocol":17,"map":"pl_frontier_final","folder":"tf","game":"Team Fortress","app_id":440,"player_count":24,"max_players":24,"Bots":0,"server_type":"Dedicated","server_os":"Linux","password":true,"vac":true,"version":"7882260","steam_id":85568392924469999,"keywords":["nocrits","nodmgspread","payload","uncletopia"],"game_id":440,"stv_port":27016,"stv_name":"Uncletopia | San Francisco | 1 | All Maps | STV","players":[{"user_id":646,"name":"DamienIsAsian","steam_id":76561198228819444,"connected_time":408000000000,"state":"active","ping":74},{"user_id":615,"name":"Flying Tortilla","steam_id":76561198079455930,"connected_time":2154000000000,"state":"active","ping":107},{"user_id":632,"name":"Raccoon Gaming","steam_id":76561198065662025,"connected_time":1453000000000,"state":"active","ping":52},{"user_id":638,"name":"Mighty Morphin Flower Arrangers","steam_id":76561198133158032,"connected_time":1012000000000,"state":"active","ping":58},{"user_id":617,"name":"Lemontap","steam_id":76561198064304141,"connected_time":1818000000000,"state":"active","ping":47},{"user_id":647,"name":"FaceLaces","steam_id":76561198194417725,"connected_time":130000000000,"state":"active","ping":61},{"user_id":593,"name":"Bagoool","steam_id":76561198065368286,"connected_time":3961000000000,"state":"active","ping":87},{"user_id":639,"name":"Fred","steam_id":76561197983870604,"connected_time":962000000000,"state":"active","ping":61},{"user_id":620,"name":"Amogous Supreme","steam_id":76561198025476774,"connected_time":1750000000000,"state":"active","ping":61},{"user_id":585,"name":"eau:","steam_id":76561198110020262,"connected_time":4672000000000,"state":"active","ping":44},{"user_id":621,"name":"Zeebop","steam_id":76561198148332988,"connected_time":1732000000000,"state":"active","ping":113},{"user_id":645,"name":"Amazing476","steam_id":76561198103937489,"connected_time":660000000000,"state":"active","ping":103},{"user_id":598,"name":"iv","steam_id":76561198878022971,"connected_time":3927000000000,"state":"active","ping":141},{"user_id":636,"name":"Jezzus","steam_id":76561199289676387,"connected_time":1227000000000,"state":"active","ping":106},{"user_id":594,"name":"lite","steam_id":76561198041535914,"connected_time":3955000000000,"state":"active","ping":98},{"user_id":581,"name":"SvicidalBug","steam_id":76561198221390504,"connected_time":4959000000000,"state":"active","ping":83},{"user_id":623,"name":"AceSea","steam_id":76561198851176490,"connected_time":1707000000000,"state":"active","ping":40},{"user_id":624,"name":"Raian","steam_id":76561199138048671,"connected_time":1702000000000,"state":"active","ping":50},{"user_id":641,"name":"fitotutus","steam_id":76561197974993253,"connected_time":878000000000,"state":"active","ping":136},{"user_id":648,"name":"bengineer","steam_id":76561198171912174,"connected_time":85000000000,"state":"active","ping":76},{"user_id":644,"name":"Ralph Kramden (Slim Charles)","steam_id":76561197981687895,"connected_time":739000000000,"state":"active","ping":63},{"user_id":607,"name":"endo","steam_id":76561197995204381,"connected_time":3291000000000,"state":"active","ping":73},{"user_id":630,"name":"unobtainable digistruct ultra7","steam_id":76561198309010627,"connected_time":1649000000000,"state":"active","ping":60},{"user_id":631,"name":"Anthid","steam_id":76561198074493797,"connected_time":1582000000000,"state":"active","ping":73}]},{"server_id":18,"name":"Uncletopia | San Francisco | 2 | All Maps","name_short":"sfo-2","host":"sfo-1.us.uncletopia.com","port":27025,"enabled":true,"region":"us-west","cc":"us","latitude":37.77397,"longitude":-122.4313,"reserved":0,"last_update":"0001-01-01T00:00:00Z","name_a2s":"Uncletopia | San Francisco | 2 | All Maps","protocol":17,"map":"cp_steel","folder":"tf","game":"Team Fortress","app_id":440,"player_count":23,"max_players":24,"Bots":0,"server_type":"Dedicated","server_os":"Linux","password":true,"vac":true,"version":"7882260","steam_id":85568392924470000,"keywords":["cp","nocrits","nodmgspread","uncletopia"],"game_id":440,"stv_port":27026,"stv_name":"Uncletopia | San Francisco | 2 | All Maps | STV","players":[{"user_id":536,"name":"puffer","steam_id":76561199049164456,"connected_time":2394000000000,"state":"active","ping":62},{"user_id":537,"name":"the fool","steam_id":76561198133933158,"connected_time":2221000000000,"state":"active","ping":45},{"user_id":547,"name":"Cringys","steam_id":76561199029812838,"connected_time":1561000000000,"state":"active","ping":76},{"user_id":560,"name":"randomnerd64","steam_id":76561198129821457,"connected_time":429000000000,"state":"active","ping":162},{"user_id":545,"name":"SomeRandomMail","steam_id":76561199002913110,"connected_time":1591000000000,"state":"active","ping":42},{"user_id":511,"name":"Dr. Blair Chao","steam_id":76561198146027518,"connected_time":3958000000000,"state":"active","ping":108},{"user_id":553,"name":"VioletEyes12","steam_id":76561198041890524,"connected_time":1263000000000,"state":"active","ping":58},{"user_id":557,"name":"‚Ä∫ We Are You.j2 [NO SOUND]","steam_id":76561197995242200,"connected_time":599000000000,"state":"active","ping":54},{"user_id":546,"name":"elephant thumb","steam_id":76561198118859752,"connected_time":1588000000000,"state":"active","ping":50},{"user_id":563,"name":"awesomebrololo","steam_id":76561198374283489,"connected_time":309000000000,"state":"active","ping":96},{"user_id":548,"name":"walkspine","steam_id":76561198030343569,"connected_time":1545000000000,"state":"active","ping":82},{"user_id":558,"name":"ThisDOT","steam_id":76561199011823773,"connected_time":494000000000,"state":"active","ping":61},{"user_id":549,"name":"but why though?","steam_id":76561198091871087,"connected_time":1534000000000,"state":"active","ping":45},{"user_id":559,"name":"galaxy","steam_id":76561198040971883,"connected_time":456000000000,"state":"active","ping":76},{"user_id":552,"name":"skullstatic_","steam_id":76561198084939252,"connected_time":1428000000000,"state":"active","ping":40},{"user_id":556,"name":"Bug","steam_id":76561198279239047,"connected_time":828000000000,"state":"active","ping":111},{"user_id":561,"name":"bepo","steam_id":76561199029030831,"connected_time":364000000000,"state":"active","ping":129},{"user_id":562,"name":"vuldrin","steam_id":76561198383695069,"connected_time":350000000000,"state":"active","ping":68},{"user_id":564,"name":"solar","steam_id":76561199013226016,"connected_time":227000000000,"state":"active","ping":63},{"user_id":540,"name":"JamesBlakeFan11","steam_id":76561198440539769,"connected_time":1944000000000,"state":"active","ping":54},{"user_id":550,"name":"goldhed","steam_id":76561198051751133,"connected_time":1510000000000,"state":"active","ping":80},{"user_id":551,"name":"Lemur w/a Femur","steam_id":76561199008374083,"connected_time":1485000000000,"state":"active","ping":56},{"user_id":527,"name":"Carvernon","steam_id":76561198011356505,"connected_time":3037000000000,"state":"active","ping":80}]},{"server_id":19,"name":"Uncletopia | San Francisco | 3 | Stopwatch Beta","name_short":"sfo-3","host":"sfo-1.us.uncletopia.com","port":27035,"enabled":true,"region":"us-west","cc":"us","latitude":37.77397,"longitude":-122.4313,"reserved":0,"last_update":"0001-01-01T00:00:00Z","name_a2s":"Uncletopia | San Francisco | 3 | Stopwatch Beta","protocol":17,"map":"workshop/koth_ramjam_rc1.ugc459778887","folder":"tf","game":"Team Fortress","app_id":440,"player_count":0,"max_players":24,"Bots":0,"server_type":"Dedicated","server_os":"Linux","password":true,"vac":true,"version":"7882260","steam_id":85568392924742824,"keywords":["cp","nocrits","nodmgspread","uncletopia"],"game_id":440,"stv_port":27036,"stv_name":"Uncletopia | San Francisco | 3 | Stopwatch Beta | STV","players":null},{"server_id":20,"name":"Uncletopia | San Francisco | 4 | Community","name_short":"sfo-4","host":"sfo-1.us.uncletopia.com","port":27045,"enabled":true,"region":"us-west","cc":"us","latitude":37.77397,"longitude":-122.4313,"reserved":0,"last_update":"0001-01-01T00:00:00Z","name_a2s":"Uncletopia | San Francisco | 4 | Community","protocol":17,"map":"workshop/koth_ashville_final.ugc2130459942","folder":"tf","game":"Team Fortress","app_id":440,"player_count":0,"max_players":24,"Bots":0,"server_type":"Dedicated","server_os":"Linux","password":true,"vac":true,"version":"7882260","steam_id":85568392924742826,"keywords":["cp","nocrits","nodmgspread","uncletopia"],"game_id":440,"stv_port":27046,"stv_name":"Uncletopia | San Francisco | 4 | Community | STV","players":null},{"server_id":141,"name":"Uncletopia | Sydney | 1 | All Maps","name_short":"syd-1","host":"syd-1.au.uncletopia.com","port":27015,"enabled":true,"region":"au","cc":"au","latitude":-33.865143,"longitude":151.2099,"reserved":0,"last_update":"0001-01-01T00:00:00Z","name_a2s":"Uncletopia | Sydney | 1 | All Maps","protocol":17,"map":"cp_dustbowl","folder":"tf","game":"Team Fortress","app_id":440,"player_count":22,"max_players":24,"Bots":0,"server_type":"Dedicated","server_os":"Linux","password":true,"vac":true,"version":"7882260","steam_id":85568392924470001,"keywords":["cp","nocrits","nodmgspread","uncletopia"],"game_id":440,"stv_port":27016,"stv_name":"Uncletopia | Sydney | 1 | All Maps | STV","players":[{"user_id":264,"name":"you've left me be Wilbur'd","steam_id":76561198301282416,"connected_time":918000000000,"state":"active","ping":52},{"user_id":254,"name":"Quinneyo9","steam_id":76561198984172171,"connected_time":1814000000000,"state":"active","ping":84},{"user_id":271,"name":"IPadProRetina","steam_id":76561198117973965,"connected_time":449000000000,"state":"active","ping":60},{"user_id":275,"name":".Bakes","steam_id":76561198018293914,"connected_time":174000000000,"state":"active","ping":45},{"user_id":244,"name":"killmane","steam_id":76561198041553523,"connected_time":2253000000000,"state":"active","ping":126},{"user_id":265,"name":"flow","steam_id":76561198113244106,"connected_time":910000000000,"state":"active","ping":44},{"user_id":273,"name":"Shotty 2 Hotty","steam_id":76561199174449723,"connected_time":204000000000,"state":"active","ping":149},{"user_id":276,"name":"wayne kerr ‡∂û","steam_id":76561198051367425,"connected_time":107000000000,"state":"active","ping":63},{"user_id":277,"name":"luka","steam_id":76561199486042863,"connected_time":93000000000,"state":"active","ping":341},{"user_id":262,"name":"michael","steam_id":76561198052848358,"connected_time":1325000000000,"state":"active","ping":62},{"user_id":278,"name":"Jamie","steam_id":76561198917309036,"connected_time":68000000000,"state":"active","ping":345},{"user_id":266,"name":"weezer","steam_id":76561199439508788,"connected_time":894000000000,"state":"active","ping":64},{"user_id":243,"name":"whiteshaq","steam_id":76561198131988811,"connected_time":2670000000000,"state":"active","ping":47},{"user_id":261,"name":"???","steam_id":76561199046481213,"connected_time":1332000000000,"state":"active","ping":73},{"user_id":272,"name":"BEMOREAFRAID","steam_id":76561198037965602,"connected_time":442000000000,"state":"active","ping":45},{"user_id":274,"name":"Comet","steam_id":76561198250714936,"connected_time":203000000000,"state":"active","ping":58},{"user_id":279,"name":"Qwertles","steam_id":76561198033779273,"connected_time":58000000000,"state":"active","ping":61},{"user_id":249,"name":"ToastmanJack","steam_id":76561198145347722,"connected_time":2043000000000,"state":"active","ping":45},{"user_id":255,"name":"Pompadouraus","steam_id":76561198327530525,"connected_time":1778000000000,"state":"active","ping":75},{"user_id":210,"name":"Fleetfoot","steam_id":76561198072845816,"connected_time":5083000000000,"state":"active","ping":54},{"user_id":251,"name":"side character energy","steam_id":76561198044487625,"connected_time":1938000000000,"state":"active","ping":46},{"user_id":240,"name":"aido","steam_id":76561198072397557,"connected_time":3293000000000,"state":"active","ping":62}]},{"server_id":123,"name":"Uncletopia | Sydney | 2 | All Maps","name_short":"syd-2","host":"syd-1.au.uncletopia.com","port":27025,"enabled":true,"region":"au","cc":"au","latitude":-33.865143,"longitude":151.2099,"reserved":0,"last_update":"0001-01-01T00:00:00Z","name_a2s":"Uncletopia | Sydney | 2 | All Maps","protocol":17,"map":"cp_egypt_final","folder":"tf","game":"Team Fortress","app_id":440,"player_count":24,"max_players":24,"Bots":0,"server_type":"Dedicated","server_os":"Linux","password":true,"vac":true,"version":"7882260","steam_id":85568392924470002,"keywords":["cp","nocrits","nodmgspread","uncletopia"],"game_id":440,"stv_port":27026,"stv_name":"Uncletopia | Sydney | 2 | All Maps | STV","players":[{"user_id":88,"name":"Nee-Jerk","steam_id":76561198074266145,"connected_time":1734000000000,"state":"active","ping":63},{"user_id":74,"name":"Federal Agent No. 734","steam_id":76561198132758545,"connected_time":2590000000000,"state":"active","ping":60},{"user_id":93,"name":"Mayo","steam_id":76561198290434764,"connected_time":1315000000000,"state":"active","ping":44},{"user_id":87,"name":"Marmalade Cat","steam_id":76561198086309767,"connected_time":1828000000000,"state":"active","ping":62},{"user_id":113,"name":"Jetstream Ham |HM|","steam_id":76561199003813192,"connected_time":473000000000,"state":"active","ping":124},{"user_id":89,"name":"miyamoto is daddy","steam_id":76561199483818230,"connected_time":1595000000000,"state":"active","ping":81},{"user_id":23,"name":"Lumalee ‚ù§","steam_id":76561198157613299,"connected_time":7971000000000,"state":"active","ping":60},{"user_id":94,"name":"rawirigallagher","steam_id":76561199023135754,"connected_time":1315000000000,"state":"active","ping":51},{"user_id":77,"name":"Snipan Milat","steam_id":76561198001544539,"connected_time":2534000000000,"state":"active","ping":53},{"user_id":116,"name":"i'm god ‚Ä†","steam_id":76561198051969460,"connected_time":405000000000,"state":"active","ping":57},{"user_id":122,"name":"Pizza Guy","steam_id":76561199136347742,"connected_time":93000000000,"state":"active","ping":70},{"user_id":102,"name":"FascismSalad","steam_id":76561198262410973,"connected_time":958000000000,"state":"active","ping":45},{"user_id":90,"name":"Denszeal","steam_id":76561198313718095,"connected_time":1542000000000,"state":"active","ping":75},{"user_id":104,"name":"trash","steam_id":76561198110764631,"connected_time":884000000000,"state":"active","ping":45},{"user_id":106,"name":"Chromo Patrol","steam_id":76561197987001534,"connected_time":745000000000,"state":"active","ping":106},{"user_id":123,"name":"MortalWombatAV","steam_id":76561198293193095,"connected_time":82000000000,"state":"active","ping":69},{"user_id":124,"name":"krandlez` (Any/All)","steam_id":76561198044839726,"connected_time":78000000000,"state":"active","ping":39},{"user_id":125,"name":"Demo-Ham TF2 |HM|","steam_id":76561198419196522,"connected_time":27000000000,"state":"active","ping":64},{"user_id":117,"name":"eroweh","steam_id":76561198050955934,"connected_time":393000000000,"state":"active","ping":60},{"user_id":118,"name":"Doctrine","steam_id":76561199050447792,"connected_time":341000000000,"state":"active","ping":55},{"user_id":119,"name":"ArcticDolphin","steam_id":76561198203626319,"connected_time":208000000000,"state":"active","ping":176},{"user_id":120,"name":"Kremmen","steam_id":76561198051368641,"connected_time":195000000000,"state":"active","ping":71},{"user_id":121,"name":"Obamium","steam_id":76561198453791698,"connected_time":177000000000,"state":"active","ping":75},{"user_id":126,"name":"juju_kungfu","steam_id":76561198151291219,"connected_time":3000000000,"state":"spawning","ping":297}]},{"server_id":395,"name":"Uncletopia | Sydney | 3 | All Maps","name_short":"syd-3","host":"syd-1.au.uncletopia.com","port":27035,"enabled":true,"region":"au","cc":"au","latitude":-33.865143,"longitude":151.2099,"reserved":0,"last_update":"0001-01-01T00:00:00Z","name_a2s":"Uncletopia | Sydney | 3 | All Maps","protocol":17,"map":"koth_viaduct","folder":"tf","game":"Team Fortress","app_id":440,"player_count":0,"max_players":24,"Bots":0,"server_type":"Dedicated","server_os":"Linux","password":true,"vac":true,"version":"7882260","steam_id":85568392925194467,"keywords":["cp","nocrits","nodmgspread","uncletopia"],"game_id":440,"stv_port":27036,"stv_name":"Uncletopia | Sydney | 3 | All Maps | STV","players":null},{"server_id":396,"name":"Uncletopia | Sydney | 4 | All Maps","name_short":"syd-4","host":"syd-1.au.uncletopia.com","port":27045,"enabled":true,"region":"au","cc":"au","latitude":-33.865143,"longitude":151.2099,"reserved":0,"last_update":"0001-01-01T00:00:00Z","name_a2s":"Uncletopia | Sydney | 4 | All Maps","protocol":17,"map":"pl_snowycoast","folder":"tf","game":"Team Fortress","app_id":440,"player_count":0,"max_players":24,"Bots":0,"server_type":"Dedicated","server_os":"Linux","password":true,"vac":true,"version":"7882260","steam_id":85568392925397958,"keywords":["nocrits","nodmgspread","payload","uncletopia"],"game_id":440,"stv_port":27046,"stv_name":"Uncletopia | Sydney | 4 | All Maps | STV","players":null},{"server_id":58,"name":"Uncletopia | Sydney | 5 | Stopwatch Beta","name_short":"syd-5","host":"syd-1.au.uncletopia.com","port":27055,"enabled":true,"region":"au","cc":"au","latitude":-33.865143,"longitude":151.2099,"reserved":0,"last_update":"0001-01-01T00:00:00Z","name_a2s":"Uncletopia | Sydney | 5 | Stopwatch Beta","protocol":17,"map":"workshop/koth_ramjam_rc1.ugc459778887","folder":"tf","game":"Team Fortress","app_id":440,"player_count":0,"max_players":24,"Bots":0,"server_type":"Dedicated","server_os":"Linux","password":true,"vac":true,"version":"7882260","steam_id":85568392925397959,"keywords":["cp","nocrits","nodmgspread","uncletopia"],"game_id":440,"stv_port":27056,"stv_name":"Uncletopia | Sydney | 5 | Stopwatch Beta | STV","players":null},{"server_id":59,"name":"Uncletopia | Sydney | 6 | Community","name_short":"syd-6","host":"syd-1.au.uncletopia.com","port":27065,"enabled":true,"region":"au","cc":"au","latitude":-33.865143,"longitude":151.2099,"reserved":0,"last_update":"0001-01-01T00:00:00Z","name_a2s":"Uncletopia | Sydney | 6 | Community","protocol":17,"map":"workshop/koth_synthetic_rc6a.ugc1549817316","folder":"tf","game":"Team Fortress","app_id":440,"player_count":0,"max_players":24,"Bots":0,"server_type":"Dedicated","server_os":"Linux","password":true,"vac":true,"version":"7882260","steam_id":85568392925397960,"keywords":["cp","nocrits","nodmgspread","uncletopia"],"game_id":440,"stv_port":27066,"stv_name":"Uncletopia | Sydney | 6 | Community | STV","players":null},{"server_id":49,"name":"Uncletopia | Warsaw | 1 | All Maps","name_short":"waw-1","host":"waw-1.pl.uncletopia.com","port":27015,"enabled":true,"region":"eu","cc":"pl","latitude":52.2297,"longitude":21.017532,"reserved":0,"last_update":"0001-01-01T00:00:00Z","name_a2s":"","protocol":0,"map":"","folder":"","game":"","app_id":0,"player_count":0,"max_players":0,"Bots":0,"server_type":"","server_os":"","password":false,"vac":false,"version":"","steam_id":0,"keywords":null,"game_id":0,"stv_port":0,"stv_name":"","players":null},{"server_id":50,"name":"Uncletopia | Warsaw | 2 | All Maps","name_short":"waw-2","host":"waw-1.pl.uncletopia.com","port":27025,"enabled":true,"region":"eu","cc":"pl","latitude":52.2297,"longitude":21.017532,"reserved":0,"last_update":"0001-01-01T00:00:00Z","name_a2s":"Uncletopia | Warsaw | 2 | All Maps","protocol":17,"map":"koth_viaduct","folder":"tf","game":"Team Fortress","app_id":440,"player_count":1,"max_players":24,"Bots":0,"server_type":"Dedicated","server_os":"Linux","password":true,"vac":true,"version":"7882260","steam_id":85568392925397851,"keywords":["cp","nocrits","nodmgspread","uncletopia"],"game_id":440,"stv_port":27026,"stv_name":"Uncletopia | Warsaw | 2 | All Maps | STV","players":[{"user_id":3,"name":"Cof:Rispo","steam_id":76561198930281965,"connected_time":377000000000,"state":"active","ping":136}]},{"server_id":51,"name":"Uncletopia | Warsaw | 3 | All Maps","name_short":"waw-3","host":"waw-1.pl.uncletopia.com","port":27035,"enabled":true,"region":"eu","cc":"pl","latitude":52.2297,"longitude":21.017532,"reserved":0,"last_update":"0001-01-01T00:00:00Z","name_a2s":"Uncletopia | Warsaw | 3 | All Maps","protocol":17,"map":"pl_badwater","folder":"tf","game":"Team Fortress","app_id":440,"player_count":0,"max_players":24,"Bots":0,"server_type":"Dedicated","server_os":"Linux","password":true,"vac":true,"version":"7882260","steam_id":85568392925397852,"keywords":["nocrits","nodmgspread","payload","uncletopia"],"game_id":440,"stv_port":27036,"stv_name":"Uncletopia | Warsaw | 3 | All Maps | STV","players":null},{"server_id":52,"name":"Uncletopia | Warsaw | 4 | All Maps","name_short":"waw-4","host":"waw-1.pl.uncletopia.com","port":27045,"enabled":true,"region":"eu","cc":"pl","latitude":52.2297,"longitude":21.017532,"reserved":0,"last_update":"0001-01-01T00:00:00Z","name_a2s":"Uncletopia | Warsaw | 4 | All Maps","protocol":17,"map":"koth_cascade","folder":"tf","game":"Team Fortress","app_id":440,"player_count":0,"max_players":24,"Bots":0,"server_type":"Dedicated","server_os":"Linux","password":true,"vac":true,"version":"7882260","steam_id":85568392925397853,"keywords":["cp","nocrits","nodmgspread","uncletopia"],"game_id":440,"stv_port":27046,"stv_name":"Uncletopia | Warsaw | 4 | All Maps | STV","players":null},{"server_id":53,"name":"Uncletopia | Warsaw | 5 | Stopwatch Beta","name_short":"waw-5","host":"waw-1.pl.uncletopia.com","port":27055,"enabled":true,"region":"eu","cc":"pl","latitude":52.2297,"longitude":21.017532,"reserved":0,"last_update":"0001-01-01T00:00:00Z","name_a2s":"Uncletopia | Warsaw | 5 | Stopwatch Beta","protocol":17,"map":"cp_dustbowl","folder":"tf","game":"Team Fortress","app_id":440,"player_count":0,"max_players":24,"Bots":0,"server_type":"Dedicated","server_os":"Linux","password":true,"vac":true,"version":"7882260","steam_id":85568392925397854,"keywords":["cp","nocrits","nodmgspread","uncletopia"],"game_id":440,"stv_port":27056,"stv_name":"Uncletopia | Warsaw | 5 | Stopwatch Beta | STV","players":null},{"server_id":54,"name":"Uncletopia | Warsaw | 6 | Community","name_short":"waw-6","host":"waw-1.pl.uncletopia.com","port":27065,"enabled":true,"region":"eu","cc":"pl","latitude":52.2297,"longitude":21.017532,"reserved":0,"last_update":"0001-01-01T00:00:00Z","name_a2s":"Uncletopia | Warsaw | 6 | Community","protocol":17,"map":"cp_dustbowl","folder":"tf","game":"Team Fortress","app_id":440,"player_count":0,"max_players":24,"Bots":0,"server_type":"Dedicated","server_os":"Linux","password":true,"vac":true,"version":"7882260","steam_id":85568392925397856,"keywords":["cp","nocrits","nodmgspread","uncletopia"],"game_id":440,"stv_port":27066,"stv_name":"Uncletopia | Warsaw | 6 | Community | STV","players":null}]}