{"status":true,"message":"","result":[{"server_id":9,"name":"Uncletopia | Atlanta | 1 | All Maps","name_short":"atl-1","host":"atl-1.us.uncletopia.com","port":27015,"enabled":true,"region":"us-east","cc":"us","latitude":33.753746,"longitude":-84.38633,"reserved":0,"last_update":"0001-01-01T00:00:00Z","name_a2s":"Uncletopia | Atlanta | 1 | All Maps","protocol":17,"map":"pl_snowycoast","folder":"tf","game":"Team Fortress","app_id":440,"player_count":24,"max_players":24,"Bots":0,"server_type":"Dedicated","server_os":"Linux","password":true,"vac":true,"version":"7961495","steam_id":85568392924469982,"keywords":["nocrits","nodmgspread","payload","uncletopia"],"game_id":440,"stv_port":27016,"stv_name":"Uncletopia | Atlanta | 1 | All Maps | STV","players":[{"user_id":498,"name":"Jin Gulilo","steam_id":76561198065151242,"connected_time":2508000000000,"state":"active","ping":65},{"user_id":359,"name":"JohnFMX","steam_id":76561198175608097,"connected_time":11611000000000,"state":"active","ping":67},{"user_id":470,"name":"Zake","steam_id":76561198014251391,"connected_time":4232000000000,"state":"active","ping":113},{"user_id":497,"name":"Im High","steam_id":76561198049954886,"connected_time":2729000000000,"state":"active","ping":75},{"user_id":398,"name":"Woods","steam_id":76561198440012069,"connected_time":8769000000000,"state":"active","ping":83},{"user_id":520,"name":"Boneless Blithen","steam_id":76561197989955619,"connected_time":864000000000,"state":"active","ping":123},{"user_id":466,"name":"LacedJobs","steam_id":76561198162886912,"connected_time":4373000000000,"state":"active","ping":59},{"user_id":490,"name":"lu","steam_id":76561198080731872,"connected_time":3598000000000,"state":"active","ping":76},{"user_id":528,"name":"zzzz","steam_id":76561198310495200,"connected_time":269000000000,"state":"active","ping":74},{"user_id":492,"name":"..!","steam_id":76561198882483441,"connected_time":3543000000000,"state":"active","ping":68},{"user_id":525,"name":"MekkieManul","steam_id":76561198053165462,"connected_time":471000000000,"state":"active","ping":57},{"user_id":501,"name":"Icaras","steam_id":76561198416724843,"connected_time":2239000000000,"state":"active","ping":131},{"user_id":495,"name":"z #based","steam_id":76561198377478982,"connected_time":3195000000000,"state":"active","ping":68},{"user_id":521,"name":"The Final Terminus","steam_id":76561197964985183,"connected_time":783000000000,"state":"active","ping":62},{"user_id":400,"name":"Heathcliff","steam_id":76561198044288534,"connected_time":8683000000000,"state":"active","ping":76},{"user_id":518,"name":"An Engineer","steam_id":76561198110381643,"connected_time":1350000000000,"state":"active","ping":53},{"user_id":524,"name":"DeezNoodlez","steam_id":76561198246700372,"connected_time":494000000000,"state":"active","ping":61},{"user_id":527,"name":"Shame","steam_id":76561198100490994,"connected_time":369000000000,"state":"active","ping":71},{"user_id":526,"name":"[MOM] Preening Champion","steam_id":76561198055855534,"connected_time":468000000000,"state":"active","ping":77},{"user_id":506,"name":"creeeeeee","steam_id":76561198392539722,"connected_time":1972000000000,"state":"active","ping":80},{"user_id":418,"name":"Pi Guy","steam_id":76561199071784224,"connected_time":7132000000000,"state":"active","ping":92},{"user_id":500,"name":"1998 Volvo S70 T5","steam_id":76561198258615044,"connected_time":2278000000000,"state":"active","ping":88},{"user_id":502,"name":"Drapph","steam_id":76561199384213314,"connected_time":2039000000000,"state":"active","ping":96},{"user_id":503,"name":"UnraveledCape24","steam_id":76561198189101857,"connected_time":2039000000000,"state":"active","ping":61}]},{"server_id":104,"name":"Uncletopia | Atlanta | 2 | All Maps","name_short":"atl-2","host":"atl-1.us.uncletopia.com","port":27025,"enabled":true,"region":"us-east","cc":"us","latitude":33.753746,"longitude":-84.38633,"reserved":0,"last_update":"0001-01-01T00:00:00Z","name_a2s":"Uncletopia | Atlanta | 2 | All Maps","protocol":17,"map":"pl_swiftwater_final1","folder":"tf","game":"Team Fortress","app_id":440,"player_count":24,"max_players":24,"Bots":0,"server_type":"Dedicated","server_os":"Linux","password":true,"vac":true,"version":"7961495","steam_id":85568392924469983,"keywords":["nocrits","nodmgspread","payload","uncletopia"],"game_id":440,"stv_port":27026,"stv_name":"Uncletopia | Atlanta | 2 | All Maps | STV","players":[{"user_id":513,"name":"Derdyaga","steam_id":76561198174156277,"connected_time":609000000000,"state":"active","ping":60},{"user_id":506,"name":"ATLS1 | Strange Festive","steam_id":76561198050385093,"connected_time":801000000000,"state":"active","ping":70},{"user_id":514,"name":"rice white","steam_id":76561198320732910,"connected_time":321000000000,"state":"active","ping":75},{"user_id":494,"name":"MEATBALL","steam_id":76561198028499312,"connected_time":1277000000000,"state":"active","ping":59},{"user_id":502,"name":"coolalepher","steam_id":76561199002989143,"connected_time":901000000000,"state":"active","ping":63},{"user_id":512,"name":"Zacoton","steam_id":76561198923751420,"connected_time":642000000000,"state":"active","ping":96},{"user_id":495,"name":"phone","steam_id":76561198029268743,"connected_time":1269000000000,"state":"active","ping":46},{"user_id":496,"name":"daemon","steam_id":76561198001541433,"connected_time":1181000000000,"state":"active","ping":75},{"user_id":497,"name":"C Papi","steam_id":76561198027779564,"connected_time":1175000000000,"state":"active","ping":54},{"user_id":470,"name":"hideyochest","steam_id":76561198090366059,"connected_time":2938000000000,"state":"active","ping":62},{"user_id":484,"name":"Just a Festive TimeButt","steam_id":76561198074261742,"connected_time":2157000000000,"state":"active","ping":87},{"user_id":498,"name":"Lord_HoboJo","steam_id":76561198039800002,"connected_time":1162000000000,"state":"active","ping":77},{"user_id":499,"name":"Acro","steam_id":76561198092451804,"connected_time":1133000000000,"state":"active","ping":67},{"user_id":449,"name":"Coach McFish","steam_id":76561198210456405,"connected_time":4100000000000,"state":"active","ping":93},{"user_id":462,"name":"Zaro","steam_id":76561198433849006,"connected_time":3495000000000,"state":"active","ping":46},{"user_id":503,"name":"Creating Garbage","steam_id":76561198015160365,"connected_time":871000000000,"state":"active","ping":67},{"user_id":505,"name":"Fishhy","steam_id":76561198045984968,"connected_time":828000000000,"state":"active","ping":74},{"user_id":507,"name":"BrainFart","steam_id":76561198130827247,"connected_time":792000000000,"state":"active","ping":73},{"user_id":469,"name":"joaquiiiin:3","steam_id":76561199142911468,"connected_time":3022000000000,"state":"active","ping":117},{"user_id":483,"name":"blind4545","steam_id":76561198983194317,"connected_time":2346000000000,"state":"active","ping":56},{"user_id":478,"name":"Mint Jelly","steam_id":76561197991286751,"connected_time":2634000000000,"state":"active","ping":63},{"user_id":508,"name":"Jabagas","steam_id":76561198141559134,"connected_time":786000000000,"state":"active","ping":68},{"user_id":509,"name":"Cosmolian","steam_id":76561199178160545,"connected_time":773000000000,"state":"active","ping":115},{"user_id":510,"name":"Final Boss of Hightower","steam_id":76561198034827905,"connected_time":755000000000,"state":"active","ping":85}]},{"server_id":400,"name":"Uncletopia | Atlanta | 3 | Stopwatch","name_short":"atl-3","host":"atl-1.us.uncletopia.com","port":27035,"enabled":true,"region":"us-east","cc":"us","latitude":33.753746,"longitude":-84.38633,"reserved":0,"last_update":"0001-01-01T00:00:00Z","name_a2s":"Uncletopia | Atlanta | 3 | Stopwatch","protocol":17,"map":"workshop/cp_reckoner_rc6.ugc674719999","folder":"tf","game":"Team Fortress","app_id":440,"player_count":0,"max_players":24,"Bots":0,"server_type":"Dedicated","server_os":"Linux","password":true,"vac":true,"version":"7961495","steam_id":85568392924515187,"keywords":["cp","nocrits","nodmgspread","uncletopia"],"game_id":440,"stv_port":27036,"stv_name":"Uncletopia | Atlanta | 3 | Stopwatch | STV","players":null},{"server_id":401,"name":"Uncletopia | Atlanta | 4 | Community","name_short":"atl-4","host":"atl-1.us.uncletopia.com","port":27045,"enabled":true,"region":"us-east","cc":"us","latitude":33.753746,"longitude":-84.38633,"reserved":0,"last_update":"0001-01-01T00:00:00Z","name_a2s":"Uncletopia | Atlanta | 4 | Community","protocol":17,"map":"workshop/koth_trenchfoot_ab1.ugc731436616","folder":"tf","game":"Team Fortress","app_id":440,"player_count":0,"max_players":24,"Bots":0,"server_type":"Dedicated","server_os":"Linux","password":true,"vac":true,"version":"7961495","steam_id":85568392924515188,"keywords":["cp","nocrits","nodmgspread","uncletopia"],"game_id":440,"stv_port":27046,"stv_name":"Uncletopia | Atlanta | 4 | Community | STV","players":null},{"server_id":2,"name":"Uncletopia | Chicago | 1 | All Maps","name_short":"chi-1","host":"chi-1.us.uncletopia.com","port":27015,"enabled":true,"region":"us-central","cc":"us","latitude":41.881832,"longitude":-87.62318,"reserved":0,"last_update":"0001-01-01T00:00:00Z","name_a2s":"Uncletopia | Chicago | 1 | All Maps","protocol":17,"map":"cp_mossrock","folder":"tf","game":"Team Fortress","app_id":440,"player_count":25,"max_players":24,"Bots":0,"server_type":"Dedicated","server_os":"Linux","password":true,"vac":true,"version":"7961495","steam_id":85568392924469984,"keywords":["cp","nocrits","nodmgspread","uncletopia"],"game_id":440,"stv_port":27016,"stv_name":"Uncletopia | Chicago | 1 | All Maps | STV","players":[{"user_id":604,"name":"t","steam_id":76561198175988929,"connected_time":5877000000000,"state":"active","ping":78},{"user_id":674,"name":"Hertz","steam_id":76561198245322982,"connected_time":1502000000000,"state":"active","ping":47},{"user_id":659,"name":"SuperRican","steam_id":76561199406777735,"connected_time":1997000000000,"state":"active","ping":76},{"user_id":582,"name":"Revolverheld","steam_id":76561199186726297,"connected_time":7817000000000,"state":"active","ping":112},{"user_id":689,"name":"folly","steam_id":76561198133933158,"connected_time":280000000000,"state":"active","ping":106},{"user_id":593,"name":"FireQuiz","steam_id":76561198107357249,"connected_time":6525000000000,"state":"active","ping":103},{"user_id":651,"name":"Actually Playing Runescape","steam_id":76561198060807197,"connected_time":2529000000000,"state":"active","ping":61},{"user_id":668,"name":"hearthian","steam_id":76561198113235260,"connected_time":1717000000000,"state":"active","ping":95},{"user_id":644,"name":"MajorSatan","steam_id":76561198363814803,"connected_time":2885000000000,"state":"active","ping":94},{"user_id":637,"name":"chaffy","steam_id":76561198021754567,"connected_time":3169000000000,"state":"active","ping":61},{"user_id":656,"name":"Baka!‚ë®‚ë®‚ë®‚ë®","steam_id":76561198152948254,"connected_time":2109000000000,"state":"active","ping":61},{"user_id":647,"name":"blob","steam_id":76561198122375328,"connected_time":2665000000000,"state":"active","ping":54},{"user_id":687,"name":"Swiftmend","steam_id":76561197995595692,"connected_time":426000000000,"state":"active","ping":76},{"user_id":688,"name":"Oh, it's Zach","steam_id":76561198103309672,"connected_time":324000000000,"state":"active","ping":55},{"user_id":678,"name":"poorman #1 sniper","steam_id":76561198447884169,"connected_time":1068000000000,"state":"active","ping":48},{"user_id":679,"name":"Jango","steam_id":76561198084589742,"connected_time":1021000000000,"state":"active","ping":78},{"user_id":649,"name":"Your Local Queer Librarian","steam_id":76561198013077080,"connected_time":2551000000000,"state":"active","ping":55},{"user_id":686,"name":"your very own pocket medic","steam_id":76561199489320369,"connected_time":769000000000,"state":"active","ping":78},{"user_id":690,"name":"Milkmur","steam_id":76561198210043821,"connected_time":9000000000,"state":"spawning","ping":58},{"user_id":676,"name":"runescape legend","steam_id":76561198077791373,"connected_time":1180000000000,"state":"active","ping":58},{"user_id":638,"name":"Sone","steam_id":76561198069601032,"connected_time":3060000000000,"state":"active","ping":75},{"user_id":653,"name":"Muselk, but mexican","steam_id":76561199289676387,"connected_time":2226000000000,"state":"active","ping":87},{"user_id":684,"name":"Vodka Slut","steam_id":76561198079594847,"connected_time":834000000000,"state":"active","ping":56},{"user_id":655,"name":"D(b) Hell","steam_id":76561198067869016,"connected_time":2203000000000,"state":"active","ping":45},{"user_id":691,"name":"Owen","steam_id":76561198025446908,"connected_time":9000000000,"state":"spawning","ping":50}]},{"server_id":106,"name":"Uncletopia | Chicago | 2 | All Maps","name_short":"chi-2","host":"chi-1.us.uncletopia.com","port":27025,"enabled":true,"region":"us-central","cc":"us","latitude":41.881832,"longitude":-87.62318,"reserved":0,"last_update":"0001-01-01T00:00:00Z","name_a2s":"Uncletopia | Chicago | 2 | All Maps","protocol":17,"map":"cp_altitude","folder":"tf","game":"Team Fortress","app_id":440,"player_count":23,"max_players":24,"Bots":0,"server_type":"Dedicated","server_os":"Linux","password":true,"vac":true,"version":"7961495","steam_id":85568392924469985,"keywords":["cp","nocrits","nodmgspread","uncletopia"],"game_id":440,"stv_port":27026,"stv_name":"Uncletopia | Chicago | 2 | All Maps | STV","players":[{"user_id":462,"name":"Kilphax","steam_id":76561197993814144,"connected_time":1592000000000,"state":"active","ping":60},{"user_id":481,"name":"Satchamo","steam_id":76561198012968239,"connected_time":840000000000,"state":"active","ping":76},{"user_id":492,"name":"JAKandBEL","steam_id":76561198213060931,"connected_time":189000000000,"state":"active","ping":56},{"user_id":439,"name":"green bean","steam_id":76561198113099204,"connected_time":2686000000000,"state":"active","ping":77},{"user_id":418,"name":"lebronTECH","steam_id":76561198031384332,"connected_time":4068000000000,"state":"active","ping":104},{"user_id":488,"name":"godsdoctor","steam_id":76561198055010413,"connected_time":677000000000,"state":"active","ping":82},{"user_id":347,"name":"BOT Fred","steam_id":76561198367664346,"connected_time":9981000000000,"state":"active","ping":59},{"user_id":495,"name":"Penrose42","steam_id":76561198288577396,"connected_time":12000000000,"state":"active","ping":95},{"user_id":447,"name":"Brandino!","steam_id":76561198000446932,"connected_time":2511000000000,"state":"active","ping":74},{"user_id":465,"name":"loscemo","steam_id":76561197994884609,"connected_time":1443000000000,"state":"active","ping":54},{"user_id":493,"name":"snorg","steam_id":76561199103766971,"connected_time":184000000000,"state":"active","ping":62},{"user_id":413,"name":"troll","steam_id":76561198082680563,"connected_time":4714000000000,"state":"active","ping":59},{"user_id":485,"name":"Prodi","steam_id":76561197994313410,"connected_time":689000000000,"state":"active","ping":98},{"user_id":441,"name":"Man On Night Mode","steam_id":76561198012469076,"connected_time":2637000000000,"state":"active","ping":73},{"user_id":486,"name":"9","steam_id":76561198105658675,"connected_time":686000000000,"state":"active","ping":73},{"user_id":477,"name":"Jey","steam_id":76561198110957641,"connected_time":1014000000000,"state":"active","ping":83},{"user_id":494,"name":"LIMBS","steam_id":76561198101220604,"connected_time":138000000000,"state":"active","ping":88},{"user_id":491,"name":"fish","steam_id":76561198401800919,"connected_time":213000000000,"state":"active","ping":89},{"user_id":470,"name":"Big Women","steam_id":76561199045501608,"connected_time":1330000000000,"state":"active","ping":90},{"user_id":478,"name":"Sinister Sandwich","steam_id":76561198142327400,"connected_time":1007000000000,"state":"active","ping":71},{"user_id":480,"name":"TheGreythreat","steam_id":76561198021995538,"connected_time":948000000000,"state":"active","ping":57},{"user_id":489,"name":"AMistake","steam_id":76561199379196708,"connected_time":644000000000,"state":"active","ping":70},{"user_id":336,"name":"elpful","steam_id":76561198189659530,"connected_time":11045000000000,"state":"active","ping":74}]},{"server_id":402,"name":"Uncletopia | Chicago | 3 | All Maps","name_short":"chi-3","host":"chi-1.us.uncletopia.com","port":27035,"enabled":true,"region":"us-central","cc":"us","latitude":41.881832,"longitude":-87.62318,"reserved":0,"last_update":"0001-01-01T00:00:00Z","name_a2s":"Uncletopia | Chicago | 3 | All Maps","protocol":17,"map":"cp_snakewater_final1","folder":"tf","game":"Team Fortress","app_id":440,"player_count":24,"max_players":24,"Bots":0,"server_type":"Dedicated","server_os":"Linux","password":true,"vac":true,"version":"7961495","steam_id":85568392924515191,"keywords":["cp","nocrits","nodmgspread","uncletopia"],"game_id":440,"stv_port":27036,"stv_name":"Uncletopia | Chicago | 3 | All Maps | STV","players":[{"user_id":281,"name":"Smoky Haus","steam_id":76561199040586542,"connected_time":1752000000000,"state":"active","ping":64},{"user_id":275,"name":"toastman","steam_id":76561198207073088,"connected_time":2046000000000,"state":"active","ping":63},{"user_id":311,"name":"Grop Noise","steam_id":76561198145445403,"connected_time":391000000000,"state":"active","ping":61},{"user_id":318,"name":"roachc0ck","steam_id":76561197962405559,"connected_time":238000000000,"state":"active","ping":101},{"user_id":288,"name":"draining to stay happy","steam_id":76561198797823116,"connected_time":1506000000000,"state":"active","ping":61},{"user_id":312,"name":"gwendolyn","steam_id":76561198154719104,"connected_time":389000000000,"state":"active","ping":61},{"user_id":260,"name":"sithreis","steam_id":76561198000564263,"connected_time":2299000000000,"state":"active","ping":68},{"user_id":320,"name":"◊ì◊†◊ô◊ê◊ú","steam_id":76561198046278452,"connected_time":118000000000,"state":"active","ping":104},{"user_id":310,"name":"sonic1394","steam_id":76561198054636788,"connected_time":519000000000,"state":"active","ping":76},{"user_id":261,"name":"lanoc","steam_id":76561198055415367,"connected_time":2292000000000,"state":"active","ping":59},{"user_id":321,"name":"silverus","steam_id":76561198417289824,"connected_time":63000000000,"state":"spawning","ping":137},{"user_id":303,"name":"benjamator67","steam_id":76561198209002860,"connected_time":1034000000000,"state":"active","ping":50},{"user_id":263,"name":"Overduecat","steam_id":76561198092452824,"connected_time":2281000000000,"state":"active","ping":68},{"user_id":299,"name":"Taskrabbits","steam_id":76561198366682546,"connected_time":1154000000000,"state":"active","ping":87},{"user_id":306,"name":"otwtomarsoffdabars(spacecore)","steam_id":76561199085974120,"connected_time":795000000000,"state":"active","ping":81},{"user_id":317,"name":"muffinm565","steam_id":76561199135226250,"connected_time":346000000000,"state":"active","ping":103},{"user_id":313,"name":"Fredrick","steam_id":76561197981419964,"connected_time":377000000000,"state":"active","ping":51},{"user_id":308,"name":"deimos","steam_id":76561198148357768,"connected_time":674000000000,"state":"active","ping":60},{"user_id":314,"name":"BoyWithTheBeanie","steam_id":76561199435079308,"connected_time":374000000000,"state":"active","ping":155},{"user_id":269,"name":"inshallah","steam_id":76561198165212575,"connected_time":2186000000000,"state":"active","ping":75},{"user_id":319,"name":"Ghostmeal","steam_id":76561198042380299,"connected_time":231000000000,"state":"active","ping":72},{"user_id":316,"name":"Sn00ze_Butt00n","steam_id":76561199004589191,"connected_time":365000000000,"state":"active","ping":66},{"user_id":272,"name":"Ceige","steam_id":76561198068538473,"connected_time":2184000000000,"state":"active","ping":79},{"user_id":250,"name":"Tysen","steam_id":76561198149641643,"connected_time":2714000000000,"state":"active","ping":61}]},{"server_id":403,"name":"Uncletopia | Chicago | 4 | All Maps","name_short":"chi-4","host":"chi-1.us.uncletopia.com","port":27045,"enabled":true,"region":"us-central","cc":"us","latitude":41.881832,"longitude":-87.62318,"reserved":0,"last_update":"0001-01-01T00:00:00Z","name_a2s":"Uncletopia | Chicago | 4 | All Maps","protocol":17,"map":"cp_dustbowl","folder":"tf","game":"Team Fortress","app_id":440,"player_count":24,"max_players":24,"Bots":0,"server_type":"Dedicated","server_os":"Linux","password":true,"vac":true,"version":"7961495","steam_id":85568392924515193,"keywords":["cp","nocrits","nodmgspread","uncletopia"],"game_id":440,"stv_port":27046,"stv_name":"Uncletopia | Chicago | 4 | All Maps | STV","players":[{"user_id":513,"name":"CEO of Booty Movement","steam_id":76561198064981004,"connected_time":1445000000000,"state":"active","ping":47},{"user_id":512,"name":"Stoopnagle","steam_id":76561198011942560,"connected_time":1481000000000,"state":"active","ping":89},{"user_id":519,"name":"dadgummit","steam_id":76561198005806915,"connected_time":1305000000000,"state":"active","ping":50},{"user_id":518,"name":"appy","steam_id":76561198074357676,"connected_time":1343000000000,"state":"active","ping":60},{"user_id":534,"name":"War on Drugs Fighter","steam_id":76561198103211035,"connected_time":103000000000,"state":"active","ping":55},{"user_id":435,"name":"on that zaza?","steam_id":76561198038713198,"connected_time":7439000000000,"state":"active","ping":67},{"user_id":535,"name":"SPF420","steam_id":76561198083991705,"connected_time":32000000000,"state":"active","ping":58},{"user_id":527,"name":"Renegaiden","steam_id":76561198060179109,"connected_time":906000000000,"state":"active","ping":71},{"user_id":501,"name":"Beany","steam_id":76561198102299438,"connected_time":2458000000000,"state":"active","ping":51},{"user_id":411,"name":"Quake","steam_id":76561197999073078,"connected_time":9709000000000,"state":"active","ping":82},{"user_id":521,"name":"Mom","steam_id":76561198207936000,"connected_time":1281000000000,"state":"active","ping":89},{"user_id":488,"name":"Chanter","steam_id":76561198246701796,"connected_time":3854000000000,"state":"active","ping":77},{"user_id":522,"name":"CommodoreEvac","steam_id":76561198035694806,"connected_time":1274000000000,"state":"active","ping":71},{"user_id":486,"name":"losing","steam_id":76561198003206947,"connected_time":3891000000000,"state":"active","ping":53},{"user_id":532,"name":"Ghost Kaisar","steam_id":76561198103629357,"connected_time":470000000000,"state":"active","ping":76},{"user_id":506,"name":"Œõlxium","steam_id":76561198131272900,"connected_time":1960000000000,"state":"active","ping":49},{"user_id":492,"name":"zoey","steam_id":76561198084679526,"connected_time":3509000000000,"state":"active","ping":54},{"user_id":480,"name":"agentish","steam_id":76561198055088122,"connected_time":4191000000000,"state":"active","ping":49},{"user_id":523,"name":"Sheev Palpatine","steam_id":76561198252332430,"connected_time":1235000000000,"state":"active","ping":69},{"user_id":528,"name":"nuc_le","steam_id":76561199391038494,"connected_time":744000000000,"state":"active","ping":188},{"user_id":466,"name":"J O S H¬≥¬≤","steam_id":76561198122603779,"connected_time":5326000000000,"state":"active","ping":96},{"user_id":524,"name":"Blaze","steam_id":76561198043797702,"connected_time":1194000000000,"state":"active","ping":65},{"user_id":517,"name":"chrisd149","steam_id":76561198018710480,"connected_time":1361000000000,"state":"active","ping":87},{"user_id":490,"name":"Godmode","steam_id":76561198076240365,"connected_time":3693000000000,"state":"active","ping":62}]},{"server_id":36,"name":"Uncletopia | Chicago | 5 | All Maps","name_short":"chi-5","host":"chi-2.us.uncletopia.com","port":27015,"enabled":true,"region":"us-central","cc":"us","latitude":41.881832,"longitude":-87.62318,"reserved":0,"last_update":"0001-01-01T00:00:00Z","name_a2s":"Uncletopia | Chicago | 5 | All Maps","protocol":17,"map":"plr_hightower","folder":"tf","game":"Team Fortress","app_id":440,"player_count":24,"max_players":24,"Bots":0,"server_type":"Dedicated","server_os":"Linux","password":true,"vac":true,"version":"7961495","steam_id":85568392924866362,"keywords":["nocrits","nodmgspread","payload","uncletopia"],"game_id":440,"stv_port":27016,"stv_name":"Uncletopia | Chicago | 5 | All Maps | STV","players":[{"user_id":452,"name":"Mr Shrubface","steam_id":76561198024940555,"connected_time":349000000000,"state":"active","ping":70},{"user_id":451,"name":"existentialape","steam_id":76561198991703081,"connected_time":439000000000,"state":"active","ping":75},{"user_id":450,"name":"Brook #2","steam_id":76561199013144332,"connected_time":470000000000,"state":"active","ping":69},{"user_id":433,"name":"Maverick","steam_id":76561199160592961,"connected_time":1714000000000,"state":"active","ping":76},{"user_id":444,"name":"Atlas","steam_id":76561198127975050,"connected_time":1289000000000,"state":"active","ping":67},{"user_id":437,"name":"Astro...","steam_id":76561199441267830,"connected_time":1384000000000,"state":"active","ping":82},{"user_id":456,"name":"supreme champion","steam_id":76561198072112905,"connected_time":289000000000,"state":"active","ping":53},{"user_id":454,"name":"SOMEONE CALL THE POLICE","steam_id":76561198128363064,"connected_time":344000000000,"state":"active","ping":53},{"user_id":465,"name":"Chris","steam_id":76561199050473983,"connected_time":90000000000,"state":"active","ping":99},{"user_id":435,"name":"Uwu Micster","steam_id":76561198843890616,"connected_time":1472000000000,"state":"active","ping":87},{"user_id":421,"name":"Window Licker #pride","steam_id":76561198386717007,"connected_time":2115000000000,"state":"active","ping":47},{"user_id":410,"name":"clover 13","steam_id":76561199204075997,"connected_time":2670000000000,"state":"active","ping":80},{"user_id":457,"name":"HappyHonker","steam_id":76561199056581941,"connected_time":272000000000,"state":"active","ping":65},{"user_id":447,"name":"Grimprr","steam_id":76561198275816797,"connected_time":1035000000000,"state":"active","ping":75},{"user_id":409,"name":"Petrivus","steam_id":76561198202152453,"connected_time":2715000000000,"state":"active","ping":105},{"user_id":458,"name":"midwaymist","steam_id":76561198392006961,"connected_time":261000000000,"state":"active","ping":87},{"user_id":466,"name":"friendly salamander","steam_id":76561198888219116,"connected_time":66000000000,"state":"active","ping":73},{"user_id":461,"name":"Captain Buggy","steam_id":76561198024444448,"connected_time":198000000000,"state":"active","ping":96},{"user_id":439,"name":"JakeRTurbo","steam_id":76561198327532181,"connected_time":1352000000000,"state":"active","ping":67},{"user_id":463,"name":"IanTheAwsm","steam_id":76561198093031738,"connected_time":191000000000,"state":"active","ping":54},{"user_id":464,"name":"dak","steam_id":76561198076596506,"connected_time":187000000000,"state":"active","ping":60},{"user_id":442,"name":"Mariachi Samurai","steam_id":76561198083535106,"connected_time":1312000000000,"state":"active","ping":73},{"user_id":443,"name":"notpanmanmemes","steam_id":76561199168536547,"connected_time":1305000000000,"state":"active","ping":56},{"user_id":449,"name":"I shovel mayonnaise in mouth","steam_id":76561199123118241,"connected_time":709000000000,"state":"active","ping":116}]},{"server_id":37,"name":"Uncletopia | Chicago | 6 | All Maps","name_short":"chi-6","host":"chi-2.us.uncletopia.com","port":27025,"enabled":true,"region":"us-central","cc":"us","latitude":41.881832,"longitude":-87.62318,"reserved":0,"last_update":"0001-01-01T00:00:00Z","name_a2s":"Uncletopia | Chicago | 6 | All Maps","protocol":17,"map":"cp_process_final","folder":"tf","game":"Team Fortress","app_id":440,"player_count":24,"max_players":24,"Bots":0,"server_type":"Dedicated","server_os":"Linux","password":true,"vac":true,"version":"7961495","steam_id":85568392924866363,"keywords":["cp","nocrits","nodmgspread","uncletopia"],"game_id":440,"stv_port":27026,"stv_name":"Uncletopia | Chicago | 6 | All Maps | STV","players":[{"user_id":135,"name":"Inevitable","steam_id":76561198210050169,"connected_time":367000000000,"state":"active","ping":60},{"user_id":103,"name":"Miner2495","steam_id":76561198445904523,"connected_time":2134000000000,"state":"active","ping":71},{"user_id":127,"name":"FELONIOUS MONK","steam_id":76561198201872929,"connected_time":673000000000,"state":"active","ping":59},{"user_id":123,"name":"YohjiYamamotoSasukeUchihaHyomaC","steam_id":76561198150382695,"connected_time":1222000000000,"state":"active","ping":77},{"user_id":130,"name":"Scum Knight | T.I.D.K.","steam_id":76561198282444763,"connected_time":563000000000,"state":"active","ping":63},{"user_id":129,"name":"BLANK3T They/He Femboy on THC","steam_id":76561198028875624,"connected_time":603000000000,"state":"active","ping":112},{"user_id":141,"name":"Sky Tree","steam_id":76561198027103242,"connected_time":9000000000,"state":"spawning","ping":44},{"user_id":140,"name":"minecraft","steam_id":76561198104345201,"connected_time":96000000000,"state":"active","ping":85},{"user_id":134,"name":"Mantis","steam_id":76561197964316152,"connected_time":466000000000,"state":"active","ping":93},{"user_id":124,"name":"doop","steam_id":76561198370487545,"connected_time":1105000000000,"state":"active","ping":79},{"user_id":136,"name":"crankshaft","steam_id":76561197992798282,"connected_time":352000000000,"state":"active","ping":100},{"user_id":107,"name":"Limitless","steam_id":76561198057139998,"connected_time":2094000000000,"state":"active","ping":76},{"user_id":119,"name":"aofi the flat tgirl","steam_id":76561199172110503,"connected_time":1589000000000,"state":"active","ping":69},{"user_id":98,"name":"Nae Nae no Whip","steam_id":76561198138365728,"connected_time":2446000000000,"state":"active","ping":61},{"user_id":80,"name":"Dewey Obababa-ooo Mamma-say Mam","steam_id":76561198142756572,"connected_time":3060000000000,"state":"active","ping":60},{"user_id":100,"name":"Brothir","steam_id":76561198202989120,"connected_time":2338000000000,"state":"active","ping":83},{"user_id":101,"name":"4d4 civilnetworks.net","steam_id":76561198402360789,"connected_time":2302000000000,"state":"active","ping":63},{"user_id":83,"name":"oni","steam_id":76561198082038479,"connected_time":2940000000000,"state":"active","ping":113},{"user_id":132,"name":"Clear Sights","steam_id":76561198006215683,"connected_time":515000000000,"state":"active","ping":60},{"user_id":115,"name":"I cant AWP","steam_id":76561198083632728,"connected_time":1905000000000,"state":"active","ping":79},{"user_id":87,"name":"Cassafras","steam_id":76561197961994834,"connected_time":2912000000000,"state":"active","ping":91},{"user_id":91,"name":"Jasper\u003c3","steam_id":76561199496683596,"connected_time":2839000000000,"state":"active","ping":65},{"user_id":117,"name":"nhbiker","steam_id":76561198081277675,"connected_time":1646000000000,"state":"active","ping":60},{"user_id":138,"name":"Sicko Mode (Chris Pratt Cover)","steam_id":76561198315786174,"connected_time":304000000000,"state":"active","ping":78}]},{"server_id":38,"name":"Uncletopia | Chicago | 7 | Stopwatch","name_short":"chi-7","host":"chi-2.us.uncletopia.com","port":27035,"enabled":true,"region":"us-central","cc":"us","latitude":41.881832,"longitude":-87.62318,"reserved":0,"last_update":"0001-01-01T00:00:00Z","name_a2s":"Uncletopia | Chicago | 7 | Stopwatch","protocol":17,"map":"workshop/koth_ashville_final.ugc2130459942","folder":"tf","game":"Team Fortress","app_id":440,"player_count":2,"max_players":24,"Bots":0,"server_type":"Dedicated","server_os":"Linux","password":true,"vac":true,"version":"7961495","steam_id":85568392924866364,"keywords":["cp","nocrits","nodmgspread","uncletopia"],"game_id":440,"stv_port":27036,"stv_name":"Uncletopia | Chicago | 7 | Stopwatch | STV","players":[{"user_id":22,"name":"Varie","steam_id":76561199454930210,"connected_time":1950000000000,"state":"active","ping":71},{"user_id":21,"name":"*****","steam_id":76561198025538610,"connected_time":2437000000000,"state":"active","ping":64}]},{"server_id":39,"name":"Uncletopia | Chicago | 8 | Community","name_short":"chi-8","host":"chi-2.us.uncletopia.com","port":27045,"enabled":true,"region":"us-central","cc":"us","latitude":41.881832,"longitude":-87.62318,"reserved":0,"last_update":"0001-01-01T00:00:00Z","name_a2s":"Uncletopia | Chicago | 8 | Community","protocol":17,"map":"workshop/koth_slaughter_rc1.ugc1712845210","folder":"tf","game":"Team Fortress","app_id":440,"player_count":0,"max_players":24,"Bots":0,"server_type":"Dedicated","server_os":"Linux","password":true,"vac":true,"version":"7961495","steam_id":85568392924866365,"keywords":["cp","nocrits","nodmgspread","uncletopia"],"game_id":440,"stv_port":27046,"stv_name":"Uncletopia | Chicago | 8 | Community | STV","players":null},{"server_id":8,"name":"Uncletopia | Dallas | 1 | All Maps","name_short":"dal-1","host":"dal-1.us.uncletopia.com","port":27015,"enabled":true,"region":"us-central","cc":"us","latitude":32.779167,"longitude":-96.80889,"reserved":0,"last_update":"0001-01-01T00:00:00Z","name_a2s":"Uncletopia | Dallas | 1 | All Maps","protocol":17,"map":"pl_swiftwater_final1","folder":"tf","game":"Team Fortress","app_id":440,"player_count":24,"max_players":24,"Bots":0,"server_type":"Dedicated","server_os":"Linux","password":true,"vac":true,"version":"7961495","steam_id":85568392924469986,"keywords":["nocrits","nodmgspread","payload","uncletopia"],"game_id":440,"stv_port":27016,"stv_name":"Uncletopia | Dallas | 1 | All Maps | STV","players":[{"user_id":439,"name":"Cat on Your Porch","steam_id":76561197979078330,"connected_time":1024000000000,"state":"active","ping":79},{"user_id":401,"name":"Gelliteration","steam_id":76561198107233070,"connected_time":3748000000000,"state":"active","ping":55},{"user_id":373,"name":"ALonelyGhostE","steam_id":76561198184787290,"connected_time":4934000000000,"state":"active","ping":60},{"user_id":360,"name":"Deadline","steam_id":76561199079078845,"connected_time":5880000000000,"state":"active","ping":106},{"user_id":452,"name":"epsilon","steam_id":76561198025337276,"connected_time":570000000000,"state":"active","ping":93},{"user_id":449,"name":"bones malones","steam_id":76561198148622991,"connected_time":720000000000,"state":"active","ping":92},{"user_id":453,"name":"Dr. Han","steam_id":76561198811130843,"connected_time":563000000000,"state":"active","ping":101},{"user_id":431,"name":"Mikke","steam_id":76561198170234003,"connected_time":1764000000000,"state":"active","ping":84},{"user_id":400,"name":"Stillkill","steam_id":76561198065069057,"connected_time":3834000000000,"state":"active","ping":44},{"user_id":451,"name":"Coup de Grass","steam_id":76561198011643226,"connected_time":671000000000,"state":"active","ping":85},{"user_id":419,"name":"knip","steam_id":76561198147061182,"connected_time":2545000000000,"state":"active","ping":94},{"user_id":440,"name":"HOOPLA","steam_id":76561198993451858,"connected_time":1019000000000,"state":"active","ping":84},{"user_id":413,"name":"Ballista","steam_id":76561197983182562,"connected_time":3060000000000,"state":"active","ping":57},{"user_id":434,"name":"Crayfry","steam_id":76561198146525237,"connected_time":1371000000000,"state":"active","ping":68},{"user_id":418,"name":"7eventy7","steam_id":76561198102219224,"connected_time":2550000000000,"state":"active","ping":89},{"user_id":436,"name":"blobb","steam_id":76561198950448488,"connected_time":1133000000000,"state":"active","ping":75},{"user_id":437,"name":"Platte River Injury Law","steam_id":76561198069467293,"connected_time":1090000000000,"state":"active","ping":92},{"user_id":425,"name":"[kot]Pints","steam_id":76561198077017684,"connected_time":2392000000000,"state":"active","ping":91},{"user_id":454,"name":"DoctorDrew","steam_id":76561197962400538,"connected_time":553000000000,"state":"active","ping":107},{"user_id":450,"name":"ZILICON","steam_id":76561199044705592,"connected_time":695000000000,"state":"active","ping":112},{"user_id":423,"name":"kaputon","steam_id":76561198146299782,"connected_time":2453000000000,"state":"active","ping":81},{"user_id":427,"name":"wydawg","steam_id":76561198053910862,"connected_time":2307000000000,"state":"active","ping":90},{"user_id":430,"name":"Blink","steam_id":76561197986181277,"connected_time":1901000000000,"state":"active","ping":60},{"user_id":389,"name":"rat","steam_id":76561198130412963,"connected_time":4676000000000,"state":"active","ping":73}]},{"server_id":108,"name":"Uncletopia | Dallas | 2 | All Maps","name_short":"dal-2","host":"dal-1.us.uncletopia.com","port":27025,"enabled":true,"region":"us-central","cc":"us","latitude":32.779167,"longitude":-96.80889,"reserved":0,"last_update":"0001-01-01T00:00:00Z","name_a2s":"Uncletopia | Dallas | 2 | All Maps","protocol":17,"map":"koth_cascade","folder":"tf","game":"Team Fortress","app_id":440,"player_count":24,"max_players":24,"Bots":0,"server_type":"Dedicated","server_os":"Linux","password":true,"vac":true,"version":"7961495","steam_id":85568392924469988,"keywords":["cp","nocrits","nodmgspread","uncletopia"],"game_id":440,"stv_port":27026,"stv_name":"Uncletopia | Dallas | 2 | All Maps | STV","players":[{"user_id":462,"name":"genavi","steam_id":76561198442960243,"connected_time":4427000000000,"state":"active","ping":75},{"user_id":535,"name":"whackswilson","steam_id":76561199031785207,"connected_time":467000000000,"state":"active","ping":82},{"user_id":538,"name":"5k RPM","steam_id":76561198926416886,"connected_time":397000000000,"state":"active","ping":61},{"user_id":539,"name":"Lezabel","steam_id":76561198970753261,"connected_time":386000000000,"state":"active","ping":68},{"user_id":540,"name":"Do It Yua Serufu","steam_id":76561198078574114,"connected_time":377000000000,"state":"active","ping":85},{"user_id":518,"name":"Shrebbie","steam_id":76561198875230824,"connected_time":842000000000,"state":"active","ping":84},{"user_id":543,"name":"Mocha Josie","steam_id":76561198066452726,"connected_time":29000000000,"state":"active","ping":76},{"user_id":528,"name":"MeMyBongusAndTheGreatOutdoors","steam_id":76561198097708978,"connected_time":576000000000,"state":"active","ping":59},{"user_id":510,"name":"SPYCHECK ME","steam_id":76561198980994364,"connected_time":1637000000000,"state":"active","ping":106},{"user_id":520,"name":"Maid 'n' China","steam_id":76561198423392976,"connected_time":716000000000,"state":"active","ping":75},{"user_id":506,"name":"The Imagiknight","steam_id":76561198980851161,"connected_time":2068000000000,"state":"active","ping":73},{"user_id":521,"name":"Solonlier","steam_id":76561198354123860,"connected_time":699000000000,"state":"active","ping":61},{"user_id":523,"name":"super freak","steam_id":76561198133877665,"connected_time":665000000000,"state":"active","ping":95},{"user_id":524,"name":"Tlaloc","steam_id":76561198375215983,"connected_time":638000000000,"state":"active","ping":121},{"user_id":525,"name":"Pupcubus","steam_id":76561198057986869,"connected_time":628000000000,"state":"active","ping":82},{"user_id":542,"name":"Certified Hood Classic","steam_id":76561199086159354,"connected_time":226000000000,"state":"active","ping":53},{"user_id":544,"name":"VelociraptorJim","steam_id":76561199016053435,"connected_time":16000000000,"state":"spawning","ping":59},{"user_id":541,"name":"lazy bones","steam_id":76561199471507997,"connected_time":361000000000,"state":"active","ping":78},{"user_id":530,"name":"This game is hard","steam_id":76561199476029852,"connected_time":557000000000,"state":"active","ping":104},{"user_id":531,"name":"remina","steam_id":76561198046091954,"connected_time":550000000000,"state":"active","ping":69},{"user_id":532,"name":"hemorrhage","steam_id":76561198196527986,"connected_time":529000000000,"state":"active","ping":74},{"user_id":471,"name":"[SAW] Lost Darkrai","steam_id":76561198021034873,"connected_time":4328000000000,"state":"active","ping":49},{"user_id":533,"name":"cian","steam_id":76561198158554040,"connected_time":525000000000,"state":"active","ping":113},{"user_id":537,"name":"Lord_Manship","steam_id":76561198045168765,"connected_time":457000000000,"state":"active","ping":110}]},{"server_id":404,"name":"Uncletopia | Dallas | 3 | All Maps","name_short":"dal-3","host":"dal-1.us.uncletopia.com","port":27035,"enabled":true,"region":"us-central","cc":"us","latitude":32.779167,"longitude":-96.80889,"reserved":0,"last_update":"0001-01-01T00:00:00Z","name_a2s":"Uncletopia | Dallas | 3 | All Maps","protocol":17,"map":"pl_frontier_final","folder":"tf","game":"Team Fortress","app_id":440,"player_count":24,"max_players":24,"Bots":0,"server_type":"Dedicated","server_os":"Linux","password":true,"vac":true,"version":"7961495","steam_id":85568392924515219,"keywords":["nocrits","nodmgspread","payload","uncletopia"],"game_id":440,"stv_port":27036,"stv_name":"Uncletopia | Dallas | 3 | All Maps | STV","players":[{"user_id":550,"name":"brains","steam_id":76561198197388678,"connected_time":1327000000000,"state":"active","ping":52},{"user_id":565,"name":"Teamfortressfunnymomments#5","steam_id":76561198971629959,"connected_time":662000000000,"state":"active","ping":134},{"user_id":536,"name":"Gamebun üêá","steam_id":76561197998855425,"connected_time":2328000000000,"state":"active","ping":44},{"user_id":567,"name":"Rukks","steam_id":76561197993918954,"connected_time":479000000000,"state":"active","ping":86},{"user_id":543,"name":"Dr.Blunt","steam_id":76561198096333958,"connected_time":1577000000000,"state":"active","ping":77},{"user_id":519,"name":"I SEXED THE PUMPKIN","steam_id":76561198152641397,"connected_time":3228000000000,"state":"active","ping":75},{"user_id":537,"name":"selvhat","steam_id":76561198114225509,"connected_time":2322000000000,"state":"active","ping":93},{"user_id":558,"name":"Alkimia","steam_id":76561198385763137,"connected_time":1161000000000,"state":"active","ping":134},{"user_id":559,"name":"gregg rulz ok","steam_id":76561199104812195,"connected_time":1126000000000,"state":"active","ping":48},{"user_id":538,"name":"magnoly","steam_id":76561199228865188,"connected_time":2320000000000,"state":"active","ping":45},{"user_id":557,"name":"Jerry Bee","steam_id":76561198170444711,"connected_time":1180000000000,"state":"active","ping":101},{"user_id":552,"name":"Spicy Churro","steam_id":76561197992913147,"connected_time":1292000000000,"state":"active","ping":74},{"user_id":553,"name":"hazyrouter","steam_id":76561199435696214,"connected_time":1275000000000,"state":"active","ping":77},{"user_id":568,"name":"North","steam_id":76561198814844969,"connected_time":457000000000,"state":"active","ping":71},{"user_id":555,"name":"Cammin","steam_id":76561198108046939,"connected_time":1195000000000,"state":"active","ping":116},{"user_id":569,"name":"nicholas","steam_id":76561198058211873,"connected_time":453000000000,"state":"active","ping":63},{"user_id":554,"name":"Frontal Jorb","steam_id":76561198095643651,"connected_time":1209000000000,"state":"active","ping":117},{"user_id":560,"name":"god's drunkest driver","steam_id":76561198070385350,"connected_time":1122000000000,"state":"active","ping":88},{"user_id":563,"name":"The Grim Heaper","steam_id":76561197987759101,"connected_time":934000000000,"state":"active","ping":112},{"user_id":541,"name":"GLG MUTT","steam_id":76561198147785541,"connected_time":1737000000000,"state":"active","ping":62},{"user_id":566,"name":"[DATS‚û°] Sugar Meowth","steam_id":76561197995251793,"connected_time":554000000000,"state":"active","ping":101},{"user_id":507,"name":"for the king","steam_id":76561197973488858,"connected_time":4392000000000,"state":"active","ping":79},{"user_id":564,"name":"Obama Gaming 2023","steam_id":76561199006905645,"connected_time":870000000000,"state":"active","ping":82},{"user_id":551,"name":"NighttimeNap","steam_id":76561198149183514,"connected_time":1321000000000,"state":"active","ping":109}]},{"server_id":405,"name":"Uncletopia | Dallas | 4 | Community","name_short":"dal-4","host":"dal-1.us.uncletopia.com","port":27045,"enabled":true,"region":"us-central","cc":"us","latitude":32.779167,"longitude":-96.80889,"reserved":0,"last_update":"0001-01-01T00:00:00Z","name_a2s":"Uncletopia | Dallas | 4 | Community","protocol":17,"map":"workshop/cp_hazyfort_rc6.ugc1365963729","folder":"tf","game":"Team Fortress","app_id":440,"player_count":0,"max_players":24,"Bots":0,"server_type":"Dedicated","server_os":"Linux","password":true,"vac":true,"version":"7961495","steam_id":85568392924515220,"keywords":["cp","nocrits","nodmgspread","uncletopia"],"game_id":440,"stv_port":27046,"stv_name":"Uncletopia | Dallas | 4 | Community | STV","players":null},{"server_id":5,"name":"Uncletopia | Frankfurt | 1 | All Maps","name_short":"frk-1","host":"frk-1.de.uncletopia.com","port":27015,"enabled":true,"region":"eu","cc":"de","latitude":50.110924,"longitude":8.682127,"reserved":0,"last_update":"0001-01-01T00:00:00Z","name_a2s":"Uncletopia | Frankfurt | 1 | All Maps","protocol":17,"map":"pl_frontier_final","folder":"tf","game":"Team Fortress","app_id":440,"player_count":24,"max_players":24,"Bots":0,"server_type":"Dedicated","server_os":"Linux","password":true,"vac":true,"version":"7961495","steam_id":85568392924469989,"keywords":["nocrits","nodmgspread","payload","uncletopia"],"game_id":440,"stv_port":27016,"stv_name":"Uncletopia | Frankfurt | 1 | All Maps | STV","players":[{"user_id":748,"name":"Voodoo Child","steam_id":76561198110788281,"connected_time":821000000000,"state":"active","ping":67},{"user_id":721,"name":"bora colhao para fora","steam_id":76561198109462631,"connected_time":3298000000000,"state":"active","ping":77},{"user_id":701,"name":"robot aim","steam_id":76561198190436834,"connected_time":4542000000000,"state":"active","ping":48},{"user_id":755,"name":"This is bat country","steam_id":76561199067658590,"connected_time":490000000000,"state":"active","ping":109},{"user_id":761,"name":"MINECRAFT PRO","steam_id":76561198340262024,"connected_time":67000000000,"state":"active","ping":74},{"user_id":742,"name":"AsuX","steam_id":76561197990333289,"connected_time":1933000000000,"state":"active","ping":69},{"user_id":756,"name":"Doctor Marijuana","steam_id":76561198288289879,"connected_time":464000000000,"state":"active","ping":61},{"user_id":736,"name":"akciq ‚Åß‚Åßrespect","steam_id":76561198390963456,"connected_time":2235000000000,"state":"active","ping":75},{"user_id":757,"name":"Krocon","steam_id":76561198084906316,"connected_time":462000000000,"state":"active","ping":74},{"user_id":762,"name":"Misha","steam_id":76561199024892932,"connected_time":20000000000,"state":"spawning","ping":101},{"user_id":733,"name":"yuck","steam_id":76561197987249568,"connected_time":2308000000000,"state":"active","ping":104},{"user_id":714,"name":"Economic crisis","steam_id":76561198063562843,"connected_time":3820000000000,"state":"active","ping":63},{"user_id":734,"name":"‚Ä¢ Fran ‚Ä¢","steam_id":76561198119724479,"connected_time":2278000000000,"state":"active","ping":139},{"user_id":699,"name":"bean","steam_id":76561198072586621,"connected_time":4612000000000,"state":"active","ping":61},{"user_id":759,"name":"Hildreth","steam_id":76561197995254867,"connected_time":421000000000,"state":"active","ping":54},{"user_id":724,"name":"Anti4life","steam_id":76561198836208242,"connected_time":2953000000000,"state":"active","ping":74},{"user_id":720,"name":"noticed","steam_id":76561198205976029,"connected_time":3374000000000,"state":"active","ping":77},{"user_id":746,"name":"üî•TheHunterüî•","steam_id":76561198299863755,"connected_time":1757000000000,"state":"active","ping":70},{"user_id":752,"name":"Berghopper","steam_id":76561198062599535,"connected_time":781000000000,"state":"active","ping":72},{"user_id":719,"name":"Welder","steam_id":76561198355300561,"connected_time":3618000000000,"state":"active","ping":67},{"user_id":739,"name":"Lot2","steam_id":76561197969550194,"connected_time":2125000000000,"state":"active","ping":62},{"user_id":763,"name":"Fjellape","steam_id":76561198094819884,"connected_time":12000000000,"state":"active","ping":121},{"user_id":723,"name":"TheMith","steam_id":76561198401193686,"connected_time":3022000000000,"state":"active","ping":83},{"user_id":750,"name":"usuikui","steam_id":76561198093304268,"connected_time":820000000000,"state":"active","ping":82}]},{"server_id":110,"name":"Uncletopia | Frankfurt | 2 | All Maps","name_short":"frk-2","host":"frk-1.de.uncletopia.com","port":27025,"enabled":true,"region":"eu","cc":"de","latitude":50.110924,"longitude":8.682127,"reserved":0,"last_update":"0001-01-01T00:00:00Z","name_a2s":"Uncletopia | Frankfurt | 2 | All Maps","protocol":17,"map":"pl_borneo","folder":"tf","game":"Team Fortress","app_id":440,"player_count":0,"max_players":24,"Bots":0,"server_type":"Dedicated","server_os":"Linux","password":true,"vac":true,"version":"7961495","steam_id":85568392924469990,"keywords":["nocrits","nodmgspread","payload","uncletopia"],"game_id":440,"stv_port":27026,"stv_name":"Uncletopia | Frankfurt | 2 | All Maps | STV","players":null},{"server_id":308,"name":"Uncletopia | Frankfurt | 3 | All Maps","name_short":"frk-3","host":"frk-1.de.uncletopia.com","port":27035,"enabled":true,"region":"eu","cc":"de","latitude":50.110924,"longitude":8.682127,"reserved":0,"last_update":"0001-01-01T00:00:00Z","name_a2s":"Uncletopia | Frankfurt | 3 | All Maps","protocol":17,"map":"cp_freight_final1","folder":"tf","game":"Team Fortress","app_id":440,"player_count":0,"max_players":24,"Bots":0,"server_type":"Dedicated","server_os":"Linux","password":true,"vac":true,"version":"7961495","steam_id":85568392924504274,"keywords":["cp","nocrits","nodmgspread","uncletopia"],"game_id":440,"stv_port":27036,"stv_name":"Uncletopia | Frankfurt | 3 | All Maps | STV","players":null},{"server_id":309,"name":"Uncletopia | Frankfurt | 4 | All Maps","name_short":"frk-4","host":"frk-1.de.uncletopia.com","port":27045,"enabled":true,"region":"eu","cc":"de","latitude":50.110924,"longitude":8.682127,"reserved":0,"last_update":"0001-01-01T00:00:00Z","name_a2s":"Uncletopia | Frankfurt | 4 | All Maps","protocol":17,"map":"pl_snowycoast","folder":"tf","game":"Team Fortress","app_id":440,"player_count":0,"max_players":24,"Bots":0,"server_type":"Dedicated","server_os":"Linux","password":true,"vac":true,"version":"7961495","steam_id":85568392924504275,"keywords":["nocrits","nodmgspread","payload","uncletopia"],"game_id":440,"stv_port":27046,"stv_name":"Uncletopia | Frankfurt | 4 | All Maps | STV","players":null},{"server_id":310,"name":"Uncletopia | Frankfurt | 5 | All Maps","name_short":"frk-5","host":"frk-1.de.uncletopia.com","port":27055,"enabled":true,"region":"eu","cc":"de","latitude":50.110924,"longitude":8.682127,"reserved":0,"last_update":"0001-01-01T00:00:00Z","name_a2s":"Uncletopia | Frankfurt | 5 | All Maps","protocol":17,"map":"koth_cascade","folder":"tf","game":"Team Fortress","app_id":440,"player_count":0,"max_players":24,"Bots":0,"server_type":"Dedicated","server_os":"Linux","password":true,"vac":true,"version":"7961495","steam_id":85568392924504277,"keywords":["cp","nocrits","nodmgspread","uncletopia"],"game_id":440,"stv_port":27056,"stv_name":"Uncletopia | Frankfurt | 5 | All Maps | STV","players":null},{"server_id":311,"name":"Uncletopia | Frankfurt | 6 | All Maps","name_short":"frk-6","host":"frk-1.de.uncletopia.com","port":27065,"enabled":true,"region":"eu","cc":"de","latitude":50.110924,"longitude":8.682127,"reserved":0,"last_update":"0001-01-01T00:00:00Z","name_a2s":"Uncletopia | Frankfurt | 6 | All Maps","protocol":17,"map":"pl_swiftwater_final1","folder":"tf","game":"Team Fortress","app_id":440,"player_count":0,"max_players":24,"Bots":0,"server_type":"Dedicated","server_os":"Linux","password":true,"vac":true,"version":"7961495","steam_id":85568392924504278,"keywords":["nocrits","nodmgspread","payload","uncletopia"],"game_id":440,"stv_port":27066,"stv_name":"Uncletopia | Frankfurt | 6 | All Maps | STV","players":null},{"server_id":23,"name":"Uncletopia | Frankfurt | 7 | Stopwatch","name_short":"frk-7","host":"frk-1.de.uncletopia.com","port":27075,"enabled":true,"region":"eu","cc":"de","latitude":50.110924,"longitude":8.682127,"reserved":0,"last_update":"0001-01-01T00:00:00Z","name_a2s":"Uncletopia | Frankfurt | 7 | Stopwatch","protocol":17,"map":"workshop/koth_bagel_rc6.ugc2514036946","folder":"tf","game":"Team Fortress","app_id":440,"player_count":0,"max_players":24,"Bots":0,"server_type":"Dedicated","server_os":"Linux","password":true,"vac":true,"version":"7961495","steam_id":85568392924742827,"keywords":["cp","nocrits","nodmgspread","uncletopia"],"game_id":440,"stv_port":27076,"stv_name":"Uncletopia | Frankfurt | 7 | Stopwatch | STV","players":null},{"server_id":24,"name":"Uncletopia | Frankfurt | 8 | Community","name_short":"frk-8","host":"frk-1.de.uncletopia.com","port":27085,"enabled":true,"region":"eu","cc":"de","latitude":50.110924,"longitude":8.682127,"reserved":0,"last_update":"0001-01-01T00:00:00Z","name_a2s":"Uncletopia | Frankfurt | 8 | Community","protocol":17,"map":"workshop/rd_asteroid_redux_b1.ugc2154902912","folder":"tf","game":"Team Fortress","app_id":440,"player_count":0,"max_players":24,"Bots":0,"server_type":"Dedicated","server_os":"Linux","password":true,"vac":true,"version":"7961495","steam_id":85568392924742828,"keywords":["beta","nocrits","nodmgspread","rd","uncletopia"],"game_id":440,"stv_port":27086,"stv_name":"Uncletopia | Frankfurt | 8 | Community | STV","players":null},{"server_id":202,"name":"Uncletopia | Hong Kong | 1 | All Maps","name_short":"hgk-1","host":"hgk-1.hk.uncletopia.com","port":27015,"enabled":true,"region":"asia","cc":"hk","latitude":22.302711,"longitude":114.177216,"reserved":0,"last_update":"0001-01-01T00:00:00Z","name_a2s":"Uncletopia | Hong Kong | 1 | All Maps","protocol":17,"map":"cp_snakewater_final1","folder":"tf","game":"Team Fortress","app_id":440,"player_count":1,"max_players":24,"Bots":0,"server_type":"Dedicated","server_os":"Linux","password":true,"vac":true,"version":"7961495","steam_id":85568392924494504,"keywords":["cp","nocrits","nodmgspread","uncletopia"],"game_id":440,"stv_port":27016,"stv_name":"Uncletopia | Hong Kong | 1 | All Maps | STV","players":[{"user_id":5,"name":"ConHoshi","steam_id":76561199387718733,"connected_time":36000000000,"state":"spawning","ping":62}]},{"server_id":1,"name":"Uncletopia | Los Angeles | 1 | All Maps","name_short":"lax-1","host":"lax-1.us.uncletopia.com","port":27015,"enabled":true,"region":"us-west","cc":"us","latitude":33.94279,"longitude":-118.41004,"reserved":0,"last_update":"0001-01-01T00:00:00Z","name_a2s":"Uncletopia | Los Angeles | 1 | All Maps","protocol":17,"map":"pl_pier","folder":"tf","game":"Team Fortress","app_id":440,"player_count":24,"max_players":24,"Bots":0,"server_type":"Dedicated","server_os":"Linux","password":true,"vac":true,"version":"7961495","steam_id":85568392924469991,"keywords":["nocrits","nodmgspread","payload","uncletopia"],"game_id":440,"stv_port":27016,"stv_name":"Uncletopia | Los Angeles | 1 | All Maps | STV","players":[{"user_id":96,"name":"d4ngerd4n","steam_id":76561198043758735,"connected_time":3413000000000,"state":"active","ping":50},{"user_id":114,"name":"nil","steam_id":76561198339527138,"connected_time":2096000000000,"state":"active","ping":45},{"user_id":134,"name":"gatorbelt","steam_id":76561198145784505,"connected_time":233000000000,"state":"active","ping":45},{"user_id":100,"name":"what a fukkin","steam_id":76561198298442983,"connected_time":3342000000000,"state":"active","ping":81},{"user_id":102,"name":"YOU WHAT?!","steam_id":76561198418679471,"connected_time":3061000000000,"state":"active","ping":88},{"user_id":90,"name":"sobaka","steam_id":76561198116008934,"connected_time":4448000000000,"state":"active","ping":52},{"user_id":131,"name":"Dija‚Ñ¢","steam_id":76561198027393588,"connected_time":628000000000,"state":"active","ping":72},{"user_id":124,"name":"Leo x.x","steam_id":76561198309760791,"connected_time":1307000000000,"state":"active","ping":153},{"user_id":64,"name":"S√°bado Gigante","steam_id":76561197994685971,"connected_time":6509000000000,"state":"active","ping":56},{"user_id":76,"name":"Scorpianswag","steam_id":76561198260651036,"connected_time":5624000000000,"state":"active","ping":31},{"user_id":132,"name":"JawnyMac","steam_id":76561198179529599,"connected_time":316000000000,"state":"active","ping":69},{"user_id":119,"name":"Large Man","steam_id":76561198880396651,"connected_time":1662000000000,"state":"active","ping":124},{"user_id":71,"name":"Zykron","steam_id":76561199056400800,"connected_time":5911000000000,"state":"active","ping":64},{"user_id":123,"name":"TeriyakiDynamite","steam_id":76561198050049346,"connected_time":1333000000000,"state":"active","ping":58},{"user_id":126,"name":"kuy","steam_id":76561198165352005,"connected_time":1110000000000,"state":"active","ping":78},{"user_id":136,"name":"Mystic man of potatoe","steam_id":76561198027267207,"connected_time":200000000000,"state":"active","ping":61},{"user_id":77,"name":"celestia ludenberg","steam_id":76561199196437823,"connected_time":5605000000000,"state":"active","ping":77},{"user_id":129,"name":"Ockulus","steam_id":76561199069638460,"connected_time":921000000000,"state":"active","ping":52},{"user_id":137,"name":"Lucky","steam_id":76561198124910662,"connected_time":120000000000,"state":"active","ping":64},{"user_id":92,"name":"DEAD OR ALIVE","steam_id":76561198265633146,"connected_time":3480000000000,"state":"active","ping":60},{"user_id":78,"name":"Soft copper wings","steam_id":76561198092317849,"connected_time":5603000000000,"state":"active","ping":49},{"user_id":122,"name":"CyBoRg CoMmAnDo","steam_id":76561197961100082,"connected_time":1400000000000,"state":"active","ping":42},{"user_id":130,"name":"soltuno","steam_id":76561198074430565,"connected_time":844000000000,"state":"active","ping":56},{"user_id":82,"name":"darryl archideld","steam_id":76561198048754646,"connected_time":5424000000000,"state":"active","ping":48}]},{"server_id":112,"name":"Uncletopia | Los Angeles | 2 | All Maps","name_short":"lax-2","host":"lax-1.us.uncletopia.com","port":27025,"enabled":true,"region":"us-west","cc":"us","latitude":33.94279,"longitude":-118.41004,"reserved":0,"last_update":"0001-01-01T00:00:00Z","name_a2s":"Uncletopia | Los Angeles | 2 | All Maps","protocol":17,"map":"koth_lazarus","folder":"tf","game":"Team Fortress","app_id":440,"player_count":0,"max_players":24,"Bots":0,"server_type":"Dedicated","server_os":"Linux","password":true,"vac":true,"version":"7961495","steam_id":85568392924469992,"keywords":["cp","nocrits","nodmgspread","uncletopia"],"game_id":440,"stv_port":27026,"stv_name":"Uncletopia | Los Angeles | 2 | All Maps | STV","players":null},{"server_id":324,"name":"Uncletopia | Los Angeles | 3 | All Maps","name_short":"lax-3","host":"lax-1.us.uncletopia.com","port":27035,"enabled":true,"region":"us-west","cc":"us","latitude":33.94279,"longitude":-118.41004,"reserved":0,"last_update":"0001-01-01T00:00:00Z","name_a2s":"Uncletopia | Los Angeles | 3 | All Maps","protocol":17,"map":"koth_lakeside_final","folder":"tf","game":"Team Fortress","app_id":440,"player_count":7,"max_players":24,"Bots":0,"server_type":"Dedicated","server_os":"Linux","password":true,"vac":true,"version":"7961495","steam_id":85568392924510198,"keywords":["cp","nocrits","nodmgspread","uncletopia"],"game_id":440,"stv_port":27036,"stv_name":"Uncletopia | Los Angeles | 3 | All Maps | STV","players":[{"user_id":7,"name":"Swiftercat","steam_id":76561198116306183,"connected_time":127000000000,"state":"active","ping":60},{"user_id":8,"name":"(Tr)Ash","steam_id":76561198188637107,"connected_time":121000000000,"state":"active","ping":135},{"user_id":9,"name":"SSToxin","steam_id":76561198054566457,"connected_time":116000000000,"state":"active","ping":194},{"user_id":10,"name":"VulcanProductions","steam_id":76561198164963560,"connected_time":98000000000,"state":"active","ping":122},{"user_id":11,"name":"Max Headass","steam_id":76561198964210411,"connected_time":51000000000,"state":"active","ping":46},{"user_id":12,"name":"Hernandez$","steam_id":76561198019324588,"connected_time":28000000000,"state":"active","ping":48},{"user_id":13,"name":"Wiggee","steam_id":76561197972792989,"connected_time":26000000000,"state":"active","ping":73}]},{"server_id":25,"name":"Uncletopia | Los Angeles | 4 | Stopwatch","name_short":"lax-4","host":"lax-1.us.uncletopia.com","port":27045,"enabled":true,"region":"us-west","cc":"us","latitude":33.94279,"longitude":-118.41004,"reserved":0,"last_update":"0001-01-01T00:00:00Z","name_a2s":"Uncletopia | Los Angeles | 4 | Stopwatch","protocol":17,"map":"cp_metalworks","folder":"tf","game":"Team Fortress","app_id":440,"player_count":0,"max_players":24,"Bots":0,"server_type":"Dedicated","server_os":"Linux","password":true,"vac":true,"version":"7961495","steam_id":85568392924510199,"keywords":["cp","nocrits","nodmgspread","uncletopia"],"game_id":440,"stv_port":27046,"stv_name":"Uncletopia | Los Angeles | 4 | Stopwatch | STV","players":null},{"server_id":11,"name":"Uncletopia | London | 1 | All Maps","name_short":"lon-1","host":"lon-1.uk.uncletopia.com","port":27015,"enabled":true,"region":"eu","cc":"gb","latitude":51.509865,"longitude":-0.118092,"reserved":0,"last_update":"0001-01-01T00:00:00Z","name_a2s":"Uncletopia | London | 1 | All Maps","protocol":17,"map":"koth_lakeside_final","folder":"tf","game":"Team Fortress","app_id":440,"player_count":23,"max_players":24,"Bots":0,"server_type":"Dedicated","server_os":"Linux","password":true,"vac":true,"version":"7961495","steam_id":85568392924367362,"keywords":["cp","nocrits","nodmgspread","uncletopia"],"game_id":440,"stv_port":27016,"stv_name":"Uncletopia | London | 1 | All Maps | STV","players":[{"user_id":614,"name":"wowize","steam_id":76561199187255193,"connected_time":511000000000,"state":"active","ping":93},{"user_id":597,"name":"is this information, legit?","steam_id":76561198088624259,"connected_time":2555000000000,"state":"active","ping":59},{"user_id":615,"name":"Dr. Sus","steam_id":76561198344435644,"connected_time":470000000000,"state":"active","ping":75},{"user_id":617,"name":"hyd","steam_id":76561198250900718,"connected_time":354000000000,"state":"active","ping":34},{"user_id":625,"name":"üêµ Toaster1337üêµ","steam_id":76561198103706881,"connected_time":86000000000,"state":"active","ping":73},{"user_id":584,"name":"Fnif","steam_id":76561197987988100,"connected_time":3286000000000,"state":"active","ping":77},{"user_id":571,"name":"alternative","steam_id":76561199089684702,"connected_time":4385000000000,"state":"active","ping":69},{"user_id":552,"name":"Ink in veins","steam_id":76561199082262091,"connected_time":5071000000000,"state":"active","ping":83},{"user_id":582,"name":"Brian","steam_id":76561198077756206,"connected_time":3362000000000,"state":"active","ping":43},{"user_id":603,"name":"TL071 op-amp","steam_id":76561198397024973,"connected_time":964000000000,"state":"active","ping":35},{"user_id":434,"name":"Speed-Dial","steam_id":76561198012428315,"connected_time":17048000000000,"state":"active","ping":54},{"user_id":605,"name":"sword machine","steam_id":76561198895235231,"connected_time":931000000000,"state":"active","ping":58},{"user_id":619,"name":"misteryman31","steam_id":76561198389068345,"connected_time":284000000000,"state":"active","ping":118},{"user_id":620,"name":"Local screaming black man","steam_id":76561198325444142,"connected_time":230000000000,"state":"active","ping":72},{"user_id":613,"name":"rmz.ssj","steam_id":76561198329613930,"connected_time":560000000000,"state":"active","ping":60},{"user_id":606,"name":"Estamie","steam_id":76561198058527691,"connected_time":925000000000,"state":"active","ping":74},{"user_id":621,"name":"ThtGamrW","steam_id":76561199434562549,"connected_time":198000000000,"state":"active","ping":154},{"user_id":622,"name":"Fluid","steam_id":76561198348464129,"connected_time":138000000000,"state":"active","ping":70},{"user_id":541,"name":"toino_PT","steam_id":76561199008999046,"connected_time":6939000000000,"state":"active","ping":82},{"user_id":600,"name":"Assassin+","steam_id":76561197994310420,"connected_time":2077000000000,"state":"active","ping":74},{"user_id":623,"name":"semen slayer","steam_id":76561198253868228,"connected_time":122000000000,"state":"active","ping":35},{"user_id":592,"name":"africain communiste","steam_id":76561198798803845,"connected_time":2913000000000,"state":"active","ping":51},{"user_id":624,"name":"Brock Lesnar","steam_id":76561198301934663,"connected_time":119000000000,"state":"active","ping":57}]},{"server_id":114,"name":"Uncletopia | London | 2 | All Maps","name_short":"lon-2","host":"lon-1.uk.uncletopia.com","port":27025,"enabled":true,"region":"eu","cc":"gb","latitude":51.509865,"longitude":-0.118092,"reserved":0,"last_update":"0001-01-01T00:00:00Z","name_a2s":"Uncletopia | London | 2 | All Maps","protocol":17,"map":"koth_lakeside_final","folder":"tf","game":"Team Fortress","app_id":440,"player_count":4,"max_players":24,"Bots":0,"server_type":"Dedicated","server_os":"Linux","password":true,"vac":true,"version":"7961495","steam_id":85568392924470941,"keywords":["cp","nocrits","nodmgspread","uncletopia"],"game_id":440,"stv_port":27026,"stv_name":"Uncletopia | London | 2 | All Maps | STV","players":[{"user_id":255,"name":"Samwe","steam_id":76561198076581196,"connected_time":344000000000,"state":"active","ping":70},{"user_id":237,"name":"Frenchy","steam_id":76561198237529884,"connected_time":3368000000000,"state":"active","ping":57},{"user_id":240,"name":"SUS","steam_id":76561199258120019,"connected_time":3278000000000,"state":"active","ping":59},{"user_id":200,"name":"Average Blahaj Enjoyer","steam_id":76561198022290284,"connected_time":6498000000000,"state":"active","ping":52}]},{"server_id":320,"name":"Uncletopia | London | 3 | All Maps","name_short":"lon-3","host":"lon-1.uk.uncletopia.com","port":27035,"enabled":true,"region":"eu","cc":"gb","latitude":51.509865,"longitude":-0.118092,"reserved":0,"last_update":"0001-01-01T00:00:00Z","name_a2s":"Uncletopia | London | 3 | All Maps","protocol":17,"map":"pl_pier","folder":"tf","game":"Team Fortress","app_id":440,"player_count":0,"max_players":24,"Bots":0,"server_type":"Dedicated","server_os":"Linux","password":true,"vac":true,"version":"7961495","steam_id":85568392924510192,"keywords":["nocrits","nodmgspread","payload","uncletopia"],"game_id":440,"stv_port":27036,"stv_name":"Uncletopia | London | 3 | All Maps | STV","players":null},{"server_id":321,"name":"Uncletopia | London | 4 | All Maps","name_short":"lon-4","host":"lon-1.uk.uncletopia.com","port":27045,"enabled":true,"region":"eu","cc":"gb","latitude":51.509865,"longitude":-0.118092,"reserved":0,"last_update":"0001-01-01T00:00:00Z","name_a2s":"Uncletopia | London | 4 | All Maps","protocol":17,"map":"cp_sunshine","folder":"tf","game":"Team Fortress","app_id":440,"player_count":24,"max_players":24,"Bots":0,"server_type":"Dedicated","server_os":"Linux","password":true,"vac":true,"version":"7961495","steam_id":85568392924510193,"keywords":["cp","nocrits","nodmgspread","uncletopia"],"game_id":440,"stv_port":27046,"stv_name":"Uncletopia | London | 4 | All Maps | STV","players":[{"user_id":986,"name":"Pipper","steam_id":76561197970326616,"connected_time":1286000000000,"state":"active","ping":64},{"user_id":993,"name":"katana on the trains","steam_id":76561198202464032,"connected_time":764000000000,"state":"active","ping":71},{"user_id":968,"name":"Loudladdy","steam_id":76561198095271834,"connected_time":1676000000000,"state":"active","ping":45},{"user_id":997,"name":"panakid","steam_id":76561198364121077,"connected_time":569000000000,"state":"active","ping":84},{"user_id":1003,"name":"Phillipo","steam_id":76561198105215143,"connected_time":71000000000,"state":"active","ping":44},{"user_id":974,"name":"SissifiedBlackGuy","steam_id":76561199509261527,"connected_time":1552000000000,"state":"active","ping":118},{"user_id":999,"name":"Neeeiks","steam_id":76561198009156801,"connected_time":443000000000,"state":"active","ping":79},{"user_id":994,"name":"femboy swaggot","steam_id":76561199509191236,"connected_time":752000000000,"state":"active","ping":166},{"user_id":996,"name":"‚éõ‚éù_____‚é†‚éû","steam_id":76561198315371425,"connected_time":604000000000,"state":"active","ping":45},{"user_id":992,"name":"Chaffy2125","steam_id":76561198232839260,"connected_time":795000000000,"state":"active","ping":34},{"user_id":990,"name":"Scorpio127","steam_id":76561198188684019,"connected_time":899000000000,"state":"active","ping":48},{"user_id":982,"name":"angry russian man","steam_id":76561198386712795,"connected_time":1475000000000,"state":"active","ping":47},{"user_id":971,"name":"Intern","steam_id":76561198062744679,"connected_time":1629000000000,"state":"active","ping":69},{"user_id":962,"name":"beresven","steam_id":76561198082000730,"connected_time":2058000000000,"state":"active","ping":103},{"user_id":960,"name":"Not Regular","steam_id":76561197970114051,"connected_time":2167000000000,"state":"active","ping":44},{"user_id":981,"name":"HumorlessButton","steam_id":76561198170128638,"connected_time":1494000000000,"state":"active","ping":74},{"user_id":998,"name":"Coac","steam_id":76561198085265740,"connected_time":547000000000,"state":"active","ping":70},{"user_id":969,"name":"mini jones","steam_id":76561199273446381,"connected_time":1643000000000,"state":"active","ping":80},{"user_id":959,"name":"BadFemboy","steam_id":76561198072320671,"connected_time":2336000000000,"state":"active","ping":32},{"user_id":1002,"name":"Atrix","steam_id":76561198364012823,"connected_time":348000000000,"state":"active","ping":54},{"user_id":984,"name":"oultimosuicida","steam_id":76561198051429942,"connected_time":1452000000000,"state":"active","ping":75},{"user_id":932,"name":"cora","steam_id":76561199474154775,"connected_time":4550000000000,"state":"active","ping":56},{"user_id":1001,"name":"-2","steam_id":76561197990757157,"connected_time":373000000000,"state":"active","ping":72},{"user_id":859,"name":"tapeworms!","steam_id":76561198069649097,"connected_time":10274000000000,"state":"active","ping":45}]},{"server_id":21,"name":"Uncletopia | London | 5 | All Maps","name_short":"lon-5","host":"lon-1.uk.uncletopia.com","port":27055,"enabled":true,"region":"eu","cc":"gb","latitude":51.509865,"longitude":-0.118092,"reserved":0,"last_update":"0001-01-01T00:00:00Z","name_a2s":"Uncletopia | London | 5 | All Maps","protocol":17,"map":"koth_viaduct","folder":"tf","game":"Team Fortress","app_id":440,"player_count":0,"max_players":24,"Bots":0,"server_type":"Dedicated","server_os":"Linux","password":true,"vac":true,"version":"7961495","steam_id":85568392924742829,"keywords":["cp","nocrits","nodmgspread","uncletopia"],"game_id":440,"stv_port":27056,"stv_name":"Uncletopia | London | 5 | All Maps | STV","players":null},{"server_id":22,"name":"Uncletopia | London | 6 | All Maps","name_short":"lon-6","host":"lon-1.uk.uncletopia.com","port":27065,"enabled":true,"region":"eu","cc":"gb","latitude":51.509865,"longitude":-0.118092,"reserved":0,"last_update":"0001-01-01T00:00:00Z","name_a2s":"Uncletopia | London | 6 | All Maps","protocol":17,"map":"cp_gorge","folder":"tf","game":"Team Fortress","app_id":440,"player_count":0,"max_players":24,"Bots":0,"server_type":"Dedicated","server_os":"Linux","password":true,"vac":true,"version":"7961495","steam_id":85568392924742830,"keywords":["cp","nocrits","nodmgspread","uncletopia"],"game_id":440,"stv_port":27066,"stv_name":"Uncletopia | London | 6 | All Maps | STV","players":null},{"server_id":40,"name":"Uncletopia | London | 7 | Stopwatch","name_short":"lon-7","host":"lon-1.uk.uncletopia.com","port":27075,"enabled":true,"region":"eu","cc":"gb","latitude":51.509865,"longitude":-0.118092,"reserved":0,"last_update":"0001-01-01T00:00:00Z","name_a2s":"Uncletopia | London | 7 | Stopwatch","protocol":17,"map":"workshop/koth_ashville_final.ugc2130459942","folder":"tf","game":"Team Fortress","app_id":440,"player_count":0,"max_players":24,"Bots":0,"server_type":"Dedicated","server_os":"Linux","password":true,"vac":true,"version":"7961495","steam_id":85568392924964314,"keywords":["cp","nocrits","nodmgspread","uncletopia"],"game_id":440,"stv_port":27076,"stv_name":"Uncletopia | London | 7 | Stopwatch | STV","players":null},{"server_id":41,"name":"Uncletopia | London | 8 | Community","name_short":"lon-8","host":"lon-1.uk.uncletopia.com","port":27085,"enabled":true,"region":"eu","cc":"gb","latitude":51.509865,"longitude":-0.118092,"reserved":0,"last_update":"0001-01-01T00:00:00Z","name_a2s":"Uncletopia | London | 8 | Community","protocol":17,"map":"workshop/pl_corrode_rc2.ugc546577989","folder":"tf","game":"Team Fortress","app_id":440,"player_count":0,"max_players":24,"Bots":0,"server_type":"Dedicated","server_os":"Linux","password":true,"vac":true,"version":"7961495","steam_id":85568392924964315,"keywords":["nocrits","nodmgspread","payload","uncletopia"],"game_id":440,"stv_port":27086,"stv_name":"Uncletopia | London | 8 | Community | STV","players":null},{"server_id":300,"name":"Uncletopia | Montr√©al | 1 | One Thousand Uncles","name_short":"mtl-1","host":"mtl-1.ca.uncletopia.com","port":27015,"enabled":true,"region":"us-east","cc":"ca","latitude":45.50889,"longitude":-73.56167,"reserved":0,"last_update":"0001-01-01T00:00:00Z","name_a2s":"Uncletopia | Montr√©al | 1 | One Thousand Uncles","protocol":17,"map":"cp_egypt_final","folder":"tf","game":"Team Fortress","app_id":440,"player_count":27,"max_players":32,"Bots":20,"server_type":"Dedicated","server_os":"Linux","password":true,"vac":true,"version":"7961495","steam_id":85568392924500087,"keywords":["alltalk","bots","cp","danepve","increased_maxplayers","norespawntime","uncletopia"],"game_id":440,"stv_port":0,"stv_name":"","players":[{"user_id":282,"name":"Penis but it rhymes with Venice","steam_id":76561197986420836,"connected_time":3477000000000,"state":"active","ping":58},{"user_id":284,"name":"St3shk4aA","steam_id":76561198025322638,"connected_time":2157000000000,"state":"active","ping":80},{"user_id":286,"name":"MagikarpEX","steam_id":76561198166172279,"connected_time":376000000000,"state":"active","ping":65},{"user_id":229,"name":"catgirl w/ fat ass","steam_id":76561199040286026,"connected_time":6982000000000,"state":"active","ping":73},{"user_id":252,"name":"Enzo","steam_id":76561197975076681,"connected_time":5791000000000,"state":"active","ping":66},{"user_id":226,"name":"DrMisteryous2","steam_id":76561198336307012,"connected_time":8071000000000,"state":"active","ping":166},{"user_id":287,"name":"Tekor","steam_id":76561198088542862,"connected_time":121000000000,"state":"active","ping":158}]},{"server_id":301,"name":"Uncletopia | Montr√©al | 2 | One Thousand Uncles","name_short":"mtl-2","host":"mtl-1.ca.uncletopia.com","port":27025,"enabled":true,"region":"us-east","cc":"ca","latitude":45.50889,"longitude":-73.56167,"reserved":0,"last_update":"0001-01-01T00:00:00Z","name_a2s":"Uncletopia | Montr√©al | 2 | One Thousand Uncles","protocol":17,"map":"cp_mossrock","folder":"tf","game":"Team Fortress","app_id":440,"player_count":0,"max_players":32,"Bots":0,"server_type":"Dedicated","server_os":"Linux","password":true,"vac":true,"version":"7961495","steam_id":85568392924500088,"keywords":["alltalk","cp","danepve","increased_maxplayers","norespawntime","uncletopia"],"game_id":440,"stv_port":0,"stv_name":"","players":null},{"server_id":302,"name":"Uncletopia | Montr√©al | 3 | One Thousand Uncles","name_short":"mtl-3","host":"mtl-1.ca.uncletopia.com","port":27035,"enabled":true,"region":"us-east","cc":"ca","latitude":45.50889,"longitude":-73.56167,"reserved":0,"last_update":"0001-01-01T00:00:00Z","name_a2s":"Uncletopia | Montr√©al | 3 | One Thousand Uncles","protocol":17,"map":"cp_dustbowl","folder":"tf","game":"Team Fortress","app_id":440,"player_count":28,"max_players":32,"Bots":20,"server_type":"Dedicated","server_os":"Linux","password":true,"vac":true,"version":"7961495","steam_id":85568392924500089,"keywords":["alltalk","bots","cp","danepve","increased_maxplayers","norespawntime","uncletopia"],"game_id":440,"stv_port":0,"stv_name":"","players":[{"user_id":155,"name":"Gin","steam_id":76561197991891290,"connected_time":1507000000000,"state":"active","ping":114},{"user_id":156,"name":"Why not Zoidberg?","steam_id":76561197982207556,"connected_time":1314000000000,"state":"active","ping":76},{"user_id":138,"name":"Paul Badman","steam_id":76561198965289206,"connected_time":5159000000000,"state":"active","ping":97},{"user_id":158,"name":"Yimberly","steam_id":76561199206923109,"connected_time":973000000000,"state":"active","ping":93},{"user_id":163,"name":"Ata","steam_id":76561198349085545,"connected_time":84000000000,"state":"active","ping":131},{"user_id":150,"name":"Peace","steam_id":76561197973112223,"connected_time":3436000000000,"state":"active","ping":68},{"user_id":153,"name":"Gus","steam_id":76561198126249961,"connected_time":2897000000000,"state":"active","ping":186},{"user_id":151,"name":"Seth","steam_id":76561199065036292,"connected_time":3408000000000,"state":"active","ping":123}]},{"server_id":13,"name":"Uncletopia | New York City | 1 | All Maps","name_short":"nyc-1","host":"nyc-1.us.uncletopia.com","port":27015,"enabled":true,"region":"us-east","cc":"us","latitude":40.73061,"longitude":-73.93524,"reserved":0,"last_update":"0001-01-01T00:00:00Z","name_a2s":"Uncletopia | New York City | 1 | All Maps","protocol":17,"map":"pl_frontier_final","folder":"tf","game":"Team Fortress","app_id":440,"player_count":24,"max_players":24,"Bots":0,"server_type":"Dedicated","server_os":"Linux","password":true,"vac":true,"version":"7961495","steam_id":85568392924469993,"keywords":["nocrits","nodmgspread","payload","uncletopia"],"game_id":440,"stv_port":27016,"stv_name":"Uncletopia | New York City | 1 | All Maps | STV","players":[{"user_id":651,"name":"leesh","steam_id":76561198079603938,"connected_time":648000000000,"state":"active","ping":60},{"user_id":622,"name":"ChilliBean Avenger","steam_id":76561197986896464,"connected_time":3230000000000,"state":"active","ping":84},{"user_id":595,"name":"{Mbx} HighnTight","steam_id":76561198072441047,"connected_time":5069000000000,"state":"active","ping":131},{"user_id":636,"name":"JJ","steam_id":76561198319645735,"connected_time":2284000000000,"state":"active","ping":85},{"user_id":592,"name":"Gorilla","steam_id":76561198353451603,"connected_time":5272000000000,"state":"active","ping":69},{"user_id":652,"name":"The Notorious RBG","steam_id":76561198014275148,"connected_time":646000000000,"state":"active","ping":54},{"user_id":646,"name":"Harry S. Truman","steam_id":76561197993339757,"connected_time":1153000000000,"state":"active","ping":49},{"user_id":580,"name":"starfungus","steam_id":76561198158312789,"connected_time":5703000000000,"state":"active","ping":57},{"user_id":641,"name":"vv","steam_id":76561198134813102,"connected_time":1625000000000,"state":"active","ping":61},{"user_id":634,"name":"oppenheimer style","steam_id":76561198026664629,"connected_time":2480000000000,"state":"active","ping":46},{"user_id":645,"name":"mystery meat","steam_id":76561198074247207,"connected_time":1372000000000,"state":"active","ping":46},{"user_id":655,"name":"Ryzema","steam_id":76561198165594229,"connected_time":367000000000,"state":"active","ping":86},{"user_id":618,"name":"trayer","steam_id":76561198050729672,"connected_time":3596000000000,"state":"active","ping":56},{"user_id":643,"name":"Edfan","steam_id":76561198021299904,"connected_time":1581000000000,"state":"active","ping":60},{"user_id":644,"name":"itzfifthdolphinbtw","steam_id":76561199128872873,"connected_time":1495000000000,"state":"active","ping":74},{"user_id":638,"name":"Zen Tuna","steam_id":76561198032445362,"connected_time":1871000000000,"state":"active","ping":107},{"user_id":653,"name":"Fiendish Frog","steam_id":76561198029478821,"connected_time":623000000000,"state":"active","ping":54},{"user_id":635,"name":"eBay","steam_id":76561198061214569,"connected_time":2354000000000,"state":"active","ping":109},{"user_id":654,"name":"Mrguy321","steam_id":76561198169357884,"connected_time":611000000000,"state":"active","ping":57},{"user_id":648,"name":"the juicer","steam_id":76561198307845869,"connected_time":999000000000,"state":"active","ping":54},{"user_id":612,"name":"cosmik","steam_id":76561198071193180,"connected_time":3779000000000,"state":"active","ping":60},{"user_id":624,"name":"oopsboom24","steam_id":76561199105248648,"connected_time":3164000000000,"state":"active","ping":84},{"user_id":656,"name":"kenny","steam_id":76561198152792591,"connected_time":0,"state":"spawning","ping":37},{"user_id":558,"name":"Juan Solo","steam_id":76561198018688536,"connected_time":8000000000000,"state":"active","ping":59}]},{"server_id":14,"name":"Uncletopia | New York City | 2 | All Maps","name_short":"nyc-2","host":"nyc-1.us.uncletopia.com","port":27025,"enabled":true,"region":"us-east","cc":"us","latitude":40.73061,"longitude":-73.93524,"reserved":0,"last_update":"0001-01-01T00:00:00Z","name_a2s":"Uncletopia | New York City | 2 | All Maps","protocol":17,"map":"pl_borneo","folder":"tf","game":"Team Fortress","app_id":440,"player_count":6,"max_players":24,"Bots":0,"server_type":"Dedicated","server_os":"Linux","password":true,"vac":true,"version":"7961495","steam_id":85568392924469994,"keywords":["nocrits","nodmgspread","payload","uncletopia"],"game_id":440,"stv_port":27026,"stv_name":"Uncletopia | New York City | 2 | All Maps | STV","players":[{"user_id":77,"name":"BiggSlorp","steam_id":76561199130776156,"connected_time":499000000000,"state":"active","ping":51},{"user_id":78,"name":"Maniac Hat","steam_id":76561199082942851,"connected_time":316000000000,"state":"active","ping":76},{"user_id":79,"name":"CrushforceX","steam_id":76561198367985723,"connected_time":202000000000,"state":"active","ping":79},{"user_id":80,"name":"Queso2469","steam_id":76561197993024580,"connected_time":122000000000,"state":"active","ping":39},{"user_id":81,"name":"JerkHisJimmy","steam_id":76561198226749652,"connected_time":49000000000,"state":"active","ping":70},{"user_id":82,"name":"Sha-Woompa","steam_id":76561199068063459,"connected_time":6000000000,"state":"spawning","ping":52}]},{"server_id":15,"name":"Uncletopia | New York City | 3 | Stopwatch","name_short":"nyc-3","host":"nyc-1.us.uncletopia.com","port":27035,"enabled":true,"region":"us-east","cc":"us","latitude":40.73061,"longitude":-73.93524,"reserved":0,"last_update":"0001-01-01T00:00:00Z","name_a2s":"Uncletopia | New York City | 3 | Stopwatch","protocol":17,"map":"workshop/pl_vigil_rc10.ugc1266210012","folder":"tf","game":"Team Fortress","app_id":440,"player_count":1,"max_players":24,"Bots":0,"server_type":"Dedicated","server_os":"Linux","password":true,"vac":true,"version":"7961495","steam_id":85568392924742820,"keywords":["nocrits","nodmgspread","payload","uncletopia"],"game_id":440,"stv_port":27036,"stv_name":"Uncletopia | New York City | 3 | Stopwatch | STV","players":[{"user_id":7,"name":"carderafa","steam_id":76561198080391008,"connected_time":56000000000,"state":"spawning","ping":426}]},{"server_id":16,"name":"Uncletopia | New York City | 4 | Community","name_short":"nyc-4","host":"nyc-1.us.uncletopia.com","port":27045,"enabled":true,"region":"us-east","cc":"us","latitude":40.73061,"longitude":-73.93524,"reserved":0,"last_update":"0001-01-01T00:00:00Z","name_a2s":"Uncletopia | New York City | 4 | Community","protocol":17,"map":"workshop/koth_relic_rc3.ugc2965301326","folder":"tf","game":"Team Fortress","app_id":440,"player_count":23,"max_players":24,"Bots":0,"server_type":"Dedicated","server_os":"Linux","password":true,"vac":true,"version":"7961495","steam_id":85568392924742821,"keywords":["cp","nocrits","nodmgspread","uncletopia"],"game_id":440,"stv_port":27046,"stv_name":"Uncletopia | New York City | 4 | Community | STV","players":[{"user_id":22,"name":"Bagel","steam_id":76561198167747447,"connected_time":8242000000000,"state":"active","ping":56},{"user_id":73,"name":"j_thane","steam_id":76561198040933603,"connected_time":1162000000000,"state":"active","ping":55},{"user_id":30,"name":"Simmons","steam_id":76561198024778135,"connected_time":5288000000000,"state":"active","ping":52},{"user_id":88,"name":"Astrondoy","steam_id":76561199198557552,"connected_time":338000000000,"state":"active","ping":58},{"user_id":58,"name":"lesbian jolyne cujoh","steam_id":76561198988918229,"connected_time":1945000000000,"state":"active","ping":81},{"user_id":93,"name":"Dukino","steam_id":76561198008455368,"connected_time":73000000000,"state":"active","ping":61},{"user_id":89,"name":"Snazzy_","steam_id":76561198014803098,"connected_time":201000000000,"state":"active","ping":52},{"user_id":43,"name":"Ginger Jesus","steam_id":76561198052386458,"connected_time":2944000000000,"state":"active","ping":34},{"user_id":42,"name":"üÖúüÖîüÖîüÖöüÖ¢üÖ£üÖî\ufffd\ufffd\ufffd","steam_id":76561197999748343,"connected_time":3125000000000,"state":"active","ping":79},{"user_id":77,"name":"Profile Name","steam_id":76561198834549362,"connected_time":967000000000,"state":"active","ping":80},{"user_id":95,"name":"Weege Gaming","steam_id":76561199486252055,"connected_time":34000000000,"state":"spawning","ping":265},{"user_id":86,"name":"Defcon","steam_id":76561198079458315,"connected_time":430000000000,"state":"active","ping":139},{"user_id":87,"name":"ya ya breathe","steam_id":76561198075858067,"connected_time":398000000000,"state":"active","ping":45},{"user_id":90,"name":"Bingus","steam_id":76561198206494752,"connected_time":196000000000,"state":"active","ping":65},{"user_id":56,"name":"well assflash, newshole","steam_id":76561198018898325,"connected_time":2020000000000,"state":"active","ping":70},{"user_id":91,"name":"Car Door Video Tour","steam_id":76561198023119534,"connected_time":159000000000,"state":"active","ping":45},{"user_id":92,"name":"Red_Hatkins","steam_id":76561198214004105,"connected_time":94000000000,"state":"active","ping":79},{"user_id":76,"name":"Newknight90","steam_id":76561199095293932,"connected_time":1003000000000,"state":"active","ping":56},{"user_id":62,"name":"EmeraldCola","steam_id":76561198066663687,"connected_time":1801000000000,"state":"active","ping":43},{"user_id":65,"name":"pankeko","steam_id":76561199137134135,"connected_time":1692000000000,"state":"active","ping":46},{"user_id":94,"name":"pomino","steam_id":76561198071260143,"connected_time":72000000000,"state":"active","ping":45},{"user_id":82,"name":"Dick to ball ratio","steam_id":76561198072205512,"connected_time":726000000000,"state":"active","ping":60},{"user_id":68,"name":"Kirkleon","steam_id":76561198041302343,"connected_time":1611000000000,"state":"active","ping":49}]},{"server_id":142,"name":"Uncletopia | S√£o Paulo | 1 | All Maps","name_short":"sao-1","host":"sao-1.br.uncletopia.com","port":27015,"enabled":true,"region":"sa","cc":"br","latitude":-23.533773,"longitude":-46.62529,"reserved":0,"last_update":"0001-01-01T00:00:00Z","name_a2s":"Uncletopia | S√£o Paulo | 1 | All Maps","protocol":17,"map":"pl_badwater","folder":"tf","game":"Team Fortress","app_id":440,"player_count":0,"max_players":24,"Bots":0,"server_type":"Dedicated","server_os":"Linux","password":true,"vac":true,"version":"7961495","steam_id":85568392924469996,"keywords":["nocrits","nodmgspread","payload","uncletopia"],"game_id":440,"stv_port":27016,"stv_name":"Uncletopia | S√£o Paulo | 1 | All Maps | STV","players":null},{"server_id":143,"name":"Uncletopia | S√£o Paulo | 2 | Community","name_short":"sao-2","host":"sao-2.br.uncletopia.com","port":27015,"enabled":true,"region":"sa","cc":"br","latitude":-23.533773,"longitude":-46.62529,"reserved":0,"last_update":"0001-01-01T00:00:00Z","name_a2s":"Uncletopia | S√£o Paulo | 2 | Community","protocol":17,"map":"workshop/pl_fifthcurve_rc1.ugc648227046","folder":"tf","game":"Team Fortress","app_id":440,"player_count":5,"max_players":24,"Bots":0,"server_type":"Dedicated","server_os":"Linux","password":true,"vac":true,"version":"7961495","steam_id":85568392924485349,"keywords":["nocrits","nodmgspread","payload","uncletopia"],"game_id":440,"stv_port":27016,"stv_name":"Uncletopia | S√£o Paulo | 2 | Community | STV","players":[{"user_id":12,"name":"modulando voc√™","steam_id":76561198435468554,"connected_time":1991000000000,"state":"active","ping":41},{"user_id":18,"name":"Sugar Zombie","steam_id":76561198092164468,"connected_time":807000000000,"state":"active","ping":29},{"user_id":14,"name":"ElderYuko","steam_id":76561199090628256,"connected_time":1912000000000,"state":"active","ping":49},{"user_id":15,"name":"blank","steam_id":76561199262736574,"connected_time":1770000000000,"state":"spawning","ping":144},{"user_id":19,"name":"Posterghost","steam_id":76561199018978383,"connected_time":701000000000,"state":"active","ping":63}]},{"server_id":7,"name":"Uncletopia | Seattle | 1 | All Maps","name_short":"sea-1","host":"sea-1.us.uncletopia.com","port":27015,"enabled":true,"region":"us-west","cc":"us","latitude":47.608013,"longitude":-122.33517,"reserved":0,"last_update":"0001-01-01T00:00:00Z","name_a2s":"Uncletopia | Seattle | 1 | All Maps","protocol":17,"map":"pl_barnblitz","folder":"tf","game":"Team Fortress","app_id":440,"player_count":23,"max_players":24,"Bots":0,"server_type":"Dedicated","server_os":"Linux","password":true,"vac":true,"version":"7961495","steam_id":85568392924469997,"keywords":["nocrits","nodmgspread","payload","uncletopia"],"game_id":440,"stv_port":27016,"stv_name":"Uncletopia | Seattle | 1 | All Maps | STV","players":[{"user_id":560,"name":"Habber The Quesomancer","steam_id":76561198049642751,"connected_time":3343000000000,"state":"active","ping":105},{"user_id":600,"name":"pjrock101","steam_id":76561198070616561,"connected_time":317000000000,"state":"active","ping":53},{"user_id":594,"name":"Soupcan","steam_id":76561198056269538,"connected_time":1087000000000,"state":"active","ping":61},{"user_id":588,"name":"Prowler","steam_id":76561198981106464,"connected_time":1598000000000,"state":"active","ping":76},{"user_id":586,"name":"AIW","steam_id":76561198019539028,"connected_time":1632000000000,"state":"active","ping":160},{"user_id":599,"name":"SanitysEdge","steam_id":76561198130732813,"connected_time":469000000000,"state":"active","ping":61},{"user_id":547,"name":"ORANGE","steam_id":76561198000401769,"connected_time":4056000000000,"state":"active","ping":50},{"user_id":559,"name":"Raian","steam_id":76561199138048671,"connected_time":3403000000000,"state":"active","ping":68},{"user_id":587,"name":"Hazel :3","steam_id":76561199247095754,"connected_time":1629000000000,"state":"active","ping":70},{"user_id":524,"name":"soup","steam_id":76561198043209046,"connected_time":6562000000000,"state":"active","ping":76},{"user_id":582,"name":"MCman","steam_id":76561198412110305,"connected_time":1835000000000,"state":"active","ping":83},{"user_id":589,"name":"Looge","steam_id":76561198155483586,"connected_time":1595000000000,"state":"active","ping":110},{"user_id":579,"name":"Turban Grease","steam_id":76561198072052434,"connected_time":2068000000000,"state":"active","ping":45},{"user_id":601,"name":"exephur","steam_id":76561198135763234,"connected_time":124000000000,"state":"active","ping":62},{"user_id":563,"name":"Perfume Department","steam_id":76561198128299594,"connected_time":3318000000000,"state":"active","ping":76},{"user_id":584,"name":"Ayayayayayayayayayayayayahuasca","steam_id":76561199002906056,"connected_time":1679000000000,"state":"active","ping":47},{"user_id":577,"name":"American freedom bird","steam_id":76561198366142388,"connected_time":2651000000000,"state":"active","ping":86},{"user_id":571,"name":"Drake from State Farm","steam_id":76561199069029812,"connected_time":3036000000000,"state":"active","ping":84},{"user_id":536,"name":"Choom","steam_id":76561197972654816,"connected_time":5437000000000,"state":"active","ping":45},{"user_id":590,"name":"Cosmo","steam_id":76561199085643398,"connected_time":1531000000000,"state":"active","ping":75},{"user_id":548,"name":"Smile","steam_id":76561198110008786,"connected_time":3970000000000,"state":"active","ping":50},{"user_id":552,"name":"BLU3","steam_id":76561198059652670,"connected_time":3569000000000,"state":"active","ping":45},{"user_id":592,"name":"box","steam_id":76561198049531483,"connected_time":1390000000000,"state":"active","ping":126}]},{"server_id":119,"name":"Uncletopia | Seattle | 2 | All Maps","name_short":"sea-2","host":"sea-1.us.uncletopia.com","port":27025,"enabled":true,"region":"us-west","cc":"us","latitude":47.608013,"longitude":-122.33517,"reserved":0,"last_update":"0001-01-01T00:00:00Z","name_a2s":"Uncletopia | Seattle | 2 | All Maps","protocol":17,"map":"pl_upward","folder":"tf","game":"Team Fortress","app_id":440,"player_count":23,"max_players":24,"Bots":0,"server_type":"Dedicated","server_os":"Linux","password":true,"vac":true,"version":"7961495","steam_id":85568392924469998,"keywords":["nocrits","nodmgspread","payload","uncletopia"],"game_id":440,"stv_port":27026,"stv_name":"Uncletopia | Seattle | 2 | All Maps | STV","players":[{"user_id":362,"name":"slowdance","steam_id":76561198097427947,"connected_time":402000000000,"state":"active","ping":143},{"user_id":345,"name":"\u003c blank \u003e","steam_id":76561198097188001,"connected_time":1319000000000,"state":"active","ping":39},{"user_id":363,"name":"Major_Pippy","steam_id":76561198004482878,"connected_time":304000000000,"state":"active","ping":40},{"user_id":323,"name":"zeel107","steam_id":76561198063892990,"connected_time":2315000000000,"state":"active","ping":52},{"user_id":206,"name":"SQbuilder","steam_id":76561198076473375,"connected_time":10903000000000,"state":"active","ping":60},{"user_id":354,"name":"sillybear422","steam_id":76561198843242829,"connected_time":738000000000,"state":"active","ping":79},{"user_id":346,"name":"crazychris522","steam_id":76561198138089277,"connected_time":1248000000000,"state":"active","ping":89},{"user_id":334,"name":"TheDoorMatt655","steam_id":76561198355672296,"connected_time":1919000000000,"state":"active","ping":86},{"user_id":364,"name":"only a spoonful","steam_id":76561198113180616,"connected_time":283000000000,"state":"active","ping":97},{"user_id":367,"name":"DRACO$","steam_id":76561198389198223,"connected_time":124000000000,"state":"active","ping":63},{"user_id":365,"name":"CALsHero09","steam_id":76561198155881095,"connected_time":266000000000,"state":"active","ping":106},{"user_id":358,"name":"FalseAlliance","steam_id":76561198069118506,"connected_time":637000000000,"state":"active","ping":54},{"user_id":368,"name":"K","steam_id":76561198157492580,"connected_time":5000000000,"state":"spawning","ping":103},{"user_id":305,"name":"Greskrendtregk","steam_id":76561197969553142,"connected_time":4130000000000,"state":"active","ping":46},{"user_id":342,"name":"Nova Academy of Salmon Action","steam_id":76561198021842526,"connected_time":1681000000000,"state":"active","ping":65},{"user_id":242,"name":"Banana Man","steam_id":76561199012105803,"connected_time":8965000000000,"state":"active","ping":49},{"user_id":366,"name":"biginitiald","steam_id":76561197989916225,"connected_time":182000000000,"state":"active","ping":89},{"user_id":352,"name":"code jockey","steam_id":76561197986333893,"connected_time":860000000000,"state":"active","ping":46},{"user_id":328,"name":"lliwwill1","steam_id":76561198116603193,"connected_time":2252000000000,"state":"active","ping":127},{"user_id":329,"name":"V_","steam_id":76561198147577835,"connected_time":2250000000000,"state":"active","ping":64},{"user_id":360,"name":"bottom pride burger","steam_id":76561198322247602,"connected_time":585000000000,"state":"active","ping":65},{"user_id":344,"name":"Person Man","steam_id":76561198293857963,"connected_time":1644000000000,"state":"active","ping":97},{"user_id":333,"name":"June","steam_id":76561198141803658,"connected_time":2113000000000,"state":"active","ping":62}]},{"server_id":406,"name":"Uncletopia | Seattle | 3 | Stopwatch","name_short":"sea-3","host":"sea-1.us.uncletopia.com","port":27035,"enabled":true,"region":"us-west","cc":"us","latitude":47.608013,"longitude":-122.33517,"reserved":0,"last_update":"0001-01-01T00:00:00Z","name_a2s":"Uncletopia | Seattle | 3 | Stopwatch","protocol":17,"map":"workshop/pl_vigil_rc10.ugc1266210012","folder":"tf","game":"Team Fortress","app_id":440,"player_count":0,"max_players":24,"Bots":0,"server_type":"Dedicated","server_os":"Linux","password":true,"vac":true,"version":"7961495","steam_id":85568392924515217,"keywords":["nocrits","nodmgspread","payload","uncletopia"],"game_id":440,"stv_port":27036,"stv_name":"Uncletopia | Seattle | 3 | Stopwatch | STV","players":null},{"server_id":17,"name":"Uncletopia | San Francisco | 1 | All Maps","name_short":"sfo-1","host":"sfo-1.us.uncletopia.com","port":27015,"enabled":true,"region":"us-west","cc":"us","latitude":37.77397,"longitude":-122.4313,"reserved":0,"last_update":"0001-01-01T00:00:00Z","name_a2s":"Uncletopia | San Francisco | 1 | All Maps","protocol":17,"map":"cp_process_final","folder":"tf","game":"Team Fortress","app_id":440,"player_count":0,"max_players":24,"Bots":0,"server_type":"Dedicated","server_os":"Linux","password":true,"vac":true,"version":"7961495","steam_id":85568392924469999,"keywords":["cp","nocrits","nodmgspread","uncletopia"],"game_id":440,"stv_port":27016,"stv_name":"Uncletopia | San Francisco | 1 | All Maps | STV","players":null},{"server_id":18,"name":"Uncletopia | San Francisco | 2 | All Maps","name_short":"sfo-2","host":"sfo-1.us.uncletopia.com","port":27025,"enabled":true,"region":"us-west","cc":"us","latitude":37.77397,"longitude":-122.4313,"reserved":0,"last_update":"0001-01-01T00:00:00Z","name_a2s":"Uncletopia | San Francisco | 2 | All Maps","protocol":17,"map":"cp_mountainlab","folder":"tf","game":"Team Fortress","app_id":440,"player_count":0,"max_players":24,"Bots":0,"server_type":"Dedicated","server_os":"Linux","password":true,"vac":true,"version":"7961495","steam_id":85568392924470000,"keywords":["cp","nocrits","nodmgspread","uncletopia"],"game_id":440,"stv_port":27026,"stv_name":"Uncletopia | San Francisco | 2 | All Maps | STV","players":null},{"server_id":19,"name":"Uncletopia | San Francisco | 3 | Stopwatch","name_short":"sfo-3","host":"sfo-1.us.uncletopia.com","port":27035,"enabled":true,"region":"us-west","cc":"us","latitude":37.77397,"longitude":-122.4313,"reserved":0,"last_update":"0001-01-01T00:00:00Z","name_a2s":"Uncletopia | San Francisco | 3 | Stopwatch","protocol":17,"map":"workshop/koth_clearcut_b15.ugc2107050255","folder":"tf","game":"Team Fortress","app_id":440,"player_count":0,"max_players":24,"Bots":0,"server_type":"Dedicated","server_os":"Linux","password":true,"vac":true,"version":"7961495","steam_id":85568392924742824,"keywords":["cp","nocrits","nodmgspread","uncletopia"],"game_id":440,"stv_port":27036,"stv_name":"Uncletopia | San Francisco | 3 | Stopwatch | STV","players":null},{"server_id":20,"name":"Uncletopia | San Francisco | 4 | Community","name_short":"sfo-4","host":"sfo-1.us.uncletopia.com","port":27045,"enabled":true,"region":"us-west","cc":"us","latitude":37.77397,"longitude":-122.4313,"reserved":0,"last_update":"0001-01-01T00:00:00Z","name_a2s":"Uncletopia | San Francisco | 4 | Community","protocol":17,"map":"workshop/koth_bagel_rc6.ugc2514036946","folder":"tf","game":"Team Fortress","app_id":440,"player_count":0,"max_players":24,"Bots":0,"server_type":"Dedicated","server_os":"Linux","password":true,"vac":true,"version":"7961495","steam_id":85568392924742826,"keywords":["cp","nocrits","nodmgspread","uncletopia"],"game_id":440,"stv_port":27046,"stv_name":"Uncletopia | San Francisco | 4 | Community | STV","players":null},{"server_id":141,"name":"Uncletopia | Sydney | 1 | All Maps","name_short":"syd-1","host":"syd-1.au.uncletopia.com","port":27015,"enabled":true,"region":"au","cc":"au","latitude":-33.865143,"longitude":151.2099,"reserved":0,"last_update":"0001-01-01T00:00:00Z","name_a2s":"Uncletopia | Sydney | 1 | All Maps","protocol":17,"map":"pl_badwater","folder":"tf","game":"Team Fortress","app_id":440,"player_count":13,"max_players":24,"Bots":0,"server_type":"Dedicated","server_os":"Linux","password":true,"vac":true,"version":"7961495","steam_id":85568392924470001,"keywords":["nocrits","nodmgspread","payload","uncletopia"],"game_id":440,"stv_port":27016,"stv_name":"Uncletopia | Sydney | 1 | All Maps | STV","players":[{"user_id":22,"name":"papa","steam_id":76561198163034070,"connected_time":820000000000,"state":"active","ping":48},{"user_id":17,"name":"A writhing mass of bees","steam_id":76561198317860338,"connected_time":1326000000000,"state":"active","ping":47},{"user_id":35,"name":"Donovan","steam_id":76561199052329168,"connected_time":226000000000,"state":"active","ping":60},{"user_id":28,"name":"Grumbo","steam_id":76561198169116395,"connected_time":501000000000,"state":"active","ping":160},{"user_id":29,"name":"CheezyPeeny","steam_id":76561198131989405,"connected_time":459000000000,"state":"active","ping":39},{"user_id":25,"name":"MAYHEM","steam_id":76561199323730865,"connected_time":771000000000,"state":"active","ping":42},{"user_id":27,"name":"electro599","steam_id":76561198058148858,"connected_time":672000000000,"state":"active","ping":56},{"user_id":30,"name":"pigeonboy","steam_id":76561199042716216,"connected_time":409000000000,"state":"active","ping":50},{"user_id":31,"name":"Fairy Wish Prince","steam_id":76561197993406263,"connected_time":404000000000,"state":"active","ping":58},{"user_id":32,"name":"nice lad","steam_id":76561198055333637,"connected_time":393000000000,"state":"active","ping":41},{"user_id":33,"name":"noXy","steam_id":76561198032671657,"connected_time":351000000000,"state":"active","ping":54},{"user_id":34,"name":"Emu","steam_id":76561198022044694,"connected_time":348000000000,"state":"active","ping":63},{"user_id":36,"name":"yeetingbaby","steam_id":76561199011454860,"connected_time":162000000000,"state":"active","ping":47}]},{"server_id":123,"name":"Uncletopia | Sydney | 2 | All Maps","name_short":"syd-2","host":"syd-1.au.uncletopia.com","port":27025,"enabled":true,"region":"au","cc":"au","latitude":-33.865143,"longitude":151.2099,"reserved":0,"last_update":"0001-01-01T00:00:00Z","name_a2s":"Uncletopia | Sydney | 2 | All Maps","protocol":17,"map":"koth_viaduct","folder":"tf","game":"Team Fortress","app_id":440,"player_count":0,"max_players":24,"Bots":0,"server_type":"Dedicated","server_os":"Linux","password":true,"vac":true,"version":"7961495","steam_id":85568392924470002,"keywords":["cp","nocrits","nodmgspread","uncletopia"],"game_id":440,"stv_port":27026,"stv_name":"Uncletopia | Sydney | 2 | All Maps | STV","players":null},{"server_id":395,"name":"Uncletopia | Sydney | 3 | All Maps","name_short":"syd-3","host":"syd-1.au.uncletopia.com","port":27035,"enabled":true,"region":"au","cc":"au","latitude":-33.865143,"longitude":151.2099,"reserved":0,"last_update":"0001-01-01T00:00:00Z","name_a2s":"Uncletopia | Sydney | 3 | All Maps","protocol":17,"map":"koth_brazil","folder":"tf","game":"Team Fortress","app_id":440,"player_count":0,"max_players":24,"Bots":0,"server_type":"Dedicated","server_os":"Linux","password":true,"vac":true,"version":"7961495","steam_id":85568392925194467,"keywords":["cp","nocrits","nodmgspread","uncletopia"],"game_id":440,"stv_port":27036,"stv_name":"Uncletopia | Sydney | 3 | All Maps | STV","players":null},{"server_id":396,"name":"Uncletopia | Sydney | 4 | All Maps","name_short":"syd-4","host":"syd-1.au.uncletopia.com","port":27045,"enabled":true,"region":"au","cc":"au","latitude":-33.865143,"longitude":151.2099,"reserved":0,"last_update":"0001-01-01T00:00:00Z","name_a2s":"Uncletopia | Sydney | 4 | All Maps","protocol":17,"map":"pl_frontier_final","folder":"tf","game":"Team Fortress","app_id":440,"player_count":3,"max_players":24,"Bots":0,"server_type":"Dedicated","server_os":"Linux","password":true,"vac":true,"version":"7961495","steam_id":85568392925397958,"keywords":["nocrits","nodmgspread","payload","uncletopia"],"game_id":440,"stv_port":27046,"stv_name":"Uncletopia | Sydney | 4 | All Maps | STV","players":[{"user_id":14,"name":"austraila gaming","steam_id":76561199221851578,"connected_time":57000000000,"state":"active","ping":45},{"user_id":13,"name":"{holy-miss}","steam_id":76561199444995996,"connected_time":263000000000,"state":"active","ping":59},{"user_id":5,"name":"Cool Wizard","steam_id":76561199161637215,"connected_time":1121000000000,"state":"active","ping":82}]},{"server_id":58,"name":"Uncletopia | Sydney | 5 | Stopwatch","name_short":"syd-5","host":"syd-1.au.uncletopia.com","port":27055,"enabled":true,"region":"au","cc":"au","latitude":-33.865143,"longitude":151.2099,"reserved":0,"last_update":"0001-01-01T00:00:00Z","name_a2s":"Uncletopia | Sydney | 5 | Stopwatch","protocol":17,"map":"koth_highpass","folder":"tf","game":"Team Fortress","app_id":440,"player_count":0,"max_players":24,"Bots":0,"server_type":"Dedicated","server_os":"Linux","password":true,"vac":true,"version":"7961495","steam_id":85568392925397959,"keywords":["cp","nocrits","nodmgspread","uncletopia"],"game_id":440,"stv_port":27056,"stv_name":"Uncletopia | Sydney | 5 | Stopwatch | STV","players":null},{"server_id":59,"name":"Uncletopia | Sydney | 6 | Community","name_short":"syd-6","host":"syd-1.au.uncletopia.com","port":27065,"enabled":true,"region":"au","cc":"au","latitude":-33.865143,"longitude":151.2099,"reserved":0,"last_update":"0001-01-01T00:00:00Z","name_a2s":"Uncletopia | Sydney | 6 | Community","protocol":17,"map":"workshop/koth_soot_final1.ugc2969540689","folder":"tf","game":"Team Fortress","app_id":440,"player_count":0,"max_players":24,"Bots":0,"server_type":"Dedicated","server_os":"Linux","password":true,"vac":true,"version":"7961495","steam_id":85568392925397960,"keywords":["cp","nocrits","nodmgspread","uncletopia"],"game_id":440,"stv_port":27066,"stv_name":"Uncletopia | Sydney | 6 | Community | STV","players":null},{"server_id":49,"name":"Uncletopia | Warsaw | 1 | One Thousand Uncles","name_short":"waw-1","host":"waw-1.pl.uncletopia.com","port":27015,"enabled":true,"region":"eu","cc":"pl","latitude":52.2297,"longitude":21.017532,"reserved":0,"last_update":"0001-01-01T00:00:00Z","name_a2s":"Uncletopia | Warsaw | 1 | One Thousand Uncles","protocol":17,"map":"pl_badwater","folder":"tf","game":"Team Fortress","app_id":440,"player_count":0,"max_players":32,"Bots":0,"server_type":"Dedicated","server_os":"Linux","password":true,"vac":true,"version":"7961495","steam_id":85568392925397850,"keywords":["alltalk","danepve","increased_maxplayers","norespawntime","payload","uncletopia"],"game_id":440,"stv_port":0,"stv_name":"","players":null},{"server_id":50,"name":"Uncletopia | Warsaw | 2 | One Thousand Uncles","name_short":"waw-2","host":"waw-1.pl.uncletopia.com","port":27025,"enabled":true,"region":"eu","cc":"pl","latitude":52.2297,"longitude":21.017532,"reserved":0,"last_update":"0001-01-01T00:00:00Z","name_a2s":"Uncletopia | Warsaw | 2 | One Thousand Uncles","protocol":17,"map":"pl_thundermountain","folder":"tf","game":"Team Fortress","app_id":440,"player_count":0,"max_players":32,"Bots":0,"server_type":"Dedicated","server_os":"Linux","password":true,"vac":true,"version":"7961495","steam_id":85568392925397851,"keywords":["alltalk","danepve","increased_maxplayers","norespawntime","payload","uncletopia"],"game_id":440,"stv_port":0,"stv_name":"","players":null},{"server_id":51,"name":"Uncletopia | Warsaw | 3 | All Maps","name_short":"waw-3","host":"waw-1.pl.uncletopia.com","port":27035,"enabled":true,"region":"eu","cc":"pl","latitude":52.2297,"longitude":21.017532,"reserved":0,"last_update":"0001-01-01T00:00:00Z","name_a2s":"Uncletopia | Warsaw | 3 | All Maps","protocol":17,"map":"koth_highpass","folder":"tf","game":"Team Fortress","app_id":440,"player_count":0,"max_players":24,"Bots":0,"server_type":"Dedicated","server_os":"Linux","password":true,"vac":true,"version":"7961495","steam_id":85568392925397852,"keywords":["cp","nocrits","nodmgspread","uncletopia"],"game_id":440,"stv_port":27036,"stv_name":"Uncletopia | Warsaw | 3 | All Maps | STV","players":null},{"server_id":52,"name":"Uncletopia | Warsaw | 4 | All Maps","name_short":"waw-4","host":"waw-1.pl.uncletopia.com","port":27045,"enabled":true,"region":"eu","cc":"pl","latitude":52.2297,"longitude":21.017532,"reserved":0,"last_update":"0001-01-01T00:00:00Z","name_a2s":"Uncletopia | Warsaw | 4 | All Maps","protocol":17,"map":"koth_highpass","folder":"tf","game":"Team Fortress","app_id":440,"player_count":0,"max_players":24,"Bots":0,"server_type":"Dedicated","server_os":"Linux","password":true,"vac":true,"version":"7961495","steam_id":85568392925397853,"keywords":["cp","nocrits","nodmgspread","uncletopia"],"game_id":440,"stv_port":27046,"stv_name":"Uncletopia | Warsaw | 4 | All Maps | STV","players":null},{"server_id":53,"name":"Uncletopia | Warsaw | 5 | Stopwatch","name_short":"waw-5","host":"waw-1.pl.uncletopia.com","port":27055,"enabled":true,"region":"eu","cc":"pl","latitude":52.2297,"longitude":21.017532,"reserved":0,"last_update":"0001-01-01T00:00:00Z","name_a2s":"Uncletopia | Warsaw | 5 | Stopwatch","protocol":17,"map":"koth_lakeside_final","folder":"tf","game":"Team Fortress","app_id":440,"player_count":0,"max_players":24,"Bots":0,"server_type":"Dedicated","server_os":"Linux","password":true,"vac":true,"version":"7961495","steam_id":85568392925397854,"keywords":["cp","nocrits","nodmgspread","uncletopia"],"game_id":440,"stv_port":27056,"stv_name":"Uncletopia | Warsaw | 5 | Stopwatch | STV","players":null},{"server_id":54,"name":"Uncletopia | Warsaw | 6 | Community","name_short":"waw-6","host":"waw-1.pl.uncletopia.com","port":27065,"enabled":true,"region":"eu","cc":"pl","latitude":52.2297,"longitude":21.017532,"reserved":0,"last_update":"0001-01-01T00:00:00Z","name_a2s":"Uncletopia | Warsaw | 6 | Community","protocol":17,"map":"workshop/koth_product_final.ugc454272353","folder":"tf","game":"Team Fortress","app_id":440,"player_count":0,"max_players":24,"Bots":0,"server_type":"Dedicated","server_os":"Linux","password":true,"vac":true,"version":"7961495","steam_id":85568392925397856,"keywords":["cp","nocrits","nodmgspread","uncletopia"],"game_id":440,"stv_port":27066,"stv_name":"Uncletopia | Warsaw | 6 | Community | STV","players":null}]}