{"status":true,"message":"","result":[{"server_id":9,"name":"Uncletopia | Atlanta | 1 | All Maps","name_short":"atl-1","host":"atl-1.us.uncletopia.com","port":27015,"enabled":true,"region":"us-east","cc":"us","latitude":33.753746,"longitude":-84.38633,"reserved":0,"last_update":"0001-01-01T00:00:00Z","name_a2s":"Uncletopia | Atlanta | 1 | All Maps","protocol":17,"map":"pl_upward","folder":"tf","game":"Team Fortress","app_id":440,"player_count":24,"max_players":24,"Bots":0,"server_type":"Dedicated","server_os":"Linux","password":true,"vac":true,"version":"7757534","steam_id":85568392924469982,"keywords":["nocrits","nodmgspread","payload","uncletopia"],"game_id":440,"stv_port":27016,"stv_name":"Uncletopia | Atlanta | 1 | All Maps | STV","players":[{"user_id":724,"name":"BigDMoney","steam_id":76561198034159624,"connected_time":53000000000,"state":"active","ping":67},{"user_id":707,"name":"Picked Wiss","steam_id":76561198057745131,"connected_time":736000000000,"state":"active","ping":32},{"user_id":687,"name":"WhoIsFrosty","steam_id":76561198880588117,"connected_time":4278000000000,"state":"active","ping":74},{"user_id":702,"name":"IZISOO","steam_id":76561198970380577,"connected_time":1116000000000,"state":"active","ping":94},{"user_id":721,"name":"Toonice","steam_id":76561198402994885,"connected_time":368000000000,"state":"active","ping":95},{"user_id":704,"name":"Mr_Main22","steam_id":76561198002916363,"connected_time":1052000000000,"state":"active","ping":76},{"user_id":674,"name":"Cool Shark Facts","steam_id":76561198402801140,"connected_time":5328000000000,"state":"active","ping":87},{"user_id":693,"name":"goober","steam_id":76561198943598378,"connected_time":1883000000000,"state":"active","ping":42},{"user_id":717,"name":"kametro4","steam_id":76561198835430429,"connected_time":561000000000,"state":"active","ping":105},{"user_id":712,"name":"Godfinger","steam_id":76561198426346549,"connected_time":637000000000,"state":"active","ping":45},{"user_id":723,"name":"Do Moose go Moo?","steam_id":76561198073550620,"connected_time":245000000000,"state":"active","ping":59},{"user_id":685,"name":"BreadReceiver","steam_id":76561198862555841,"connected_time":4487000000000,"state":"active","ping":64},{"user_id":722,"name":"Frontier Psychiatrist","steam_id":76561198038689088,"connected_time":303000000000,"state":"active","ping":94},{"user_id":699,"name":"shady lurker","steam_id":76561197983585579,"connected_time":1745000000000,"state":"active","ping":57},{"user_id":666,"name":"Jin","steam_id":76561198119873148,"connected_time":6221000000000,"state":"active","ping":75},{"user_id":710,"name":"vesuvianrex","steam_id":76561198840311684,"connected_time":710000000000,"state":"active","ping":111},{"user_id":651,"name":"Bottom Trans Cowgirl","steam_id":76561198304239680,"connected_time":7770000000000,"state":"active","ping":79},{"user_id":657,"name":"Marshy","steam_id":76561198421784454,"connected_time":7579000000000,"state":"active","ping":114},{"user_id":713,"name":"Boop","steam_id":76561198376703875,"connected_time":617000000000,"state":"active","ping":53},{"user_id":716,"name":"Xydran","steam_id":76561198042397402,"connected_time":574000000000,"state":"active","ping":172},{"user_id":676,"name":"shaderoses","steam_id":76561198070800500,"connected_time":5278000000000,"state":"active","ping":67},{"user_id":718,"name":"SquirrelAway‚Ñ¢","steam_id":76561197998828619,"connected_time":541000000000,"state":"active","ping":89},{"user_id":719,"name":"tempu","steam_id":76561198155486118,"connected_time":524000000000,"state":"active","ping":67},{"user_id":720,"name":"Rat Bastard","steam_id":76561198153443658,"connected_time":473000000000,"state":"active","ping":78}]},{"server_id":400,"name":"Uncletopia | Atlanta | 3 | Community","name_short":"atl-3","host":"atl-1.us.uncletopia.com","port":27035,"enabled":true,"region":"us-east","cc":"us","latitude":33.753746,"longitude":-84.38633,"reserved":0,"last_update":"0001-01-01T00:00:00Z","name_a2s":"Uncletopia | Atlanta | 3 | Community","protocol":17,"map":"workshop/cp_glacier_rc6.ugc2905735376","folder":"tf","game":"Team Fortress","app_id":440,"player_count":0,"max_players":32,"Bots":0,"server_type":"Dedicated","server_os":"Linux","password":true,"vac":true,"version":"7757534","steam_id":85568392924515187,"keywords":["cp","increased_maxplayers","nocrits","nodmgspread","uncletopia"],"game_id":440,"stv_port":27036,"stv_name":"Uncletopia | Atlanta | 3 | Community | STV","players":null},{"server_id":401,"name":"Uncletopia | Atlanta | 4 | No Payload","name_short":"atl-4","host":"atl-1.us.uncletopia.com","port":27045,"enabled":true,"region":"us-east","cc":"us","latitude":33.753746,"longitude":-84.38633,"reserved":0,"last_update":"0001-01-01T00:00:00Z","name_a2s":"","protocol":0,"map":"","folder":"","game":"","app_id":0,"player_count":0,"max_players":0,"Bots":0,"server_type":"","server_os":"","password":false,"vac":false,"version":"","steam_id":0,"keywords":null,"game_id":0,"stv_port":0,"stv_name":"","players":null},{"server_id":2,"name":"Uncletopia | Chicago | 1 | All Maps","name_short":"chi-1","host":"chi-1.us.uncletopia.com","port":27015,"enabled":true,"region":"us-central","cc":"us","latitude":41.881832,"longitude":-87.62318,"reserved":0,"last_update":"0001-01-01T00:00:00Z","name_a2s":"Uncletopia | Chicago | 1 | All Maps","protocol":17,"map":"cp_snakewater_final1","folder":"tf","game":"Team Fortress","app_id":440,"player_count":24,"max_players":24,"Bots":0,"server_type":"Dedicated","server_os":"Linux","password":true,"vac":true,"version":"7757534","steam_id":85568392924469984,"keywords":["cp","nocrits","nodmgspread","uncletopia"],"game_id":440,"stv_port":27016,"stv_name":"Uncletopia | Chicago | 1 | All Maps | STV","players":[{"user_id":663,"name":"chloe","steam_id":76561198369849908,"connected_time":6169000000000,"state":"active","ping":109},{"user_id":738,"name":"llackei","steam_id":76561198156574502,"connected_time":477000000000,"state":"active","ping":89},{"user_id":718,"name":"Obi Wan Kenobi","steam_id":76561198129866171,"connected_time":1881000000000,"state":"active","ping":77},{"user_id":719,"name":"Morgster","steam_id":76561198131697761,"connected_time":1879000000000,"state":"active","ping":72},{"user_id":729,"name":"exer","steam_id":76561197973093864,"connected_time":1607000000000,"state":"active","ping":66},{"user_id":714,"name":"DoxPlaysGames","steam_id":76561198240339332,"connected_time":2604000000000,"state":"active","ping":83},{"user_id":673,"name":"zero .","steam_id":76561198880290310,"connected_time":5523000000000,"state":"active","ping":81},{"user_id":743,"name":"shit stain shitolo","steam_id":76561198342471256,"connected_time":43000000000,"state":"active","ping":76},{"user_id":722,"name":"wiiblob","steam_id":76561198109106242,"connected_time":1874000000000,"state":"active","ping":138},{"user_id":728,"name":"engie","steam_id":76561199229629045,"connected_time":1669000000000,"state":"active","ping":110},{"user_id":742,"name":"Riske","steam_id":76561198115840568,"connected_time":231000000000,"state":"active","ping":71},{"user_id":677,"name":"Ghaeril","steam_id":76561198047880019,"connected_time":5459000000000,"state":"active","ping":85},{"user_id":730,"name":"Spike","steam_id":76561198141356571,"connected_time":1589000000000,"state":"active","ping":56},{"user_id":737,"name":"gromit","steam_id":76561198037746805,"connected_time":505000000000,"state":"active","ping":71},{"user_id":721,"name":"=UWU=","steam_id":76561198033075245,"connected_time":1878000000000,"state":"active","ping":77},{"user_id":727,"name":"NUt","steam_id":76561198031007966,"connected_time":1703000000000,"state":"active","ping":74},{"user_id":688,"name":"Sol Goodman","steam_id":76561198289164442,"connected_time":4450000000000,"state":"active","ping":73},{"user_id":713,"name":"noah","steam_id":76561198173310157,"connected_time":2695000000000,"state":"active","ping":51},{"user_id":741,"name":"Piyono","steam_id":76561197962188504,"connected_time":389000000000,"state":"active","ping":70},{"user_id":694,"name":"Capt.Swag","steam_id":76561198088340994,"connected_time":4063000000000,"state":"active","ping":76},{"user_id":723,"name":"Franz","steam_id":76561198183662078,"connected_time":1871000000000,"state":"active","ping":76},{"user_id":671,"name":"tree","steam_id":76561198116885731,"connected_time":5921000000000,"state":"active","ping":45},{"user_id":733,"name":"Maxxycat","steam_id":76561198194062681,"connected_time":1291000000000,"state":"active","ping":62},{"user_id":595,"name":"the lesbianist pyroshark","steam_id":76561198374227766,"connected_time":13007000000000,"state":"active","ping":72}]},{"server_id":106,"name":"Uncletopia | Chicago | 2 | All Maps","name_short":"chi-2","host":"chi-1.us.uncletopia.com","port":27025,"enabled":true,"region":"us-central","cc":"us","latitude":41.881832,"longitude":-87.62318,"reserved":0,"last_update":"0001-01-01T00:00:00Z","name_a2s":"Uncletopia | Chicago | 2 | All Maps","protocol":17,"map":"pl_borneo","folder":"tf","game":"Team Fortress","app_id":440,"player_count":24,"max_players":24,"Bots":0,"server_type":"Dedicated","server_os":"Linux","password":true,"vac":true,"version":"7757534","steam_id":85568392924469985,"keywords":["nocrits","nodmgspread","payload","uncletopia"],"game_id":440,"stv_port":27026,"stv_name":"Uncletopia | Chicago | 2 | All Maps | STV","players":[{"user_id":247,"name":"Mokaaaa","steam_id":76561198043659301,"connected_time":2395000000000,"state":"active","ping":57},{"user_id":246,"name":"greg","steam_id":76561198113531917,"connected_time":2404000000000,"state":"active","ping":31},{"user_id":254,"name":"pencils arent real","steam_id":76561198049963738,"connected_time":1405000000000,"state":"active","ping":145},{"user_id":262,"name":"Passes the Bungus","steam_id":76561198040647717,"connected_time":349000000000,"state":"active","ping":84},{"user_id":260,"name":"The Super Mario Bros. Movie","steam_id":76561198871692156,"connected_time":1144000000000,"state":"active","ping":105},{"user_id":265,"name":"OrphanObliterator","steam_id":76561199185087795,"connected_time":262000000000,"state":"active","ping":121},{"user_id":263,"name":"M@verick","steam_id":76561198006363519,"connected_time":284000000000,"state":"active","ping":75},{"user_id":234,"name":"Horrizan","steam_id":76561197965028480,"connected_time":3505000000000,"state":"active","ping":89},{"user_id":248,"name":"big ol' buford","steam_id":76561198290675957,"connected_time":2378000000000,"state":"active","ping":64},{"user_id":245,"name":"Marlboro Man","steam_id":76561198117279677,"connected_time":2410000000000,"state":"active","ping":88},{"user_id":256,"name":"WannaSeeA","steam_id":76561198097701042,"connected_time":1328000000000,"state":"active","ping":71},{"user_id":188,"name":"McGangBang","steam_id":76561198862379865,"connected_time":7025000000000,"state":"active","ping":53},{"user_id":249,"name":"PLATYPUS","steam_id":76561198255796625,"connected_time":1886000000000,"state":"active","ping":122},{"user_id":230,"name":"Baka!‚ë®‚ë®‚ë®‚ë®","steam_id":76561198152948254,"connected_time":3599000000000,"state":"active","ping":107},{"user_id":208,"name":"The Drunk Clown","steam_id":76561197986850426,"connected_time":4956000000000,"state":"active","ping":71},{"user_id":242,"name":"xX_HimboSwallower_Xx","steam_id":76561198016029965,"connected_time":2565000000000,"state":"active","ping":72},{"user_id":255,"name":"DannyGamerXD","steam_id":76561198799224408,"connected_time":1358000000000,"state":"active","ping":64},{"user_id":251,"name":"randomusername","steam_id":76561199078214700,"connected_time":1654000000000,"state":"active","ping":65},{"user_id":259,"name":"B)","steam_id":76561198093921290,"connected_time":1196000000000,"state":"active","ping":50},{"user_id":264,"name":"kite man","steam_id":76561198156336213,"connected_time":273000000000,"state":"active","ping":76},{"user_id":267,"name":"Sanic_Bum","steam_id":76561198094179822,"connected_time":120000000000,"state":"active","ping":56},{"user_id":186,"name":"Albino Jellyfish","steam_id":76561198208561097,"connected_time":7065000000000,"state":"active","ping":75},{"user_id":258,"name":"Sarbanes-Oxley","steam_id":76561197975898479,"connected_time":1287000000000,"state":"active","ping":75},{"user_id":211,"name":"TheCheeseWizard","steam_id":76561198058931315,"connected_time":4935000000000,"state":"active","ping":58}]},{"server_id":402,"name":"Uncletopia | Chicago | 3 | All Maps","name_short":"chi-3","host":"chi-1.us.uncletopia.com","port":27035,"enabled":true,"region":"us-central","cc":"us","latitude":41.881832,"longitude":-87.62318,"reserved":0,"last_update":"0001-01-01T00:00:00Z","name_a2s":"Uncletopia | Chicago | 3 | All Maps","protocol":17,"map":"pl_badwater","folder":"tf","game":"Team Fortress","app_id":440,"player_count":21,"max_players":24,"Bots":0,"server_type":"Dedicated","server_os":"Linux","password":true,"vac":true,"version":"7757534","steam_id":85568392924515191,"keywords":["nocrits","nodmgspread","payload","uncletopia"],"game_id":440,"stv_port":27036,"stv_name":"Uncletopia | Chicago | 3 | All Maps | STV","players":[{"user_id":440,"name":"Yam Jazzy Jim","steam_id":76561198000788950,"connected_time":667000000000,"state":"active","ping":65},{"user_id":406,"name":"germba","steam_id":76561198421591995,"connected_time":2827000000000,"state":"active","ping":68},{"user_id":381,"name":"Speedy","steam_id":76561198080761661,"connected_time":3739000000000,"state":"active","ping":76},{"user_id":448,"name":"LJ PRODUCTIONS","steam_id":76561198061697475,"connected_time":80000000000,"state":"active","ping":67},{"user_id":403,"name":"Priest Of Slack","steam_id":76561198060007148,"connected_time":3044000000000,"state":"active","ping":84},{"user_id":441,"name":"FUSION","steam_id":76561197972659738,"connected_time":663000000000,"state":"active","ping":59},{"user_id":360,"name":"Universal Knowledge Allah","steam_id":76561198855935442,"connected_time":5162000000000,"state":"active","ping":69},{"user_id":449,"name":"Dripless The Poor","steam_id":76561198090546454,"connected_time":15000000000,"state":"active","ping":48},{"user_id":438,"name":"Greeble","steam_id":76561198000283892,"connected_time":947000000000,"state":"active","ping":101},{"user_id":430,"name":"TOILET WATER","steam_id":76561198053621664,"connected_time":1612000000000,"state":"active","ping":45},{"user_id":407,"name":"Whorse","steam_id":76561198114141445,"connected_time":2824000000000,"state":"active","ping":76},{"user_id":442,"name":"psyk0smurf","steam_id":76561199077856919,"connected_time":642000000000,"state":"active","ping":63},{"user_id":436,"name":"RED1 | Lylith!!!","steam_id":76561198386687546,"connected_time":969000000000,"state":"active","ping":64},{"user_id":427,"name":"Dog Deodorant","steam_id":76561199225832228,"connected_time":1702000000000,"state":"active","ping":89},{"user_id":435,"name":"RED1 | Le4n!!!","steam_id":76561198045522596,"connected_time":1073000000000,"state":"active","ping":83},{"user_id":447,"name":"FatCuddlyBear","steam_id":76561198133613253,"connected_time":425000000000,"state":"active","ping":78},{"user_id":415,"name":"Lord Skeletor","steam_id":76561198120236057,"connected_time":2535000000000,"state":"active","ping":100},{"user_id":416,"name":"crayonnipple","steam_id":76561198070253331,"connected_time":2505000000000,"state":"active","ping":70},{"user_id":417,"name":"dmdr1969","steam_id":76561198080469611,"connected_time":2505000000000,"state":"active","ping":70},{"user_id":428,"name":"{FITH}‚Ñ¢ Halcyon","steam_id":76561198049132808,"connected_time":1696000000000,"state":"active","ping":81},{"user_id":444,"name":"Donnie Blasto","steam_id":76561198043432005,"connected_time":633000000000,"state":"active","ping":57}]},{"server_id":403,"name":"Uncletopia | Chicago | 4 | All Maps","name_short":"chi-4","host":"chi-1.us.uncletopia.com","port":27045,"enabled":true,"region":"us-central","cc":"us","latitude":41.881832,"longitude":-87.62318,"reserved":0,"last_update":"0001-01-01T00:00:00Z","name_a2s":"Uncletopia | Chicago | 4 | All Maps","protocol":17,"map":"pl_borneo","folder":"tf","game":"Team Fortress","app_id":440,"player_count":24,"max_players":24,"Bots":0,"server_type":"Dedicated","server_os":"Linux","password":true,"vac":true,"version":"7757534","steam_id":85568392924515193,"keywords":["nocrits","nodmgspread","payload","uncletopia"],"game_id":440,"stv_port":27046,"stv_name":"Uncletopia | Chicago | 4 | All Maps | STV","players":[{"user_id":312,"name":"OneFestiveCorvid","steam_id":76561199012953221,"connected_time":887000000000,"state":"active","ping":95},{"user_id":318,"name":"schizo","steam_id":76561198351895498,"connected_time":373000000000,"state":"active","ping":57},{"user_id":321,"name":"Darghul the Skeleton Lord","steam_id":76561198004140161,"connected_time":277000000000,"state":"active","ping":39},{"user_id":283,"name":"Robogineer","steam_id":76561198026994739,"connected_time":1882000000000,"state":"active","ping":90},{"user_id":281,"name":"Sierra Foxtrot","steam_id":76561197996667382,"connected_time":1890000000000,"state":"active","ping":45},{"user_id":282,"name":"bbbbbunny","steam_id":76561198098836810,"connected_time":1885000000000,"state":"active","ping":58},{"user_id":284,"name":"PossumInASock","steam_id":76561198057138795,"connected_time":1878000000000,"state":"active","ping":151},{"user_id":287,"name":"ferby","steam_id":76561198028229594,"connected_time":1677000000000,"state":"active","ping":94},{"user_id":314,"name":"kei","steam_id":76561199152582834,"connected_time":857000000000,"state":"active","ping":66},{"user_id":289,"name":"Hindmost","steam_id":76561199081837220,"connected_time":1520000000000,"state":"active","ping":82},{"user_id":305,"name":"Keeby Moment","steam_id":76561198172792271,"connected_time":1146000000000,"state":"active","ping":90},{"user_id":317,"name":"Moonadoo","steam_id":76561198133377546,"connected_time":489000000000,"state":"active","ping":66},{"user_id":301,"name":"heimdall","steam_id":76561198069380992,"connected_time":1224000000000,"state":"active","ping":84},{"user_id":319,"name":"Papaya Dog","steam_id":76561198109634877,"connected_time":367000000000,"state":"active","ping":134},{"user_id":320,"name":"Thexx ‚ù§","steam_id":76561198113823050,"connected_time":337000000000,"state":"active","ping":102},{"user_id":315,"name":"N√©oGothiqueüïØ","steam_id":76561198003467269,"connected_time":850000000000,"state":"active","ping":74},{"user_id":322,"name":"FitzyBear","steam_id":76561198409189585,"connected_time":261000000000,"state":"active","ping":84},{"user_id":323,"name":"JUST DRINK WATER ITS BETTER","steam_id":76561198188800457,"connected_time":253000000000,"state":"active","ping":77},{"user_id":324,"name":"invb","steam_id":76561197998263914,"connected_time":252000000000,"state":"active","ping":53},{"user_id":326,"name":"klevin","steam_id":76561198799106535,"connected_time":168000000000,"state":"active","ping":100},{"user_id":303,"name":"|Inspector|","steam_id":76561198283518525,"connected_time":1215000000000,"state":"active","ping":160},{"user_id":307,"name":"King Kinyon","steam_id":76561198080525234,"connected_time":1065000000000,"state":"active","ping":82},{"user_id":308,"name":"Moral Grayzone","steam_id":76561198140208676,"connected_time":1043000000000,"state":"active","ping":100},{"user_id":309,"name":"Casuallypotato","steam_id":76561198856172266,"connected_time":1025000000000,"state":"active","ping":85}]},{"server_id":36,"name":"Uncletopia | Chicago | 5 | All Maps","name_short":"chi-5","host":"chi-2.us.uncletopia.com","port":27015,"enabled":true,"region":"us-central","cc":"us","latitude":41.881832,"longitude":-87.62318,"reserved":0,"last_update":"0001-01-01T00:00:00Z","name_a2s":"Uncletopia | Chicago | 5 | All Maps","protocol":17,"map":"pl_frontier_final","folder":"tf","game":"Team Fortress","app_id":440,"player_count":23,"max_players":24,"Bots":0,"server_type":"Dedicated","server_os":"Linux","password":true,"vac":true,"version":"7757534","steam_id":85568392924866362,"keywords":["nocrits","nodmgspread","payload","uncletopia"],"game_id":440,"stv_port":27016,"stv_name":"Uncletopia | Chicago | 5 | All Maps | STV","players":[{"user_id":868,"name":"Kibble","steam_id":76561198109028172,"connected_time":2916000000000,"state":"active","ping":59},{"user_id":904,"name":"SableIvory","steam_id":76561198044660300,"connected_time":27000000000,"state":"active","ping":107},{"user_id":905,"name":"anipe10","steam_id":76561199084698417,"connected_time":16000000000,"state":"spawning","ping":103},{"user_id":906,"name":"Candy Sparkles","steam_id":76561198126871264,"connected_time":2000000000,"state":"spawning","ping":71},{"user_id":830,"name":"rohnkerman","steam_id":76561198108360082,"connected_time":5171000000000,"state":"active","ping":67},{"user_id":829,"name":"ventus51701","steam_id":76561198207372741,"connected_time":5177000000000,"state":"active","ping":66},{"user_id":831,"name":"SleepyLife","steam_id":76561198118247771,"connected_time":5167000000000,"state":"active","ping":74},{"user_id":787,"name":"Zicky Nee","steam_id":76561198042601111,"connected_time":7543000000000,"state":"active","ping":85},{"user_id":895,"name":"Binky Den","steam_id":76561198164035863,"connected_time":998000000000,"state":"active","ping":57},{"user_id":896,"name":"Cosmic Torgue","steam_id":76561198828724945,"connected_time":953000000000,"state":"active","ping":84},{"user_id":899,"name":"hb | NameLess","steam_id":76561198217853937,"connected_time":829000000000,"state":"active","ping":116},{"user_id":889,"name":"Harry Hotcock","steam_id":76561197999209779,"connected_time":1538000000000,"state":"active","ping":108},{"user_id":881,"name":"chug jug","steam_id":76561198155631250,"connected_time":2228000000000,"state":"active","ping":58},{"user_id":897,"name":"Adawnby","steam_id":76561198103057295,"connected_time":945000000000,"state":"active","ping":78},{"user_id":902,"name":"Paolo","steam_id":76561198048134549,"connected_time":197000000000,"state":"active","ping":63},{"user_id":882,"name":"Boznyan","steam_id":76561198129164016,"connected_time":1997000000000,"state":"active","ping":55},{"user_id":903,"name":"Titar Industries","steam_id":76561198143078476,"connected_time":118000000000,"state":"active","ping":66},{"user_id":864,"name":"kivee","steam_id":76561198838223023,"connected_time":3138000000000,"state":"active","ping":49},{"user_id":714,"name":"rudy","steam_id":76561198088712799,"connected_time":13486000000000,"state":"active","ping":89},{"user_id":872,"name":"SlooperSoaker","steam_id":76561198121050895,"connected_time":2567000000000,"state":"active","ping":80},{"user_id":865,"name":"Codo Sapien","steam_id":76561198014206810,"connected_time":3133000000000,"state":"active","ping":32},{"user_id":900,"name":"Jnlaw","steam_id":76561198009307069,"connected_time":389000000000,"state":"active","ping":73},{"user_id":898,"name":"magotago","steam_id":76561198013650292,"connected_time":938000000000,"state":"active","ping":115}]},{"server_id":37,"name":"Uncletopia | Chicago | 6 | All Maps","name_short":"chi-6","host":"chi-2.us.uncletopia.com","port":27025,"enabled":true,"region":"us-central","cc":"us","latitude":41.881832,"longitude":-87.62318,"reserved":0,"last_update":"0001-01-01T00:00:00Z","name_a2s":"Uncletopia | Chicago | 6 | All Maps","protocol":17,"map":"pl_swiftwater_final1","folder":"tf","game":"Team Fortress","app_id":440,"player_count":0,"max_players":24,"Bots":0,"server_type":"Dedicated","server_os":"Linux","password":true,"vac":true,"version":"7757534","steam_id":85568392924866363,"keywords":["nocrits","nodmgspread","payload","uncletopia"],"game_id":440,"stv_port":27026,"stv_name":"Uncletopia | Chicago | 6 | All Maps | STV","players":null},{"server_id":38,"name":"Uncletopia | Chicago | 7 | Stopwatch Beta","name_short":"chi-7","host":"chi-2.us.uncletopia.com","port":27035,"enabled":true,"region":"us-central","cc":"us","latitude":41.881832,"longitude":-87.62318,"reserved":0,"last_update":"0001-01-01T00:00:00Z","name_a2s":"Uncletopia | Chicago | 7 | Stopwatch Beta","protocol":17,"map":"workshop/koth_ramjam_rc1.ugc459778887","folder":"tf","game":"Team Fortress","app_id":440,"player_count":0,"max_players":24,"Bots":0,"server_type":"Dedicated","server_os":"Linux","password":true,"vac":true,"version":"7757534","steam_id":85568392924866364,"keywords":["cp","nocrits","nodmgspread","uncletopia"],"game_id":440,"stv_port":27036,"stv_name":"Uncletopia | Chicago | 7 | Stopwatch Beta | STV","players":null},{"server_id":39,"name":"Uncletopia | Chicago | 8 | Community","name_short":"chi-8","host":"chi-2.us.uncletopia.com","port":27045,"enabled":true,"region":"us-central","cc":"us","latitude":41.881832,"longitude":-87.62318,"reserved":0,"last_update":"0001-01-01T00:00:00Z","name_a2s":"Uncletopia | Chicago | 8 | Community","protocol":17,"map":"workshop/rd_asteroid_redux_b1.ugc2154902912","folder":"tf","game":"Team Fortress","app_id":440,"player_count":0,"max_players":24,"Bots":0,"server_type":"Dedicated","server_os":"Linux","password":true,"vac":true,"version":"7757534","steam_id":85568392924866365,"keywords":["beta","nocrits","nodmgspread","rd","uncletopia"],"game_id":440,"stv_port":27046,"stv_name":"Uncletopia | Chicago | 8 | Community | STV","players":null},{"server_id":8,"name":"Uncletopia | Dallas | 1 | All Maps","name_short":"dal-1","host":"dal-1.us.uncletopia.com","port":27015,"enabled":true,"region":"us-central","cc":"us","latitude":32.779167,"longitude":-96.80889,"reserved":0,"last_update":"0001-01-01T00:00:00Z","name_a2s":"Uncletopia | Dallas | 1 | All Maps","protocol":17,"map":"pl_snowycoast","folder":"tf","game":"Team Fortress","app_id":440,"player_count":17,"max_players":24,"Bots":0,"server_type":"Dedicated","server_os":"Linux","password":true,"vac":true,"version":"7757534","steam_id":85568392924469986,"keywords":["nocrits","nodmgspread","payload","uncletopia"],"game_id":440,"stv_port":27016,"stv_name":"Uncletopia | Dallas | 1 | All Maps | STV","players":[{"user_id":491,"name":"Regice","steam_id":76561198049860998,"connected_time":332000000000,"state":"active","ping":57},{"user_id":431,"name":"Prof. Eggnog","steam_id":76561198193389166,"connected_time":3859000000000,"state":"active","ping":97},{"user_id":475,"name":"Ballista","steam_id":76561197983182562,"connected_time":1226000000000,"state":"active","ping":45},{"user_id":492,"name":"Registeel","steam_id":76561198068516556,"connected_time":318000000000,"state":"active","ping":105},{"user_id":493,"name":"Jaded","steam_id":76561198272575611,"connected_time":307000000000,"state":"active","ping":59},{"user_id":473,"name":"jturner1nm","steam_id":76561198344493652,"connected_time":1361000000000,"state":"active","ping":91},{"user_id":496,"name":"Etomb","steam_id":76561198210017208,"connected_time":120000000000,"state":"active","ping":70},{"user_id":494,"name":"Internal Screaming","steam_id":76561198272327629,"connected_time":294000000000,"state":"active","ping":95},{"user_id":497,"name":"Magician357","steam_id":76561198009308255,"connected_time":116000000000,"state":"active","ping":78},{"user_id":498,"name":"the smiling zombie","steam_id":76561199246231090,"connected_time":108000000000,"state":"active","ping":76},{"user_id":499,"name":"Bajatsune Miku Blast","steam_id":76561198360184510,"connected_time":83000000000,"state":"active","ping":60},{"user_id":500,"name":"Rick132","steam_id":76561198027484631,"connected_time":29000000000,"state":"spawning","ping":87},{"user_id":454,"name":"Thequirka","steam_id":76561198968058652,"connected_time":2935000000000,"state":"active","ping":94},{"user_id":488,"name":"tapewyrm","steam_id":76561198072632696,"connected_time":620000000000,"state":"active","ping":52},{"user_id":466,"name":"Knucklechuts","steam_id":76561198060367453,"connected_time":2215000000000,"state":"active","ping":117},{"user_id":467,"name":"Phyzisist","steam_id":76561197983915993,"connected_time":2196000000000,"state":"active","ping":77},{"user_id":483,"name":"lamb","steam_id":76561198013707948,"connected_time":1074000000000,"state":"active","ping":55}]},{"server_id":108,"name":"Uncletopia | Dallas | 2 | All Maps","name_short":"dal-2","host":"dal-1.us.uncletopia.com","port":27025,"enabled":true,"region":"us-central","cc":"us","latitude":32.779167,"longitude":-96.80889,"reserved":0,"last_update":"0001-01-01T00:00:00Z","name_a2s":"Uncletopia | Dallas | 2 | All Maps","protocol":17,"map":"pl_borneo","folder":"tf","game":"Team Fortress","app_id":440,"player_count":24,"max_players":24,"Bots":0,"server_type":"Dedicated","server_os":"Linux","password":true,"vac":true,"version":"7757534","steam_id":85568392924469988,"keywords":["nocrits","nodmgspread","payload","uncletopia"],"game_id":440,"stv_port":27026,"stv_name":"Uncletopia | Dallas | 2 | All Maps | STV","players":[{"user_id":418,"name":"MrTinRobot","steam_id":76561198056698474,"connected_time":648000000000,"state":"active","ping":126},{"user_id":426,"name":"Shrim","steam_id":76561198064269967,"connected_time":514000000000,"state":"active","ping":46},{"user_id":427,"name":"Kapreesi","steam_id":76561198163361200,"connected_time":440000000000,"state":"active","ping":64},{"user_id":417,"name":"HASH Yellow Mellow","steam_id":76561198089697360,"connected_time":712000000000,"state":"active","ping":76},{"user_id":374,"name":"BobSoup89","steam_id":76561198908566221,"connected_time":3719000000000,"state":"active","ping":61},{"user_id":414,"name":"loco503","steam_id":76561198827495121,"connected_time":1045000000000,"state":"active","ping":102},{"user_id":398,"name":"Lavender","steam_id":76561198142770666,"connected_time":1707000000000,"state":"active","ping":76},{"user_id":424,"name":"...","steam_id":76561198012823291,"connected_time":538000000000,"state":"active","ping":64},{"user_id":437,"name":"Rakk","steam_id":76561198855176174,"connected_time":210000000000,"state":"active","ping":80},{"user_id":377,"name":"PaintMyMeow","steam_id":76561198056860387,"connected_time":3648000000000,"state":"active","ping":70},{"user_id":409,"name":"Varia Maius","steam_id":76561198249997376,"connected_time":1399000000000,"state":"active","ping":82},{"user_id":422,"name":"Lord Foog the 2st","steam_id":76561198073106278,"connected_time":549000000000,"state":"active","ping":60},{"user_id":423,"name":"Marksito14","steam_id":76561199132272437,"connected_time":540000000000,"state":"active","ping":112},{"user_id":411,"name":"compulsive","steam_id":76561198212421513,"connected_time":1326000000000,"state":"active","ping":75},{"user_id":401,"name":"zeredis","steam_id":76561198076596689,"connected_time":1681000000000,"state":"active","ping":85},{"user_id":439,"name":"Phyyrin","steam_id":76561198154532657,"connected_time":149000000000,"state":"active","ping":104},{"user_id":415,"name":"doc","steam_id":76561198341083787,"connected_time":976000000000,"state":"active","ping":94},{"user_id":416,"name":"JZ","steam_id":76561198377029198,"connected_time":962000000000,"state":"active","ping":62},{"user_id":425,"name":"Jarlpy","steam_id":76561198193905778,"connected_time":533000000000,"state":"active","ping":144},{"user_id":412,"name":"Leapinglionz11","steam_id":76561199216740065,"connected_time":1314000000000,"state":"active","ping":117},{"user_id":394,"name":"Keg","steam_id":76561198242688458,"connected_time":1769000000000,"state":"active","ping":80},{"user_id":405,"name":"Rykah","steam_id":76561198095040360,"connected_time":1616000000000,"state":"active","ping":99},{"user_id":319,"name":"Knower","steam_id":76561198036213722,"connected_time":7805000000000,"state":"active","ping":72},{"user_id":428,"name":"janas","steam_id":76561198039797596,"connected_time":414000000000,"state":"active","ping":102}]},{"server_id":5,"name":"Uncletopia | Frankfurt | 1 | All Maps","name_short":"frk-1","host":"frk-1.de.uncletopia.com","port":27015,"enabled":true,"region":"eu","cc":"de","latitude":50.110924,"longitude":8.682127,"reserved":0,"last_update":"0001-01-01T00:00:00Z","name_a2s":"Uncletopia | Frankfurt | 1 | All Maps","protocol":17,"map":"pl_snowycoast","folder":"tf","game":"Team Fortress","app_id":440,"player_count":0,"max_players":24,"Bots":0,"server_type":"Dedicated","server_os":"Linux","password":true,"vac":true,"version":"7757534","steam_id":85568392924469989,"keywords":["nocrits","nodmgspread","payload","uncletopia"],"game_id":440,"stv_port":27016,"stv_name":"Uncletopia | Frankfurt | 1 | All Maps | STV","players":null},{"server_id":110,"name":"Uncletopia | Frankfurt | 2 | All Maps","name_short":"frk-2","host":"frk-1.de.uncletopia.com","port":27025,"enabled":true,"region":"eu","cc":"de","latitude":50.110924,"longitude":8.682127,"reserved":0,"last_update":"0001-01-01T00:00:00Z","name_a2s":"Uncletopia | Frankfurt | 2 | All Maps","protocol":17,"map":"pl_snowycoast","folder":"tf","game":"Team Fortress","app_id":440,"player_count":0,"max_players":24,"Bots":0,"server_type":"Dedicated","server_os":"Linux","password":true,"vac":true,"version":"7757534","steam_id":85568392924469990,"keywords":["nocrits","nodmgspread","payload","uncletopia"],"game_id":440,"stv_port":27026,"stv_name":"Uncletopia | Frankfurt | 2 | All Maps | STV","players":null},{"server_id":308,"name":"Uncletopia | Frankfurt | 3 | All Maps","name_short":"frk-3","host":"frk-1.de.uncletopia.com","port":27035,"enabled":true,"region":"eu","cc":"de","latitude":50.110924,"longitude":8.682127,"reserved":0,"last_update":"0001-01-01T00:00:00Z","name_a2s":"Uncletopia | Frankfurt | 3 | All Maps","protocol":17,"map":"cp_altitude","folder":"tf","game":"Team Fortress","app_id":440,"player_count":0,"max_players":24,"Bots":0,"server_type":"Dedicated","server_os":"Linux","password":true,"vac":true,"version":"7757534","steam_id":85568392924504274,"keywords":["cp","nocrits","nodmgspread","uncletopia"],"game_id":440,"stv_port":27036,"stv_name":"Uncletopia | Frankfurt | 3 | All Maps | STV","players":null},{"server_id":309,"name":"Uncletopia | Frankfurt | 4 | All Maps","name_short":"frk-4","host":"frk-1.de.uncletopia.com","port":27045,"enabled":true,"region":"eu","cc":"de","latitude":50.110924,"longitude":8.682127,"reserved":0,"last_update":"0001-01-01T00:00:00Z","name_a2s":"Uncletopia | Frankfurt | 4 | All Maps","protocol":17,"map":"cp_altitude","folder":"tf","game":"Team Fortress","app_id":440,"player_count":0,"max_players":24,"Bots":0,"server_type":"Dedicated","server_os":"Linux","password":true,"vac":true,"version":"7757534","steam_id":85568392924504275,"keywords":["cp","nocrits","nodmgspread","uncletopia"],"game_id":440,"stv_port":27046,"stv_name":"Uncletopia | Frankfurt | 4 | All Maps | STV","players":null},{"server_id":310,"name":"Uncletopia | Frankfurt | 5 | All Maps","name_short":"frk-5","host":"frk-1.de.uncletopia.com","port":27055,"enabled":true,"region":"eu","cc":"de","latitude":50.110924,"longitude":8.682127,"reserved":0,"last_update":"0001-01-01T00:00:00Z","name_a2s":"Uncletopia | Frankfurt | 5 | All Maps","protocol":17,"map":"cp_altitude","folder":"tf","game":"Team Fortress","app_id":440,"player_count":0,"max_players":24,"Bots":0,"server_type":"Dedicated","server_os":"Linux","password":true,"vac":true,"version":"7757534","steam_id":85568392924504277,"keywords":["cp","nocrits","nodmgspread","uncletopia"],"game_id":440,"stv_port":27056,"stv_name":"Uncletopia | Frankfurt | 5 | All Maps | STV","players":null},{"server_id":311,"name":"Uncletopia | Frankfurt | 6 | All Maps","name_short":"frk-6","host":"frk-1.de.uncletopia.com","port":27065,"enabled":true,"region":"eu","cc":"de","latitude":50.110924,"longitude":8.682127,"reserved":0,"last_update":"0001-01-01T00:00:00Z","name_a2s":"Uncletopia | Frankfurt | 6 | All Maps","protocol":17,"map":"koth_highpass","folder":"tf","game":"Team Fortress","app_id":440,"player_count":0,"max_players":24,"Bots":0,"server_type":"Dedicated","server_os":"Linux","password":true,"vac":true,"version":"7757534","steam_id":85568392924504278,"keywords":["cp","nocrits","nodmgspread","uncletopia"],"game_id":440,"stv_port":27066,"stv_name":"Uncletopia | Frankfurt | 6 | All Maps | STV","players":null},{"server_id":23,"name":"Uncletopia | Frankfurt | 7 | Stopwatch Beta","name_short":"frk-7","host":"frk-1.de.uncletopia.com","port":27075,"enabled":true,"region":"eu","cc":"de","latitude":50.110924,"longitude":8.682127,"reserved":0,"last_update":"0001-01-01T00:00:00Z","name_a2s":"Uncletopia | Frankfurt | 7 | Stopwatch Beta","protocol":17,"map":"pl_frontier_final","folder":"tf","game":"Team Fortress","app_id":440,"player_count":0,"max_players":24,"Bots":0,"server_type":"Dedicated","server_os":"Linux","password":true,"vac":true,"version":"7757534","steam_id":85568392924742827,"keywords":["nocrits","nodmgspread","payload","uncletopia"],"game_id":440,"stv_port":27076,"stv_name":"Uncletopia | Frankfurt | 7 | Stopwatch Beta | STV","players":null},{"server_id":24,"name":"Uncletopia | Frankfurt | 8 | Community","name_short":"frk-8","host":"frk-1.de.uncletopia.com","port":27085,"enabled":true,"region":"eu","cc":"de","latitude":50.110924,"longitude":8.682127,"reserved":0,"last_update":"0001-01-01T00:00:00Z","name_a2s":"Uncletopia | Frankfurt | 8 | Community","protocol":17,"map":"pl_badwater","folder":"tf","game":"Team Fortress","app_id":440,"player_count":0,"max_players":24,"Bots":0,"server_type":"Dedicated","server_os":"Linux","password":true,"vac":true,"version":"7757534","steam_id":85568392924742828,"keywords":["nocrits","nodmgspread","payload","uncletopia"],"game_id":440,"stv_port":27086,"stv_name":"Uncletopia | Frankfurt | 8 | Community | STV","players":null},{"server_id":202,"name":"Uncletopia | Hong Kong | 1 | All Maps","name_short":"hgk-1","host":"hgk-1.hk.uncletopia.com","port":27015,"enabled":true,"region":"asia","cc":"hk","latitude":22.302711,"longitude":114.177216,"reserved":0,"last_update":"0001-01-01T00:00:00Z","name_a2s":"Uncletopia | Hong Kong | 1 | All Maps","protocol":17,"map":"pl_upward","folder":"tf","game":"Team Fortress","app_id":440,"player_count":5,"max_players":24,"Bots":0,"server_type":"Dedicated","server_os":"Linux","password":true,"vac":true,"version":"7757534","steam_id":85568392924494504,"keywords":["nocrits","nodmgspread","payload","uncletopia"],"game_id":440,"stv_port":27016,"stv_name":"Uncletopia | Hong Kong | 1 | All Maps | STV","players":[{"user_id":23,"name":"Ice Crack, Dude","steam_id":76561199445694770,"connected_time":1530000000000,"state":"active","ping":138},{"user_id":17,"name":"it' me","steam_id":76561199151427721,"connected_time":2679000000000,"state":"active","ping":186},{"user_id":19,"name":"Kirov airship","steam_id":76561199024960087,"connected_time":2373000000000,"state":"active","ping":47},{"user_id":28,"name":"30-sama","steam_id":76561198970626362,"connected_time":787000000000,"state":"active","ping":94},{"user_id":30,"name":"real","steam_id":76561199044555397,"connected_time":598000000000,"state":"active","ping":90}]},{"server_id":1,"name":"Uncletopia | Los Angeles | 1 | All Maps","name_short":"lax-1","host":"lax-1.us.uncletopia.com","port":27015,"enabled":true,"region":"us-west","cc":"us","latitude":33.94279,"longitude":-118.41004,"reserved":0,"last_update":"0001-01-01T00:00:00Z","name_a2s":"Uncletopia | Los Angeles | 1 | All Maps","protocol":17,"map":"koth_viaduct","folder":"tf","game":"Team Fortress","app_id":440,"player_count":24,"max_players":24,"Bots":0,"server_type":"Dedicated","server_os":"Linux","password":true,"vac":true,"version":"7757534","steam_id":85568392924469991,"keywords":["cp","nocrits","nodmgspread","uncletopia"],"game_id":440,"stv_port":27016,"stv_name":"Uncletopia | Los Angeles | 1 | All Maps | STV","players":[{"user_id":564,"name":"Wind Fucker","steam_id":76561198275362375,"connected_time":86000000000,"state":"active","ping":54},{"user_id":549,"name":"Jambi","steam_id":76561198846091685,"connected_time":1566000000000,"state":"active","ping":61},{"user_id":552,"name":"Lambchop","steam_id":76561198043900363,"connected_time":873000000000,"state":"active","ping":71},{"user_id":527,"name":"Poladroid","steam_id":76561198032005291,"connected_time":2601000000000,"state":"active","ping":58},{"user_id":536,"name":"Yuhh","steam_id":76561199112894955,"connected_time":2145000000000,"state":"active","ping":89},{"user_id":531,"name":"rmbl","steam_id":76561198150137369,"connected_time":2358000000000,"state":"active","ping":45},{"user_id":562,"name":"Boat","steam_id":76561198319185335,"connected_time":129000000000,"state":"active","ping":83},{"user_id":532,"name":"Magnetic Monopole","steam_id":76561198090559116,"connected_time":2345000000000,"state":"active","ping":57},{"user_id":537,"name":"BlaiddWolf","steam_id":76561198065674398,"connected_time":2126000000000,"state":"active","ping":97},{"user_id":546,"name":"Mr.Pan","steam_id":76561198069030613,"connected_time":1902000000000,"state":"active","ping":71},{"user_id":558,"name":"G‡∂ûMER","steam_id":76561198340389876,"connected_time":528000000000,"state":"active","ping":60},{"user_id":554,"name":"tavorraX0","steam_id":76561198042465206,"connected_time":768000000000,"state":"active","ping":165},{"user_id":538,"name":"PlaidPirate","steam_id":76561198344624703,"connected_time":2116000000000,"state":"active","ping":115},{"user_id":548,"name":"$2.99 Shrimps","steam_id":76561198077272494,"connected_time":1697000000000,"state":"active","ping":107},{"user_id":540,"name":"Sonata","steam_id":76561198088165440,"connected_time":2077000000000,"state":"active","ping":50},{"user_id":541,"name":"M249 | Spectre","steam_id":76561198118334485,"connected_time":2063000000000,"state":"active","ping":126},{"user_id":542,"name":"sora","steam_id":76561198094256973,"connected_time":2048000000000,"state":"active","ping":56},{"user_id":522,"name":"[PINGU‚Ñ¢] Tiny Tuna","steam_id":76561198193611579,"connected_time":2818000000000,"state":"active","ping":114},{"user_id":327,"name":"HAT-WEARING‚Ñ¢ Maggot Gamer Cat","steam_id":76561197973992705,"connected_time":10220000000000,"state":"active","ping":67},{"user_id":511,"name":"tie dye die guy","steam_id":76561198049845337,"connected_time":3417000000000,"state":"active","ping":61},{"user_id":505,"name":"NiteWind","steam_id":76561198865162219,"connected_time":3837000000000,"state":"active","ping":127},{"user_id":559,"name":"Gimmick","steam_id":76561198065873462,"connected_time":522000000000,"state":"active","ping":46},{"user_id":555,"name":"Drakon","steam_id":76561198078210822,"connected_time":766000000000,"state":"active","ping":60},{"user_id":563,"name":"Shamrock Shake Oct.10.2020 @8pm","steam_id":76561198833313201,"connected_time":129000000000,"state":"active","ping":52}]},{"server_id":112,"name":"Uncletopia | Los Angeles | 2 | All Maps","name_short":"lax-2","host":"lax-1.us.uncletopia.com","port":27025,"enabled":true,"region":"us-west","cc":"us","latitude":33.94279,"longitude":-118.41004,"reserved":0,"last_update":"0001-01-01T00:00:00Z","name_a2s":"Uncletopia | Los Angeles | 2 | All Maps","protocol":17,"map":"koth_lakeside_final","folder":"tf","game":"Team Fortress","app_id":440,"player_count":23,"max_players":24,"Bots":0,"server_type":"Dedicated","server_os":"Linux","password":true,"vac":true,"version":"7757534","steam_id":85568392924469992,"keywords":["cp","nocrits","nodmgspread","uncletopia"],"game_id":440,"stv_port":27026,"stv_name":"Uncletopia | Los Angeles | 2 | All Maps | STV","players":[{"user_id":172,"name":"jumpscare","steam_id":76561198148059714,"connected_time":2224000000000,"state":"active","ping":108},{"user_id":183,"name":"Major","steam_id":76561198333358491,"connected_time":1688000000000,"state":"active","ping":67},{"user_id":138,"name":"Rich Homie Rob","steam_id":76561198046570914,"connected_time":6113000000000,"state":"active","ping":57},{"user_id":200,"name":"chicken wit dah eggrow","steam_id":76561198115458307,"connected_time":958000000000,"state":"active","ping":47},{"user_id":208,"name":"One Horned Bitch Destroyer","steam_id":76561198045810191,"connected_time":60000000000,"state":"active","ping":74},{"user_id":207,"name":"Vem","steam_id":76561198117273112,"connected_time":79000000000,"state":"active","ping":123},{"user_id":175,"name":"Speedy","steam_id":76561198043421729,"connected_time":2110000000000,"state":"active","ping":76},{"user_id":179,"name":"Biker Chicken","steam_id":76561198202549984,"connected_time":1999000000000,"state":"active","ping":92},{"user_id":210,"name":"Mute.03","steam_id":76561199229281804,"connected_time":14000000000,"state":"spawning","ping":76},{"user_id":211,"name":"Pheasant President","steam_id":76561198315295873,"connected_time":9000000000,"state":"spawning","ping":34},{"user_id":181,"name":"MoondogIe","steam_id":76561198063328194,"connected_time":1760000000000,"state":"active","ping":58},{"user_id":201,"name":"Squigzy_","steam_id":76561198061696667,"connected_time":939000000000,"state":"active","ping":105},{"user_id":194,"name":"Heavy","steam_id":76561198437794740,"connected_time":1430000000000,"state":"active","ping":62},{"user_id":145,"name":"FriskyDemon","steam_id":76561198043684646,"connected_time":5605000000000,"state":"active","ping":72},{"user_id":182,"name":"HOG RIDER","steam_id":76561198298589502,"connected_time":1715000000000,"state":"active","ping":45},{"user_id":209,"name":"TMonNin","steam_id":76561198345367192,"connected_time":60000000000,"state":"active","ping":49},{"user_id":204,"name":"Moth","steam_id":76561198170253694,"connected_time":526000000000,"state":"active","ping":95},{"user_id":33,"name":"blatgotyahat","steam_id":76561198186630357,"connected_time":13229000000000,"state":"active","ping":55},{"user_id":205,"name":"bobby","steam_id":76561198176720589,"connected_time":166000000000,"state":"active","ping":61},{"user_id":174,"name":"I have a tapeworm","steam_id":76561198112705880,"connected_time":2117000000000,"state":"active","ping":58},{"user_id":58,"name":"LazyDoll","steam_id":76561198053186338,"connected_time":11383000000000,"state":"active","ping":52},{"user_id":110,"name":"shadow wizard money gang","steam_id":76561198150406851,"connected_time":7855000000000,"state":"active","ping":60},{"user_id":196,"name":"fulices","steam_id":76561198420163702,"connected_time":1389000000000,"state":"active","ping":36}]},{"server_id":324,"name":"Uncletopia | Los Angeles | 3 | All Maps","name_short":"lax-3","host":"lax-1.us.uncletopia.com","port":27035,"enabled":true,"region":"us-west","cc":"us","latitude":33.94279,"longitude":-118.41004,"reserved":0,"last_update":"0001-01-01T00:00:00Z","name_a2s":"Uncletopia | Los Angeles | 3 | All Maps","protocol":17,"map":"cp_process_final","folder":"tf","game":"Team Fortress","app_id":440,"player_count":0,"max_players":24,"Bots":0,"server_type":"Dedicated","server_os":"Linux","password":true,"vac":true,"version":"7757534","steam_id":85568392924510198,"keywords":["cp","nocrits","nodmgspread","uncletopia"],"game_id":440,"stv_port":27036,"stv_name":"Uncletopia | Los Angeles | 3 | All Maps | STV","players":null},{"server_id":25,"name":"Uncletopia | Los Angeles | 4 | Stopwatch Beta","name_short":"lax-4","host":"lax-1.us.uncletopia.com","port":27045,"enabled":true,"region":"us-west","cc":"us","latitude":33.94279,"longitude":-118.41004,"reserved":0,"last_update":"0001-01-01T00:00:00Z","name_a2s":"Uncletopia | Los Angeles | 4 | Stopwatch Beta","protocol":17,"map":"pl_frontier_final","folder":"tf","game":"Team Fortress","app_id":440,"player_count":0,"max_players":24,"Bots":0,"server_type":"Dedicated","server_os":"Linux","password":true,"vac":true,"version":"7757534","steam_id":85568392924510199,"keywords":["nocrits","nodmgspread","payload","uncletopia"],"game_id":440,"stv_port":27046,"stv_name":"Uncletopia | Los Angeles | 4 | Stopwatch Beta | STV","players":null},{"server_id":11,"name":"Uncletopia | London | 1 | All Maps","name_short":"lon-1","host":"lon-1.uk.uncletopia.com","port":27015,"enabled":true,"region":"eu","cc":"gb","latitude":51.509865,"longitude":-0.118092,"reserved":0,"last_update":"0001-01-01T00:00:00Z","name_a2s":"Uncletopia | London | 1 | All Maps","protocol":17,"map":"cp_process_final","folder":"tf","game":"Team Fortress","app_id":440,"player_count":0,"max_players":24,"Bots":0,"server_type":"Dedicated","server_os":"Linux","password":true,"vac":true,"version":"7757534","steam_id":85568392924367362,"keywords":["cp","nocrits","nodmgspread","uncletopia"],"game_id":440,"stv_port":27016,"stv_name":"Uncletopia | London | 1 | All Maps | STV","players":null},{"server_id":114,"name":"Uncletopia | London | 2 | All Maps","name_short":"lon-2","host":"lon-1.uk.uncletopia.com","port":27025,"enabled":true,"region":"eu","cc":"gb","latitude":51.509865,"longitude":-0.118092,"reserved":0,"last_update":"0001-01-01T00:00:00Z","name_a2s":"Uncletopia | London | 2 | All Maps","protocol":17,"map":"koth_viaduct","folder":"tf","game":"Team Fortress","app_id":440,"player_count":0,"max_players":24,"Bots":0,"server_type":"Dedicated","server_os":"Linux","password":true,"vac":true,"version":"7757534","steam_id":85568392924470941,"keywords":["cp","nocrits","nodmgspread","uncletopia"],"game_id":440,"stv_port":27026,"stv_name":"Uncletopia | London | 2 | All Maps | STV","players":null},{"server_id":320,"name":"Uncletopia | London | 3 | All Maps","name_short":"lon-3","host":"lon-1.uk.uncletopia.com","port":27035,"enabled":true,"region":"eu","cc":"gb","latitude":51.509865,"longitude":-0.118092,"reserved":0,"last_update":"0001-01-01T00:00:00Z","name_a2s":"Uncletopia | London | 3 | All Maps","protocol":17,"map":"cp_altitude","folder":"tf","game":"Team Fortress","app_id":440,"player_count":0,"max_players":24,"Bots":0,"server_type":"Dedicated","server_os":"Linux","password":true,"vac":true,"version":"7757534","steam_id":85568392924510192,"keywords":["cp","nocrits","nodmgspread","uncletopia"],"game_id":440,"stv_port":27036,"stv_name":"Uncletopia | London | 3 | All Maps | STV","players":null},{"server_id":321,"name":"Uncletopia | London | 4 | All Maps","name_short":"lon-4","host":"lon-1.uk.uncletopia.com","port":27045,"enabled":true,"region":"eu","cc":"gb","latitude":51.509865,"longitude":-0.118092,"reserved":0,"last_update":"0001-01-01T00:00:00Z","name_a2s":"Uncletopia | London | 4 | All Maps","protocol":17,"map":"cp_altitude","folder":"tf","game":"Team Fortress","app_id":440,"player_count":0,"max_players":24,"Bots":0,"server_type":"Dedicated","server_os":"Linux","password":true,"vac":true,"version":"7757534","steam_id":85568392924510193,"keywords":["cp","nocrits","nodmgspread","uncletopia"],"game_id":440,"stv_port":27046,"stv_name":"Uncletopia | London | 4 | All Maps | STV","players":null},{"server_id":21,"name":"Uncletopia | London | 5 | All Maps","name_short":"lon-5","host":"lon-1.uk.uncletopia.com","port":27055,"enabled":true,"region":"eu","cc":"gb","latitude":51.509865,"longitude":-0.118092,"reserved":0,"last_update":"0001-01-01T00:00:00Z","name_a2s":"Uncletopia | London | 5 | All Maps","protocol":17,"map":"koth_viaduct","folder":"tf","game":"Team Fortress","app_id":440,"player_count":0,"max_players":24,"Bots":0,"server_type":"Dedicated","server_os":"Linux","password":true,"vac":true,"version":"7757534","steam_id":85568392924742829,"keywords":["cp","nocrits","nodmgspread","uncletopia"],"game_id":440,"stv_port":27056,"stv_name":"Uncletopia | London | 5 | All Maps | STV","players":null},{"server_id":22,"name":"Uncletopia | London | 6 | All Maps","name_short":"lon-6","host":"lon-1.uk.uncletopia.com","port":27065,"enabled":true,"region":"eu","cc":"gb","latitude":51.509865,"longitude":-0.118092,"reserved":0,"last_update":"0001-01-01T00:00:00Z","name_a2s":"Uncletopia | London | 6 | All Maps","protocol":17,"map":"pl_badwater","folder":"tf","game":"Team Fortress","app_id":440,"player_count":0,"max_players":24,"Bots":0,"server_type":"Dedicated","server_os":"Linux","password":true,"vac":true,"version":"7757534","steam_id":85568392924742830,"keywords":["nocrits","nodmgspread","payload","uncletopia"],"game_id":440,"stv_port":27066,"stv_name":"Uncletopia | London | 6 | All Maps | STV","players":null},{"server_id":40,"name":"Uncletopia | London | 7 | No Payload","name_short":"lon-7","host":"lon-1.uk.uncletopia.com","port":27075,"enabled":true,"region":"eu","cc":"gb","latitude":51.509865,"longitude":-0.118092,"reserved":0,"last_update":"0001-01-01T00:00:00Z","name_a2s":"Uncletopia | London | 7 | No Payload","protocol":17,"map":"koth_viaduct","folder":"tf","game":"Team Fortress","app_id":440,"player_count":0,"max_players":24,"Bots":0,"server_type":"Dedicated","server_os":"Linux","password":true,"vac":true,"version":"7757534","steam_id":85568392924964314,"keywords":["cp","nocrits","nodmgspread","uncletopia"],"game_id":440,"stv_port":27076,"stv_name":"Uncletopia | London | 7 | No Payload | STV","players":null},{"server_id":41,"name":"Uncletopia | London | 8 | Community","name_short":"lon-8","host":"lon-1.uk.uncletopia.com","port":27085,"enabled":true,"region":"eu","cc":"gb","latitude":51.509865,"longitude":-0.118092,"reserved":0,"last_update":"0001-01-01T00:00:00Z","name_a2s":"Uncletopia | London | 8 | Community","protocol":17,"map":"workshop/pl_emerge_rc2.ugc888027758","folder":"tf","game":"Team Fortress","app_id":440,"player_count":0,"max_players":24,"Bots":0,"server_type":"Dedicated","server_os":"Linux","password":true,"vac":true,"version":"7757534","steam_id":85568392924964315,"keywords":["nocrits","nodmgspread","payload","uncletopia"],"game_id":440,"stv_port":27086,"stv_name":"Uncletopia | London | 8 | Community | STV","players":null},{"server_id":300,"name":"Uncletopia | Montr√©al | 1 | All Maps","name_short":"mtl-1","host":"mtl-1.ca.uncletopia.com","port":27015,"enabled":true,"region":"us-east","cc":"ca","latitude":45.50889,"longitude":-73.56167,"reserved":0,"last_update":"0001-01-01T00:00:00Z","name_a2s":"Uncletopia | Montr√©al | 1 | All Maps","protocol":17,"map":"pl_swiftwater_final1","folder":"tf","game":"Team Fortress","app_id":440,"player_count":0,"max_players":24,"Bots":0,"server_type":"Dedicated","server_os":"Linux","password":true,"vac":true,"version":"7757534","steam_id":85568392924500087,"keywords":["nocrits","nodmgspread","payload","uncletopia"],"game_id":440,"stv_port":27016,"stv_name":"Uncletopia | Montr√©al | 1 | All Maps | STV","players":null},{"server_id":301,"name":"Uncletopia | Montr√©al | 2 | All Maps","name_short":"mtl-2","host":"mtl-1.ca.uncletopia.com","port":27025,"enabled":true,"region":"us-east","cc":"ca","latitude":45.50889,"longitude":-73.56167,"reserved":0,"last_update":"0001-01-01T00:00:00Z","name_a2s":"Uncletopia | Montr√©al | 2 | All Maps","protocol":17,"map":"koth_viaduct","folder":"tf","game":"Team Fortress","app_id":440,"player_count":0,"max_players":24,"Bots":0,"server_type":"Dedicated","server_os":"Linux","password":true,"vac":true,"version":"7757534","steam_id":85568392924500088,"keywords":["cp","nocrits","nodmgspread","uncletopia"],"game_id":440,"stv_port":27026,"stv_name":"Uncletopia | Montr√©al | 2 | All Maps | STV","players":null},{"server_id":302,"name":"Uncletopia | Montr√©al | 3 | All Maps","name_short":"mtl-3","host":"mtl-1.ca.uncletopia.com","port":27035,"enabled":true,"region":"us-east","cc":"ca","latitude":45.50889,"longitude":-73.56167,"reserved":0,"last_update":"0001-01-01T00:00:00Z","name_a2s":"Uncletopia | Montr√©al | 3 | All Maps","protocol":17,"map":"koth_viaduct","folder":"tf","game":"Team Fortress","app_id":440,"player_count":0,"max_players":24,"Bots":0,"server_type":"Dedicated","server_os":"Linux","password":true,"vac":true,"version":"7757534","steam_id":85568392924500089,"keywords":["cp","nocrits","nodmgspread","uncletopia"],"game_id":440,"stv_port":27036,"stv_name":"Uncletopia | Montr√©al | 3 | All Maps | STV","players":null},{"server_id":303,"name":"Uncletopia | Montr√©al | 4 | No Payload","name_short":"mtl-4","host":"mtl-1.ca.uncletopia.com","port":27045,"enabled":true,"region":"us-east","cc":"ca","latitude":45.50889,"longitude":-73.56167,"reserved":0,"last_update":"0001-01-01T00:00:00Z","name_a2s":"Uncletopia | Montr√©al | 4 | No Payload","protocol":17,"map":"ctf_sawmill","folder":"tf","game":"Team Fortress","app_id":440,"player_count":1,"max_players":24,"Bots":0,"server_type":"Dedicated","server_os":"Linux","password":true,"vac":true,"version":"7757534","steam_id":85568392924500090,"keywords":["ctf","nocrits","nodmgspread","uncletopia"],"game_id":440,"stv_port":27046,"stv_name":"Uncletopia | Montr√©al | 4 | No Payload | STV","players":[{"user_id":7,"name":"yeah right","steam_id":76561198301127098,"connected_time":1000000000,"state":"spawning","ping":69}]},{"server_id":13,"name":"Uncletopia | New York City | 1 | All Maps","name_short":"nyc-1","host":"nyc-1.us.uncletopia.com","port":27015,"enabled":true,"region":"us-east","cc":"us","latitude":40.73061,"longitude":-73.93524,"reserved":0,"last_update":"0001-01-01T00:00:00Z","name_a2s":"Uncletopia | New York City | 1 | All Maps","protocol":17,"map":"koth_viaduct","folder":"tf","game":"Team Fortress","app_id":440,"player_count":24,"max_players":24,"Bots":0,"server_type":"Dedicated","server_os":"Linux","password":true,"vac":true,"version":"7757534","steam_id":85568392924469993,"keywords":["cp","nocrits","nodmgspread","uncletopia"],"game_id":440,"stv_port":27016,"stv_name":"Uncletopia | New York City | 1 | All Maps | STV","players":[{"user_id":872,"name":"Juggler clown #1","steam_id":76561198929327807,"connected_time":1051000000000,"state":"active","ping":66},{"user_id":882,"name":"Fezezen","steam_id":76561198375813742,"connected_time":598000000000,"state":"active","ping":62},{"user_id":873,"name":"Juggler clown #2","steam_id":76561198143443816,"connected_time":1046000000000,"state":"active","ping":144},{"user_id":874,"name":"Svenge the Oslo Dentist","steam_id":76561199446716139,"connected_time":1043000000000,"state":"active","ping":70},{"user_id":857,"name":"Two-Teste Tommy","steam_id":76561198064308936,"connected_time":3283000000000,"state":"active","ping":56},{"user_id":875,"name":"„ÄéYar Yar Dayz„Äè","steam_id":76561198047709672,"connected_time":988000000000,"state":"active","ping":75},{"user_id":813,"name":"Pendrive","steam_id":76561199427354854,"connected_time":6528000000000,"state":"active","ping":166},{"user_id":852,"name":"zozo","steam_id":76561198031297359,"connected_time":3878000000000,"state":"active","ping":117},{"user_id":867,"name":"Boter","steam_id":76561198066994093,"connected_time":2084000000000,"state":"active","ping":95},{"user_id":863,"name":"TruffShuff","steam_id":76561198055869160,"connected_time":2773000000000,"state":"active","ping":65},{"user_id":823,"name":"Tirlby","steam_id":76561198045231233,"connected_time":5423000000000,"state":"active","ping":56},{"user_id":876,"name":"Robofish","steam_id":76561198043800025,"connected_time":964000000000,"state":"active","ping":77},{"user_id":869,"name":"s0da","steam_id":76561198882033703,"connected_time":1436000000000,"state":"active","ping":67},{"user_id":886,"name":"Chillin Turt","steam_id":76561198025796849,"connected_time":434000000000,"state":"active","ping":66},{"user_id":878,"name":"bofaswag","steam_id":76561198017479458,"connected_time":753000000000,"state":"active","ping":47},{"user_id":827,"name":"nelly modelo","steam_id":76561198044875206,"connected_time":5403000000000,"state":"active","ping":107},{"user_id":883,"name":"Facet","steam_id":76561197999782628,"connected_time":583000000000,"state":"active","ping":81},{"user_id":884,"name":"$200 Shirt","steam_id":76561197977329534,"connected_time":514000000000,"state":"active","ping":50},{"user_id":885,"name":"BigGreenBeast","steam_id":76561199052862674,"connected_time":488000000000,"state":"active","ping":51},{"user_id":887,"name":"ComputeCore167","steam_id":76561198301250353,"connected_time":421000000000,"state":"active","ping":86},{"user_id":829,"name":"ClericsRose","steam_id":76561198011013806,"connected_time":5313000000000,"state":"active","ping":72},{"user_id":888,"name":"big leggy","steam_id":76561198119579333,"connected_time":284000000000,"state":"active","ping":70},{"user_id":847,"name":"Splinto","steam_id":76561198111260488,"connected_time":4341000000000,"state":"active","ping":69},{"user_id":889,"name":"akirajimbo","steam_id":76561197979960008,"connected_time":221000000000,"state":"active","ping":47}]},{"server_id":14,"name":"Uncletopia | New York City | 2 | All Maps","name_short":"nyc-2","host":"nyc-1.us.uncletopia.com","port":27025,"enabled":true,"region":"us-east","cc":"us","latitude":40.73061,"longitude":-73.93524,"reserved":0,"last_update":"0001-01-01T00:00:00Z","name_a2s":"Uncletopia | New York City | 2 | All Maps","protocol":17,"map":"pl_upward","folder":"tf","game":"Team Fortress","app_id":440,"player_count":24,"max_players":24,"Bots":0,"server_type":"Dedicated","server_os":"Linux","password":true,"vac":true,"version":"7757534","steam_id":85568392924469994,"keywords":["nocrits","nodmgspread","payload","uncletopia"],"game_id":440,"stv_port":27026,"stv_name":"Uncletopia | New York City | 2 | All Maps | STV","players":[{"user_id":641,"name":"Red Man","steam_id":76561198293333566,"connected_time":5580000000000,"state":"active","ping":93},{"user_id":728,"name":"THRILLHO","steam_id":76561198371663047,"connected_time":329000000000,"state":"active","ping":40},{"user_id":723,"name":"Rodrick Knee","steam_id":76561198283021062,"connected_time":1123000000000,"state":"active","ping":69},{"user_id":732,"name":"The Horselords and Animal Gods","steam_id":76561197975094050,"connected_time":156000000000,"state":"active","ping":125},{"user_id":727,"name":"yamme","steam_id":76561198117849124,"connected_time":429000000000,"state":"active","ping":108},{"user_id":711,"name":"Kdash","steam_id":76561198043829155,"connected_time":1473000000000,"state":"active","ping":98},{"user_id":725,"name":"jaede_","steam_id":76561198108376150,"connected_time":1010000000000,"state":"active","ping":173},{"user_id":642,"name":"DelŒªyed (FamOuZ)üòª","steam_id":76561198290147935,"connected_time":5567000000000,"state":"active","ping":98},{"user_id":731,"name":"Professor Shaggy","steam_id":76561198276926724,"connected_time":174000000000,"state":"active","ping":46},{"user_id":701,"name":"Pancreas Enjoyer","steam_id":76561199438598904,"connected_time":2035000000000,"state":"active","ping":120},{"user_id":730,"name":"crankshaft","steam_id":76561197992798282,"connected_time":252000000000,"state":"active","ping":107},{"user_id":733,"name":"aura","steam_id":76561197991687793,"connected_time":127000000000,"state":"active","ping":148},{"user_id":693,"name":"Biznickel","steam_id":76561199422511230,"connected_time":2225000000000,"state":"active","ping":114},{"user_id":734,"name":"A Fruit","steam_id":76561198951830050,"connected_time":101000000000,"state":"active","ping":76},{"user_id":707,"name":"Wesg","steam_id":76561198220436820,"connected_time":1654000000000,"state":"active","ping":84},{"user_id":735,"name":"shnowshner","steam_id":76561198066450438,"connected_time":39000000000,"state":"active","ping":64},{"user_id":709,"name":"spongecanny","steam_id":76561198055638231,"connected_time":1523000000000,"state":"active","ping":50},{"user_id":712,"name":"Weebsbros","steam_id":76561198056750224,"connected_time":1435000000000,"state":"active","ping":73},{"user_id":713,"name":"Pak Industrial","steam_id":76561198057900166,"connected_time":1431000000000,"state":"active","ping":80},{"user_id":736,"name":"The Walnut","steam_id":76561198080583044,"connected_time":28000000000,"state":"spawning","ping":57},{"user_id":716,"name":"VioletSpecs","steam_id":76561198089366466,"connected_time":1399000000000,"state":"active","ping":56},{"user_id":737,"name":"you are going to ohio","steam_id":76561198046055673,"connected_time":5000000000,"state":"spawning","ping":47},{"user_id":719,"name":"TheAnswer","steam_id":76561198039471743,"connected_time":1332000000000,"state":"active","ping":88},{"user_id":726,"name":"Lore","steam_id":76561198098407538,"connected_time":712000000000,"state":"active","ping":60}]},{"server_id":15,"name":"Uncletopia | New York City | 3 | Stopwatch Beta","name_short":"nyc-3","host":"nyc-1.us.uncletopia.com","port":27035,"enabled":true,"region":"us-east","cc":"us","latitude":40.73061,"longitude":-73.93524,"reserved":0,"last_update":"0001-01-01T00:00:00Z","name_a2s":"Uncletopia | New York City | 3 | Stopwatch Beta","protocol":17,"map":"workshop/koth_ramjam_rc1.ugc459778887","folder":"tf","game":"Team Fortress","app_id":440,"player_count":0,"max_players":24,"Bots":0,"server_type":"Dedicated","server_os":"Linux","password":true,"vac":true,"version":"7757534","steam_id":85568392924742820,"keywords":["cp","nocrits","nodmgspread","uncletopia"],"game_id":440,"stv_port":27036,"stv_name":"Uncletopia | New York City | 3 | Stopwatch Beta | STV","players":null},{"server_id":16,"name":"Uncletopia | New York City | 4 | Community","name_short":"nyc-4","host":"nyc-1.us.uncletopia.com","port":27045,"enabled":true,"region":"us-east","cc":"us","latitude":40.73061,"longitude":-73.93524,"reserved":0,"last_update":"0001-01-01T00:00:00Z","name_a2s":"Uncletopia | New York City | 4 | Community","protocol":17,"map":"workshop/rd_asteroid_redux_b1.ugc2154902912","folder":"tf","game":"Team Fortress","app_id":440,"player_count":0,"max_players":24,"Bots":0,"server_type":"Dedicated","server_os":"Linux","password":true,"vac":true,"version":"7757534","steam_id":85568392924742821,"keywords":["beta","nocrits","nodmgspread","rd","uncletopia"],"game_id":440,"stv_port":27046,"stv_name":"Uncletopia | New York City | 4 | Community | STV","players":null},{"server_id":142,"name":"Uncletopia | S√£o Paulo | 1 | All Maps","name_short":"sao-1","host":"sao-1.br.uncletopia.com","port":27015,"enabled":true,"region":"sa","cc":"br","latitude":-23.533773,"longitude":-46.62529,"reserved":0,"last_update":"0001-01-01T00:00:00Z","name_a2s":"Uncletopia | S√£o Paulo | 1 | All Maps","protocol":17,"map":"koth_lakeside_final","folder":"tf","game":"Team Fortress","app_id":440,"player_count":0,"max_players":24,"Bots":0,"server_type":"Dedicated","server_os":"Linux","password":true,"vac":true,"version":"7757534","steam_id":85568392924469996,"keywords":["cp","nocrits","nodmgspread","uncletopia"],"game_id":440,"stv_port":27016,"stv_name":"Uncletopia | S√£o Paulo | 1 | All Maps | STV","players":null},{"server_id":143,"name":"Uncletopia | S√£o Paulo | 2 | All Maps","name_short":"sao-2","host":"sao-2.br.uncletopia.com","port":27015,"enabled":true,"region":"sa","cc":"br","latitude":-23.533773,"longitude":-46.62529,"reserved":0,"last_update":"0001-01-01T00:00:00Z","name_a2s":"Uncletopia | S√£o Paulo | 2 | All Maps","protocol":17,"map":"koth_viaduct","folder":"tf","game":"Team Fortress","app_id":440,"player_count":0,"max_players":24,"Bots":0,"server_type":"Dedicated","server_os":"Linux","password":true,"vac":true,"version":"7757534","steam_id":85568392924485349,"keywords":["cp","nocrits","nodmgspread","uncletopia"],"game_id":440,"stv_port":27016,"stv_name":"Uncletopia | S√£o Paulo | 2 | All Maps | STV","players":null},{"server_id":7,"name":"Uncletopia | Seattle | 1 | All Maps","name_short":"sea-1","host":"sea-1.us.uncletopia.com","port":27015,"enabled":true,"region":"us-west","cc":"us","latitude":47.608013,"longitude":-122.33517,"reserved":0,"last_update":"0001-01-01T00:00:00Z","name_a2s":"Uncletopia | Seattle | 1 | All Maps","protocol":17,"map":"koth_harvest_final","folder":"tf","game":"Team Fortress","app_id":440,"player_count":24,"max_players":24,"Bots":0,"server_type":"Dedicated","server_os":"Linux","password":true,"vac":true,"version":"7757534","steam_id":85568392924469997,"keywords":["cp","nocrits","nodmgspread","uncletopia"],"game_id":440,"stv_port":27016,"stv_name":"Uncletopia | Seattle | 1 | All Maps | STV","players":[{"user_id":387,"name":"Highground","steam_id":76561199197544789,"connected_time":12946000000000,"state":"active","ping":166},{"user_id":455,"name":"goldhed","steam_id":76561198051751133,"connected_time":4832000000000,"state":"active","ping":57},{"user_id":463,"name":"[TrC] Dackstrus","steam_id":76561197973518509,"connected_time":3987000000000,"state":"active","ping":60},{"user_id":446,"name":"SomeGuyWhoLikesPotatoes","steam_id":76561198110276797,"connected_time":6125000000000,"state":"active","ping":58},{"user_id":487,"name":"Attrition","steam_id":76561197969881916,"connected_time":1082000000000,"state":"active","ping":56},{"user_id":450,"name":"That Guy","steam_id":76561198120788964,"connected_time":5234000000000,"state":"active","ping":60},{"user_id":457,"name":"Tungsten","steam_id":76561198312854342,"connected_time":4777000000000,"state":"active","ping":56},{"user_id":467,"name":"Kuma","steam_id":76561199100813140,"connected_time":3961000000000,"state":"active","ping":89},{"user_id":442,"name":"gorlab","steam_id":76561198025089694,"connected_time":6263000000000,"state":"active","ping":61},{"user_id":461,"name":"Hassium","steam_id":76561198162541373,"connected_time":4346000000000,"state":"active","ping":56},{"user_id":468,"name":"Mignyanne :3","steam_id":76561198048754056,"connected_time":3959000000000,"state":"active","ping":60},{"user_id":377,"name":"SpinetinglingToast","steam_id":76561198099470670,"connected_time":13321000000000,"state":"active","ping":119},{"user_id":488,"name":"Strikerbolt","steam_id":76561199095622897,"connected_time":642000000000,"state":"active","ping":90},{"user_id":485,"name":"moniker","steam_id":76561198107213976,"connected_time":1123000000000,"state":"active","ping":72},{"user_id":489,"name":"uwu","steam_id":76561199003985688,"connected_time":150000000000,"state":"active","ping":95},{"user_id":480,"name":"Frostyfaucet","steam_id":76561198060524722,"connected_time":2570000000000,"state":"active","ping":68},{"user_id":481,"name":"jungus","steam_id":76561198129862008,"connected_time":2569000000000,"state":"active","ping":78},{"user_id":482,"name":"fragadelphia","steam_id":76561198066116363,"connected_time":2567000000000,"state":"active","ping":48},{"user_id":427,"name":"„Ä£dust„Ä£ -she/her-","steam_id":76561198045218909,"connected_time":7890000000000,"state":"active","ping":40},{"user_id":471,"name":"[TrC] Nosy","steam_id":76561197978859310,"connected_time":3902000000000,"state":"active","ping":60},{"user_id":486,"name":"Banzailizard","steam_id":76561197986785469,"connected_time":1123000000000,"state":"active","ping":82},{"user_id":462,"name":"jesie","steam_id":76561198074938913,"connected_time":4143000000000,"state":"active","ping":102},{"user_id":472,"name":"Cam(era)","steam_id":76561198285054047,"connected_time":3809000000000,"state":"active","ping":73},{"user_id":478,"name":"lyraaaaaaaaaaa","steam_id":76561198259331758,"connected_time":2971000000000,"state":"active","ping":57}]},{"server_id":119,"name":"Uncletopia | Seattle | 2 | All Maps","name_short":"sea-2","host":"sea-1.us.uncletopia.com","port":27025,"enabled":true,"region":"us-west","cc":"us","latitude":47.608013,"longitude":-122.33517,"reserved":0,"last_update":"0001-01-01T00:00:00Z","name_a2s":"Uncletopia | Seattle | 2 | All Maps","protocol":17,"map":"cp_dustbowl","folder":"tf","game":"Team Fortress","app_id":440,"player_count":24,"max_players":24,"Bots":0,"server_type":"Dedicated","server_os":"Linux","password":true,"vac":true,"version":"7757534","steam_id":85568392924469998,"keywords":["cp","nocrits","nodmgspread","uncletopia"],"game_id":440,"stv_port":27026,"stv_name":"Uncletopia | Seattle | 2 | All Maps | STV","players":[{"user_id":554,"name":"Comfy Monkey","steam_id":76561197998434936,"connected_time":1324000000000,"state":"active","ping":106},{"user_id":539,"name":"Eric Cartman","steam_id":76561198850898505,"connected_time":2567000000000,"state":"active","ping":47},{"user_id":529,"name":"shiftshock01","steam_id":76561199049488870,"connected_time":3384000000000,"state":"active","ping":52},{"user_id":563,"name":"cement eater","steam_id":76561198042941628,"connected_time":1137000000000,"state":"active","ping":75},{"user_id":571,"name":"MyMonkeyBaby","steam_id":76561198046896670,"connected_time":605000000000,"state":"active","ping":62},{"user_id":557,"name":"Noth","steam_id":76561198034606228,"connected_time":1270000000000,"state":"active","ping":72},{"user_id":573,"name":"Robert E.T.","steam_id":76561197986439371,"connected_time":234000000000,"state":"active","ping":50},{"user_id":511,"name":"ChuChu","steam_id":76561199443647976,"connected_time":4697000000000,"state":"active","ping":104},{"user_id":558,"name":"Ciggy Weave","steam_id":76561198062904239,"connected_time":1249000000000,"state":"active","ping":113},{"user_id":541,"name":"Oops","steam_id":76561198015032646,"connected_time":2512000000000,"state":"active","ping":68},{"user_id":532,"name":"General Fisticuffs","steam_id":76561198255721392,"connected_time":3101000000000,"state":"active","ping":115},{"user_id":543,"name":"Grammaring","steam_id":76561198867366139,"connected_time":2467000000000,"state":"active","ping":82},{"user_id":559,"name":"LilLappy217 #SaveTF2","steam_id":76561198351053740,"connected_time":1233000000000,"state":"active","ping":115},{"user_id":538,"name":"DaBigA","steam_id":76561198326492538,"connected_time":2655000000000,"state":"active","ping":49},{"user_id":560,"name":"intek","steam_id":76561198052705291,"connected_time":1231000000000,"state":"active","ping":87},{"user_id":568,"name":"Tot4L Gridlock","steam_id":76561197999816631,"connected_time":881000000000,"state":"active","ping":55},{"user_id":561,"name":"user.2001 (GIRATINA)","steam_id":76561199196821524,"connected_time":1189000000000,"state":"active","ping":60},{"user_id":564,"name":"mumford and guns","steam_id":76561198117113848,"connected_time":1130000000000,"state":"active","ping":115},{"user_id":565,"name":"Squid121","steam_id":76561198038832034,"connected_time":1120000000000,"state":"active","ping":59},{"user_id":572,"name":"david","steam_id":76561198401625806,"connected_time":269000000000,"state":"active","ping":66},{"user_id":569,"name":"mechanicvirus","steam_id":76561198038161480,"connected_time":784000000000,"state":"active","ping":96},{"user_id":551,"name":"KingTinkerer","steam_id":76561198226856548,"connected_time":1682000000000,"state":"active","ping":86},{"user_id":567,"name":"Antwan","steam_id":76561198246200638,"connected_time":1086000000000,"state":"active","ping":101},{"user_id":574,"name":"Quickxdeathx02","steam_id":76561198396771470,"connected_time":7000000000,"state":"active","ping":127}]},{"server_id":406,"name":"Uncletopia | Seattle | 3 | Stopwatch Beta","name_short":"sea-3","host":"sea-1.us.uncletopia.com","port":27035,"enabled":true,"region":"us-west","cc":"us","latitude":47.608013,"longitude":-122.33517,"reserved":0,"last_update":"0001-01-01T00:00:00Z","name_a2s":"Uncletopia | Seattle | 3 | Stopwatch Beta","protocol":17,"map":"pl_barnblitz","folder":"tf","game":"Team Fortress","app_id":440,"player_count":0,"max_players":24,"Bots":0,"server_type":"Dedicated","server_os":"Linux","password":true,"vac":true,"version":"7757534","steam_id":85568392924515217,"keywords":["nocrits","nodmgspread","payload","uncletopia"],"game_id":440,"stv_port":27036,"stv_name":"Uncletopia | Seattle | 3 | Stopwatch Beta | STV","players":null},{"server_id":17,"name":"Uncletopia | San Francisco | 1 | All Maps","name_short":"sfo-1","host":"sfo-1.us.uncletopia.com","port":27015,"enabled":true,"region":"us-west","cc":"us","latitude":37.77397,"longitude":-122.4313,"reserved":0,"last_update":"0001-01-01T00:00:00Z","name_a2s":"Uncletopia | San Francisco | 1 | All Maps","protocol":17,"map":"cp_snakewater_final1","folder":"tf","game":"Team Fortress","app_id":440,"player_count":23,"max_players":24,"Bots":0,"server_type":"Dedicated","server_os":"Linux","password":true,"vac":true,"version":"7757534","steam_id":85568392924469999,"keywords":["cp","nocrits","nodmgspread","uncletopia"],"game_id":440,"stv_port":27016,"stv_name":"Uncletopia | San Francisco | 1 | All Maps | STV","players":[{"user_id":422,"name":"ScoutBox","steam_id":76561198111539895,"connected_time":1971000000000,"state":"active","ping":54},{"user_id":391,"name":"Loodler","steam_id":76561198426624664,"connected_time":3573000000000,"state":"active","ping":57},{"user_id":444,"name":"Yogurt Male","steam_id":76561199001748822,"connected_time":186000000000,"state":"active","ping":51},{"user_id":426,"name":"Maid 'n' China","steam_id":76561198423392976,"connected_time":1846000000000,"state":"active","ping":45},{"user_id":441,"name":"BreadnDip","steam_id":76561198362635423,"connected_time":224000000000,"state":"active","ping":69},{"user_id":377,"name":"chanoc","steam_id":76561198026734746,"connected_time":4532000000000,"state":"active","ping":46},{"user_id":450,"name":"A2","steam_id":76561198068266632,"connected_time":12000000000,"state":"spawning","ping":91},{"user_id":448,"name":"Sorasonic","steam_id":76561198042463115,"connected_time":48000000000,"state":"active","ping":62},{"user_id":447,"name":"Isopentyl Ethanoate","steam_id":76561198116389072,"connected_time":115000000000,"state":"active","ping":64},{"user_id":442,"name":"The dreaded jar","steam_id":76561199087010656,"connected_time":220000000000,"state":"active","ping":69},{"user_id":411,"name":"thepartyjawa","steam_id":76561198293147401,"connected_time":2661000000000,"state":"active","ping":87},{"user_id":400,"name":"EndNightmare","steam_id":76561198272032727,"connected_time":3311000000000,"state":"active","ping":105},{"user_id":401,"name":"LuciD","steam_id":76561198242842394,"connected_time":3256000000000,"state":"active","ping":102},{"user_id":449,"name":"Divine Kitty","steam_id":76561198293490689,"connected_time":35000000000,"state":"active","ping":84},{"user_id":430,"name":"Cob","steam_id":76561198042518365,"connected_time":1528000000000,"state":"active","ping":46},{"user_id":435,"name":"Takyon","steam_id":76561198110449520,"connected_time":649000000000,"state":"active","ping":129},{"user_id":436,"name":"some random europeon","steam_id":76561198913057497,"connected_time":643000000000,"state":"active","ping":86},{"user_id":428,"name":"Lilmaggedon","steam_id":76561198072393166,"connected_time":1785000000000,"state":"active","ping":100},{"user_id":437,"name":"Idontknow","steam_id":76561199207044048,"connected_time":616000000000,"state":"active","ping":63},{"user_id":443,"name":"Zabud'","steam_id":76561198192804709,"connected_time":214000000000,"state":"active","ping":61},{"user_id":438,"name":"HeadlesZ","steam_id":76561198269556303,"connected_time":600000000000,"state":"active","ping":49},{"user_id":366,"name":"Panda","steam_id":76561198279460611,"connected_time":5636000000000,"state":"active","ping":55},{"user_id":419,"name":"Lumen","steam_id":76561197985372319,"connected_time":2290000000000,"state":"active","ping":118}]},{"server_id":18,"name":"Uncletopia | San Francisco | 2 | All Maps","name_short":"sfo-2","host":"sfo-1.us.uncletopia.com","port":27025,"enabled":true,"region":"us-west","cc":"us","latitude":37.77397,"longitude":-122.4313,"reserved":0,"last_update":"0001-01-01T00:00:00Z","name_a2s":"Uncletopia | San Francisco | 2 | All Maps","protocol":17,"map":"pl_swiftwater_final1","folder":"tf","game":"Team Fortress","app_id":440,"player_count":23,"max_players":24,"Bots":0,"server_type":"Dedicated","server_os":"Linux","password":true,"vac":true,"version":"7757534","steam_id":85568392924470000,"keywords":["nocrits","nodmgspread","payload","uncletopia"],"game_id":440,"stv_port":27026,"stv_name":"Uncletopia | San Francisco | 2 | All Maps | STV","players":[{"user_id":88,"name":"times table","steam_id":76561198341452558,"connected_time":7912000000000,"state":"active","ping":86},{"user_id":188,"name":"Lil' Urban Achiever","steam_id":76561197970450546,"connected_time":950000000000,"state":"active","ping":80},{"user_id":193,"name":"QueenOfSkys","steam_id":76561198319559197,"connected_time":863000000000,"state":"active","ping":63},{"user_id":133,"name":"Pile of Spinach","steam_id":76561198043068841,"connected_time":4422000000000,"state":"active","ping":71},{"user_id":134,"name":"tum","steam_id":76561198084712019,"connected_time":4340000000000,"state":"active","ping":60},{"user_id":211,"name":"wget","steam_id":76561198971705338,"connected_time":142000000000,"state":"active","ping":193},{"user_id":183,"name":"boobies arc","steam_id":76561198316753540,"connected_time":1271000000000,"state":"active","ping":75},{"user_id":207,"name":"WalkinMan","steam_id":76561198047941142,"connected_time":400000000000,"state":"active","ping":35},{"user_id":186,"name":"Dingus","steam_id":76561198121488783,"connected_time":1054000000000,"state":"active","ping":70},{"user_id":204,"name":"Boone","steam_id":76561198398931575,"connected_time":543000000000,"state":"active","ping":81},{"user_id":199,"name":"Anthid","steam_id":76561198074493797,"connected_time":737000000000,"state":"active","ping":74},{"user_id":189,"name":"megaroboleg","steam_id":76561198844644993,"connected_time":927000000000,"state":"active","ping":68},{"user_id":141,"name":"Aldinach","steam_id":76561198079912615,"connected_time":3825000000000,"state":"active","ping":107},{"user_id":208,"name":"Zorlovo","steam_id":76561198006443283,"connected_time":389000000000,"state":"active","ping":89},{"user_id":190,"name":"Antzen","steam_id":76561198041343470,"connected_time":905000000000,"state":"active","ping":52},{"user_id":191,"name":"HideOnTate","steam_id":76561198209880837,"connected_time":901000000000,"state":"active","ping":62},{"user_id":200,"name":"Johnson, Navin R.","steam_id":76561197961107982,"connected_time":689000000000,"state":"active","ping":110},{"user_id":192,"name":"The Christmas Guy","steam_id":76561198238639174,"connected_time":890000000000,"state":"active","ping":68},{"user_id":209,"name":"Huevo Frito","steam_id":76561198896811394,"connected_time":384000000000,"state":"active","ping":103},{"user_id":196,"name":"whirleaf","steam_id":76561198027593438,"connected_time":779000000000,"state":"active","ping":130},{"user_id":166,"name":"tax_evasion","steam_id":76561198094818557,"connected_time":2644000000000,"state":"active","ping":46},{"user_id":202,"name":"dongledog","steam_id":76561198050924003,"connected_time":683000000000,"state":"active","ping":74},{"user_id":210,"name":"‚ù§ Ashley ‚ù§","steam_id":76561198056428303,"connected_time":340000000000,"state":"active","ping":58}]},{"server_id":19,"name":"Uncletopia | San Francisco | 3 | Stopwatch Beta","name_short":"sfo-3","host":"sfo-1.us.uncletopia.com","port":27035,"enabled":true,"region":"us-west","cc":"us","latitude":37.77397,"longitude":-122.4313,"reserved":0,"last_update":"0001-01-01T00:00:00Z","name_a2s":"Uncletopia | San Francisco | 3 | Stopwatch Beta","protocol":17,"map":"pl_borneo","folder":"tf","game":"Team Fortress","app_id":440,"player_count":0,"max_players":24,"Bots":0,"server_type":"Dedicated","server_os":"Linux","password":true,"vac":true,"version":"7757534","steam_id":85568392924742824,"keywords":["nocrits","nodmgspread","payload","uncletopia"],"game_id":440,"stv_port":27036,"stv_name":"Uncletopia | San Francisco | 3 | Stopwatch Beta | STV","players":null},{"server_id":20,"name":"Uncletopia | San Francisco | 4 | Community","name_short":"sfo-4","host":"sfo-1.us.uncletopia.com","port":27045,"enabled":true,"region":"us-west","cc":"us","latitude":37.77397,"longitude":-122.4313,"reserved":0,"last_update":"0001-01-01T00:00:00Z","name_a2s":"Uncletopia | San Francisco | 4 | Community","protocol":17,"map":"koth_highpass","folder":"tf","game":"Team Fortress","app_id":440,"player_count":1,"max_players":24,"Bots":0,"server_type":"Dedicated","server_os":"Linux","password":true,"vac":true,"version":"7757534","steam_id":85568392924742826,"keywords":["cp","nocrits","nodmgspread","uncletopia"],"game_id":440,"stv_port":27046,"stv_name":"Uncletopia | San Francisco | 4 | Community | STV","players":[{"user_id":17,"name":"WoodenAiden","steam_id":76561198323357905,"connected_time":0,"state":"spawning","ping":14}]},{"server_id":141,"name":"Uncletopia | Sydney | 1 | All Maps","name_short":"syd-1","host":"syd-1.au.uncletopia.com","port":27015,"enabled":true,"region":"au","cc":"au","latitude":-33.865143,"longitude":151.2099,"reserved":0,"last_update":"0001-01-01T00:00:00Z","name_a2s":"Uncletopia | Sydney | 1 | All Maps","protocol":17,"map":"pl_frontier_final","folder":"tf","game":"Team Fortress","app_id":440,"player_count":19,"max_players":24,"Bots":0,"server_type":"Dedicated","server_os":"Linux","password":true,"vac":true,"version":"7757534","steam_id":85568392924470001,"keywords":["nocrits","nodmgspread","payload","uncletopia"],"game_id":440,"stv_port":27016,"stv_name":"Uncletopia | Sydney | 1 | All Maps | STV","players":[{"user_id":248,"name":"Biggus Dickus","steam_id":76561198795480561,"connected_time":583000000000,"state":"active","ping":87},{"user_id":241,"name":"NiceName","steam_id":76561198398046309,"connected_time":941000000000,"state":"active","ping":53},{"user_id":222,"name":"Mr.Deathclaw","steam_id":76561198025419320,"connected_time":2188000000000,"state":"active","ping":50},{"user_id":256,"name":"lavanderpumpernickle","steam_id":76561199093611800,"connected_time":53000000000,"state":"active","ping":49},{"user_id":254,"name":"krandlez` (Any/All)","steam_id":76561198044839726,"connected_time":163000000000,"state":"active","ping":36},{"user_id":131,"name":"Fatass Yoshi","steam_id":76561198033784848,"connected_time":8296000000000,"state":"active","ping":50},{"user_id":236,"name":"Mouse","steam_id":76561198060433006,"connected_time":1126000000000,"state":"active","ping":58},{"user_id":255,"name":"Catto","steam_id":76561197999111589,"connected_time":70000000000,"state":"active","ping":43},{"user_id":225,"name":"Top Ramen","steam_id":76561198028969833,"connected_time":2091000000000,"state":"active","ping":45},{"user_id":231,"name":"ToadFungus","steam_id":76561199219667039,"connected_time":1838000000000,"state":"active","ping":103},{"user_id":257,"name":"saudi ambassador messi","steam_id":76561198031293430,"connected_time":19000000000,"state":"spawning","ping":90},{"user_id":244,"name":"Santa Claus","steam_id":76561198836691884,"connected_time":876000000000,"state":"active","ping":87},{"user_id":228,"name":"Radial","steam_id":76561198850076584,"connected_time":2067000000000,"state":"active","ping":60},{"user_id":187,"name":"Tricka ‚Ä¢","steam_id":76561197968440123,"connected_time":4574000000000,"state":"active","ping":46},{"user_id":199,"name":"thrax","steam_id":76561197992385270,"connected_time":3576000000000,"state":"active","ping":49},{"user_id":233,"name":"KnowZero","steam_id":76561198095752015,"connected_time":1398000000000,"state":"active","ping":58},{"user_id":215,"name":"whiteshaq","steam_id":76561198131988811,"connected_time":2599000000000,"state":"active","ping":73},{"user_id":238,"name":"TACO.phox","steam_id":76561198298500294,"connected_time":1041000000000,"state":"active","ping":125},{"user_id":148,"name":"FyreFeat","steam_id":76561198068428930,"connected_time":7693000000000,"state":"active","ping":54}]},{"server_id":123,"name":"Uncletopia | Sydney | 2 | All Maps","name_short":"syd-2","host":"syd-1.au.uncletopia.com","port":27025,"enabled":true,"region":"au","cc":"au","latitude":-33.865143,"longitude":151.2099,"reserved":0,"last_update":"0001-01-01T00:00:00Z","name_a2s":"Uncletopia | Sydney | 2 | All Maps","protocol":17,"map":"ctf_2fort","folder":"tf","game":"Team Fortress","app_id":440,"player_count":9,"max_players":24,"Bots":0,"server_type":"Dedicated","server_os":"Linux","password":true,"vac":true,"version":"7757534","steam_id":85568392924470002,"keywords":["ctf","nocrits","nodmgspread","uncletopia"],"game_id":440,"stv_port":27026,"stv_name":"Uncletopia | Sydney | 2 | All Maps | STV","players":[{"user_id":83,"name":"hyak","steam_id":76561198175700625,"connected_time":1745000000000,"state":"active","ping":88},{"user_id":103,"name":"Lord Oink","steam_id":76561198125237921,"connected_time":927000000000,"state":"active","ping":38},{"user_id":106,"name":"AlmightyLobster","steam_id":76561198081381253,"connected_time":139000000000,"state":"active","ping":48},{"user_id":53,"name":"THE MANN OF HAM","steam_id":76561199189558145,"connected_time":3684000000000,"state":"active","ping":79},{"user_id":93,"name":"Dad","steam_id":76561198190255859,"connected_time":1376000000000,"state":"active","ping":53},{"user_id":97,"name":"mighty beans","steam_id":76561198066380455,"connected_time":1195000000000,"state":"active","ping":29},{"user_id":85,"name":"Del Davis","steam_id":76561198153397177,"connected_time":1680000000000,"state":"active","ping":54},{"user_id":86,"name":"xX_sexhaver_Xx(real)","steam_id":76561199205171109,"connected_time":1650000000000,"state":"active","ping":69},{"user_id":101,"name":"Moms against √úberCharge","steam_id":76561198105820742,"connected_time":1114000000000,"state":"active","ping":69}]},{"server_id":395,"name":"Uncletopia | Sydney | 3 | All Maps","name_short":"syd-3","host":"syd-1.au.uncletopia.com","port":27035,"enabled":true,"region":"au","cc":"au","latitude":-33.865143,"longitude":151.2099,"reserved":0,"last_update":"0001-01-01T00:00:00Z","name_a2s":"Uncletopia | Sydney | 3 | All Maps","protocol":17,"map":"koth_lakeside_final","folder":"tf","game":"Team Fortress","app_id":440,"player_count":0,"max_players":24,"Bots":0,"server_type":"Dedicated","server_os":"Linux","password":true,"vac":true,"version":"7757534","steam_id":85568392925194467,"keywords":["cp","nocrits","nodmgspread","uncletopia"],"game_id":440,"stv_port":27036,"stv_name":"Uncletopia | Sydney | 3 | All Maps | STV","players":null},{"server_id":396,"name":"Uncletopia | Sydney | 4 | All Maps","name_short":"syd-4","host":"syd-1.au.uncletopia.com","port":27045,"enabled":true,"region":"au","cc":"au","latitude":-33.865143,"longitude":151.2099,"reserved":0,"last_update":"0001-01-01T00:00:00Z","name_a2s":"Uncletopia | Sydney | 4 | All Maps","protocol":17,"map":"koth_lakeside_final","folder":"tf","game":"Team Fortress","app_id":440,"player_count":0,"max_players":24,"Bots":0,"server_type":"Dedicated","server_os":"Linux","password":true,"vac":true,"version":"7757534","steam_id":85568392925397958,"keywords":["cp","nocrits","nodmgspread","uncletopia"],"game_id":440,"stv_port":27046,"stv_name":"Uncletopia | Sydney | 4 | All Maps | STV","players":null},{"server_id":58,"name":"Uncletopia | Sydney | 5 | Stopwatch Beta","name_short":"syd-5","host":"syd-1.au.uncletopia.com","port":27055,"enabled":true,"region":"au","cc":"au","latitude":-33.865143,"longitude":151.2099,"reserved":0,"last_update":"0001-01-01T00:00:00Z","name_a2s":"Uncletopia | Sydney | 5 | Stopwatch Beta","protocol":17,"map":"koth_highpass","folder":"tf","game":"Team Fortress","app_id":440,"player_count":0,"max_players":24,"Bots":0,"server_type":"Dedicated","server_os":"Linux","password":true,"vac":true,"version":"7757534","steam_id":85568392925397959,"keywords":["cp","nocrits","nodmgspread","uncletopia"],"game_id":440,"stv_port":27056,"stv_name":"Uncletopia | Sydney | 5 | Stopwatch Beta | STV","players":null},{"server_id":59,"name":"Uncletopia | Sydney | 6 | Community","name_short":"syd-6","host":"syd-1.au.uncletopia.com","port":27065,"enabled":true,"region":"au","cc":"au","latitude":-33.865143,"longitude":151.2099,"reserved":0,"last_update":"0001-01-01T00:00:00Z","name_a2s":"Uncletopia | Sydney | 6 | Community","protocol":17,"map":"workshop/rd_asteroid_redux_b1.ugc2154902912","folder":"tf","game":"Team Fortress","app_id":440,"player_count":0,"max_players":24,"Bots":0,"server_type":"Dedicated","server_os":"Linux","password":true,"vac":true,"version":"7757534","steam_id":85568392925397960,"keywords":["beta","nocrits","nodmgspread","rd","uncletopia"],"game_id":440,"stv_port":27066,"stv_name":"Uncletopia | Sydney | 6 | Community | STV","players":null},{"server_id":49,"name":"Uncletopia | Warsaw | 1 | All Maps","name_short":"waw-1","host":"waw-1.pl.uncletopia.com","port":27015,"enabled":true,"region":"eu","cc":"pl","latitude":52.2297,"longitude":21.017532,"reserved":0,"last_update":"0001-01-01T00:00:00Z","name_a2s":"","protocol":0,"map":"","folder":"","game":"","app_id":0,"player_count":0,"max_players":0,"Bots":0,"server_type":"","server_os":"","password":false,"vac":false,"version":"","steam_id":0,"keywords":null,"game_id":0,"stv_port":0,"stv_name":"","players":null},{"server_id":50,"name":"Uncletopia | Warsaw | 2 | All Maps","name_short":"waw-2","host":"waw-1.pl.uncletopia.com","port":27025,"enabled":true,"region":"eu","cc":"pl","latitude":52.2297,"longitude":21.017532,"reserved":0,"last_update":"0001-01-01T00:00:00Z","name_a2s":"Uncletopia | Warsaw | 2 | All Maps","protocol":17,"map":"cp_process_final","folder":"tf","game":"Team Fortress","app_id":440,"player_count":0,"max_players":24,"Bots":0,"server_type":"Dedicated","server_os":"Linux","password":true,"vac":true,"version":"7757534","steam_id":85568392925397851,"keywords":["cp","nocrits","nodmgspread","uncletopia"],"game_id":440,"stv_port":27026,"stv_name":"Uncletopia | Warsaw | 2 | All Maps | STV","players":null},{"server_id":51,"name":"Uncletopia | Warsaw | 3 | All Maps","name_short":"waw-3","host":"waw-1.pl.uncletopia.com","port":27035,"enabled":true,"region":"eu","cc":"pl","latitude":52.2297,"longitude":21.017532,"reserved":0,"last_update":"0001-01-01T00:00:00Z","name_a2s":"Uncletopia | Warsaw | 3 | All Maps","protocol":17,"map":"pl_barnblitz","folder":"tf","game":"Team Fortress","app_id":440,"player_count":0,"max_players":24,"Bots":0,"server_type":"Dedicated","server_os":"Linux","password":true,"vac":true,"version":"7757534","steam_id":85568392925397852,"keywords":["nocrits","nodmgspread","payload","uncletopia"],"game_id":440,"stv_port":27036,"stv_name":"Uncletopia | Warsaw | 3 | All Maps | STV","players":null},{"server_id":52,"name":"Uncletopia | Warsaw | 4 | All Maps","name_short":"waw-4","host":"waw-1.pl.uncletopia.com","port":27045,"enabled":true,"region":"eu","cc":"pl","latitude":52.2297,"longitude":21.017532,"reserved":0,"last_update":"0001-01-01T00:00:00Z","name_a2s":"Uncletopia | Warsaw | 4 | All Maps","protocol":17,"map":"pl_snowycoast","folder":"tf","game":"Team Fortress","app_id":440,"player_count":0,"max_players":24,"Bots":0,"server_type":"Dedicated","server_os":"Linux","password":true,"vac":true,"version":"7757534","steam_id":85568392925397853,"keywords":["nocrits","nodmgspread","payload","uncletopia"],"game_id":440,"stv_port":27046,"stv_name":"Uncletopia | Warsaw | 4 | All Maps | STV","players":null},{"server_id":53,"name":"Uncletopia | Warsaw | 5 | Stopwatch Beta","name_short":"waw-5","host":"waw-1.pl.uncletopia.com","port":27055,"enabled":true,"region":"eu","cc":"pl","latitude":52.2297,"longitude":21.017532,"reserved":0,"last_update":"0001-01-01T00:00:00Z","name_a2s":"Uncletopia | Warsaw | 5 | Stopwatch Beta","protocol":17,"map":"pl_barnblitz","folder":"tf","game":"Team Fortress","app_id":440,"player_count":0,"max_players":24,"Bots":0,"server_type":"Dedicated","server_os":"Linux","password":true,"vac":true,"version":"7757534","steam_id":85568392925397854,"keywords":["nocrits","nodmgspread","payload","uncletopia"],"game_id":440,"stv_port":27056,"stv_name":"Uncletopia | Warsaw | 5 | Stopwatch Beta | STV","players":null},{"server_id":54,"name":"Uncletopia | Warsaw | 6 | Community","name_short":"waw-6","host":"waw-1.pl.uncletopia.com","port":27065,"enabled":true,"region":"eu","cc":"pl","latitude":52.2297,"longitude":21.017532,"reserved":0,"last_update":"0001-01-01T00:00:00Z","name_a2s":"Uncletopia | Warsaw | 6 | Community","protocol":17,"map":"pl_swiftwater_final1","folder":"tf","game":"Team Fortress","app_id":440,"player_count":0,"max_players":24,"Bots":0,"server_type":"Dedicated","server_os":"Linux","password":true,"vac":true,"version":"7757534","steam_id":85568392925397856,"keywords":["nocrits","nodmgspread","payload","uncletopia"],"game_id":440,"stv_port":27066,"stv_name":"Uncletopia | Warsaw | 6 | Community | STV","players":null}]}