{"status":true,"message":"","result":[{"server_id":9,"name":"Uncletopia | Atlanta | 1 | All Maps","name_short":"atl-1","host":"atl-1.us.uncletopia.com","port":27015,"enabled":true,"region":"us-east","cc":"us","latitude":33.753746,"longitude":-84.38633,"reserved":0,"last_update":"0001-01-01T00:00:00Z","name_a2s":"Uncletopia | Atlanta | 1 | All Maps","protocol":17,"map":"pl_borneo","folder":"tf","game":"Team Fortress","app_id":440,"player_count":24,"max_players":24,"Bots":0,"server_type":"Dedicated","server_os":"Linux","password":true,"vac":true,"version":"7757534","steam_id":85568392924469982,"keywords":["nocrits","nodmgspread","payload","uncletopia"],"game_id":440,"stv_port":27016,"stv_name":"Uncletopia | Atlanta | 1 | All Maps | STV","players":[{"user_id":481,"name":"qiulongtao","steam_id":76561198977558717,"connected_time":518000000000,"state":"active","ping":87},{"user_id":414,"name":"Hobbez_","steam_id":76561198129539154,"connected_time":3930000000000,"state":"active","ping":42},{"user_id":471,"name":"smile","steam_id":76561198166710027,"connected_time":1223000000000,"state":"active","ping":52},{"user_id":419,"name":"lker","steam_id":76561197976975075,"connected_time":3704000000000,"state":"active","ping":66},{"user_id":425,"name":"uhooter","steam_id":76561198007829078,"connected_time":3591000000000,"state":"active","ping":67},{"user_id":487,"name":"Hetler","steam_id":76561198840019488,"connected_time":99000000000,"state":"active","ping":101},{"user_id":458,"name":"DeceptiveLibra","steam_id":76561198071683631,"connected_time":1601000000000,"state":"active","ping":71},{"user_id":486,"name":"1981 Toyota Celica","steam_id":76561198131221488,"connected_time":403000000000,"state":"active","ping":47},{"user_id":438,"name":"Ghost Kaisar","steam_id":76561198103629357,"connected_time":2511000000000,"state":"active","ping":83},{"user_id":411,"name":"Uganda Knuckles lll","steam_id":76561199121276474,"connected_time":4004000000000,"state":"active","ping":98},{"user_id":468,"name":"fart","steam_id":76561198046405072,"connected_time":1253000000000,"state":"active","ping":68},{"user_id":475,"name":"OjJelly","steam_id":76561198835622466,"connected_time":923000000000,"state":"active","ping":68},{"user_id":489,"name":"Uung","steam_id":76561198183956731,"connected_time":78000000000,"state":"active","ping":49},{"user_id":477,"name":"BigDMoney","steam_id":76561198034159624,"connected_time":645000000000,"state":"active","ping":69},{"user_id":476,"name":"nothing of note","steam_id":76561198833043302,"connected_time":923000000000,"state":"active","ping":112},{"user_id":467,"name":"Gordon","steam_id":76561198273207829,"connected_time":1306000000000,"state":"active","ping":73},{"user_id":469,"name":"火星 | Marsy","steam_id":76561198014979892,"connected_time":1253000000000,"state":"active","ping":66},{"user_id":480,"name":"Im High","steam_id":76561198049954886,"connected_time":548000000000,"state":"active","ping":65},{"user_id":488,"name":"BoredPanda","steam_id":76561199242942720,"connected_time":86000000000,"state":"spawning","ping":114},{"user_id":329,"name":"700,001 rabid chihuahuas in Ohi","steam_id":76561198130772096,"connected_time":10221000000000,"state":"active","ping":50},{"user_id":484,"name":"Declivity","steam_id":76561198024690138,"connected_time":449000000000,"state":"active","ping":82},{"user_id":482,"name":"Red on Red","steam_id":76561198802356746,"connected_time":508000000000,"state":"active","ping":105},{"user_id":423,"name":"Coup de Grass","steam_id":76561198011643226,"connected_time":3635000000000,"state":"active","ping":67},{"user_id":464,"name":"wife","steam_id":76561198141795632,"connected_time":1408000000000,"state":"active","ping":58}]},{"server_id":400,"name":"Uncletopia | Atlanta | 3 | Community","name_short":"atl-3","host":"atl-1.us.uncletopia.com","port":27035,"enabled":true,"region":"us-east","cc":"us","latitude":33.753746,"longitude":-84.38633,"reserved":0,"last_update":"0001-01-01T00:00:00Z","name_a2s":"Uncletopia | Atlanta | 3 | Community","protocol":17,"map":"workshop/pl_divulgence_b4b.ugc2884808746","folder":"tf","game":"Team Fortress","app_id":440,"player_count":24,"max_players":32,"Bots":0,"server_type":"Dedicated","server_os":"Linux","password":true,"vac":true,"version":"7757534","steam_id":85568392924515187,"keywords":["increased_maxplayers","nocrits","nodmgspread","payload","uncletopia"],"game_id":440,"stv_port":27036,"stv_name":"Uncletopia | Atlanta | 3 | Community | STV","players":[{"user_id":75,"name":"latte","steam_id":76561198258062078,"connected_time":9177000000000,"state":"active","ping":62},{"user_id":356,"name":"walterfishing_17","steam_id":76561198976904099,"connected_time":352000000000,"state":"active","ping":60},{"user_id":324,"name":"catfish from toontown","steam_id":76561198060070002,"connected_time":1321000000000,"state":"active","ping":92},{"user_id":320,"name":"merge without looking","steam_id":76561198056702628,"connected_time":1466000000000,"state":"active","ping":59},{"user_id":241,"name":"NobodyMonkey","steam_id":76561198318360972,"connected_time":4568000000000,"state":"active","ping":116},{"user_id":321,"name":"jalapeno handjob","steam_id":76561198123298824,"connected_time":1444000000000,"state":"active","ping":73},{"user_id":325,"name":"Alex the doggo","steam_id":76561198031827407,"connected_time":1285000000000,"state":"active","ping":76},{"user_id":295,"name":"IGuy","steam_id":76561197996590728,"connected_time":2498000000000,"state":"active","ping":74},{"user_id":326,"name":"800x600","steam_id":76561198140014951,"connected_time":1244000000000,"state":"active","ping":75},{"user_id":338,"name":"Woogie Woogy Boogie","steam_id":76561198269471732,"connected_time":836000000000,"state":"active","ping":69},{"user_id":362,"name":"IxMic88","steam_id":76561198018552479,"connected_time":205000000000,"state":"active","ping":79},{"user_id":285,"name":"NatePlayz97","steam_id":76561198184494979,"connected_time":3024000000000,"state":"active","ping":84},{"user_id":358,"name":"zaidanelson50","steam_id":76561199471645787,"connected_time":295000000000,"state":"active","ping":81},{"user_id":339,"name":"fancy frog","steam_id":76561199219649143,"connected_time":808000000000,"state":"active","ping":86},{"user_id":276,"name":"BobSagettttt","steam_id":76561198067683192,"connected_time":3915000000000,"state":"active","ping":121},{"user_id":317,"name":"Mask","steam_id":76561198877649728,"connected_time":1620000000000,"state":"active","ping":115},{"user_id":345,"name":"Takedownbook24","steam_id":76561199205565091,"connected_time":649000000000,"state":"active","ping":81},{"user_id":359,"name":"I (heart) HENTAI","steam_id":76561198890621303,"connected_time":293000000000,"state":"active","ping":80},{"user_id":268,"name":"Disambiguation","steam_id":76561198133963270,"connected_time":4166000000000,"state":"active","ping":45},{"user_id":333,"name":"pool shark","steam_id":76561198130191179,"connected_time":1046000000000,"state":"active","ping":80},{"user_id":291,"name":"bash -lc ./asshat.sh","steam_id":76561198004584315,"connected_time":2829000000000,"state":"active","ping":89},{"user_id":292,"name":"❤♡･ﾟBubbles･ﾟ♡❤","steam_id":76561198041057042,"connected_time":2822000000000,"state":"active","ping":88},{"user_id":314,"name":"Venclaire","steam_id":76561198053837612,"connected_time":1712000000000,"state":"active","ping":68},{"user_id":311,"name":"Hvit","steam_id":76561198091594259,"connected_time":1778000000000,"state":"active","ping":98}]},{"server_id":401,"name":"Uncletopia | Atlanta | 4 | No Payload","name_short":"atl-4","host":"atl-1.us.uncletopia.com","port":27045,"enabled":true,"region":"us-east","cc":"us","latitude":33.753746,"longitude":-84.38633,"reserved":0,"last_update":"0001-01-01T00:00:00Z","name_a2s":"","protocol":0,"map":"","folder":"","game":"","app_id":0,"player_count":0,"max_players":0,"Bots":0,"server_type":"","server_os":"","password":false,"vac":false,"version":"","steam_id":0,"keywords":null,"game_id":0,"stv_port":0,"stv_name":"","players":null},{"server_id":2,"name":"Uncletopia | Chicago | 1 | All Maps","name_short":"chi-1","host":"chi-1.us.uncletopia.com","port":27015,"enabled":true,"region":"us-central","cc":"us","latitude":41.881832,"longitude":-87.62318,"reserved":0,"last_update":"0001-01-01T00:00:00Z","name_a2s":"Uncletopia | Chicago | 1 | All Maps","protocol":17,"map":"pl_swiftwater_final1","folder":"tf","game":"Team Fortress","app_id":440,"player_count":24,"max_players":24,"Bots":0,"server_type":"Dedicated","server_os":"Linux","password":true,"vac":true,"version":"7757534","steam_id":85568392924469984,"keywords":["nocrits","nodmgspread","payload","uncletopia"],"game_id":440,"stv_port":27016,"stv_name":"Uncletopia | Chicago | 1 | All Maps | STV","players":[{"user_id":614,"name":"Chechens Spotted","steam_id":76561199028910893,"connected_time":1792000000000,"state":"active","ping":84},{"user_id":636,"name":"Toa of Time","steam_id":76561198086867556,"connected_time":1033000000000,"state":"active","ping":218},{"user_id":639,"name":"SneakySneak","steam_id":76561198064847921,"connected_time":1005000000000,"state":"active","ping":91},{"user_id":632,"name":"God of bread","steam_id":76561198373688035,"connected_time":1213000000000,"state":"active","ping":62},{"user_id":616,"name":"Balerion the Black Dread","steam_id":76561198003728369,"connected_time":1729000000000,"state":"active","ping":54},{"user_id":633,"name":"KurdKolbain","steam_id":76561198001024697,"connected_time":1118000000000,"state":"active","ping":94},{"user_id":634,"name":"mossy_woods","steam_id":76561198284350370,"connected_time":1102000000000,"state":"active","ping":70},{"user_id":652,"name":"Blackstone","steam_id":76561198327240283,"connected_time":555000000000,"state":"active","ping":111},{"user_id":623,"name":"chowder908","steam_id":76561198075858535,"connected_time":1515000000000,"state":"active","ping":72},{"user_id":628,"name":"WhackyOrc","steam_id":76561199470020355,"connected_time":1365000000000,"state":"active","ping":87},{"user_id":650,"name":"SHADOW (he/him)","steam_id":76561198207768148,"connected_time":706000000000,"state":"active","ping":107},{"user_id":624,"name":"Chrome Knight","steam_id":76561198851348871,"connected_time":1510000000000,"state":"active","ping":83},{"user_id":626,"name":"Nick","steam_id":76561198014250819,"connected_time":1452000000000,"state":"active","ping":70},{"user_id":651,"name":"Chubbles","steam_id":76561198237619472,"connected_time":604000000000,"state":"active","ping":73},{"user_id":641,"name":"Snom","steam_id":76561198333827920,"connected_time":938000000000,"state":"active","ping":99},{"user_id":580,"name":"Feel the bern","steam_id":76561198078824519,"connected_time":4885000000000,"state":"active","ping":119},{"user_id":643,"name":"Just-Some-Menace","steam_id":76561198152324397,"connected_time":749000000000,"state":"active","ping":75},{"user_id":655,"name":"Tones","steam_id":76561198039572032,"connected_time":365000000000,"state":"active","ping":64},{"user_id":644,"name":"The Cyberborn Butcher","steam_id":76561198802514971,"connected_time":748000000000,"state":"active","ping":129},{"user_id":645,"name":"Excalahave","steam_id":76561198072622946,"connected_time":738000000000,"state":"active","ping":60},{"user_id":646,"name":"cattalyst","steam_id":76561198799952419,"connected_time":737000000000,"state":"active","ping":97},{"user_id":653,"name":"TÖZI","steam_id":76561198045268695,"connected_time":507000000000,"state":"active","ping":60},{"user_id":648,"name":"Stapler","steam_id":76561198099295077,"connected_time":724000000000,"state":"active","ping":90},{"user_id":649,"name":"2L84U","steam_id":76561198079176017,"connected_time":720000000000,"state":"active","ping":86}]},{"server_id":106,"name":"Uncletopia | Chicago | 2 | All Maps","name_short":"chi-2","host":"chi-1.us.uncletopia.com","port":27025,"enabled":true,"region":"us-central","cc":"us","latitude":41.881832,"longitude":-87.62318,"reserved":0,"last_update":"0001-01-01T00:00:00Z","name_a2s":"Uncletopia | Chicago | 2 | All Maps","protocol":17,"map":"pl_pier","folder":"tf","game":"Team Fortress","app_id":440,"player_count":24,"max_players":24,"Bots":0,"server_type":"Dedicated","server_os":"Linux","password":true,"vac":true,"version":"7757534","steam_id":85568392924469985,"keywords":["nocrits","nodmgspread","payload","uncletopia"],"game_id":440,"stv_port":27026,"stv_name":"Uncletopia | Chicago | 2 | All Maps | STV","players":[{"user_id":778,"name":"Null","steam_id":76561198062791227,"connected_time":364000000000,"state":"active","ping":65},{"user_id":736,"name":"Ojen","steam_id":76561197998414482,"connected_time":3237000000000,"state":"active","ping":77},{"user_id":682,"name":"1 Great Wooden Dad","steam_id":76561198377126974,"connected_time":7792000000000,"state":"active","ping":72},{"user_id":734,"name":"Huge","steam_id":76561199030987614,"connected_time":3438000000000,"state":"active","ping":82},{"user_id":729,"name":"Tea Doggo","steam_id":76561198315482534,"connected_time":3749000000000,"state":"active","ping":99},{"user_id":767,"name":"vyx","steam_id":76561198037205391,"connected_time":1094000000000,"state":"active","ping":58},{"user_id":754,"name":"United Bank of M O N E Y","steam_id":76561198251647556,"connected_time":1990000000000,"state":"active","ping":1293},{"user_id":765,"name":"AwakeShark","steam_id":76561198271059544,"connected_time":1285000000000,"state":"active","ping":86},{"user_id":752,"name":"fvnfhjf","steam_id":76561198349896000,"connected_time":2541000000000,"state":"active","ping":52},{"user_id":775,"name":"dbelow_","steam_id":76561198056148853,"connected_time":669000000000,"state":"active","ping":59},{"user_id":770,"name":"MELT MY EYEZ SEE YOUR FUTURE","steam_id":76561198397009880,"connected_time":851000000000,"state":"active","ping":69},{"user_id":781,"name":"Kapitan Bomba","steam_id":76561199102087660,"connected_time":318000000000,"state":"active","ping":68},{"user_id":784,"name":":/","steam_id":76561198085292252,"connected_time":81000000000,"state":"active","ping":85},{"user_id":780,"name":"ZOME","steam_id":76561198098035337,"connected_time":350000000000,"state":"active","ping":85},{"user_id":772,"name":"swissy","steam_id":76561198806135761,"connected_time":776000000000,"state":"active","ping":65},{"user_id":751,"name":"manbearswineflu","steam_id":76561198083945137,"connected_time":2551000000000,"state":"active","ping":67},{"user_id":788,"name":"hummus in my tummus","steam_id":76561199438698036,"connected_time":12000000000,"state":"active","ping":172},{"user_id":787,"name":"Mr. Evil's racist Orc","steam_id":76561199145173282,"connected_time":60000000000,"state":"active","ping":54},{"user_id":739,"name":"women disadvantage","steam_id":76561199445629071,"connected_time":3218000000000,"state":"active","ping":75},{"user_id":773,"name":"Seihai","steam_id":76561198060304405,"connected_time":746000000000,"state":"active","ping":75},{"user_id":764,"name":"raw chicken enjoyer","steam_id":76561198986943063,"connected_time":1319000000000,"state":"active","ping":89},{"user_id":777,"name":"Gigabars","steam_id":76561198119267479,"connected_time":385000000000,"state":"active","ping":68},{"user_id":783,"name":"Otterrific","steam_id":76561198401947855,"connected_time":191000000000,"state":"active","ping":126},{"user_id":761,"name":"Lia_Rein","steam_id":76561198151569597,"connected_time":1644000000000,"state":"active","ping":146}]},{"server_id":402,"name":"Uncletopia | Chicago | 3 | All Maps","name_short":"chi-3","host":"chi-1.us.uncletopia.com","port":27035,"enabled":true,"region":"us-central","cc":"us","latitude":41.881832,"longitude":-87.62318,"reserved":0,"last_update":"0001-01-01T00:00:00Z","name_a2s":"Uncletopia | Chicago | 3 | All Maps","protocol":17,"map":"pl_barnblitz","folder":"tf","game":"Team Fortress","app_id":440,"player_count":23,"max_players":24,"Bots":0,"server_type":"Dedicated","server_os":"Linux","password":true,"vac":true,"version":"7757534","steam_id":85568392924515191,"keywords":["nocrits","nodmgspread","payload","uncletopia"],"game_id":440,"stv_port":27036,"stv_name":"Uncletopia | Chicago | 3 | All Maps | STV","players":[{"user_id":465,"name":"Doctor Glocktorpus [NGC]","steam_id":76561198049194645,"connected_time":693000000000,"state":"active","ping":66},{"user_id":476,"name":"Rhutebeer","steam_id":76561198018302761,"connected_time":525000000000,"state":"active","ping":101},{"user_id":471,"name":"SlippyPunk","steam_id":76561198048551455,"connected_time":606000000000,"state":"active","ping":95},{"user_id":487,"name":"Amazingamerhawk","steam_id":76561199064935924,"connected_time":165000000000,"state":"active","ping":60},{"user_id":492,"name":"META.exe","steam_id":76561199067098696,"connected_time":67000000000,"state":"active","ping":88},{"user_id":490,"name":"Johnny Lawrence #JohnnyMaxxing","steam_id":76561199367141671,"connected_time":138000000000,"state":"active","ping":60},{"user_id":456,"name":"Stormz64","steam_id":76561198239036482,"connected_time":1228000000000,"state":"active","ping":42},{"user_id":463,"name":"crippling fumo addiction","steam_id":76561198115874625,"connected_time":776000000000,"state":"active","ping":64},{"user_id":491,"name":"aphexjh","steam_id":76561197985854658,"connected_time":105000000000,"state":"active","ping":57},{"user_id":479,"name":"Herr Müller","steam_id":76561198064876829,"connected_time":496000000000,"state":"active","ping":96},{"user_id":468,"name":"Vivi","steam_id":76561198132698345,"connected_time":655000000000,"state":"active","ping":59},{"user_id":486,"name":"DazzlingMaggot","steam_id":76561197972716928,"connected_time":167000000000,"state":"active","ping":75},{"user_id":457,"name":"Baka!⑨⑨⑨⑨","steam_id":76561198152948254,"connected_time":1172000000000,"state":"active","ping":68},{"user_id":458,"name":"Skeech","steam_id":76561198119215388,"connected_time":1080000000000,"state":"active","ping":82},{"user_id":493,"name":"Nobody","steam_id":76561198286486517,"connected_time":62000000000,"state":"active","ping":337},{"user_id":469,"name":"ZofoJackson","steam_id":76561197998366861,"connected_time":639000000000,"state":"active","ping":54},{"user_id":483,"name":"Fuzzy Toast","steam_id":76561198028067781,"connected_time":425000000000,"state":"active","ping":43},{"user_id":428,"name":"Cinder","steam_id":76561198049078850,"connected_time":3915000000000,"state":"active","ping":75},{"user_id":485,"name":"Cat in Your Backyard","steam_id":76561197979078330,"connected_time":307000000000,"state":"active","ping":61},{"user_id":455,"name":"Cucumber Gaming","steam_id":76561198982680715,"connected_time":1259000000000,"state":"active","ping":53},{"user_id":484,"name":"alfredodan","steam_id":76561198025011044,"connected_time":422000000000,"state":"active","ping":76},{"user_id":488,"name":"Detox De Cipher","steam_id":76561198055630693,"connected_time":162000000000,"state":"active","ping":72},{"user_id":474,"name":"-W3E- grim10465","steam_id":76561198045698581,"connected_time":582000000000,"state":"active","ping":48}]},{"server_id":403,"name":"Uncletopia | Chicago | 4 | All Maps","name_short":"chi-4","host":"chi-1.us.uncletopia.com","port":27045,"enabled":true,"region":"us-central","cc":"us","latitude":41.881832,"longitude":-87.62318,"reserved":0,"last_update":"0001-01-01T00:00:00Z","name_a2s":"Uncletopia | Chicago | 4 | All Maps","protocol":17,"map":"pl_snowycoast","folder":"tf","game":"Team Fortress","app_id":440,"player_count":24,"max_players":24,"Bots":0,"server_type":"Dedicated","server_os":"Linux","password":true,"vac":true,"version":"7757534","steam_id":85568392924515193,"keywords":["nocrits","nodmgspread","payload","uncletopia"],"game_id":440,"stv_port":27046,"stv_name":"Uncletopia | Chicago | 4 | All Maps | STV","players":[{"user_id":549,"name":"Saint Erasmus (St. Elmo)","steam_id":76561198263602105,"connected_time":1811000000000,"state":"active","ping":63},{"user_id":540,"name":"ventus51701","steam_id":76561198207372741,"connected_time":2006000000000,"state":"active","ping":59},{"user_id":545,"name":"Psychosis","steam_id":76561198078659070,"connected_time":1903000000000,"state":"active","ping":76},{"user_id":555,"name":"Pyrovision Enthusiast","steam_id":76561198211892779,"connected_time":1380000000000,"state":"active","ping":64},{"user_id":541,"name":"SleepyLife","steam_id":76561198118247771,"connected_time":2000000000000,"state":"active","ping":69},{"user_id":572,"name":"engie","steam_id":76561199229629045,"connected_time":144000000000,"state":"active","ping":114},{"user_id":576,"name":"canti","steam_id":76561198019267942,"connected_time":89000000000,"state":"active","ping":84},{"user_id":574,"name":"gonk","steam_id":76561198061206732,"connected_time":124000000000,"state":"active","ping":88},{"user_id":559,"name":"volta","steam_id":76561199214283884,"connected_time":663000000000,"state":"active","ping":103},{"user_id":569,"name":"Dorso","steam_id":76561198380590080,"connected_time":265000000000,"state":"active","ping":104},{"user_id":568,"name":"I DO DRUGS GAMING","steam_id":76561199013414654,"connected_time":298000000000,"state":"active","ping":59},{"user_id":556,"name":"Furry Saul Goodman","steam_id":76561198069580305,"connected_time":1321000000000,"state":"active","ping":55},{"user_id":571,"name":"waaaaaa","steam_id":76561199223514262,"connected_time":151000000000,"state":"active","ping":85},{"user_id":573,"name":"lag","steam_id":76561197963872739,"connected_time":141000000000,"state":"active","ping":96},{"user_id":558,"name":"Metallus","steam_id":76561198087440853,"connected_time":942000000000,"state":"active","ping":97},{"user_id":548,"name":"Chagalicious","steam_id":76561198044128240,"connected_time":1854000000000,"state":"active","ping":82},{"user_id":523,"name":"uluna","steam_id":76561198284102821,"connected_time":3512000000000,"state":"active","ping":71},{"user_id":508,"name":"Enron Hubbard","steam_id":76561198012951411,"connected_time":5176000000000,"state":"active","ping":62},{"user_id":550,"name":"Ravali","steam_id":76561198017340957,"connected_time":1810000000000,"state":"active","ping":85},{"user_id":527,"name":"AJZombieSlayr","steam_id":76561198157802310,"connected_time":3389000000000,"state":"active","ping":92},{"user_id":562,"name":"Bottle","steam_id":76561198044031558,"connected_time":610000000000,"state":"active","ping":71},{"user_id":551,"name":"Gator","steam_id":76561198185982730,"connected_time":1789000000000,"state":"active","ping":65},{"user_id":552,"name":"5 gay rats in a trench coat","steam_id":76561198272027873,"connected_time":1786000000000,"state":"active","ping":55},{"user_id":567,"name":"Hentai Lord","steam_id":76561199030449654,"connected_time":411000000000,"state":"active","ping":82}]},{"server_id":36,"name":"Uncletopia | Chicago | 5 | All Maps","name_short":"chi-5","host":"chi-2.us.uncletopia.com","port":27015,"enabled":true,"region":"us-central","cc":"us","latitude":41.881832,"longitude":-87.62318,"reserved":0,"last_update":"0001-01-01T00:00:00Z","name_a2s":"Uncletopia | Chicago | 5 | All Maps","protocol":17,"map":"pl_snowycoast","folder":"tf","game":"Team Fortress","app_id":440,"player_count":24,"max_players":24,"Bots":0,"server_type":"Dedicated","server_os":"Linux","password":true,"vac":true,"version":"7757534","steam_id":85568392924866362,"keywords":["nocrits","nodmgspread","payload","uncletopia"],"game_id":440,"stv_port":27016,"stv_name":"Uncletopia | Chicago | 5 | All Maps | STV","players":[{"user_id":346,"name":"Mina's Ninas","steam_id":76561198046502179,"connected_time":2857000000000,"state":"active","ping":92},{"user_id":384,"name":"bogus","steam_id":76561198377555279,"connected_time":86000000000,"state":"active","ping":87},{"user_id":338,"name":"Dispenser (Twan)","steam_id":76561197991064908,"connected_time":3840000000000,"state":"active","ping":68},{"user_id":370,"name":"MintiWitt","steam_id":76561198284677611,"connected_time":1628000000000,"state":"active","ping":62},{"user_id":301,"name":"Dr. Dick","steam_id":76561198138011922,"connected_time":6391000000000,"state":"active","ping":74},{"user_id":335,"name":"Crazed","steam_id":76561198012358085,"connected_time":4035000000000,"state":"active","ping":59},{"user_id":375,"name":"SWANZ 007","steam_id":76561198076822795,"connected_time":1028000000000,"state":"active","ping":50},{"user_id":336,"name":"PCR","steam_id":76561198048748102,"connected_time":4020000000000,"state":"active","ping":56},{"user_id":376,"name":"thecal","steam_id":76561198307893384,"connected_time":1011000000000,"state":"active","ping":53},{"user_id":385,"name":"asm_ghost","steam_id":76561199205363547,"connected_time":74000000000,"state":"active","ping":126},{"user_id":381,"name":"demoknight tf2","steam_id":76561198070393998,"connected_time":642000000000,"state":"active","ping":62},{"user_id":354,"name":"AJW701","steam_id":76561198965505907,"connected_time":2773000000000,"state":"active","ping":115},{"user_id":377,"name":"Ceikry","steam_id":76561199179078655,"connected_time":976000000000,"state":"active","ping":71},{"user_id":347,"name":"Dieu-Sama","steam_id":76561198002075862,"connected_time":2856000000000,"state":"active","ping":85},{"user_id":383,"name":"Wso1123","steam_id":76561198048040111,"connected_time":516000000000,"state":"active","ping":60},{"user_id":386,"name":"[DATS➡] Sugar Meowth","steam_id":76561197995251793,"connected_time":63000000000,"state":"active","ping":95},{"user_id":378,"name":"Bart Harley Jarvis","steam_id":76561199215811448,"connected_time":929000000000,"state":"active","ping":81},{"user_id":382,"name":"Sheep","steam_id":76561198122705864,"connected_time":578000000000,"state":"active","ping":87},{"user_id":316,"name":"inventor1214","steam_id":76561198062317696,"connected_time":4685000000000,"state":"active","ping":116},{"user_id":359,"name":"Wilhelmktx","steam_id":76561198158102295,"connected_time":2682000000000,"state":"active","ping":58},{"user_id":380,"name":"matrixcode","steam_id":76561198054805328,"connected_time":844000000000,"state":"active","ping":45},{"user_id":369,"name":"lamadre07","steam_id":76561198067337453,"connected_time":1701000000000,"state":"active","ping":105},{"user_id":364,"name":"Razz","steam_id":76561198158027533,"connected_time":2165000000000,"state":"active","ping":45},{"user_id":360,"name":"Dr Spaceman","steam_id":76561197969755657,"connected_time":2671000000000,"state":"active","ping":46}]},{"server_id":37,"name":"Uncletopia | Chicago | 6 | All Maps","name_short":"chi-6","host":"chi-2.us.uncletopia.com","port":27025,"enabled":true,"region":"us-central","cc":"us","latitude":41.881832,"longitude":-87.62318,"reserved":0,"last_update":"0001-01-01T00:00:00Z","name_a2s":"Uncletopia | Chicago | 6 | All Maps","protocol":17,"map":"cp_egypt_final","folder":"tf","game":"Team Fortress","app_id":440,"player_count":24,"max_players":24,"Bots":0,"server_type":"Dedicated","server_os":"Linux","password":true,"vac":true,"version":"7757534","steam_id":85568392924866363,"keywords":["cp","nocrits","nodmgspread","uncletopia"],"game_id":440,"stv_port":27026,"stv_name":"Uncletopia | Chicago | 6 | All Maps | STV","players":[{"user_id":362,"name":"NilkadNaquada","steam_id":76561198066458761,"connected_time":604000000000,"state":"active","ping":90},{"user_id":358,"name":"Frontier Psychiatrist","steam_id":76561198038689088,"connected_time":930000000000,"state":"active","ping":87},{"user_id":333,"name":"Killertaco69","steam_id":76561199156374835,"connected_time":1731000000000,"state":"active","ping":77},{"user_id":336,"name":"St4pps","steam_id":76561198449842958,"connected_time":1689000000000,"state":"active","ping":71},{"user_id":266,"name":"Zen Skye","steam_id":76561198114452552,"connected_time":6007000000000,"state":"active","ping":57},{"user_id":370,"name":"Chrisscar","steam_id":76561198086298130,"connected_time":209000000000,"state":"active","ping":104},{"user_id":363,"name":"061202travis","steam_id":76561198267467078,"connected_time":577000000000,"state":"active","ping":100},{"user_id":371,"name":"Jones","steam_id":76561198046037216,"connected_time":24000000000,"state":"spawning","ping":97},{"user_id":320,"name":"LobsterPot","steam_id":76561198072225973,"connected_time":2112000000000,"state":"active","ping":60},{"user_id":292,"name":"cute.slander","steam_id":76561198034705534,"connected_time":3797000000000,"state":"active","ping":82},{"user_id":359,"name":"an actual dog","steam_id":76561198826454298,"connected_time":822000000000,"state":"active","ping":78},{"user_id":350,"name":"joe","steam_id":76561198045781320,"connected_time":1259000000000,"state":"active","ping":71},{"user_id":367,"name":"Emails","steam_id":76561198836919458,"connected_time":431000000000,"state":"active","ping":93},{"user_id":293,"name":"Pseudo","steam_id":76561198026679489,"connected_time":3791000000000,"state":"active","ping":72},{"user_id":351,"name":"smelly boy james(he stinkin)","steam_id":76561197997006216,"connected_time":1245000000000,"state":"active","ping":54},{"user_id":356,"name":"Robbie Rotten","steam_id":76561198426759305,"connected_time":1060000000000,"state":"active","ping":96},{"user_id":335,"name":"nav","steam_id":76561198872608266,"connected_time":1703000000000,"state":"active","ping":95},{"user_id":341,"name":"viper","steam_id":76561198839942937,"connected_time":1550000000000,"state":"active","ping":67},{"user_id":360,"name":"󠀡󠀡","steam_id":76561198202704364,"connected_time":775000000000,"state":"active","ping":107},{"user_id":368,"name":"crankshaft","steam_id":76561197992798282,"connected_time":411000000000,"state":"active","ping":105},{"user_id":361,"name":"CherryYeti","steam_id":76561199221441151,"connected_time":772000000000,"state":"active","ping":110},{"user_id":348,"name":"PileofPolygons","steam_id":76561199321343460,"connected_time":1341000000000,"state":"active","ping":71},{"user_id":338,"name":"fallacy","steam_id":76561198057374871,"connected_time":1647000000000,"state":"active","ping":65},{"user_id":369,"name":"Merach","steam_id":76561197994544587,"connected_time":391000000000,"state":"active","ping":66}]},{"server_id":38,"name":"Uncletopia | Chicago | 7 | Stopwatch Beta","name_short":"chi-7","host":"chi-2.us.uncletopia.com","port":27035,"enabled":true,"region":"us-central","cc":"us","latitude":41.881832,"longitude":-87.62318,"reserved":0,"last_update":"0001-01-01T00:00:00Z","name_a2s":"Uncletopia | Chicago | 7 | Stopwatch Beta","protocol":17,"map":"workshop/koth_bagel_rc5.ugc2514036946","folder":"tf","game":"Team Fortress","app_id":440,"player_count":13,"max_players":24,"Bots":0,"server_type":"Dedicated","server_os":"Linux","password":true,"vac":true,"version":"7757534","steam_id":85568392924866364,"keywords":["cp","nocrits","nodmgspread","uncletopia"],"game_id":440,"stv_port":27036,"stv_name":"Uncletopia | Chicago | 7 | Stopwatch Beta | STV","players":[{"user_id":39,"name":"∀ɐ","steam_id":76561198139718219,"connected_time":166000000000,"state":"active","ping":68},{"user_id":40,"name":"Professor Piper","steam_id":76561198156041205,"connected_time":85000000000,"state":"active","ping":44},{"user_id":27,"name":"Mercenary","steam_id":76561198140593461,"connected_time":666000000000,"state":"active","ping":54},{"user_id":29,"name":"Wavey Davey","steam_id":76561198113942693,"connected_time":656000000000,"state":"active","ping":56},{"user_id":41,"name":"Juri Han","steam_id":76561198041678517,"connected_time":61000000000,"state":"active","ping":104},{"user_id":31,"name":"help_im_tilted","steam_id":76561198273285813,"connected_time":648000000000,"state":"active","ping":105},{"user_id":32,"name":"jbartelt0999","steam_id":76561198311675942,"connected_time":630000000000,"state":"active","ping":57},{"user_id":33,"name":"hoogs","steam_id":76561198012039598,"connected_time":563000000000,"state":"active","ping":61},{"user_id":34,"name":"PriorRam","steam_id":76561198054757404,"connected_time":494000000000,"state":"active","ping":61},{"user_id":42,"name":"zeredis","steam_id":76561198076596689,"connected_time":16000000000,"state":"spawning","ping":163},{"user_id":43,"name":"Lavender","steam_id":76561198142770666,"connected_time":9000000000,"state":"spawning","ping":149},{"user_id":44,"name":"TacoBell™ Toilet","steam_id":76561198221619936,"connected_time":3000000000,"state":"spawning","ping":112},{"user_id":38,"name":"elyk37","steam_id":76561198124135253,"connected_time":232000000000,"state":"active","ping":64}]},{"server_id":39,"name":"Uncletopia | Chicago | 8 | Community","name_short":"chi-8","host":"chi-2.us.uncletopia.com","port":27045,"enabled":true,"region":"us-central","cc":"us","latitude":41.881832,"longitude":-87.62318,"reserved":0,"last_update":"0001-01-01T00:00:00Z","name_a2s":"Uncletopia | Chicago | 8 | Community","protocol":17,"map":"workshop/koth_kemptown_rc1.ugc767410655","folder":"tf","game":"Team Fortress","app_id":440,"player_count":0,"max_players":24,"Bots":0,"server_type":"Dedicated","server_os":"Linux","password":true,"vac":true,"version":"7757534","steam_id":85568392924866365,"keywords":["cp","nocrits","nodmgspread","uncletopia"],"game_id":440,"stv_port":27046,"stv_name":"Uncletopia | Chicago | 8 | Community | STV","players":null},{"server_id":8,"name":"Uncletopia | Dallas | 1 | All Maps","name_short":"dal-1","host":"dal-1.us.uncletopia.com","port":27015,"enabled":true,"region":"us-central","cc":"us","latitude":32.779167,"longitude":-96.80889,"reserved":0,"last_update":"0001-01-01T00:00:00Z","name_a2s":"Uncletopia | Dallas | 1 | All Maps","protocol":17,"map":"cp_snakewater_final1","folder":"tf","game":"Team Fortress","app_id":440,"player_count":24,"max_players":24,"Bots":0,"server_type":"Dedicated","server_os":"Linux","password":true,"vac":true,"version":"7757534","steam_id":85568392924469986,"keywords":["cp","nocrits","nodmgspread","uncletopia"],"game_id":440,"stv_port":27016,"stv_name":"Uncletopia | Dallas | 1 | All Maps | STV","players":[{"user_id":510,"name":"blademiss","steam_id":76561198062083019,"connected_time":1329000000000,"state":"active","ping":82},{"user_id":511,"name":"giveit5","steam_id":76561198030815437,"connected_time":1318000000000,"state":"active","ping":74},{"user_id":517,"name":"AtomLao","steam_id":76561198886167680,"connected_time":1088000000000,"state":"active","ping":65},{"user_id":509,"name":"Red","steam_id":76561198031865869,"connected_time":1358000000000,"state":"active","ping":65},{"user_id":519,"name":"pete_the_cat_2014","steam_id":76561198199266047,"connected_time":594000000000,"state":"active","ping":71},{"user_id":498,"name":"Keg","steam_id":76561198242688458,"connected_time":2205000000000,"state":"active","ping":62},{"user_id":416,"name":"DeckofDragons","steam_id":76561198057398213,"connected_time":7290000000000,"state":"active","ping":73},{"user_id":502,"name":"KittyCatMeowMeow","steam_id":76561198211632819,"connected_time":1941000000000,"state":"active","ping":54},{"user_id":521,"name":"scream","steam_id":76561198083789250,"connected_time":497000000000,"state":"active","ping":66},{"user_id":495,"name":"Flooph_","steam_id":76561199213806498,"connected_time":2236000000000,"state":"active","ping":93},{"user_id":508,"name":"henry","steam_id":76561198224614084,"connected_time":1387000000000,"state":"active","ping":92},{"user_id":419,"name":"GarretGood","steam_id":76561198071881495,"connected_time":7258000000000,"state":"active","ping":107},{"user_id":512,"name":"Lucretiel","steam_id":76561197983490423,"connected_time":1313000000000,"state":"active","ping":103},{"user_id":513,"name":"_Lusty_","steam_id":76561198876948142,"connected_time":1309000000000,"state":"active","ping":68},{"user_id":485,"name":"Qwerty","steam_id":76561198082874885,"connected_time":3150000000000,"state":"active","ping":81},{"user_id":507,"name":"plink","steam_id":76561198057829889,"connected_time":1556000000000,"state":"active","ping":137},{"user_id":514,"name":"schnedwob","steam_id":76561197999146588,"connected_time":1306000000000,"state":"active","ping":55},{"user_id":472,"name":"Jelpo","steam_id":76561198406920072,"connected_time":4580000000000,"state":"active","ping":72},{"user_id":489,"name":"doubledanage","steam_id":76561198418629356,"connected_time":3130000000000,"state":"active","ping":53},{"user_id":515,"name":"vartion","steam_id":76561198272996824,"connected_time":1286000000000,"state":"active","ping":103},{"user_id":520,"name":"TechnoPotato","steam_id":76561199007440050,"connected_time":549000000000,"state":"active","ping":109},{"user_id":516,"name":"LalitoTV","steam_id":76561198334302951,"connected_time":1250000000000,"state":"active","ping":116},{"user_id":522,"name":"Captain MLG","steam_id":76561199183321645,"connected_time":361000000000,"state":"active","ping":55},{"user_id":506,"name":"Yahtza","steam_id":76561198152171495,"connected_time":1599000000000,"state":"active","ping":72}]},{"server_id":108,"name":"Uncletopia | Dallas | 2 | All Maps","name_short":"dal-2","host":"dal-1.us.uncletopia.com","port":27025,"enabled":true,"region":"us-central","cc":"us","latitude":32.779167,"longitude":-96.80889,"reserved":0,"last_update":"0001-01-01T00:00:00Z","name_a2s":"Uncletopia | Dallas | 2 | All Maps","protocol":17,"map":"pl_pier","folder":"tf","game":"Team Fortress","app_id":440,"player_count":24,"max_players":24,"Bots":0,"server_type":"Dedicated","server_os":"Linux","password":true,"vac":true,"version":"7757534","steam_id":85568392924469988,"keywords":["nocrits","nodmgspread","payload","uncletopia"],"game_id":440,"stv_port":27026,"stv_name":"Uncletopia | Dallas | 2 | All Maps | STV","players":[{"user_id":702,"name":"GabetIV femboy","steam_id":76561198145700338,"connected_time":736000000000,"state":"active","ping":45},{"user_id":584,"name":"Miss Pauling Gaming","steam_id":76561198078479083,"connected_time":8545000000000,"state":"active","ping":60},{"user_id":652,"name":"Satori Komeiji","steam_id":76561198158211423,"connected_time":4031000000000,"state":"active","ping":83},{"user_id":684,"name":"logg","steam_id":76561198179595013,"connected_time":1952000000000,"state":"active","ping":85},{"user_id":679,"name":"Varius","steam_id":76561198384409154,"connected_time":2192000000000,"state":"active","ping":40},{"user_id":627,"name":"Pleiades, the Sorceror","steam_id":76561198079590693,"connected_time":6225000000000,"state":"active","ping":68},{"user_id":701,"name":"matt","steam_id":76561198151093701,"connected_time":1055000000000,"state":"active","ping":84},{"user_id":590,"name":"I am God","steam_id":76561198011675372,"connected_time":8227000000000,"state":"active","ping":107},{"user_id":704,"name":"Yamn Zaddy","steam_id":76561198074678001,"connected_time":651000000000,"state":"active","ping":91},{"user_id":680,"name":"white woman","steam_id":76561199116679777,"connected_time":2189000000000,"state":"active","ping":82},{"user_id":703,"name":"bread","steam_id":76561198339792615,"connected_time":672000000000,"state":"active","ping":57},{"user_id":677,"name":"Tribute","steam_id":76561198081594043,"connected_time":2276000000000,"state":"active","ping":58},{"user_id":708,"name":"Pinto","steam_id":76561199105386998,"connected_time":239000000000,"state":"active","ping":65},{"user_id":705,"name":"blue","steam_id":76561198342449098,"connected_time":637000000000,"state":"active","ping":48},{"user_id":695,"name":"TwitchyEyes","steam_id":76561199087750592,"connected_time":1316000000000,"state":"active","ping":62},{"user_id":629,"name":"xZackAttack27x","steam_id":76561198035446639,"connected_time":5691000000000,"state":"active","ping":37},{"user_id":661,"name":"Zero","steam_id":76561199383267408,"connected_time":3477000000000,"state":"active","ping":54},{"user_id":691,"name":"Asomn","steam_id":76561198951916467,"connected_time":1526000000000,"state":"active","ping":60},{"user_id":697,"name":"Hi! I'm Twilight Sparkle! :)","steam_id":76561198982584470,"connected_time":1290000000000,"state":"active","ping":53},{"user_id":672,"name":"Pie™","steam_id":76561198158312625,"connected_time":3033000000000,"state":"active","ping":131},{"user_id":656,"name":"Burny Sanders","steam_id":76561197961879048,"connected_time":3866000000000,"state":"active","ping":44},{"user_id":678,"name":"DragonHeart","steam_id":76561198013245625,"connected_time":2274000000000,"state":"active","ping":73},{"user_id":665,"name":"Moonflower ✦","steam_id":76561198191782483,"connected_time":3443000000000,"state":"active","ping":49},{"user_id":706,"name":"nerv","steam_id":76561198012678811,"connected_time":617000000000,"state":"active","ping":88}]},{"server_id":5,"name":"Uncletopia | Frankfurt | 1 | All Maps","name_short":"frk-1","host":"frk-1.de.uncletopia.com","port":27015,"enabled":true,"region":"eu","cc":"de","latitude":50.110924,"longitude":8.682127,"reserved":0,"last_update":"0001-01-01T00:00:00Z","name_a2s":"Uncletopia | Frankfurt | 1 | All Maps","protocol":17,"map":"koth_lakeside_final","folder":"tf","game":"Team Fortress","app_id":440,"player_count":0,"max_players":24,"Bots":0,"server_type":"Dedicated","server_os":"Linux","password":true,"vac":true,"version":"7757534","steam_id":85568392924469989,"keywords":["cp","nocrits","nodmgspread","uncletopia"],"game_id":440,"stv_port":27016,"stv_name":"Uncletopia | Frankfurt | 1 | All Maps | STV","players":null},{"server_id":110,"name":"Uncletopia | Frankfurt | 2 | All Maps","name_short":"frk-2","host":"frk-1.de.uncletopia.com","port":27025,"enabled":true,"region":"eu","cc":"de","latitude":50.110924,"longitude":8.682127,"reserved":0,"last_update":"0001-01-01T00:00:00Z","name_a2s":"Uncletopia | Frankfurt | 2 | All Maps","protocol":17,"map":"cp_dustbowl","folder":"tf","game":"Team Fortress","app_id":440,"player_count":3,"max_players":24,"Bots":0,"server_type":"Dedicated","server_os":"Linux","password":true,"vac":true,"version":"7757534","steam_id":85568392924469990,"keywords":["cp","nocrits","nodmgspread","uncletopia"],"game_id":440,"stv_port":27026,"stv_name":"Uncletopia | Frankfurt | 2 | All Maps | STV","players":[{"user_id":1003,"name":"Black Sheep","steam_id":76561198042244701,"connected_time":1681000000000,"state":"active","ping":69},{"user_id":999,"name":"Fnutek","steam_id":76561198082168552,"connected_time":2030000000000,"state":"active","ping":52},{"user_id":978,"name":"Pan Pan","steam_id":76561199074670515,"connected_time":4062000000000,"state":"active","ping":95}]},{"server_id":308,"name":"Uncletopia | Frankfurt | 3 | All Maps","name_short":"frk-3","host":"frk-1.de.uncletopia.com","port":27035,"enabled":true,"region":"eu","cc":"de","latitude":50.110924,"longitude":8.682127,"reserved":0,"last_update":"0001-01-01T00:00:00Z","name_a2s":"Uncletopia | Frankfurt | 3 | All Maps","protocol":17,"map":"koth_viaduct","folder":"tf","game":"Team Fortress","app_id":440,"player_count":0,"max_players":24,"Bots":0,"server_type":"Dedicated","server_os":"Linux","password":true,"vac":true,"version":"7757534","steam_id":85568392924504274,"keywords":["cp","nocrits","nodmgspread","uncletopia"],"game_id":440,"stv_port":27036,"stv_name":"Uncletopia | Frankfurt | 3 | All Maps | STV","players":null},{"server_id":309,"name":"Uncletopia | Frankfurt | 4 | All Maps","name_short":"frk-4","host":"frk-1.de.uncletopia.com","port":27045,"enabled":true,"region":"eu","cc":"de","latitude":50.110924,"longitude":8.682127,"reserved":0,"last_update":"0001-01-01T00:00:00Z","name_a2s":"Uncletopia | Frankfurt | 4 | All Maps","protocol":17,"map":"pl_barnblitz","folder":"tf","game":"Team Fortress","app_id":440,"player_count":0,"max_players":24,"Bots":0,"server_type":"Dedicated","server_os":"Linux","password":true,"vac":true,"version":"7757534","steam_id":85568392924504275,"keywords":["nocrits","nodmgspread","payload","uncletopia"],"game_id":440,"stv_port":27046,"stv_name":"Uncletopia | Frankfurt | 4 | All Maps | STV","players":null},{"server_id":310,"name":"Uncletopia | Frankfurt | 5 | All Maps","name_short":"frk-5","host":"frk-1.de.uncletopia.com","port":27055,"enabled":true,"region":"eu","cc":"de","latitude":50.110924,"longitude":8.682127,"reserved":0,"last_update":"0001-01-01T00:00:00Z","name_a2s":"Uncletopia | Frankfurt | 5 | All Maps","protocol":17,"map":"pl_swiftwater_final1","folder":"tf","game":"Team Fortress","app_id":440,"player_count":0,"max_players":24,"Bots":0,"server_type":"Dedicated","server_os":"Linux","password":true,"vac":true,"version":"7757534","steam_id":85568392924504277,"keywords":["nocrits","nodmgspread","payload","uncletopia"],"game_id":440,"stv_port":27056,"stv_name":"Uncletopia | Frankfurt | 5 | All Maps | STV","players":null},{"server_id":311,"name":"Uncletopia | Frankfurt | 6 | All Maps","name_short":"frk-6","host":"frk-1.de.uncletopia.com","port":27065,"enabled":true,"region":"eu","cc":"de","latitude":50.110924,"longitude":8.682127,"reserved":0,"last_update":"0001-01-01T00:00:00Z","name_a2s":"Uncletopia | Frankfurt | 6 | All Maps","protocol":17,"map":"pl_barnblitz","folder":"tf","game":"Team Fortress","app_id":440,"player_count":0,"max_players":24,"Bots":0,"server_type":"Dedicated","server_os":"Linux","password":true,"vac":true,"version":"7757534","steam_id":85568392924504278,"keywords":["nocrits","nodmgspread","payload","uncletopia"],"game_id":440,"stv_port":27066,"stv_name":"Uncletopia | Frankfurt | 6 | All Maps | STV","players":null},{"server_id":23,"name":"Uncletopia | Frankfurt | 7 | Stopwatch Beta","name_short":"frk-7","host":"frk-1.de.uncletopia.com","port":27075,"enabled":true,"region":"eu","cc":"de","latitude":50.110924,"longitude":8.682127,"reserved":0,"last_update":"0001-01-01T00:00:00Z","name_a2s":"Uncletopia | Frankfurt | 7 | Stopwatch Beta","protocol":17,"map":"pl_frontier_final","folder":"tf","game":"Team Fortress","app_id":440,"player_count":0,"max_players":24,"Bots":0,"server_type":"Dedicated","server_os":"Linux","password":true,"vac":true,"version":"7757534","steam_id":85568392924742827,"keywords":["nocrits","nodmgspread","payload","uncletopia"],"game_id":440,"stv_port":27076,"stv_name":"Uncletopia | Frankfurt | 7 | Stopwatch Beta | STV","players":null},{"server_id":24,"name":"Uncletopia | Frankfurt | 8 | Community","name_short":"frk-8","host":"frk-1.de.uncletopia.com","port":27085,"enabled":true,"region":"eu","cc":"de","latitude":50.110924,"longitude":8.682127,"reserved":0,"last_update":"0001-01-01T00:00:00Z","name_a2s":"Uncletopia | Frankfurt | 8 | Community","protocol":17,"map":"workshop/koth_bagel_rc5.ugc2514036946","folder":"tf","game":"Team Fortress","app_id":440,"player_count":0,"max_players":24,"Bots":0,"server_type":"Dedicated","server_os":"Linux","password":true,"vac":true,"version":"7757534","steam_id":85568392924742828,"keywords":["cp","nocrits","nodmgspread","uncletopia"],"game_id":440,"stv_port":27086,"stv_name":"Uncletopia | Frankfurt | 8 | Community | STV","players":null},{"server_id":202,"name":"Uncletopia | Hong Kong | 1 | All Maps","name_short":"hgk-1","host":"hgk-1.hk.uncletopia.com","port":27015,"enabled":true,"region":"asia","cc":"hk","latitude":22.302711,"longitude":114.177216,"reserved":0,"last_update":"0001-01-01T00:00:00Z","name_a2s":"Uncletopia | Hong Kong | 1 | All Maps","protocol":17,"map":"pl_upward","folder":"tf","game":"Team Fortress","app_id":440,"player_count":0,"max_players":24,"Bots":0,"server_type":"Dedicated","server_os":"Linux","password":true,"vac":true,"version":"7757534","steam_id":85568392924494504,"keywords":["nocrits","nodmgspread","payload","uncletopia"],"game_id":440,"stv_port":27016,"stv_name":"Uncletopia | Hong Kong | 1 | All Maps | STV","players":null},{"server_id":1,"name":"Uncletopia | Los Angeles | 1 | All Maps","name_short":"lax-1","host":"lax-1.us.uncletopia.com","port":27015,"enabled":true,"region":"us-west","cc":"us","latitude":33.94279,"longitude":-118.41004,"reserved":0,"last_update":"0001-01-01T00:00:00Z","name_a2s":"Uncletopia | Los Angeles | 1 | All Maps","protocol":17,"map":"pl_swiftwater_final1","folder":"tf","game":"Team Fortress","app_id":440,"player_count":24,"max_players":24,"Bots":0,"server_type":"Dedicated","server_os":"Linux","password":true,"vac":true,"version":"7757534","steam_id":85568392924469991,"keywords":["nocrits","nodmgspread","payload","uncletopia"],"game_id":440,"stv_port":27016,"stv_name":"Uncletopia | Los Angeles | 1 | All Maps | STV","players":[{"user_id":297,"name":"ForAPessimistImPrettyOptimistic","steam_id":76561198170128009,"connected_time":1992000000000,"state":"active","ping":61},{"user_id":286,"name":"⛧⸸⛧⸸⛧⸸","steam_id":76561198007051179,"connected_time":2583000000000,"state":"active","ping":41},{"user_id":301,"name":"flo rida","steam_id":76561198226169704,"connected_time":1633000000000,"state":"active","ping":55},{"user_id":303,"name":"BONK! Official","steam_id":76561198198949259,"connected_time":1620000000000,"state":"active","ping":109},{"user_id":325,"name":"Naeole1","steam_id":76561198240378926,"connected_time":395000000000,"state":"active","ping":90},{"user_id":321,"name":"Milotic","steam_id":76561198047995713,"connected_time":918000000000,"state":"active","ping":67},{"user_id":295,"name":"Pan Dulce","steam_id":76561198044444716,"connected_time":2256000000000,"state":"active","ping":54},{"user_id":324,"name":"kalzonkly","steam_id":76561198309217857,"connected_time":615000000000,"state":"active","ping":57},{"user_id":315,"name":"MORE BOUNCE TO THE OUNCE","steam_id":76561198243399336,"connected_time":1451000000000,"state":"active","ping":72},{"user_id":304,"name":"Kopenich","steam_id":76561198066205245,"connected_time":1617000000000,"state":"active","ping":52},{"user_id":305,"name":"ExplosiveGamer21","steam_id":76561198132370955,"connected_time":1616000000000,"state":"active","ping":98},{"user_id":293,"name":"Andrew","steam_id":76561198826966680,"connected_time":2438000000000,"state":"active","ping":91},{"user_id":322,"name":"Skeleton","steam_id":76561198315213115,"connected_time":908000000000,"state":"active","ping":61},{"user_id":308,"name":"GLG.Liz","steam_id":76561198021957956,"connected_time":1585000000000,"state":"active","ping":77},{"user_id":291,"name":"A 6 year old","steam_id":76561199173528000,"connected_time":2537000000000,"state":"active","ping":67},{"user_id":316,"name":"xlaylowx","steam_id":76561198830237952,"connected_time":1380000000000,"state":"active","ping":62},{"user_id":253,"name":"brax","steam_id":76561198094410690,"connected_time":4383000000000,"state":"active","ping":85},{"user_id":309,"name":"Wenlost","steam_id":76561198292026612,"connected_time":1582000000000,"state":"active","ping":54},{"user_id":310,"name":"pafijohn","steam_id":76561198002535190,"connected_time":1576000000000,"state":"active","ping":46},{"user_id":319,"name":"Mr Baseball","steam_id":76561198960521363,"connected_time":1092000000000,"state":"active","ping":82},{"user_id":326,"name":"Grim","steam_id":76561198016978310,"connected_time":120000000000,"state":"active","ping":86},{"user_id":320,"name":"VicLoL","steam_id":76561198045580784,"connected_time":1008000000000,"state":"active","ping":47},{"user_id":247,"name":"Type Three Dabeetus","steam_id":76561198062710038,"connected_time":5305000000000,"state":"active","ping":58},{"user_id":314,"name":"Skeleblood","steam_id":76561198153323281,"connected_time":1497000000000,"state":"active","ping":87}]},{"server_id":112,"name":"Uncletopia | Los Angeles | 2 | All Maps","name_short":"lax-2","host":"lax-1.us.uncletopia.com","port":27025,"enabled":true,"region":"us-west","cc":"us","latitude":33.94279,"longitude":-118.41004,"reserved":0,"last_update":"0001-01-01T00:00:00Z","name_a2s":"Uncletopia | Los Angeles | 2 | All Maps","protocol":17,"map":"koth_cascade","folder":"tf","game":"Team Fortress","app_id":440,"player_count":0,"max_players":24,"Bots":0,"server_type":"Dedicated","server_os":"Linux","password":true,"vac":true,"version":"7757534","steam_id":85568392924469992,"keywords":["cp","nocrits","nodmgspread","uncletopia"],"game_id":440,"stv_port":27026,"stv_name":"Uncletopia | Los Angeles | 2 | All Maps | STV","players":null},{"server_id":324,"name":"Uncletopia | Los Angeles | 3 | All Maps","name_short":"lax-3","host":"lax-1.us.uncletopia.com","port":27035,"enabled":true,"region":"us-west","cc":"us","latitude":33.94279,"longitude":-118.41004,"reserved":0,"last_update":"0001-01-01T00:00:00Z","name_a2s":"Uncletopia | Los Angeles | 3 | All Maps","protocol":17,"map":"pl_badwater","folder":"tf","game":"Team Fortress","app_id":440,"player_count":9,"max_players":24,"Bots":0,"server_type":"Dedicated","server_os":"Linux","password":true,"vac":true,"version":"7757534","steam_id":85568392924510198,"keywords":["nocrits","nodmgspread","payload","uncletopia"],"game_id":440,"stv_port":27036,"stv_name":"Uncletopia | Los Angeles | 3 | All Maps | STV","players":[{"user_id":46,"name":"jazztree14","steam_id":76561199239395356,"connected_time":1642000000000,"state":"active","ping":89},{"user_id":48,"name":"barnabeepickle","steam_id":76561199021558880,"connected_time":1111000000000,"state":"active","ping":105},{"user_id":57,"name":"lofileBOOYAH :)","steam_id":76561198083798918,"connected_time":4000000000,"state":"spawning","ping":103},{"user_id":50,"name":"KFC☭","steam_id":76561199206815320,"connected_time":661000000000,"state":"active","ping":46},{"user_id":56,"name":"Kleine","steam_id":76561198042556857,"connected_time":28000000000,"state":"active","ping":104},{"user_id":53,"name":"walrooos","steam_id":76561198024521839,"connected_time":153000000000,"state":"active","ping":42},{"user_id":36,"name":"sergeant Adderall","steam_id":76561199010296481,"connected_time":2614000000000,"state":"active","ping":129},{"user_id":37,"name":"banan team fortes","steam_id":76561199073621650,"connected_time":2605000000000,"state":"active","ping":61},{"user_id":38,"name":"Corporal Cannabis","steam_id":76561199002920166,"connected_time":2597000000000,"state":"active","ping":126}]},{"server_id":25,"name":"Uncletopia | Los Angeles | 4 | Stopwatch Beta","name_short":"lax-4","host":"lax-1.us.uncletopia.com","port":27045,"enabled":true,"region":"us-west","cc":"us","latitude":33.94279,"longitude":-118.41004,"reserved":0,"last_update":"0001-01-01T00:00:00Z","name_a2s":"Uncletopia | Los Angeles | 4 | Stopwatch Beta","protocol":17,"map":"pl_frontier_final","folder":"tf","game":"Team Fortress","app_id":440,"player_count":0,"max_players":24,"Bots":0,"server_type":"Dedicated","server_os":"Linux","password":true,"vac":true,"version":"7757534","steam_id":85568392924510199,"keywords":["nocrits","nodmgspread","payload","uncletopia"],"game_id":440,"stv_port":27046,"stv_name":"Uncletopia | Los Angeles | 4 | Stopwatch Beta | STV","players":null},{"server_id":11,"name":"Uncletopia | London | 1 | All Maps","name_short":"lon-1","host":"lon-1.uk.uncletopia.com","port":27015,"enabled":true,"region":"eu","cc":"gb","latitude":51.509865,"longitude":-0.118092,"reserved":0,"last_update":"0001-01-01T00:00:00Z","name_a2s":"Uncletopia | London | 1 | All Maps","protocol":17,"map":"pl_barnblitz","folder":"tf","game":"Team Fortress","app_id":440,"player_count":19,"max_players":24,"Bots":0,"server_type":"Dedicated","server_os":"Linux","password":true,"vac":true,"version":"7757534","steam_id":85568392924367362,"keywords":["nocrits","nodmgspread","payload","uncletopia"],"game_id":440,"stv_port":27016,"stv_name":"Uncletopia | London | 1 | All Maps | STV","players":[{"user_id":906,"name":"engie?","steam_id":76561198331852832,"connected_time":618000000000,"state":"active","ping":46},{"user_id":894,"name":"hm?","steam_id":76561198143972906,"connected_time":1649000000000,"state":"active","ping":75},{"user_id":850,"name":"fuo","steam_id":76561197995536944,"connected_time":6810000000000,"state":"active","ping":30},{"user_id":886,"name":"Kurage","steam_id":76561198021221288,"connected_time":3033000000000,"state":"active","ping":72},{"user_id":892,"name":"Yakub","steam_id":76561198014279521,"connected_time":2123000000000,"state":"active","ping":119},{"user_id":909,"name":"Kroto","steam_id":76561198056233760,"connected_time":396000000000,"state":"active","ping":61},{"user_id":868,"name":"Not Friends","steam_id":76561198043775605,"connected_time":4500000000000,"state":"active","ping":84},{"user_id":913,"name":"NoPfizer","steam_id":76561198307914381,"connected_time":195000000000,"state":"active","ping":61},{"user_id":914,"name":"[TR] Gökaçınlar","steam_id":76561198374283928,"connected_time":99000000000,"state":"active","ping":90},{"user_id":910,"name":"rastaman jerma","steam_id":76561198031325797,"connected_time":390000000000,"state":"active","ping":52},{"user_id":917,"name":"Kendo.","steam_id":76561198318748304,"connected_time":47000000000,"state":"active","ping":143},{"user_id":881,"name":"Slow Mode","steam_id":76561199414716848,"connected_time":3348000000000,"state":"active","ping":73},{"user_id":908,"name":"GunGuy","steam_id":76561198124510978,"connected_time":414000000000,"state":"active","ping":31},{"user_id":912,"name":"t o n e '","steam_id":76561198055552635,"connected_time":224000000000,"state":"active","ping":62},{"user_id":916,"name":"duchess abigail","steam_id":76561198166953966,"connected_time":66000000000,"state":"active","ping":57},{"user_id":845,"name":"HumFreY","steam_id":76561198076639682,"connected_time":6999000000000,"state":"active","ping":137},{"user_id":854,"name":"nedilya","steam_id":76561198039692077,"connected_time":6613000000000,"state":"active","ping":66},{"user_id":901,"name":"Sandvich Enthusiast","steam_id":76561198241275578,"connected_time":1347000000000,"state":"active","ping":53},{"user_id":905,"name":"Chief","steam_id":76561198139533419,"connected_time":654000000000,"state":"active","ping":92}]},{"server_id":114,"name":"Uncletopia | London | 2 | All Maps","name_short":"lon-2","host":"lon-1.uk.uncletopia.com","port":27025,"enabled":true,"region":"eu","cc":"gb","latitude":51.509865,"longitude":-0.118092,"reserved":0,"last_update":"0001-01-01T00:00:00Z","name_a2s":"Uncletopia | London | 2 | All Maps","protocol":17,"map":"koth_cascade","folder":"tf","game":"Team Fortress","app_id":440,"player_count":0,"max_players":24,"Bots":0,"server_type":"Dedicated","server_os":"Linux","password":true,"vac":true,"version":"7757534","steam_id":85568392924470941,"keywords":["cp","nocrits","nodmgspread","uncletopia"],"game_id":440,"stv_port":27026,"stv_name":"Uncletopia | London | 2 | All Maps | STV","players":null},{"server_id":320,"name":"Uncletopia | London | 3 | All Maps","name_short":"lon-3","host":"lon-1.uk.uncletopia.com","port":27035,"enabled":true,"region":"eu","cc":"gb","latitude":51.509865,"longitude":-0.118092,"reserved":0,"last_update":"0001-01-01T00:00:00Z","name_a2s":"Uncletopia | London | 3 | All Maps","protocol":17,"map":"koth_highpass","folder":"tf","game":"Team Fortress","app_id":440,"player_count":0,"max_players":24,"Bots":0,"server_type":"Dedicated","server_os":"Linux","password":true,"vac":true,"version":"7757534","steam_id":85568392924510192,"keywords":["cp","nocrits","nodmgspread","uncletopia"],"game_id":440,"stv_port":27036,"stv_name":"Uncletopia | London | 3 | All Maps | STV","players":null},{"server_id":321,"name":"Uncletopia | London | 4 | All Maps","name_short":"lon-4","host":"lon-1.uk.uncletopia.com","port":27045,"enabled":true,"region":"eu","cc":"gb","latitude":51.509865,"longitude":-0.118092,"reserved":0,"last_update":"0001-01-01T00:00:00Z","name_a2s":"Uncletopia | London | 4 | All Maps","protocol":17,"map":"koth_lakeside_final","folder":"tf","game":"Team Fortress","app_id":440,"player_count":0,"max_players":24,"Bots":0,"server_type":"Dedicated","server_os":"Linux","password":true,"vac":true,"version":"7757534","steam_id":85568392924510193,"keywords":["cp","nocrits","nodmgspread","uncletopia"],"game_id":440,"stv_port":27046,"stv_name":"Uncletopia | London | 4 | All Maps | STV","players":null},{"server_id":21,"name":"Uncletopia | London | 5 | All Maps","name_short":"lon-5","host":"lon-1.uk.uncletopia.com","port":27055,"enabled":true,"region":"eu","cc":"gb","latitude":51.509865,"longitude":-0.118092,"reserved":0,"last_update":"0001-01-01T00:00:00Z","name_a2s":"Uncletopia | London | 5 | All Maps","protocol":17,"map":"koth_cascade","folder":"tf","game":"Team Fortress","app_id":440,"player_count":0,"max_players":24,"Bots":0,"server_type":"Dedicated","server_os":"Linux","password":true,"vac":true,"version":"7757534","steam_id":85568392924742829,"keywords":["cp","nocrits","nodmgspread","uncletopia"],"game_id":440,"stv_port":27056,"stv_name":"Uncletopia | London | 5 | All Maps | STV","players":null},{"server_id":22,"name":"Uncletopia | London | 6 | All Maps","name_short":"lon-6","host":"lon-1.uk.uncletopia.com","port":27065,"enabled":true,"region":"eu","cc":"gb","latitude":51.509865,"longitude":-0.118092,"reserved":0,"last_update":"0001-01-01T00:00:00Z","name_a2s":"Uncletopia | London | 6 | All Maps","protocol":17,"map":"pl_swiftwater_final1","folder":"tf","game":"Team Fortress","app_id":440,"player_count":0,"max_players":24,"Bots":0,"server_type":"Dedicated","server_os":"Linux","password":true,"vac":true,"version":"7757534","steam_id":85568392924742830,"keywords":["nocrits","nodmgspread","payload","uncletopia"],"game_id":440,"stv_port":27066,"stv_name":"Uncletopia | London | 6 | All Maps | STV","players":null},{"server_id":40,"name":"Uncletopia | London | 7 | No Payload","name_short":"lon-7","host":"lon-1.uk.uncletopia.com","port":27075,"enabled":true,"region":"eu","cc":"gb","latitude":51.509865,"longitude":-0.118092,"reserved":0,"last_update":"0001-01-01T00:00:00Z","name_a2s":"Uncletopia | London | 7 | No Payload","protocol":17,"map":"koth_cascade","folder":"tf","game":"Team Fortress","app_id":440,"player_count":0,"max_players":24,"Bots":0,"server_type":"Dedicated","server_os":"Linux","password":true,"vac":true,"version":"7757534","steam_id":85568392924964314,"keywords":["cp","nocrits","nodmgspread","uncletopia"],"game_id":440,"stv_port":27076,"stv_name":"Uncletopia | London | 7 | No Payload | STV","players":null},{"server_id":41,"name":"Uncletopia | London | 8 | Community","name_short":"lon-8","host":"lon-1.uk.uncletopia.com","port":27085,"enabled":true,"region":"eu","cc":"gb","latitude":51.509865,"longitude":-0.118092,"reserved":0,"last_update":"0001-01-01T00:00:00Z","name_a2s":"Uncletopia | London | 8 | Community","protocol":17,"map":"workshop/koth_slaughter_rc1.ugc1712845210","folder":"tf","game":"Team Fortress","app_id":440,"player_count":0,"max_players":24,"Bots":0,"server_type":"Dedicated","server_os":"Linux","password":true,"vac":true,"version":"7757534","steam_id":85568392924964315,"keywords":["cp","nocrits","nodmgspread","uncletopia"],"game_id":440,"stv_port":27086,"stv_name":"Uncletopia | London | 8 | Community | STV","players":null},{"server_id":300,"name":"Uncletopia | Montréal | 1 | All Maps","name_short":"mtl-1","host":"mtl-1.ca.uncletopia.com","port":27015,"enabled":true,"region":"us-east","cc":"ca","latitude":45.50889,"longitude":-73.56167,"reserved":0,"last_update":"0001-01-01T00:00:00Z","name_a2s":"Uncletopia | Montréal | 1 | All Maps","protocol":17,"map":"cp_dustbowl","folder":"tf","game":"Team Fortress","app_id":440,"player_count":3,"max_players":24,"Bots":0,"server_type":"Dedicated","server_os":"Linux","password":true,"vac":true,"version":"7757534","steam_id":85568392924500087,"keywords":["cp","nocrits","nodmgspread","uncletopia"],"game_id":440,"stv_port":27016,"stv_name":"Uncletopia | Montréal | 1 | All Maps | STV","players":[{"user_id":14,"name":"buag","steam_id":76561198123669519,"connected_time":1245000000000,"state":"active","ping":61},{"user_id":15,"name":"purpl3raven","steam_id":76561198783212462,"connected_time":1245000000000,"state":"active","ping":58},{"user_id":16,"name":"MommaNessa","steam_id":76561199022028582,"connected_time":129000000000,"state":"active","ping":53}]},{"server_id":301,"name":"Uncletopia | Montréal | 2 | All Maps","name_short":"mtl-2","host":"mtl-1.ca.uncletopia.com","port":27025,"enabled":true,"region":"us-east","cc":"ca","latitude":45.50889,"longitude":-73.56167,"reserved":0,"last_update":"0001-01-01T00:00:00Z","name_a2s":"Uncletopia | Montréal | 2 | All Maps","protocol":17,"map":"cp_dustbowl","folder":"tf","game":"Team Fortress","app_id":440,"player_count":0,"max_players":24,"Bots":0,"server_type":"Dedicated","server_os":"Linux","password":true,"vac":true,"version":"7757534","steam_id":85568392924500088,"keywords":["cp","nocrits","nodmgspread","uncletopia"],"game_id":440,"stv_port":27026,"stv_name":"Uncletopia | Montréal | 2 | All Maps | STV","players":null},{"server_id":302,"name":"Uncletopia | Montréal | 3 | All Maps","name_short":"mtl-3","host":"mtl-1.ca.uncletopia.com","port":27035,"enabled":true,"region":"us-east","cc":"ca","latitude":45.50889,"longitude":-73.56167,"reserved":0,"last_update":"0001-01-01T00:00:00Z","name_a2s":"Uncletopia | Montréal | 3 | All Maps","protocol":17,"map":"koth_harvest_final","folder":"tf","game":"Team Fortress","app_id":440,"player_count":2,"max_players":24,"Bots":0,"server_type":"Dedicated","server_os":"Linux","password":true,"vac":true,"version":"7757534","steam_id":85568392924500089,"keywords":["cp","nocrits","nodmgspread","uncletopia"],"game_id":440,"stv_port":27036,"stv_name":"Uncletopia | Montréal | 3 | All Maps | STV","players":[{"user_id":16,"name":"zanealcannon","steam_id":76561198409950668,"connected_time":543000000000,"state":"active","ping":68},{"user_id":17,"name":"hauntingspace49","steam_id":76561198432315307,"connected_time":264000000000,"state":"active","ping":66}]},{"server_id":303,"name":"Uncletopia | Montréal | 4 | No Payload","name_short":"mtl-4","host":"mtl-1.ca.uncletopia.com","port":27045,"enabled":true,"region":"us-east","cc":"ca","latitude":45.50889,"longitude":-73.56167,"reserved":0,"last_update":"0001-01-01T00:00:00Z","name_a2s":"Uncletopia | Montréal | 4 | No Payload","protocol":17,"map":"koth_nucleus","folder":"tf","game":"Team Fortress","app_id":440,"player_count":0,"max_players":24,"Bots":0,"server_type":"Dedicated","server_os":"Linux","password":true,"vac":true,"version":"7757534","steam_id":85568392924500090,"keywords":["cp","nocrits","nodmgspread","uncletopia"],"game_id":440,"stv_port":27046,"stv_name":"Uncletopia | Montréal | 4 | No Payload | STV","players":null},{"server_id":13,"name":"Uncletopia | New York City | 1 | All Maps","name_short":"nyc-1","host":"nyc-1.us.uncletopia.com","port":27015,"enabled":true,"region":"us-east","cc":"us","latitude":40.73061,"longitude":-73.93524,"reserved":0,"last_update":"0001-01-01T00:00:00Z","name_a2s":"Uncletopia | New York City | 1 | All Maps","protocol":17,"map":"pl_frontier_final","folder":"tf","game":"Team Fortress","app_id":440,"player_count":24,"max_players":24,"Bots":0,"server_type":"Dedicated","server_os":"Linux","password":true,"vac":true,"version":"7757534","steam_id":85568392924469993,"keywords":["nocrits","nodmgspread","payload","uncletopia"],"game_id":440,"stv_port":27016,"stv_name":"Uncletopia | New York City | 1 | All Maps | STV","players":[{"user_id":491,"name":"muzikelretifhbr","steam_id":76561198445169719,"connected_time":2017000000000,"state":"active","ping":119},{"user_id":475,"name":"sam!!! :)","steam_id":76561198217362968,"connected_time":3893000000000,"state":"active","ping":65},{"user_id":490,"name":"Whizzo the Clown","steam_id":76561197995910627,"connected_time":2100000000000,"state":"active","ping":70},{"user_id":484,"name":"Anax Alter","steam_id":76561198110249546,"connected_time":2285000000000,"state":"active","ping":47},{"user_id":495,"name":"Vivid Hut 64","steam_id":76561198170050059,"connected_time":1433000000000,"state":"active","ping":57},{"user_id":431,"name":"SpinetinglingToast","steam_id":76561198099470670,"connected_time":8060000000000,"state":"active","ping":55},{"user_id":420,"name":"Heropon","steam_id":76561198105224481,"connected_time":8540000000000,"state":"active","ping":67},{"user_id":499,"name":"bobdragon27","steam_id":76561198065833387,"connected_time":663000000000,"state":"active","ping":40},{"user_id":454,"name":"PinkLemonade","steam_id":76561198799286228,"connected_time":5378000000000,"state":"active","ping":50},{"user_id":497,"name":"LazyKoala99","steam_id":76561199183623672,"connected_time":1077000000000,"state":"active","ping":52},{"user_id":436,"name":"KingNeptune","steam_id":76561198965549228,"connected_time":7462000000000,"state":"active","ping":60},{"user_id":493,"name":"Zinx","steam_id":76561198150134209,"connected_time":1756000000000,"state":"active","ping":50},{"user_id":488,"name":"Quansen","steam_id":76561198151594550,"connected_time":2247000000000,"state":"active","ping":55},{"user_id":429,"name":"FrumpyGoldsmith","steam_id":76561199036534127,"connected_time":8148000000000,"state":"active","ping":76},{"user_id":401,"name":"Xavibite","steam_id":76561198209380493,"connected_time":10279000000000,"state":"active","ping":42},{"user_id":479,"name":"e0e0","steam_id":76561198293839750,"connected_time":2998000000000,"state":"active","ping":52},{"user_id":494,"name":"Fridge","steam_id":76561198158336035,"connected_time":1635000000000,"state":"active","ping":57},{"user_id":482,"name":"Cerabond","steam_id":76561199230915333,"connected_time":2635000000000,"state":"active","ping":71},{"user_id":498,"name":"Wiggee","steam_id":76561197972792989,"connected_time":709000000000,"state":"active","ping":81},{"user_id":483,"name":"TruBluHue","steam_id":76561198294389079,"connected_time":2452000000000,"state":"active","ping":90},{"user_id":440,"name":"Gnilkaew","steam_id":76561198202093367,"connected_time":7388000000000,"state":"active","ping":80},{"user_id":489,"name":"Larry from Pokemon SV","steam_id":76561198095245223,"connected_time":2239000000000,"state":"active","ping":51},{"user_id":442,"name":"Rythmiki","steam_id":76561198398952454,"connected_time":6989000000000,"state":"active","ping":44}]},{"server_id":14,"name":"Uncletopia | New York City | 2 | All Maps","name_short":"nyc-2","host":"nyc-1.us.uncletopia.com","port":27025,"enabled":true,"region":"us-east","cc":"us","latitude":40.73061,"longitude":-73.93524,"reserved":0,"last_update":"0001-01-01T00:00:00Z","name_a2s":"Uncletopia | New York City | 2 | All Maps","protocol":17,"map":"koth_nucleus","folder":"tf","game":"Team Fortress","app_id":440,"player_count":24,"max_players":24,"Bots":0,"server_type":"Dedicated","server_os":"Linux","password":true,"vac":true,"version":"7757534","steam_id":85568392924469994,"keywords":["cp","nocrits","nodmgspread","uncletopia"],"game_id":440,"stv_port":27026,"stv_name":"Uncletopia | New York City | 2 | All Maps | STV","players":[{"user_id":609,"name":"ndvr","steam_id":76561199379200102,"connected_time":1707000000000,"state":"active","ping":55},{"user_id":575,"name":"Sapphireblitz","steam_id":76561198272635379,"connected_time":3689000000000,"state":"active","ping":64},{"user_id":621,"name":"mcdoubble","steam_id":76561198089126832,"connected_time":298000000000,"state":"active","ping":70},{"user_id":622,"name":"natman_22","steam_id":76561198203353284,"connected_time":264000000000,"state":"active","ping":83},{"user_id":613,"name":"=PCGC= BLANK","steam_id":76561198154239155,"connected_time":902000000000,"state":"active","ping":119},{"user_id":623,"name":"YungChefMingus","steam_id":76561198087122048,"connected_time":263000000000,"state":"active","ping":62},{"user_id":624,"name":"Harold","steam_id":76561198057317770,"connected_time":208000000000,"state":"active","ping":103},{"user_id":619,"name":"License","steam_id":76561197967501494,"connected_time":469000000000,"state":"active","ping":116},{"user_id":614,"name":"Hoopla","steam_id":76561198327775508,"connected_time":901000000000,"state":"active","ping":42},{"user_id":627,"name":"Joy #savetf2","steam_id":76561198073690173,"connected_time":126000000000,"state":"active","ping":60},{"user_id":626,"name":"the doo doo man","steam_id":76561198057076267,"connected_time":195000000000,"state":"active","ping":78},{"user_id":549,"name":"meinsword","steam_id":76561198272653535,"connected_time":6035000000000,"state":"active","ping":70},{"user_id":576,"name":"butch cowboy monkey","steam_id":76561198097175164,"connected_time":3619000000000,"state":"active","ping":71},{"user_id":592,"name":"Denny's Grand Slam Breakfast","steam_id":76561198011603359,"connected_time":2474000000000,"state":"active","ping":67},{"user_id":594,"name":"Dezorbo","steam_id":76561197971883897,"connected_time":2085000000000,"state":"active","ping":65},{"user_id":620,"name":"Superseee","steam_id":76561198199919747,"connected_time":345000000000,"state":"active","ping":134},{"user_id":606,"name":"*","steam_id":76561198173047169,"connected_time":1741000000000,"state":"active","ping":47},{"user_id":584,"name":"Rockguy21","steam_id":76561198121303359,"connected_time":3143000000000,"state":"active","ping":56},{"user_id":618,"name":"Howell at the Moon","steam_id":76561198060827426,"connected_time":476000000000,"state":"active","ping":118},{"user_id":629,"name":"CraigHawksbill","steam_id":76561199000670185,"connected_time":110000000000,"state":"active","ping":135},{"user_id":630,"name":"AGagagaga","steam_id":76561199008585183,"connected_time":103000000000,"state":"active","ping":77},{"user_id":587,"name":"Glue790","steam_id":76561199215798445,"connected_time":3067000000000,"state":"active","ping":71},{"user_id":633,"name":"nelly modelo","steam_id":76561198044875206,"connected_time":40000000000,"state":"active","ping":105},{"user_id":632,"name":"Pennis the Menace","steam_id":76561198254878037,"connected_time":83000000000,"state":"active","ping":121}]},{"server_id":15,"name":"Uncletopia | New York City | 3 | Stopwatch Beta","name_short":"nyc-3","host":"nyc-1.us.uncletopia.com","port":27035,"enabled":true,"region":"us-east","cc":"us","latitude":40.73061,"longitude":-73.93524,"reserved":0,"last_update":"0001-01-01T00:00:00Z","name_a2s":"Uncletopia | New York City | 3 | Stopwatch Beta","protocol":17,"map":"workshop/cp_process_f12.ugc2302948105","folder":"tf","game":"Team Fortress","app_id":440,"player_count":24,"max_players":24,"Bots":0,"server_type":"Dedicated","server_os":"Linux","password":true,"vac":true,"version":"7757534","steam_id":85568392924742820,"keywords":["cp","nocrits","nodmgspread","uncletopia"],"game_id":440,"stv_port":27036,"stv_name":"Uncletopia | New York City | 3 | Stopwatch Beta | STV","players":[{"user_id":101,"name":"The Westboro Baptist Church","steam_id":76561198076375659,"connected_time":4616000000000,"state":"active","ping":47},{"user_id":126,"name":"Stupid frogs!","steam_id":76561198069415057,"connected_time":3163000000000,"state":"active","ping":46},{"user_id":166,"name":"Purple Pajamas","steam_id":76561199174310124,"connected_time":171000000000,"state":"active","ping":77},{"user_id":98,"name":"Inevitable","steam_id":76561198210050169,"connected_time":4960000000000,"state":"active","ping":44},{"user_id":164,"name":"macironi and chesse","steam_id":76561199098060805,"connected_time":187000000000,"state":"active","ping":83},{"user_id":150,"name":"penny","steam_id":76561198077640742,"connected_time":1460000000000,"state":"active","ping":40},{"user_id":158,"name":"Pourpel","steam_id":76561198059125470,"connected_time":478000000000,"state":"active","ping":79},{"user_id":165,"name":"Hydroxianchaos","steam_id":76561198043786828,"connected_time":175000000000,"state":"active","ping":54},{"user_id":159,"name":"Strangelove","steam_id":76561198353773611,"connected_time":415000000000,"state":"active","ping":77},{"user_id":135,"name":"retinz","steam_id":76561198135563495,"connected_time":2327000000000,"state":"active","ping":55},{"user_id":110,"name":"CthUwU","steam_id":76561198036541581,"connected_time":4080000000000,"state":"active","ping":66},{"user_id":160,"name":"PunishedJoe","steam_id":76561199105539011,"connected_time":320000000000,"state":"active","ping":55},{"user_id":145,"name":"Colin102004","steam_id":76561198202384334,"connected_time":1889000000000,"state":"active","ping":39},{"user_id":88,"name":"smuffy","steam_id":76561198091459506,"connected_time":5567000000000,"state":"active","ping":46},{"user_id":161,"name":"when she travis on my touchdown","steam_id":76561198128164970,"connected_time":313000000000,"state":"active","ping":117},{"user_id":136,"name":"Decot","steam_id":76561198042016967,"connected_time":2323000000000,"state":"active","ping":64},{"user_id":162,"name":"Platino","steam_id":76561198410957728,"connected_time":310000000000,"state":"active","ping":60},{"user_id":149,"name":"Plinko","steam_id":76561197968530638,"connected_time":1525000000000,"state":"active","ping":59},{"user_id":154,"name":"Brainfreezzzzz","steam_id":76561198068496884,"connected_time":1032000000000,"state":"active","ping":53},{"user_id":163,"name":"prilosec pete","steam_id":76561198073269122,"connected_time":264000000000,"state":"active","ping":59},{"user_id":153,"name":"Banaba Breab","steam_id":76561198250789086,"connected_time":1175000000000,"state":"active","ping":114},{"user_id":156,"name":"TheFallenFox","steam_id":76561199074190919,"connected_time":680000000000,"state":"active","ping":120},{"user_id":167,"name":"Murks542","steam_id":76561199038994224,"connected_time":158000000000,"state":"active","ping":64},{"user_id":141,"name":"Broadway Rose","steam_id":76561198046083342,"connected_time":2182000000000,"state":"active","ping":41}]},{"server_id":16,"name":"Uncletopia | New York City | 4 | Community","name_short":"nyc-4","host":"nyc-1.us.uncletopia.com","port":27045,"enabled":true,"region":"us-east","cc":"us","latitude":40.73061,"longitude":-73.93524,"reserved":0,"last_update":"0001-01-01T00:00:00Z","name_a2s":"Uncletopia | New York City | 4 | Community","protocol":17,"map":"workshop/cp_mannbase_rc2a.ugc1900737467","folder":"tf","game":"Team Fortress","app_id":440,"player_count":0,"max_players":24,"Bots":0,"server_type":"Dedicated","server_os":"Linux","password":true,"vac":true,"version":"7757534","steam_id":85568392924742821,"keywords":["cp","nocrits","nodmgspread","uncletopia"],"game_id":440,"stv_port":27046,"stv_name":"Uncletopia | New York City | 4 | Community | STV","players":null},{"server_id":142,"name":"Uncletopia | São Paulo | 1 | All Maps","name_short":"sao-1","host":"sao-1.br.uncletopia.com","port":27015,"enabled":true,"region":"sa","cc":"br","latitude":-23.533773,"longitude":-46.62529,"reserved":0,"last_update":"0001-01-01T00:00:00Z","name_a2s":"Uncletopia | São Paulo | 1 | All Maps","protocol":17,"map":"pl_swiftwater_final1","folder":"tf","game":"Team Fortress","app_id":440,"player_count":0,"max_players":24,"Bots":0,"server_type":"Dedicated","server_os":"Linux","password":true,"vac":true,"version":"7757534","steam_id":85568392924469996,"keywords":["nocrits","nodmgspread","payload","uncletopia"],"game_id":440,"stv_port":27016,"stv_name":"Uncletopia | São Paulo | 1 | All Maps | STV","players":null},{"server_id":143,"name":"Uncletopia | São Paulo | 2 | All Maps","name_short":"sao-2","host":"sao-2.br.uncletopia.com","port":27015,"enabled":true,"region":"sa","cc":"br","latitude":-23.533773,"longitude":-46.62529,"reserved":0,"last_update":"0001-01-01T00:00:00Z","name_a2s":"Uncletopia | São Paulo | 2 | All Maps","protocol":17,"map":"koth_highpass","folder":"tf","game":"Team Fortress","app_id":440,"player_count":4,"max_players":24,"Bots":0,"server_type":"Dedicated","server_os":"Linux","password":true,"vac":true,"version":"7757534","steam_id":85568392924485349,"keywords":["cp","nocrits","nodmgspread","uncletopia"],"game_id":440,"stv_port":27016,"stv_name":"Uncletopia | São Paulo | 2 | All Maps | STV","players":[{"user_id":18,"name":"Soleigo Zano","steam_id":76561198232878484,"connected_time":2436000000000,"state":"active","ping":42},{"user_id":22,"name":"kate ❀","steam_id":76561198805567120,"connected_time":822000000000,"state":"active","ping":47},{"user_id":20,"name":"in-game","steam_id":76561198309404084,"connected_time":1839000000000,"state":"active","ping":51},{"user_id":24,"name":"olavudante","steam_id":76561199385333299,"connected_time":233000000000,"state":"active","ping":87}]},{"server_id":7,"name":"Uncletopia | Seattle | 1 | All Maps","name_short":"sea-1","host":"sea-1.us.uncletopia.com","port":27015,"enabled":true,"region":"us-west","cc":"us","latitude":47.608013,"longitude":-122.33517,"reserved":0,"last_update":"0001-01-01T00:00:00Z","name_a2s":"Uncletopia | Seattle | 1 | All Maps","protocol":17,"map":"pl_swiftwater_final1","folder":"tf","game":"Team Fortress","app_id":440,"player_count":24,"max_players":24,"Bots":0,"server_type":"Dedicated","server_os":"Linux","password":true,"vac":true,"version":"7757534","steam_id":85568392924469997,"keywords":["nocrits","nodmgspread","payload","uncletopia"],"game_id":440,"stv_port":27016,"stv_name":"Uncletopia | Seattle | 1 | All Maps | STV","players":[{"user_id":549,"name":"Tungsten","steam_id":76561198312854342,"connected_time":2120000000000,"state":"active","ping":67},{"user_id":568,"name":"bbbbb","steam_id":76561198095480838,"connected_time":3000000000,"state":"spawning","ping":42},{"user_id":546,"name":"EEBIGAA","steam_id":76561198056535988,"connected_time":2149000000000,"state":"active","ping":61},{"user_id":536,"name":"Sacrificial Wormy","steam_id":76561198054539200,"connected_time":2966000000000,"state":"active","ping":52},{"user_id":543,"name":"Flea103","steam_id":76561198085863864,"connected_time":2746000000000,"state":"active","ping":93},{"user_id":556,"name":"Cam(era)","steam_id":76561198285054047,"connected_time":1754000000000,"state":"active","ping":74},{"user_id":565,"name":"jungus","steam_id":76561198129862008,"connected_time":270000000000,"state":"active","ping":78},{"user_id":559,"name":"TheMagicMrWaffle","steam_id":76561198104357256,"connected_time":1324000000000,"state":"active","ping":78},{"user_id":567,"name":"Archimedes!","steam_id":76561199446023933,"connected_time":253000000000,"state":"active","ping":77},{"user_id":562,"name":"picea","steam_id":76561198134664196,"connected_time":866000000000,"state":"active","ping":67},{"user_id":558,"name":"Dorte Voloxi","steam_id":76561198118620969,"connected_time":1527000000000,"state":"active","ping":70},{"user_id":517,"name":"Arsonist Goose","steam_id":76561198147441830,"connected_time":4835000000000,"state":"active","ping":75},{"user_id":506,"name":"Kuma","steam_id":76561199100813140,"connected_time":5619000000000,"state":"active","ping":91},{"user_id":411,"name":"\\m/ Cyfun (she/it)","steam_id":76561197960882221,"connected_time":16548000000000,"state":"active","ping":95},{"user_id":552,"name":"rat gets the cheese","steam_id":76561198031234032,"connected_time":2109000000000,"state":"active","ping":101},{"user_id":560,"name":"〣dust〣 -she/her-","steam_id":76561198045218909,"connected_time":1223000000000,"state":"active","ping":39},{"user_id":533,"name":"YahYeeterson","steam_id":76561198120480906,"connected_time":3041000000000,"state":"active","ping":74},{"user_id":530,"name":"Ayayahuasca","steam_id":76561199002906056,"connected_time":3374000000000,"state":"active","ping":54},{"user_id":566,"name":"jacix3 [gay wolfgirl]{she/it}","steam_id":76561198205004165,"connected_time":268000000000,"state":"active","ping":66},{"user_id":534,"name":"Sniff","steam_id":76561198010270922,"connected_time":3018000000000,"state":"active","ping":47},{"user_id":544,"name":"MonteJT","steam_id":76561198055409360,"connected_time":2739000000000,"state":"active","ping":37},{"user_id":531,"name":"Hassium","steam_id":76561198162541373,"connected_time":3153000000000,"state":"active","ping":59},{"user_id":563,"name":"teh mummy","steam_id":76561198044123636,"connected_time":866000000000,"state":"active","ping":62},{"user_id":548,"name":"Cobalt-60","steam_id":76561199121908507,"connected_time":2141000000000,"state":"active","ping":131}]},{"server_id":119,"name":"Uncletopia | Seattle | 2 | All Maps","name_short":"sea-2","host":"sea-1.us.uncletopia.com","port":27025,"enabled":true,"region":"us-west","cc":"us","latitude":47.608013,"longitude":-122.33517,"reserved":0,"last_update":"0001-01-01T00:00:00Z","name_a2s":"Uncletopia | Seattle | 2 | All Maps","protocol":17,"map":"pl_frontier_final","folder":"tf","game":"Team Fortress","app_id":440,"player_count":24,"max_players":24,"Bots":0,"server_type":"Dedicated","server_os":"Linux","password":true,"vac":true,"version":"7757534","steam_id":85568392924469998,"keywords":["nocrits","nodmgspread","payload","uncletopia"],"game_id":440,"stv_port":27026,"stv_name":"Uncletopia | Seattle | 2 | All Maps | STV","players":[{"user_id":642,"name":"keithykeithers (mirror hands)","steam_id":76561197995552615,"connected_time":577000000000,"state":"active","ping":52},{"user_id":639,"name":"breaking the exosphere","steam_id":76561198825658971,"connected_time":1330000000000,"state":"active","ping":78},{"user_id":663,"name":"George","steam_id":76561198020046873,"connected_time":123000000000,"state":"active","ping":99},{"user_id":667,"name":"chunkysquare","steam_id":76561199076468383,"connected_time":68000000000,"state":"active","ping":63},{"user_id":646,"name":"John Wick's puppy","steam_id":76561198064662875,"connected_time":531000000000,"state":"active","ping":64},{"user_id":647,"name":"h","steam_id":76561198868164815,"connected_time":474000000000,"state":"active","ping":56},{"user_id":664,"name":"Anjeer Kohi","steam_id":76561199466957279,"connected_time":122000000000,"state":"active","ping":100},{"user_id":649,"name":"Furrio","steam_id":76561198174104607,"connected_time":456000000000,"state":"active","ping":98},{"user_id":638,"name":"Kanga Roo","steam_id":76561198073358867,"connected_time":1386000000000,"state":"active","ping":47},{"user_id":655,"name":"Chap","steam_id":76561198294226443,"connected_time":376000000000,"state":"active","ping":107},{"user_id":650,"name":"oil","steam_id":76561198099980149,"connected_time":442000000000,"state":"active","ping":79},{"user_id":651,"name":"T     H     E    PinheadLary","steam_id":76561199091466927,"connected_time":442000000000,"state":"active","ping":96},{"user_id":656,"name":"HideOnTate","steam_id":76561198209880837,"connected_time":374000000000,"state":"active","ping":45},{"user_id":644,"name":"Eris","steam_id":76561199471434875,"connected_time":551000000000,"state":"active","ping":37},{"user_id":628,"name":"Bastee1021","steam_id":76561199456141163,"connected_time":1998000000000,"state":"active","ping":108},{"user_id":569,"name":"Chalks","steam_id":76561198045978275,"connected_time":5717000000000,"state":"active","ping":79},{"user_id":665,"name":"thebestman982","steam_id":76561199001698710,"connected_time":119000000000,"state":"active","ping":98},{"user_id":666,"name":"sleep.hst","steam_id":76561199283485895,"connected_time":106000000000,"state":"active","ping":158},{"user_id":558,"name":"Deja Vu","steam_id":76561198062090620,"connected_time":6765000000000,"state":"active","ping":89},{"user_id":636,"name":"JayCoBee","steam_id":76561198416058213,"connected_time":1469000000000,"state":"active","ping":86},{"user_id":640,"name":"The Horselords and Animal Gods","steam_id":76561197975094050,"connected_time":1259000000000,"state":"active","ping":87},{"user_id":659,"name":"pizza","steam_id":76561198975450630,"connected_time":324000000000,"state":"active","ping":65},{"user_id":559,"name":"♥Lyra♥","steam_id":76561198092853824,"connected_time":6751000000000,"state":"active","ping":67},{"user_id":668,"name":"48","steam_id":76561198894676484,"connected_time":67000000000,"state":"active","ping":78}]},{"server_id":406,"name":"Uncletopia | Seattle | 3 | Stopwatch Beta","name_short":"sea-3","host":"sea-1.us.uncletopia.com","port":27035,"enabled":true,"region":"us-west","cc":"us","latitude":47.608013,"longitude":-122.33517,"reserved":0,"last_update":"0001-01-01T00:00:00Z","name_a2s":"Uncletopia | Seattle | 3 | Stopwatch Beta","protocol":17,"map":"workshop/koth_clearcut_b15.ugc2107050255","folder":"tf","game":"Team Fortress","app_id":440,"player_count":6,"max_players":24,"Bots":0,"server_type":"Dedicated","server_os":"Linux","password":true,"vac":true,"version":"7757534","steam_id":85568392924515217,"keywords":["cp","nocrits","nodmgspread","uncletopia"],"game_id":440,"stv_port":27036,"stv_name":"Uncletopia | Seattle | 3 | Stopwatch Beta | STV","players":[{"user_id":42,"name":"January","steam_id":76561199100225735,"connected_time":3074000000000,"state":"active","ping":44},{"user_id":43,"name":"The_Averagecrab","steam_id":76561199035877025,"connected_time":3067000000000,"state":"active","ping":86},{"user_id":45,"name":"Momma_Milky123","steam_id":76561199149697526,"connected_time":1766000000000,"state":"active","ping":57},{"user_id":46,"name":"monkey","steam_id":76561199001982443,"connected_time":1095000000000,"state":"active","ping":152},{"user_id":47,"name":"Goth Cat","steam_id":76561198225770324,"connected_time":568000000000,"state":"active","ping":94},{"user_id":52,"name":"Pug Mom","steam_id":76561198262451655,"connected_time":123000000000,"state":"spawning","ping":199}]},{"server_id":17,"name":"Uncletopia | San Francisco | 1 | All Maps","name_short":"sfo-1","host":"sfo-1.us.uncletopia.com","port":27015,"enabled":true,"region":"us-west","cc":"us","latitude":37.77397,"longitude":-122.4313,"reserved":0,"last_update":"0001-01-01T00:00:00Z","name_a2s":"Uncletopia | San Francisco | 1 | All Maps","protocol":17,"map":"koth_lakeside_final","folder":"tf","game":"Team Fortress","app_id":440,"player_count":1,"max_players":24,"Bots":0,"server_type":"Dedicated","server_os":"Linux","password":true,"vac":true,"version":"7757534","steam_id":85568392924469999,"keywords":["cp","nocrits","nodmgspread","uncletopia"],"game_id":440,"stv_port":27016,"stv_name":"Uncletopia | San Francisco | 1 | All Maps | STV","players":[{"user_id":23,"name":"WalkinMan","steam_id":76561198047941142,"connected_time":122000000000,"state":"active","ping":33}]},{"server_id":18,"name":"Uncletopia | San Francisco | 2 | All Maps","name_short":"sfo-2","host":"sfo-1.us.uncletopia.com","port":27025,"enabled":true,"region":"us-west","cc":"us","latitude":37.77397,"longitude":-122.4313,"reserved":0,"last_update":"0001-01-01T00:00:00Z","name_a2s":"Uncletopia | San Francisco | 2 | All Maps","protocol":17,"map":"koth_cascade","folder":"tf","game":"Team Fortress","app_id":440,"player_count":0,"max_players":24,"Bots":0,"server_type":"Dedicated","server_os":"Linux","password":true,"vac":true,"version":"7757534","steam_id":85568392924470000,"keywords":["cp","nocrits","nodmgspread","uncletopia"],"game_id":440,"stv_port":27026,"stv_name":"Uncletopia | San Francisco | 2 | All Maps | STV","players":null},{"server_id":19,"name":"Uncletopia | San Francisco | 3 | Stopwatch Beta","name_short":"sfo-3","host":"sfo-1.us.uncletopia.com","port":27035,"enabled":true,"region":"us-west","cc":"us","latitude":37.77397,"longitude":-122.4313,"reserved":0,"last_update":"0001-01-01T00:00:00Z","name_a2s":"Uncletopia | San Francisco | 3 | Stopwatch Beta","protocol":17,"map":"pl_borneo","folder":"tf","game":"Team Fortress","app_id":440,"player_count":0,"max_players":24,"Bots":0,"server_type":"Dedicated","server_os":"Linux","password":true,"vac":true,"version":"7757534","steam_id":85568392924742824,"keywords":["nocrits","nodmgspread","payload","uncletopia"],"game_id":440,"stv_port":27036,"stv_name":"Uncletopia | San Francisco | 3 | Stopwatch Beta | STV","players":null},{"server_id":20,"name":"Uncletopia | San Francisco | 4 | Community","name_short":"sfo-4","host":"sfo-1.us.uncletopia.com","port":27045,"enabled":true,"region":"us-west","cc":"us","latitude":37.77397,"longitude":-122.4313,"reserved":0,"last_update":"0001-01-01T00:00:00Z","name_a2s":"Uncletopia | San Francisco | 4 | Community","protocol":17,"map":"workshop/cp_hazyfort_rc6.ugc1365963729","folder":"tf","game":"Team Fortress","app_id":440,"player_count":6,"max_players":24,"Bots":0,"server_type":"Dedicated","server_os":"Linux","password":true,"vac":true,"version":"7757534","steam_id":85568392924742826,"keywords":["cp","nocrits","nodmgspread","uncletopia"],"game_id":440,"stv_port":27046,"stv_name":"Uncletopia | San Francisco | 4 | Community | STV","players":[{"user_id":185,"name":"me","steam_id":76561199468285784,"connected_time":4764000000000,"state":"active","ping":30},{"user_id":247,"name":"josie","steam_id":76561198170848553,"connected_time":1310000000000,"state":"active","ping":60},{"user_id":256,"name":"Berserk","steam_id":76561198000357361,"connected_time":855000000000,"state":"active","ping":69},{"user_id":257,"name":"Minedark","steam_id":76561198250995706,"connected_time":744000000000,"state":"active","ping":63},{"user_id":259,"name":"anal fiend","steam_id":76561198026844952,"connected_time":534000000000,"state":"active","ping":60},{"user_id":187,"name":"lana_del_Rei.com","steam_id":76561198172447621,"connected_time":4504000000000,"state":"active","ping":47}]},{"server_id":141,"name":"Uncletopia | Sydney | 1 | All Maps","name_short":"syd-1","host":"syd-1.au.uncletopia.com","port":27015,"enabled":true,"region":"au","cc":"au","latitude":-33.865143,"longitude":151.2099,"reserved":0,"last_update":"0001-01-01T00:00:00Z","name_a2s":"Uncletopia | Sydney | 1 | All Maps","protocol":17,"map":"pl_pier","folder":"tf","game":"Team Fortress","app_id":440,"player_count":18,"max_players":24,"Bots":0,"server_type":"Dedicated","server_os":"Linux","password":true,"vac":true,"version":"7757534","steam_id":85568392924470001,"keywords":["nocrits","nodmgspread","payload","uncletopia"],"game_id":440,"stv_port":27016,"stv_name":"Uncletopia | Sydney | 1 | All Maps | STV","players":[{"user_id":174,"name":"CouldBeKarlos","steam_id":76561198956180767,"connected_time":799000000000,"state":"active","ping":48},{"user_id":192,"name":"Peashooter","steam_id":76561198157250318,"connected_time":133000000000,"state":"active","ping":53},{"user_id":187,"name":"Really","steam_id":76561198153397177,"connected_time":231000000000,"state":"active","ping":52},{"user_id":195,"name":"Genuline","steam_id":76561198126426787,"connected_time":30000000000,"state":"spawning","ping":42},{"user_id":175,"name":"Matt","steam_id":76561198006791420,"connected_time":797000000000,"state":"active","ping":93},{"user_id":184,"name":"Zort","steam_id":76561198056414289,"connected_time":320000000000,"state":"active","ping":64},{"user_id":173,"name":"( ͡° ͜ʖ ͡°)","steam_id":76561199262196710,"connected_time":884000000000,"state":"active","ping":35},{"user_id":160,"name":"EmmArrGus","steam_id":76561198106343847,"connected_time":2513000000000,"state":"active","ping":55},{"user_id":168,"name":"cade is sleepy","steam_id":76561198126719182,"connected_time":1726000000000,"state":"active","ping":51},{"user_id":191,"name":"Wizram","steam_id":76561198130552376,"connected_time":162000000000,"state":"active","ping":62},{"user_id":139,"name":"Rashid Of The Dank Memes","steam_id":76561198281398078,"connected_time":3870000000000,"state":"active","ping":62},{"user_id":188,"name":"incoming!","steam_id":76561199428970964,"connected_time":222000000000,"state":"active","ping":82},{"user_id":190,"name":"Mike","steam_id":76561199009189725,"connected_time":193000000000,"state":"active","ping":66},{"user_id":166,"name":"Mousemoose","steam_id":76561198027405790,"connected_time":2097000000000,"state":"active","ping":62},{"user_id":122,"name":"ttv/ca7x3","steam_id":76561198181194862,"connected_time":4712000000000,"state":"active","ping":65},{"user_id":106,"name":"bird up","steam_id":76561198347964028,"connected_time":5326000000000,"state":"active","ping":42},{"user_id":182,"name":"jcoll444","steam_id":76561198143025380,"connected_time":441000000000,"state":"active","ping":43},{"user_id":172,"name":"ree boy","steam_id":76561199024189820,"connected_time":1147000000000,"state":"active","ping":84}]},{"server_id":123,"name":"Uncletopia | Sydney | 2 | All Maps","name_short":"syd-2","host":"syd-1.au.uncletopia.com","port":27025,"enabled":true,"region":"au","cc":"au","latitude":-33.865143,"longitude":151.2099,"reserved":0,"last_update":"0001-01-01T00:00:00Z","name_a2s":"Uncletopia | Sydney | 2 | All Maps","protocol":17,"map":"koth_viaduct","folder":"tf","game":"Team Fortress","app_id":440,"player_count":0,"max_players":24,"Bots":0,"server_type":"Dedicated","server_os":"Linux","password":true,"vac":true,"version":"7757534","steam_id":85568392924470002,"keywords":["cp","nocrits","nodmgspread","uncletopia"],"game_id":440,"stv_port":27026,"stv_name":"Uncletopia | Sydney | 2 | All Maps | STV","players":null},{"server_id":395,"name":"Uncletopia | Sydney | 3 | All Maps","name_short":"syd-3","host":"syd-1.au.uncletopia.com","port":27035,"enabled":true,"region":"au","cc":"au","latitude":-33.865143,"longitude":151.2099,"reserved":0,"last_update":"0001-01-01T00:00:00Z","name_a2s":"Uncletopia | Sydney | 3 | All Maps","protocol":17,"map":"pl_barnblitz","folder":"tf","game":"Team Fortress","app_id":440,"player_count":0,"max_players":24,"Bots":0,"server_type":"Dedicated","server_os":"Linux","password":true,"vac":true,"version":"7757534","steam_id":85568392925194467,"keywords":["nocrits","nodmgspread","payload","uncletopia"],"game_id":440,"stv_port":27036,"stv_name":"Uncletopia | Sydney | 3 | All Maps | STV","players":null},{"server_id":396,"name":"Uncletopia | Sydney | 4 | All Maps","name_short":"syd-4","host":"syd-1.au.uncletopia.com","port":27045,"enabled":true,"region":"au","cc":"au","latitude":-33.865143,"longitude":151.2099,"reserved":0,"last_update":"0001-01-01T00:00:00Z","name_a2s":"Uncletopia | Sydney | 4 | All Maps","protocol":17,"map":"koth_lakeside_final","folder":"tf","game":"Team Fortress","app_id":440,"player_count":0,"max_players":24,"Bots":0,"server_type":"Dedicated","server_os":"Linux","password":true,"vac":true,"version":"7757534","steam_id":85568392925397958,"keywords":["cp","nocrits","nodmgspread","uncletopia"],"game_id":440,"stv_port":27046,"stv_name":"Uncletopia | Sydney | 4 | All Maps | STV","players":null},{"server_id":58,"name":"Uncletopia | Sydney | 5 | Stopwatch Beta","name_short":"syd-5","host":"syd-1.au.uncletopia.com","port":27055,"enabled":true,"region":"au","cc":"au","latitude":-33.865143,"longitude":151.2099,"reserved":0,"last_update":"0001-01-01T00:00:00Z","name_a2s":"Uncletopia | Sydney | 5 | Stopwatch Beta","protocol":17,"map":"koth_lakeside_final","folder":"tf","game":"Team Fortress","app_id":440,"player_count":2,"max_players":24,"Bots":0,"server_type":"Dedicated","server_os":"Linux","password":true,"vac":true,"version":"7757534","steam_id":85568392925397959,"keywords":["cp","nocrits","nodmgspread","uncletopia"],"game_id":440,"stv_port":27056,"stv_name":"Uncletopia | Sydney | 5 | Stopwatch Beta | STV","players":[{"user_id":15,"name":"leila_yem","steam_id":76561199382137286,"connected_time":348000000000,"state":"active","ping":389},{"user_id":16,"name":"The Bisoneer TF2","steam_id":76561199446773766,"connected_time":270000000000,"state":"active","ping":94}]},{"server_id":59,"name":"Uncletopia | Sydney | 6 | Community","name_short":"syd-6","host":"syd-1.au.uncletopia.com","port":27065,"enabled":true,"region":"au","cc":"au","latitude":-33.865143,"longitude":151.2099,"reserved":0,"last_update":"0001-01-01T00:00:00Z","name_a2s":"Uncletopia | Sydney | 6 | Community","protocol":17,"map":"cp_sunshine","folder":"tf","game":"Team Fortress","app_id":440,"player_count":0,"max_players":24,"Bots":0,"server_type":"Dedicated","server_os":"Linux","password":true,"vac":true,"version":"7757534","steam_id":85568392925397960,"keywords":["cp","nocrits","nodmgspread","uncletopia"],"game_id":440,"stv_port":27066,"stv_name":"Uncletopia | Sydney | 6 | Community | STV","players":null},{"server_id":49,"name":"Uncletopia | Warsaw | 1 | All Maps","name_short":"waw-1","host":"waw-1.pl.uncletopia.com","port":27015,"enabled":true,"region":"eu","cc":"pl","latitude":52.2297,"longitude":21.017532,"reserved":0,"last_update":"0001-01-01T00:00:00Z","name_a2s":"","protocol":0,"map":"","folder":"","game":"","app_id":0,"player_count":0,"max_players":0,"Bots":0,"server_type":"","server_os":"","password":false,"vac":false,"version":"","steam_id":0,"keywords":null,"game_id":0,"stv_port":0,"stv_name":"","players":null},{"server_id":50,"name":"Uncletopia | Warsaw | 2 | All Maps","name_short":"waw-2","host":"waw-1.pl.uncletopia.com","port":27025,"enabled":true,"region":"eu","cc":"pl","latitude":52.2297,"longitude":21.017532,"reserved":0,"last_update":"0001-01-01T00:00:00Z","name_a2s":"Uncletopia | Warsaw | 2 | All Maps","protocol":17,"map":"koth_viaduct","folder":"tf","game":"Team Fortress","app_id":440,"player_count":0,"max_players":24,"Bots":0,"server_type":"Dedicated","server_os":"Linux","password":true,"vac":true,"version":"7757534","steam_id":85568392925397851,"keywords":["cp","nocrits","nodmgspread","uncletopia"],"game_id":440,"stv_port":27026,"stv_name":"Uncletopia | Warsaw | 2 | All Maps | STV","players":null},{"server_id":51,"name":"Uncletopia | Warsaw | 3 | All Maps","name_short":"waw-3","host":"waw-1.pl.uncletopia.com","port":27035,"enabled":true,"region":"eu","cc":"pl","latitude":52.2297,"longitude":21.017532,"reserved":0,"last_update":"0001-01-01T00:00:00Z","name_a2s":"Uncletopia | Warsaw | 3 | All Maps","protocol":17,"map":"koth_cascade","folder":"tf","game":"Team Fortress","app_id":440,"player_count":0,"max_players":24,"Bots":0,"server_type":"Dedicated","server_os":"Linux","password":true,"vac":true,"version":"7757534","steam_id":85568392925397852,"keywords":["cp","nocrits","nodmgspread","uncletopia"],"game_id":440,"stv_port":27036,"stv_name":"Uncletopia | Warsaw | 3 | All Maps | STV","players":null},{"server_id":52,"name":"Uncletopia | Warsaw | 4 | All Maps","name_short":"waw-4","host":"waw-1.pl.uncletopia.com","port":27045,"enabled":true,"region":"eu","cc":"pl","latitude":52.2297,"longitude":21.017532,"reserved":0,"last_update":"0001-01-01T00:00:00Z","name_a2s":"Uncletopia | Warsaw | 4 | All Maps","protocol":17,"map":"cp_steel","folder":"tf","game":"Team Fortress","app_id":440,"player_count":0,"max_players":24,"Bots":0,"server_type":"Dedicated","server_os":"Linux","password":true,"vac":true,"version":"7757534","steam_id":85568392925397853,"keywords":["cp","nocrits","nodmgspread","uncletopia"],"game_id":440,"stv_port":27046,"stv_name":"Uncletopia | Warsaw | 4 | All Maps | STV","players":null},{"server_id":53,"name":"Uncletopia | Warsaw | 5 | Stopwatch Beta","name_short":"waw-5","host":"waw-1.pl.uncletopia.com","port":27055,"enabled":true,"region":"eu","cc":"pl","latitude":52.2297,"longitude":21.017532,"reserved":0,"last_update":"0001-01-01T00:00:00Z","name_a2s":"Uncletopia | Warsaw | 5 | Stopwatch Beta","protocol":17,"map":"pl_barnblitz","folder":"tf","game":"Team Fortress","app_id":440,"player_count":0,"max_players":24,"Bots":0,"server_type":"Dedicated","server_os":"Linux","password":true,"vac":true,"version":"7757534","steam_id":85568392925397854,"keywords":["nocrits","nodmgspread","payload","uncletopia"],"game_id":440,"stv_port":27056,"stv_name":"Uncletopia | Warsaw | 5 | Stopwatch Beta | STV","players":null},{"server_id":54,"name":"Uncletopia | Warsaw | 6 | Community","name_short":"waw-6","host":"waw-1.pl.uncletopia.com","port":27065,"enabled":true,"region":"eu","cc":"pl","latitude":52.2297,"longitude":21.017532,"reserved":0,"last_update":"0001-01-01T00:00:00Z","name_a2s":"Uncletopia | Warsaw | 6 | Community","protocol":17,"map":"workshop/koth_bagel_rc5.ugc2514036946","folder":"tf","game":"Team Fortress","app_id":440,"player_count":0,"max_players":24,"Bots":0,"server_type":"Dedicated","server_os":"Linux","password":true,"vac":true,"version":"7757534","steam_id":85568392925397856,"keywords":["cp","nocrits","nodmgspread","uncletopia"],"game_id":440,"stv_port":27066,"stv_name":"Uncletopia | Warsaw | 6 | Community | STV","players":null}]}