{"status":true,"message":"","result":[{"server_id":9,"name":"Uncletopia | Atlanta | 1 | All Maps","name_short":"atl-1","host":"atl-1.us.uncletopia.com","port":27015,"enabled":true,"region":"us-east","cc":"us","latitude":33.753746,"longitude":-84.38633,"reserved":0,"last_update":"0001-01-01T00:00:00Z","name_a2s":"Uncletopia | Atlanta | 1 | All Maps","protocol":17,"map":"koth_lakeside_final","folder":"tf","game":"Team Fortress","app_id":440,"player_count":0,"max_players":24,"Bots":0,"server_type":"Dedicated","server_os":"Linux","password":true,"vac":true,"version":"7961495","steam_id":85568392924469982,"keywords":["cp","nocrits","nodmgspread","uncletopia"],"game_id":440,"stv_port":27016,"stv_name":"Uncletopia | Atlanta | 1 | All Maps | STV","players":null},{"server_id":104,"name":"Uncletopia | Atlanta | 2 | All Maps","name_short":"atl-2","host":"atl-1.us.uncletopia.com","port":27025,"enabled":true,"region":"us-east","cc":"us","latitude":33.753746,"longitude":-84.38633,"reserved":0,"last_update":"0001-01-01T00:00:00Z","name_a2s":"Uncletopia | Atlanta | 2 | All Maps","protocol":17,"map":"pl_upward","folder":"tf","game":"Team Fortress","app_id":440,"player_count":0,"max_players":24,"Bots":0,"server_type":"Dedicated","server_os":"Linux","password":true,"vac":true,"version":"7961495","steam_id":85568392924469983,"keywords":["nocrits","nodmgspread","payload","uncletopia"],"game_id":440,"stv_port":27026,"stv_name":"Uncletopia | Atlanta | 2 | All Maps | STV","players":null},{"server_id":400,"name":"Uncletopia | Atlanta | 3 | Stopwatch","name_short":"atl-3","host":"atl-1.us.uncletopia.com","port":27035,"enabled":true,"region":"us-east","cc":"us","latitude":33.753746,"longitude":-84.38633,"reserved":0,"last_update":"0001-01-01T00:00:00Z","name_a2s":"Uncletopia | Atlanta | 3 | Stopwatch","protocol":17,"map":"workshop/koth_product_final.ugc454272353","folder":"tf","game":"Team Fortress","app_id":440,"player_count":0,"max_players":24,"Bots":0,"server_type":"Dedicated","server_os":"Linux","password":true,"vac":true,"version":"7961495","steam_id":85568392924515187,"keywords":["cp","nocrits","nodmgspread","uncletopia"],"game_id":440,"stv_port":27036,"stv_name":"Uncletopia | Atlanta | 3 | Stopwatch | STV","players":null},{"server_id":401,"name":"Uncletopia | Atlanta | 4 | Community","name_short":"atl-4","host":"atl-1.us.uncletopia.com","port":27045,"enabled":true,"region":"us-east","cc":"us","latitude":33.753746,"longitude":-84.38633,"reserved":0,"last_update":"0001-01-01T00:00:00Z","name_a2s":"Uncletopia | Atlanta | 4 | Community","protocol":17,"map":"workshop/koth_bagel_rc6.ugc2514036946","folder":"tf","game":"Team Fortress","app_id":440,"player_count":0,"max_players":24,"Bots":0,"server_type":"Dedicated","server_os":"Linux","password":true,"vac":true,"version":"7961495","steam_id":85568392924515188,"keywords":["cp","nocrits","nodmgspread","uncletopia"],"game_id":440,"stv_port":27046,"stv_name":"Uncletopia | Atlanta | 4 | Community | STV","players":null},{"server_id":2,"name":"Uncletopia | Chicago | 1 | All Maps","name_short":"chi-1","host":"chi-1.us.uncletopia.com","port":27015,"enabled":true,"region":"us-central","cc":"us","latitude":41.881832,"longitude":-87.62318,"reserved":0,"last_update":"0001-01-01T00:00:00Z","name_a2s":"Uncletopia | Chicago | 1 | All Maps","protocol":17,"map":"pl_frontier_final","folder":"tf","game":"Team Fortress","app_id":440,"player_count":0,"max_players":24,"Bots":0,"server_type":"Dedicated","server_os":"Linux","password":true,"vac":true,"version":"7961495","steam_id":85568392924469984,"keywords":["nocrits","nodmgspread","payload","uncletopia"],"game_id":440,"stv_port":27016,"stv_name":"Uncletopia | Chicago | 1 | All Maps | STV","players":null},{"server_id":106,"name":"Uncletopia | Chicago | 2 | All Maps","name_short":"chi-2","host":"chi-1.us.uncletopia.com","port":27025,"enabled":true,"region":"us-central","cc":"us","latitude":41.881832,"longitude":-87.62318,"reserved":0,"last_update":"0001-01-01T00:00:00Z","name_a2s":"Uncletopia | Chicago | 2 | All Maps","protocol":17,"map":"pl_barnblitz","folder":"tf","game":"Team Fortress","app_id":440,"player_count":24,"max_players":24,"Bots":0,"server_type":"Dedicated","server_os":"Linux","password":true,"vac":true,"version":"7961495","steam_id":85568392924469985,"keywords":["nocrits","nodmgspread","payload","uncletopia"],"game_id":440,"stv_port":27026,"stv_name":"Uncletopia | Chicago | 2 | All Maps | STV","players":[{"user_id":690,"name":"Bolbi","steam_id":76561198051811597,"connected_time":3086000000000,"state":"active","ping":119},{"user_id":708,"name":"Temujin","steam_id":76561198030936583,"connected_time":1184000000000,"state":"active","ping":47},{"user_id":666,"name":"K","steam_id":76561198171446177,"connected_time":4302000000000,"state":"active","ping":94},{"user_id":679,"name":"Wique","steam_id":76561198071217597,"connected_time":3353000000000,"state":"active","ping":88},{"user_id":705,"name":"gallowsCalibrator","steam_id":76561198404707578,"connected_time":1291000000000,"state":"active","ping":65},{"user_id":704,"name":"Xylemon","steam_id":76561197965297420,"connected_time":1971000000000,"state":"active","ping":132},{"user_id":709,"name":"Loagurt","steam_id":76561198076171759,"connected_time":1106000000000,"state":"active","ping":74},{"user_id":717,"name":"Poppet","steam_id":76561198012301951,"connected_time":184000000000,"state":"active","ping":61},{"user_id":671,"name":"sloth (i have gay)","steam_id":76561198047098172,"connected_time":4018000000000,"state":"active","ping":73},{"user_id":712,"name":"FenexIsDead","steam_id":76561199013058838,"connected_time":939000000000,"state":"active","ping":61},{"user_id":711,"name":"The_Stomach_Stone_Surgeon","steam_id":76561198044643725,"connected_time":1096000000000,"state":"active","ping":55},{"user_id":695,"name":"Missing Minus","steam_id":76561198120822928,"connected_time":2949000000000,"state":"active","ping":60},{"user_id":693,"name":"Recluse","steam_id":76561198155011568,"connected_time":3017000000000,"state":"active","ping":64},{"user_id":714,"name":"werecat","steam_id":76561198005091213,"connected_time":344000000000,"state":"active","ping":61},{"user_id":698,"name":"Urist McDwarf","steam_id":76561198164004939,"connected_time":2821000000000,"state":"active","ping":124},{"user_id":701,"name":"Lemon Soda","steam_id":76561198140208761,"connected_time":2556000000000,"state":"active","ping":69},{"user_id":692,"name":"Primelotus","steam_id":76561198086618284,"connected_time":3053000000000,"state":"active","ping":132},{"user_id":706,"name":"Zymiren","steam_id":76561198054985471,"connected_time":1280000000000,"state":"active","ping":102},{"user_id":687,"name":"Rambly Dambly","steam_id":76561198844496567,"connected_time":3238000000000,"state":"active","ping":59},{"user_id":684,"name":"Ripping Heads","steam_id":76561198006146062,"connected_time":3276000000000,"state":"active","ping":77},{"user_id":694,"name":"Maestro","steam_id":76561198157325020,"connected_time":3016000000000,"state":"active","ping":75},{"user_id":703,"name":"wendigo","steam_id":76561197994528974,"connected_time":2217000000000,"state":"active","ping":87},{"user_id":707,"name":"Theuaredead`","steam_id":76561197997923705,"connected_time":1276000000000,"state":"active","ping":49},{"user_id":716,"name":"Fyr","steam_id":76561198048507556,"connected_time":264000000000,"state":"active","ping":75}]},{"server_id":402,"name":"Uncletopia | Chicago | 3 | All Maps","name_short":"chi-3","host":"chi-1.us.uncletopia.com","port":27035,"enabled":true,"region":"us-central","cc":"us","latitude":41.881832,"longitude":-87.62318,"reserved":0,"last_update":"0001-01-01T00:00:00Z","name_a2s":"Uncletopia | Chicago | 3 | All Maps","protocol":17,"map":"koth_viaduct","folder":"tf","game":"Team Fortress","app_id":440,"player_count":0,"max_players":24,"Bots":0,"server_type":"Dedicated","server_os":"Linux","password":true,"vac":true,"version":"7961495","steam_id":85568392924515191,"keywords":["cp","nocrits","nodmgspread","uncletopia"],"game_id":440,"stv_port":27036,"stv_name":"Uncletopia | Chicago | 3 | All Maps | STV","players":null},{"server_id":403,"name":"Uncletopia | Chicago | 4 | All Maps","name_short":"chi-4","host":"chi-1.us.uncletopia.com","port":27045,"enabled":true,"region":"us-central","cc":"us","latitude":41.881832,"longitude":-87.62318,"reserved":0,"last_update":"0001-01-01T00:00:00Z","name_a2s":"Uncletopia | Chicago | 4 | All Maps","protocol":17,"map":"koth_lakeside_final","folder":"tf","game":"Team Fortress","app_id":440,"player_count":0,"max_players":24,"Bots":0,"server_type":"Dedicated","server_os":"Linux","password":true,"vac":true,"version":"7961495","steam_id":85568392924515193,"keywords":["cp","nocrits","nodmgspread","uncletopia"],"game_id":440,"stv_port":27046,"stv_name":"Uncletopia | Chicago | 4 | All Maps | STV","players":null},{"server_id":36,"name":"Uncletopia | Chicago | 5 | All Maps","name_short":"chi-5","host":"chi-2.us.uncletopia.com","port":27015,"enabled":true,"region":"us-central","cc":"us","latitude":41.881832,"longitude":-87.62318,"reserved":0,"last_update":"0001-01-01T00:00:00Z","name_a2s":"Uncletopia | Chicago | 5 | All Maps","protocol":17,"map":"cp_snakewater_final1","folder":"tf","game":"Team Fortress","app_id":440,"player_count":0,"max_players":24,"Bots":0,"server_type":"Dedicated","server_os":"Linux","password":true,"vac":true,"version":"7961495","steam_id":85568392924866362,"keywords":["cp","nocrits","nodmgspread","uncletopia"],"game_id":440,"stv_port":27016,"stv_name":"Uncletopia | Chicago | 5 | All Maps | STV","players":null},{"server_id":37,"name":"Uncletopia | Chicago | 6 | All Maps","name_short":"chi-6","host":"chi-2.us.uncletopia.com","port":27025,"enabled":true,"region":"us-central","cc":"us","latitude":41.881832,"longitude":-87.62318,"reserved":0,"last_update":"0001-01-01T00:00:00Z","name_a2s":"Uncletopia | Chicago | 6 | All Maps","protocol":17,"map":"pl_snowycoast","folder":"tf","game":"Team Fortress","app_id":440,"player_count":0,"max_players":24,"Bots":0,"server_type":"Dedicated","server_os":"Linux","password":true,"vac":true,"version":"7961495","steam_id":85568392924866363,"keywords":["nocrits","nodmgspread","payload","uncletopia"],"game_id":440,"stv_port":27026,"stv_name":"Uncletopia | Chicago | 6 | All Maps | STV","players":null},{"server_id":38,"name":"Uncletopia | Chicago | 7 | Stopwatch","name_short":"chi-7","host":"chi-2.us.uncletopia.com","port":27035,"enabled":true,"region":"us-central","cc":"us","latitude":41.881832,"longitude":-87.62318,"reserved":0,"last_update":"0001-01-01T00:00:00Z","name_a2s":"Uncletopia | Chicago | 7 | Stopwatch","protocol":17,"map":"koth_highpass","folder":"tf","game":"Team Fortress","app_id":440,"player_count":0,"max_players":24,"Bots":0,"server_type":"Dedicated","server_os":"Linux","password":true,"vac":true,"version":"7961495","steam_id":85568392924866364,"keywords":["cp","nocrits","nodmgspread","uncletopia"],"game_id":440,"stv_port":27036,"stv_name":"Uncletopia | Chicago | 7 | Stopwatch | STV","players":null},{"server_id":39,"name":"Uncletopia | Chicago | 8 | Community","name_short":"chi-8","host":"chi-2.us.uncletopia.com","port":27045,"enabled":true,"region":"us-central","cc":"us","latitude":41.881832,"longitude":-87.62318,"reserved":0,"last_update":"0001-01-01T00:00:00Z","name_a2s":"Uncletopia | Chicago | 8 | Community","protocol":17,"map":"workshop/koth_synthetic_rc6a.ugc1549817316","folder":"tf","game":"Team Fortress","app_id":440,"player_count":0,"max_players":24,"Bots":0,"server_type":"Dedicated","server_os":"Linux","password":true,"vac":true,"version":"7961495","steam_id":85568392924866365,"keywords":["cp","nocrits","nodmgspread","uncletopia"],"game_id":440,"stv_port":27046,"stv_name":"Uncletopia | Chicago | 8 | Community | STV","players":null},{"server_id":8,"name":"Uncletopia | Dallas | 1 | All Maps","name_short":"dal-1","host":"dal-1.us.uncletopia.com","port":27015,"enabled":true,"region":"us-central","cc":"us","latitude":32.779167,"longitude":-96.80889,"reserved":0,"last_update":"0001-01-01T00:00:00Z","name_a2s":"Uncletopia | Dallas | 1 | All Maps","protocol":17,"map":"pl_badwater","folder":"tf","game":"Team Fortress","app_id":440,"player_count":15,"max_players":24,"Bots":0,"server_type":"Dedicated","server_os":"Linux","password":true,"vac":true,"version":"7961495","steam_id":85568392924469986,"keywords":["nocrits","nodmgspread","payload","uncletopia"],"game_id":440,"stv_port":27016,"stv_name":"Uncletopia | Dallas | 1 | All Maps | STV","players":[{"user_id":237,"name":"Nyah","steam_id":76561199192601345,"connected_time":2684000000000,"state":"active","ping":63},{"user_id":258,"name":"Hopdon The Magic Bunny","steam_id":76561198051616613,"connected_time":509000000000,"state":"active","ping":87},{"user_id":253,"name":"kris736","steam_id":76561198038208255,"connected_time":775000000000,"state":"active","ping":75},{"user_id":264,"name":"Not Muscle Man","steam_id":76561198010460535,"connected_time":257000000000,"state":"active","ping":91},{"user_id":265,"name":"Lane","steam_id":76561197965828506,"connected_time":227000000000,"state":"active","ping":55},{"user_id":267,"name":"sevvy \u003c3","steam_id":76561198219129496,"connected_time":44000000000,"state":"active","ping":93},{"user_id":244,"name":"CheeseCake488","steam_id":76561199407617942,"connected_time":1939000000000,"state":"active","ping":116},{"user_id":266,"name":"RC Polygons","steam_id":76561198843074574,"connected_time":171000000000,"state":"active","ping":85},{"user_id":246,"name":"Wormy of bad luck","steam_id":76561198054539200,"connected_time":1875000000000,"state":"active","ping":101},{"user_id":268,"name":"jlbear156","steam_id":76561199410494872,"connected_time":4000000000,"state":"spawning","ping":268},{"user_id":238,"name":"rune simpa","steam_id":76561198046174848,"connected_time":2324000000000,"state":"active","ping":63},{"user_id":240,"name":"Philo","steam_id":76561198061873341,"connected_time":2113000000000,"state":"active","ping":93},{"user_id":231,"name":"Richard","steam_id":76561198044115685,"connected_time":3101000000000,"state":"active","ping":67},{"user_id":257,"name":"ryann","steam_id":76561198042996639,"connected_time":669000000000,"state":"active","ping":87},{"user_id":263,"name":"goodypiggy","steam_id":76561198434705310,"connected_time":320000000000,"state":"active","ping":89}]},{"server_id":108,"name":"Uncletopia | Dallas | 2 | All Maps","name_short":"dal-2","host":"dal-1.us.uncletopia.com","port":27025,"enabled":true,"region":"us-central","cc":"us","latitude":32.779167,"longitude":-96.80889,"reserved":0,"last_update":"0001-01-01T00:00:00Z","name_a2s":"Uncletopia | Dallas | 2 | All Maps","protocol":17,"map":"koth_badlands","folder":"tf","game":"Team Fortress","app_id":440,"player_count":24,"max_players":24,"Bots":0,"server_type":"Dedicated","server_os":"Linux","password":true,"vac":true,"version":"7961495","steam_id":85568392924469988,"keywords":["cp","nocrits","nodmgspread","uncletopia"],"game_id":440,"stv_port":27026,"stv_name":"Uncletopia | Dallas | 2 | All Maps | STV","players":[{"user_id":879,"name":"Sus us Amogus","steam_id":76561199207425066,"connected_time":252000000000,"state":"active","ping":100},{"user_id":835,"name":"Gummy","steam_id":76561199200969139,"connected_time":3986000000000,"state":"active","ping":98},{"user_id":880,"name":"wattyooh!","steam_id":76561198019206178,"connected_time":245000000000,"state":"active","ping":76},{"user_id":886,"name":"Markiplier2008","steam_id":76561198391284380,"connected_time":159000000000,"state":"active","ping":74},{"user_id":882,"name":"BREAD GOD","steam_id":76561198090935745,"connected_time":213000000000,"state":"active","ping":172},{"user_id":883,"name":"ocky","steam_id":76561198313049944,"connected_time":213000000000,"state":"active","ping":90},{"user_id":782,"name":"BADWOLF42","steam_id":76561198055447523,"connected_time":10288000000000,"state":"active","ping":55},{"user_id":837,"name":"the pizza","steam_id":76561198221331476,"connected_time":3923000000000,"state":"active","ping":72},{"user_id":814,"name":"Nestor","steam_id":76561198070782619,"connected_time":6138000000000,"state":"active","ping":86},{"user_id":847,"name":"Calo","steam_id":76561198287205618,"connected_time":3040000000000,"state":"active","ping":114},{"user_id":841,"name":"mighty midori","steam_id":76561198061637229,"connected_time":3672000000000,"state":"active","ping":41},{"user_id":884,"name":"Drakeo","steam_id":76561198068214572,"connected_time":183000000000,"state":"active","ping":72},{"user_id":878,"name":"Weird Demopan","steam_id":76561198061610985,"connected_time":366000000000,"state":"active","ping":127},{"user_id":885,"name":"Irritated Duck","steam_id":76561198247792076,"connected_time":173000000000,"state":"active","ping":137},{"user_id":849,"name":"markiplier2007","steam_id":76561198181153199,"connected_time":2867000000000,"state":"active","ping":89},{"user_id":887,"name":"Your average dumbass","steam_id":76561198311873272,"connected_time":157000000000,"state":"active","ping":52},{"user_id":846,"name":"King","steam_id":76561198039763676,"connected_time":3161000000000,"state":"active","ping":71},{"user_id":864,"name":"The power of the Xbox 360","steam_id":76561198835517383,"connected_time":1244000000000,"state":"active","ping":82},{"user_id":888,"name":"Dollop","steam_id":76561198055444075,"connected_time":149000000000,"state":"active","ping":83},{"user_id":890,"name":"Dilbert Jones","steam_id":76561198799249177,"connected_time":86000000000,"state":"active","ping":100},{"user_id":889,"name":"A B1 Battle Droid","steam_id":76561198050678984,"connected_time":97000000000,"state":"active","ping":38},{"user_id":856,"name":"Arcane Flame","steam_id":76561198360024422,"connected_time":2342000000000,"state":"active","ping":89},{"user_id":876,"name":"Fred Ott","steam_id":76561198099088693,"connected_time":467000000000,"state":"active","ping":76},{"user_id":891,"name":"UNREFORMED","steam_id":76561198091772641,"connected_time":66000000000,"state":"active","ping":67}]},{"server_id":404,"name":"Uncletopia | Dallas | 3 | All Maps","name_short":"dal-3","host":"dal-1.us.uncletopia.com","port":27035,"enabled":true,"region":"us-central","cc":"us","latitude":32.779167,"longitude":-96.80889,"reserved":0,"last_update":"0001-01-01T00:00:00Z","name_a2s":"Uncletopia | Dallas | 3 | All Maps","protocol":17,"map":"pl_barnblitz","folder":"tf","game":"Team Fortress","app_id":440,"player_count":0,"max_players":24,"Bots":0,"server_type":"Dedicated","server_os":"Linux","password":true,"vac":true,"version":"7961495","steam_id":85568392924515219,"keywords":["nocrits","nodmgspread","payload","uncletopia"],"game_id":440,"stv_port":27036,"stv_name":"Uncletopia | Dallas | 3 | All Maps | STV","players":null},{"server_id":405,"name":"Uncletopia | Dallas | 4 | Community","name_short":"dal-4","host":"dal-1.us.uncletopia.com","port":27045,"enabled":true,"region":"us-central","cc":"us","latitude":32.779167,"longitude":-96.80889,"reserved":0,"last_update":"0001-01-01T00:00:00Z","name_a2s":"Uncletopia | Dallas | 4 | Community","protocol":17,"map":"workshop/cp_mannbase_rc2a.ugc1900737467","folder":"tf","game":"Team Fortress","app_id":440,"player_count":0,"max_players":24,"Bots":0,"server_type":"Dedicated","server_os":"Linux","password":true,"vac":true,"version":"7961495","steam_id":85568392924515220,"keywords":["cp","nocrits","nodmgspread","uncletopia"],"game_id":440,"stv_port":27046,"stv_name":"Uncletopia | Dallas | 4 | Community | STV","players":null},{"server_id":5,"name":"Uncletopia | Frankfurt | 1 | All Maps","name_short":"frk-1","host":"frk-1.de.uncletopia.com","port":27015,"enabled":true,"region":"eu","cc":"de","latitude":50.110924,"longitude":8.682127,"reserved":0,"last_update":"0001-01-01T00:00:00Z","name_a2s":"Uncletopia | Frankfurt | 1 | All Maps","protocol":17,"map":"koth_highpass","folder":"tf","game":"Team Fortress","app_id":440,"player_count":0,"max_players":24,"Bots":0,"server_type":"Dedicated","server_os":"Linux","password":true,"vac":true,"version":"7961495","steam_id":85568392924469989,"keywords":["cp","nocrits","nodmgspread","uncletopia"],"game_id":440,"stv_port":27016,"stv_name":"Uncletopia | Frankfurt | 1 | All Maps | STV","players":null},{"server_id":110,"name":"Uncletopia | Frankfurt | 2 | All Maps","name_short":"frk-2","host":"frk-1.de.uncletopia.com","port":27025,"enabled":true,"region":"eu","cc":"de","latitude":50.110924,"longitude":8.682127,"reserved":0,"last_update":"0001-01-01T00:00:00Z","name_a2s":"Uncletopia | Frankfurt | 2 | All Maps","protocol":17,"map":"koth_viaduct","folder":"tf","game":"Team Fortress","app_id":440,"player_count":0,"max_players":24,"Bots":0,"server_type":"Dedicated","server_os":"Linux","password":true,"vac":true,"version":"7961495","steam_id":85568392924469990,"keywords":["cp","nocrits","nodmgspread","uncletopia"],"game_id":440,"stv_port":27026,"stv_name":"Uncletopia | Frankfurt | 2 | All Maps | STV","players":null},{"server_id":308,"name":"Uncletopia | Frankfurt | 3 | All Maps","name_short":"frk-3","host":"frk-1.de.uncletopia.com","port":27035,"enabled":true,"region":"eu","cc":"de","latitude":50.110924,"longitude":8.682127,"reserved":0,"last_update":"0001-01-01T00:00:00Z","name_a2s":"Uncletopia | Frankfurt | 3 | All Maps","protocol":17,"map":"pl_snowycoast","folder":"tf","game":"Team Fortress","app_id":440,"player_count":0,"max_players":24,"Bots":0,"server_type":"Dedicated","server_os":"Linux","password":true,"vac":true,"version":"7961495","steam_id":85568392924504274,"keywords":["nocrits","nodmgspread","payload","uncletopia"],"game_id":440,"stv_port":27036,"stv_name":"Uncletopia | Frankfurt | 3 | All Maps | STV","players":null},{"server_id":309,"name":"Uncletopia | Frankfurt | 4 | All Maps","name_short":"frk-4","host":"frk-1.de.uncletopia.com","port":27045,"enabled":true,"region":"eu","cc":"de","latitude":50.110924,"longitude":8.682127,"reserved":0,"last_update":"0001-01-01T00:00:00Z","name_a2s":"Uncletopia | Frankfurt | 4 | All Maps","protocol":17,"map":"koth_highpass","folder":"tf","game":"Team Fortress","app_id":440,"player_count":0,"max_players":24,"Bots":0,"server_type":"Dedicated","server_os":"Linux","password":true,"vac":true,"version":"7961495","steam_id":85568392924504275,"keywords":["cp","nocrits","nodmgspread","uncletopia"],"game_id":440,"stv_port":27046,"stv_name":"Uncletopia | Frankfurt | 4 | All Maps | STV","players":null},{"server_id":310,"name":"Uncletopia | Frankfurt | 5 | All Maps","name_short":"frk-5","host":"frk-1.de.uncletopia.com","port":27055,"enabled":true,"region":"eu","cc":"de","latitude":50.110924,"longitude":8.682127,"reserved":0,"last_update":"0001-01-01T00:00:00Z","name_a2s":"Uncletopia | Frankfurt | 5 | All Maps","protocol":17,"map":"pl_upward","folder":"tf","game":"Team Fortress","app_id":440,"player_count":16,"max_players":24,"Bots":0,"server_type":"Dedicated","server_os":"Linux","password":true,"vac":true,"version":"7961495","steam_id":85568392924504277,"keywords":["nocrits","nodmgspread","payload","uncletopia"],"game_id":440,"stv_port":27056,"stv_name":"Uncletopia | Frankfurt | 5 | All Maps | STV","players":[{"user_id":21,"name":"Haha I'm in danger","steam_id":76561199379469020,"connected_time":661000000000,"state":"active","ping":109},{"user_id":24,"name":"kornetov.vitalya","steam_id":76561199286034833,"connected_time":363000000000,"state":"active","ping":90},{"user_id":23,"name":"Excadrill (GOAT)","steam_id":76561199012566222,"connected_time":464000000000,"state":"active","ping":47},{"user_id":13,"name":"Hyperwizard of Space Conquest","steam_id":76561198953210459,"connected_time":1280000000000,"state":"active","ping":86},{"user_id":14,"name":"ZA SOUL","steam_id":76561198211277765,"connected_time":1178000000000,"state":"active","ping":80},{"user_id":15,"name":"Rocket Queen's consort","steam_id":76561198092995429,"connected_time":1148000000000,"state":"active","ping":127},{"user_id":30,"name":"egg yolk","steam_id":76561198366954330,"connected_time":195000000000,"state":"active","ping":56},{"user_id":19,"name":"cof","steam_id":76561199128417805,"connected_time":788000000000,"state":"active","ping":55},{"user_id":18,"name":"Rez","steam_id":76561198410598772,"connected_time":866000000000,"state":"active","ping":46},{"user_id":25,"name":"Fr1Zer","steam_id":76561198357086270,"connected_time":345000000000,"state":"active","ping":95},{"user_id":28,"name":"Neko","steam_id":76561198075690128,"connected_time":257000000000,"state":"active","ping":49},{"user_id":27,"name":"Musicano","steam_id":76561198114541088,"connected_time":302000000000,"state":"active","ping":85},{"user_id":29,"name":"gus","steam_id":76561198876303958,"connected_time":256000000000,"state":"active","ping":105},{"user_id":31,"name":"Hugee ツ","steam_id":76561198245495152,"connected_time":153000000000,"state":"active","ping":60},{"user_id":32,"name":"jamkel #savetf2","steam_id":76561199088464666,"connected_time":143000000000,"state":"active","ping":80},{"user_id":33,"name":"Run Car Snow Pen","steam_id":76561197998887249,"connected_time":41000000000,"state":"active","ping":75}]},{"server_id":311,"name":"Uncletopia | Frankfurt | 6 | All Maps","name_short":"frk-6","host":"frk-1.de.uncletopia.com","port":27065,"enabled":true,"region":"eu","cc":"de","latitude":50.110924,"longitude":8.682127,"reserved":0,"last_update":"0001-01-01T00:00:00Z","name_a2s":"Uncletopia | Frankfurt | 6 | All Maps","protocol":17,"map":"pl_barnblitz","folder":"tf","game":"Team Fortress","app_id":440,"player_count":23,"max_players":24,"Bots":0,"server_type":"Dedicated","server_os":"Linux","password":true,"vac":true,"version":"7961495","steam_id":85568392924504278,"keywords":["nocrits","nodmgspread","payload","uncletopia"],"game_id":440,"stv_port":27066,"stv_name":"Uncletopia | Frankfurt | 6 | All Maps | STV","players":[{"user_id":90,"name":"lulu","steam_id":76561199147764133,"connected_time":1658000000000,"state":"active","ping":61},{"user_id":97,"name":"murderwow","steam_id":76561198024566944,"connected_time":801000000000,"state":"active","ping":90},{"user_id":95,"name":"Hanni","steam_id":76561198374117962,"connected_time":977000000000,"state":"active","ping":67},{"user_id":6,"name":"tyroksi :D","steam_id":76561198103875245,"connected_time":4983000000000,"state":"active","ping":101},{"user_id":81,"name":"MeDiciN","steam_id":76561199112280586,"connected_time":2239000000000,"state":"active","ping":144},{"user_id":20,"name":"Gaming Gamer","steam_id":76561199098088708,"connected_time":4211000000000,"state":"active","ping":47},{"user_id":78,"name":"Catsanddogs123","steam_id":76561198030868386,"connected_time":2746000000000,"state":"active","ping":105},{"user_id":91,"name":"Radegast the Brown","steam_id":76561198075489505,"connected_time":1388000000000,"state":"active","ping":59},{"user_id":109,"name":"Dealmaker","steam_id":76561199067663362,"connected_time":19000000000,"state":"active","ping":155},{"user_id":14,"name":"Alyx","steam_id":76561198064654326,"connected_time":4573000000000,"state":"active","ping":51},{"user_id":62,"name":"Lyell","steam_id":76561198350329389,"connected_time":3062000000000,"state":"active","ping":79},{"user_id":86,"name":"Cjeff","steam_id":76561198078099059,"connected_time":2020000000000,"state":"active","ping":45},{"user_id":110,"name":"La Résistance","steam_id":76561198891046692,"connected_time":12000000000,"state":"spawning","ping":74},{"user_id":101,"name":"tensh1","steam_id":76561198282471866,"connected_time":618000000000,"state":"active","ping":102},{"user_id":23,"name":"Carrot (real)","steam_id":76561198139404261,"connected_time":4098000000000,"state":"active","ping":56},{"user_id":24,"name":"[T]aKer","steam_id":76561198001778013,"connected_time":4070000000000,"state":"active","ping":48},{"user_id":85,"name":"fuo","steam_id":76561197995536944,"connected_time":2034000000000,"state":"active","ping":53},{"user_id":46,"name":"LOBZIK","steam_id":76561198114830120,"connected_time":3364000000000,"state":"active","ping":75},{"user_id":104,"name":".::[SerafeTTiN]::.","steam_id":76561198009471724,"connected_time":519000000000,"state":"active","ping":87},{"user_id":88,"name":"Chinpo to bōru no gōmon","steam_id":76561199214163032,"connected_time":1902000000000,"state":"active","ping":81},{"user_id":107,"name":"﷽","steam_id":76561198365973345,"connected_time":310000000000,"state":"active","ping":63},{"user_id":108,"name":"Virgineer","steam_id":76561199140814522,"connected_time":160000000000,"state":"active","ping":93},{"user_id":100,"name":"Furno","steam_id":76561197999723047,"connected_time":696000000000,"state":"active","ping":47}]},{"server_id":23,"name":"Uncletopia | Frankfurt | 7 | Stopwatch","name_short":"frk-7","host":"frk-1.de.uncletopia.com","port":27075,"enabled":true,"region":"eu","cc":"de","latitude":50.110924,"longitude":8.682127,"reserved":0,"last_update":"0001-01-01T00:00:00Z","name_a2s":"Uncletopia | Frankfurt | 7 | Stopwatch","protocol":17,"map":"workshop/koth_bagel_rc6.ugc2514036946","folder":"tf","game":"Team Fortress","app_id":440,"player_count":0,"max_players":24,"Bots":0,"server_type":"Dedicated","server_os":"Linux","password":true,"vac":true,"version":"7961495","steam_id":85568392924742827,"keywords":["cp","nocrits","nodmgspread","uncletopia"],"game_id":440,"stv_port":27076,"stv_name":"Uncletopia | Frankfurt | 7 | Stopwatch | STV","players":null},{"server_id":24,"name":"Uncletopia | Frankfurt | 8 | Community","name_short":"frk-8","host":"frk-1.de.uncletopia.com","port":27085,"enabled":true,"region":"eu","cc":"de","latitude":50.110924,"longitude":8.682127,"reserved":0,"last_update":"0001-01-01T00:00:00Z","name_a2s":"Uncletopia | Frankfurt | 8 | Community","protocol":17,"map":"cp_mountainlab","folder":"tf","game":"Team Fortress","app_id":440,"player_count":0,"max_players":24,"Bots":0,"server_type":"Dedicated","server_os":"Linux","password":true,"vac":true,"version":"7961495","steam_id":85568392924742828,"keywords":["cp","nocrits","nodmgspread","uncletopia"],"game_id":440,"stv_port":27086,"stv_name":"Uncletopia | Frankfurt | 8 | Community | STV","players":null},{"server_id":202,"name":"Uncletopia | Hong Kong | 1 | All Maps","name_short":"hgk-1","host":"hgk-1.hk.uncletopia.com","port":27015,"enabled":true,"region":"asia","cc":"hk","latitude":22.302711,"longitude":114.177216,"reserved":0,"last_update":"0001-01-01T00:00:00Z","name_a2s":"Uncletopia | Hong Kong | 1 | All Maps","protocol":17,"map":"pl_badwater","folder":"tf","game":"Team Fortress","app_id":440,"player_count":24,"max_players":24,"Bots":0,"server_type":"Dedicated","server_os":"Linux","password":true,"vac":true,"version":"7961495","steam_id":85568392924494504,"keywords":["nocrits","nodmgspread","payload","uncletopia"],"game_id":440,"stv_port":27016,"stv_name":"Uncletopia | Hong Kong | 1 | All Maps | STV","players":[{"user_id":198,"name":"corpse_cadaver","steam_id":76561199225360457,"connected_time":105000000000,"state":"spawning","ping":107},{"user_id":177,"name":"Beef Wellington","steam_id":76561197995635241,"connected_time":1583000000000,"state":"active","ping":107},{"user_id":187,"name":"JDSFE","steam_id":76561198975490851,"connected_time":1088000000000,"state":"active","ping":79},{"user_id":167,"name":"Momoxhien","steam_id":76561198414997429,"connected_time":4034000000000,"state":"active","ping":61},{"user_id":140,"name":"Samoyed","steam_id":76561198299150410,"connected_time":7180000000000,"state":"active","ping":78},{"user_id":185,"name":"thug sex","steam_id":76561198129661272,"connected_time":1179000000000,"state":"active","ping":140},{"user_id":148,"name":"Lelouch","steam_id":76561198828840546,"connected_time":6634000000000,"state":"active","ping":154},{"user_id":147,"name":"vintage","steam_id":76561198230213828,"connected_time":6667000000000,"state":"active","ping":62},{"user_id":192,"name":"beaver the domestic terrorist","steam_id":76561199219484527,"connected_time":311000000000,"state":"active","ping":118},{"user_id":195,"name":"Just the crust","steam_id":76561198118872550,"connected_time":147000000000,"state":"active","ping":121},{"user_id":168,"name":"StewBحِيْمツ","steam_id":76561198131423270,"connected_time":3392000000000,"state":"active","ping":99},{"user_id":196,"name":"Kyo","steam_id":76561198088550274,"connected_time":145000000000,"state":"active","ping":44},{"user_id":151,"name":"SICSIN","steam_id":76561198083923462,"connected_time":6505000000000,"state":"active","ping":79},{"user_id":189,"name":"bitch tits","steam_id":76561198055553140,"connected_time":1088000000000,"state":"active","ping":76},{"user_id":191,"name":"2746","steam_id":76561199390507975,"connected_time":470000000000,"state":"active","ping":58},{"user_id":194,"name":"mikee","steam_id":76561198195207601,"connected_time":218000000000,"state":"active","ping":150},{"user_id":174,"name":"churropan","steam_id":76561199258385450,"connected_time":2607000000000,"state":"active","ping":97},{"user_id":182,"name":"Ivy","steam_id":76561198400698408,"connected_time":1281000000000,"state":"active","ping":97},{"user_id":193,"name":"Dell Conagher","steam_id":76561198853001370,"connected_time":310000000000,"state":"active","ping":60},{"user_id":169,"name":"the NYN mass producer","steam_id":76561198214192048,"connected_time":3376000000000,"state":"active","ping":88},{"user_id":70,"name":"im_0ff","steam_id":76561198339346695,"connected_time":14835000000000,"state":"active","ping":124},{"user_id":197,"name":"Creaserg","steam_id":76561198827951097,"connected_time":145000000000,"state":"active","ping":88},{"user_id":176,"name":"mogi","steam_id":76561198252950371,"connected_time":2395000000000,"state":"active","ping":82},{"user_id":183,"name":"noob pyro of all time","steam_id":76561198074339034,"connected_time":1280000000000,"state":"active","ping":78}]},{"server_id":1,"name":"Uncletopia | Los Angeles | 1 | All Maps","name_short":"lax-1","host":"lax-1.us.uncletopia.com","port":27015,"enabled":true,"region":"us-west","cc":"us","latitude":33.94279,"longitude":-118.41004,"reserved":0,"last_update":"0001-01-01T00:00:00Z","name_a2s":"Uncletopia | Los Angeles | 1 | All Maps","protocol":17,"map":"ctf_2fort","folder":"tf","game":"Team Fortress","app_id":440,"player_count":24,"max_players":24,"Bots":0,"server_type":"Dedicated","server_os":"Linux","password":true,"vac":true,"version":"7961495","steam_id":85568392924469991,"keywords":["ctf","nocrits","nodmgspread","uncletopia"],"game_id":440,"stv_port":27016,"stv_name":"Uncletopia | Los Angeles | 1 | All Maps | STV","players":[{"user_id":676,"name":"Katie_Fox","steam_id":76561198285289776,"connected_time":92000000000,"state":"spawning","ping":229},{"user_id":657,"name":"Cypress [ +/- ] ✔","steam_id":76561198067164431,"connected_time":1427000000000,"state":"active","ping":44},{"user_id":673,"name":"Sterling Nano","steam_id":76561198048580088,"connected_time":401000000000,"state":"active","ping":60},{"user_id":536,"name":"HAT-WEARING™ Maggot Gamer Cat","steam_id":76561197973992705,"connected_time":13796000000000,"state":"active","ping":66},{"user_id":649,"name":"Juicy","steam_id":76561198049220780,"connected_time":1888000000000,"state":"active","ping":45},{"user_id":650,"name":"not a gamer girl","steam_id":76561198046948758,"connected_time":1859000000000,"state":"active","ping":109},{"user_id":675,"name":"antler gore","steam_id":76561198059041027,"connected_time":314000000000,"state":"active","ping":83},{"user_id":652,"name":"this is the end","steam_id":76561198088954220,"connected_time":1761000000000,"state":"active","ping":63},{"user_id":646,"name":"Evan_braddock","steam_id":76561199033707012,"connected_time":2297000000000,"state":"active","ping":75},{"user_id":628,"name":"canadian birds","steam_id":76561198059466588,"connected_time":3829000000000,"state":"active","ping":108},{"user_id":664,"name":"A Parliament of Owls","steam_id":76561197996200417,"connected_time":975000000000,"state":"active","ping":55},{"user_id":633,"name":"suck it easy","steam_id":76561198327633561,"connected_time":3362000000000,"state":"active","ping":47},{"user_id":641,"name":"Zer0","steam_id":76561198043019708,"connected_time":2787000000000,"state":"active","ping":121},{"user_id":623,"name":"Genius Meme","steam_id":76561198162911254,"connected_time":4373000000000,"state":"active","ping":68},{"user_id":625,"name":"NGsterson","steam_id":76561198162108154,"connected_time":4169000000000,"state":"active","ping":86},{"user_id":612,"name":"Pilot Boy","steam_id":76561198090857288,"connected_time":5075000000000,"state":"active","ping":94},{"user_id":672,"name":"dumbeeon","steam_id":76561198059351874,"connected_time":557000000000,"state":"active","ping":55},{"user_id":631,"name":"DaWayOfRockets","steam_id":76561199228437541,"connected_time":3496000000000,"state":"active","ping":173},{"user_id":662,"name":"Callie","steam_id":76561198131833567,"connected_time":1165000000000,"state":"active","ping":69},{"user_id":665,"name":"Just Another Eevee","steam_id":76561198262852705,"connected_time":959000000000,"state":"active","ping":87},{"user_id":668,"name":"Mistilteinn","steam_id":76561198114782270,"connected_time":769000000000,"state":"active","ping":54},{"user_id":674,"name":"Obrodai","steam_id":76561199465783209,"connected_time":398000000000,"state":"active","ping":47},{"user_id":630,"name":"JSN","steam_id":76561198138876827,"connected_time":3657000000000,"state":"active","ping":51},{"user_id":598,"name":"MerkyWaters","steam_id":76561197998853063,"connected_time":6921000000000,"state":"active","ping":64}]},{"server_id":112,"name":"Uncletopia | Los Angeles | 2 | All Maps","name_short":"lax-2","host":"lax-1.us.uncletopia.com","port":27025,"enabled":true,"region":"us-west","cc":"us","latitude":33.94279,"longitude":-118.41004,"reserved":0,"last_update":"0001-01-01T00:00:00Z","name_a2s":"Uncletopia | Los Angeles | 2 | All Maps","protocol":17,"map":"koth_highpass","folder":"tf","game":"Team Fortress","app_id":440,"player_count":0,"max_players":24,"Bots":0,"server_type":"Dedicated","server_os":"Linux","password":true,"vac":true,"version":"7961495","steam_id":85568392924469992,"keywords":["cp","nocrits","nodmgspread","uncletopia"],"game_id":440,"stv_port":27026,"stv_name":"Uncletopia | Los Angeles | 2 | All Maps | STV","players":null},{"server_id":324,"name":"Uncletopia | Los Angeles | 3 | All Maps","name_short":"lax-3","host":"lax-1.us.uncletopia.com","port":27035,"enabled":true,"region":"us-west","cc":"us","latitude":33.94279,"longitude":-118.41004,"reserved":0,"last_update":"0001-01-01T00:00:00Z","name_a2s":"Uncletopia | Los Angeles | 3 | All Maps","protocol":17,"map":"koth_highpass","folder":"tf","game":"Team Fortress","app_id":440,"player_count":2,"max_players":24,"Bots":0,"server_type":"Dedicated","server_os":"Linux","password":true,"vac":true,"version":"7961495","steam_id":85568392924510198,"keywords":["cp","nocrits","nodmgspread","uncletopia"],"game_id":440,"stv_port":27036,"stv_name":"Uncletopia | Los Angeles | 3 | All Maps | STV","players":[{"user_id":28,"name":"Drewski","steam_id":76561198334969647,"connected_time":752000000000,"state":"active","ping":63},{"user_id":29,"name":"herbletea","steam_id":76561199079523149,"connected_time":687000000000,"state":"active","ping":41}]},{"server_id":25,"name":"Uncletopia | Los Angeles | 4 | Stopwatch","name_short":"lax-4","host":"lax-1.us.uncletopia.com","port":27045,"enabled":true,"region":"us-west","cc":"us","latitude":33.94279,"longitude":-118.41004,"reserved":0,"last_update":"0001-01-01T00:00:00Z","name_a2s":"Uncletopia | Los Angeles | 4 | Stopwatch","protocol":17,"map":"pl_swiftwater_final1","folder":"tf","game":"Team Fortress","app_id":440,"player_count":0,"max_players":24,"Bots":0,"server_type":"Dedicated","server_os":"Linux","password":true,"vac":true,"version":"7961495","steam_id":85568392924510199,"keywords":["nocrits","nodmgspread","payload","uncletopia"],"game_id":440,"stv_port":27046,"stv_name":"Uncletopia | Los Angeles | 4 | Stopwatch | STV","players":null},{"server_id":11,"name":"Uncletopia | London | 1 | All Maps","name_short":"lon-1","host":"lon-1.uk.uncletopia.com","port":27015,"enabled":true,"region":"eu","cc":"gb","latitude":51.509865,"longitude":-0.118092,"reserved":0,"last_update":"0001-01-01T00:00:00Z","name_a2s":"Uncletopia | London | 1 | All Maps","protocol":17,"map":"cp_sunshine","folder":"tf","game":"Team Fortress","app_id":440,"player_count":24,"max_players":24,"Bots":0,"server_type":"Dedicated","server_os":"Linux","password":true,"vac":true,"version":"7961495","steam_id":85568392924367362,"keywords":["cp","nocrits","nodmgspread","uncletopia"],"game_id":440,"stv_port":27016,"stv_name":"Uncletopia | London | 1 | All Maps | STV","players":[{"user_id":173,"name":"You slumber","steam_id":76561198344639692,"connected_time":1534000000000,"state":"active","ping":83},{"user_id":160,"name":"Master coitus","steam_id":76561198050416948,"connected_time":2502000000000,"state":"active","ping":66},{"user_id":156,"name":"Trawiz","steam_id":76561198104794896,"connected_time":2734000000000,"state":"active","ping":57},{"user_id":175,"name":"Cranjis McBasketball","steam_id":76561198051290193,"connected_time":612000000000,"state":"active","ping":59},{"user_id":143,"name":"Purple Soup :D","steam_id":76561198985100366,"connected_time":3640000000000,"state":"active","ping":86},{"user_id":152,"name":"Syke Jr","steam_id":76561198038479641,"connected_time":3145000000000,"state":"active","ping":68},{"user_id":128,"name":"Jacob Glenderson [LIVE]","steam_id":76561198076219289,"connected_time":5847000000000,"state":"active","ping":53},{"user_id":77,"name":"Doctor Marijuana","steam_id":76561198288289879,"connected_time":9445000000000,"state":"active","ping":46},{"user_id":154,"name":"Your Uncle Zeal","steam_id":76561198313821603,"connected_time":2760000000000,"state":"active","ping":114},{"user_id":117,"name":"TheGamingArtichoke (LIVE)","steam_id":76561198046873337,"connected_time":6435000000000,"state":"active","ping":60},{"user_id":155,"name":"ALARM","steam_id":76561198120686521,"connected_time":2749000000000,"state":"active","ping":60},{"user_id":144,"name":"MobyBlob","steam_id":76561199094813526,"connected_time":3636000000000,"state":"active","ping":61},{"user_id":171,"name":"stafor","steam_id":76561198078180804,"connected_time":1695000000000,"state":"active","ping":82},{"user_id":180,"name":"legalize glue","steam_id":76561198191369066,"connected_time":398000000000,"state":"active","ping":121},{"user_id":122,"name":"night.s","steam_id":76561198326287823,"connected_time":6046000000000,"state":"active","ping":74},{"user_id":145,"name":"WrytXander","steam_id":76561198067856323,"connected_time":3626000000000,"state":"active","ping":92},{"user_id":176,"name":"Richard nixon roleplayer","steam_id":76561198236015392,"connected_time":609000000000,"state":"active","ping":120},{"user_id":170,"name":"peters.garrett0","steam_id":76561199212526145,"connected_time":1710000000000,"state":"active","ping":132},{"user_id":146,"name":"Cabernite TF 2nd","steam_id":76561198137784238,"connected_time":3576000000000,"state":"active","ping":96},{"user_id":167,"name":"marvi444","steam_id":76561198431534139,"connected_time":2119000000000,"state":"active","ping":60},{"user_id":172,"name":"Xi Bingchilling","steam_id":76561198154310301,"connected_time":1666000000000,"state":"active","ping":90},{"user_id":163,"name":"mr.BOOOOOM!(yours truly)","steam_id":76561198010662796,"connected_time":2219000000000,"state":"active","ping":45},{"user_id":174,"name":"TotallyRealRunarTvålfager™","steam_id":76561198018228013,"connected_time":1251000000000,"state":"active","ping":73},{"user_id":179,"name":"frequeNt_","steam_id":76561198087457220,"connected_time":475000000000,"state":"active","ping":74}]},{"server_id":114,"name":"Uncletopia | London | 2 | All Maps","name_short":"lon-2","host":"lon-1.uk.uncletopia.com","port":27025,"enabled":true,"region":"eu","cc":"gb","latitude":51.509865,"longitude":-0.118092,"reserved":0,"last_update":"0001-01-01T00:00:00Z","name_a2s":"Uncletopia | London | 2 | All Maps","protocol":17,"map":"koth_lakeside_final","folder":"tf","game":"Team Fortress","app_id":440,"player_count":0,"max_players":24,"Bots":0,"server_type":"Dedicated","server_os":"Linux","password":true,"vac":true,"version":"7961495","steam_id":85568392924470941,"keywords":["cp","nocrits","nodmgspread","uncletopia"],"game_id":440,"stv_port":27026,"stv_name":"Uncletopia | London | 2 | All Maps | STV","players":null},{"server_id":320,"name":"Uncletopia | London | 3 | All Maps","name_short":"lon-3","host":"lon-1.uk.uncletopia.com","port":27035,"enabled":true,"region":"eu","cc":"gb","latitude":51.509865,"longitude":-0.118092,"reserved":0,"last_update":"0001-01-01T00:00:00Z","name_a2s":"Uncletopia | London | 3 | All Maps","protocol":17,"map":"cp_process_final","folder":"tf","game":"Team Fortress","app_id":440,"player_count":0,"max_players":24,"Bots":0,"server_type":"Dedicated","server_os":"Linux","password":true,"vac":true,"version":"7961495","steam_id":85568392924510192,"keywords":["cp","nocrits","nodmgspread","uncletopia"],"game_id":440,"stv_port":27036,"stv_name":"Uncletopia | London | 3 | All Maps | STV","players":null},{"server_id":321,"name":"Uncletopia | London | 4 | All Maps","name_short":"lon-4","host":"lon-1.uk.uncletopia.com","port":27045,"enabled":true,"region":"eu","cc":"gb","latitude":51.509865,"longitude":-0.118092,"reserved":0,"last_update":"0001-01-01T00:00:00Z","name_a2s":"Uncletopia | London | 4 | All Maps","protocol":17,"map":"pl_upward","folder":"tf","game":"Team Fortress","app_id":440,"player_count":23,"max_players":24,"Bots":0,"server_type":"Dedicated","server_os":"Linux","password":true,"vac":true,"version":"7961495","steam_id":85568392924510193,"keywords":["nocrits","nodmgspread","payload","uncletopia"],"game_id":440,"stv_port":27046,"stv_name":"Uncletopia | London | 4 | All Maps | STV","players":[{"user_id":68,"name":"Dommy","steam_id":76561197990864747,"connected_time":3440000000000,"state":"active","ping":54},{"user_id":101,"name":"yeldad","steam_id":76561198447264153,"connected_time":1071000000000,"state":"active","ping":117},{"user_id":104,"name":"Blax","steam_id":76561198377155387,"connected_time":635000000000,"state":"active","ping":60},{"user_id":69,"name":"Storm's Foreshadow","steam_id":76561198098462526,"connected_time":3354000000000,"state":"active","ping":74},{"user_id":84,"name":"gentoo stage 1 tarball","steam_id":76561199077022985,"connected_time":3030000000000,"state":"active","ping":58},{"user_id":81,"name":"Armored","steam_id":76561198267449130,"connected_time":3118000000000,"state":"active","ping":79},{"user_id":98,"name":"ExtraFlames","steam_id":76561199136146246,"connected_time":1412000000000,"state":"active","ping":58},{"user_id":105,"name":"Meh Good Enough","steam_id":76561199012646173,"connected_time":609000000000,"state":"active","ping":78},{"user_id":67,"name":"Solus","steam_id":76561199486493777,"connected_time":3772000000000,"state":"active","ping":51},{"user_id":113,"name":"tube sock","steam_id":76561198073576350,"connected_time":267000000000,"state":"active","ping":79},{"user_id":88,"name":"★Lily","steam_id":76561198014774371,"connected_time":2659000000000,"state":"active","ping":45},{"user_id":115,"name":"KAZAM | Tervez","steam_id":76561198045459068,"connected_time":188000000000,"state":"active","ping":87},{"user_id":74,"name":"Xtis","steam_id":76561198043837480,"connected_time":3260000000000,"state":"active","ping":63},{"user_id":116,"name":"Darfsterman #rustclash","steam_id":76561199004139305,"connected_time":111000000000,"state":"active","ping":65},{"user_id":111,"name":"Fatmagic Mukbang ASMR","steam_id":76561198063492110,"connected_time":363000000000,"state":"active","ping":70},{"user_id":108,"name":"I919I","steam_id":76561198141049923,"connected_time":555000000000,"state":"active","ping":80},{"user_id":78,"name":"d u k k i","steam_id":76561198071807437,"connected_time":3157000000000,"state":"active","ping":79},{"user_id":109,"name":"b0gman","steam_id":76561198051124946,"connected_time":532000000000,"state":"active","ping":55},{"user_id":110,"name":"Amiriki","steam_id":76561198005050734,"connected_time":464000000000,"state":"active","ping":52},{"user_id":64,"name":"Waltcha","steam_id":76561198007691468,"connected_time":4178000000000,"state":"active","ping":67},{"user_id":82,"name":"Jakk","steam_id":76561198041537908,"connected_time":3111000000000,"state":"active","ping":64},{"user_id":114,"name":"Double Helix","steam_id":76561198085155381,"connected_time":222000000000,"state":"active","ping":76},{"user_id":97,"name":"The CEO of Sex Inc.","steam_id":76561198385989487,"connected_time":1422000000000,"state":"active","ping":102}]},{"server_id":21,"name":"Uncletopia | London | 5 | All Maps","name_short":"lon-5","host":"lon-1.uk.uncletopia.com","port":27055,"enabled":true,"region":"eu","cc":"gb","latitude":51.509865,"longitude":-0.118092,"reserved":0,"last_update":"0001-01-01T00:00:00Z","name_a2s":"Uncletopia | London | 5 | All Maps","protocol":17,"map":"koth_lakeside_final","folder":"tf","game":"Team Fortress","app_id":440,"player_count":0,"max_players":24,"Bots":0,"server_type":"Dedicated","server_os":"Linux","password":true,"vac":true,"version":"7961495","steam_id":85568392924742829,"keywords":["cp","nocrits","nodmgspread","uncletopia"],"game_id":440,"stv_port":27056,"stv_name":"Uncletopia | London | 5 | All Maps | STV","players":null},{"server_id":22,"name":"Uncletopia | London | 6 | All Maps","name_short":"lon-6","host":"lon-1.uk.uncletopia.com","port":27065,"enabled":true,"region":"eu","cc":"gb","latitude":51.509865,"longitude":-0.118092,"reserved":0,"last_update":"0001-01-01T00:00:00Z","name_a2s":"Uncletopia | London | 6 | All Maps","protocol":17,"map":"pl_pier","folder":"tf","game":"Team Fortress","app_id":440,"player_count":0,"max_players":24,"Bots":0,"server_type":"Dedicated","server_os":"Linux","password":true,"vac":true,"version":"7961495","steam_id":85568392924742830,"keywords":["nocrits","nodmgspread","payload","uncletopia"],"game_id":440,"stv_port":27066,"stv_name":"Uncletopia | London | 6 | All Maps | STV","players":null},{"server_id":40,"name":"Uncletopia | London | 7 | Stopwatch","name_short":"lon-7","host":"lon-1.uk.uncletopia.com","port":27075,"enabled":true,"region":"eu","cc":"gb","latitude":51.509865,"longitude":-0.118092,"reserved":0,"last_update":"0001-01-01T00:00:00Z","name_a2s":"Uncletopia | London | 7 | Stopwatch","protocol":17,"map":"koth_lakeside_final","folder":"tf","game":"Team Fortress","app_id":440,"player_count":0,"max_players":24,"Bots":0,"server_type":"Dedicated","server_os":"Linux","password":true,"vac":true,"version":"7961495","steam_id":85568392924964314,"keywords":["cp","nocrits","nodmgspread","uncletopia"],"game_id":440,"stv_port":27076,"stv_name":"Uncletopia | London | 7 | Stopwatch | STV","players":null},{"server_id":41,"name":"Uncletopia | London | 8 | Community","name_short":"lon-8","host":"lon-1.uk.uncletopia.com","port":27085,"enabled":true,"region":"eu","cc":"gb","latitude":51.509865,"longitude":-0.118092,"reserved":0,"last_update":"0001-01-01T00:00:00Z","name_a2s":"Uncletopia | London | 8 | Community","protocol":17,"map":"workshop/pl_cactuscanyon_redux_final2.ugc2579644293","folder":"tf","game":"Team Fortress","app_id":440,"player_count":0,"max_players":24,"Bots":0,"server_type":"Dedicated","server_os":"Linux","password":true,"vac":true,"version":"7961495","steam_id":85568392924964315,"keywords":["nocrits","nodmgspread","payload","uncletopia"],"game_id":440,"stv_port":27086,"stv_name":"Uncletopia | London | 8 | Community | STV","players":null},{"server_id":300,"name":"Uncletopia | Montréal | 1 | One Thousand Uncles","name_short":"mtl-1","host":"mtl-1.ca.uncletopia.com","port":27015,"enabled":true,"region":"us-east","cc":"ca","latitude":45.50889,"longitude":-73.56167,"reserved":0,"last_update":"0001-01-01T00:00:00Z","name_a2s":"","protocol":0,"map":"","folder":"","game":"","app_id":0,"player_count":0,"max_players":0,"Bots":0,"server_type":"","server_os":"","password":false,"vac":false,"version":"","steam_id":0,"keywords":null,"game_id":0,"stv_port":0,"stv_name":"","players":null},{"server_id":301,"name":"Uncletopia | Montréal | 2 | One Thousand Uncles","name_short":"mtl-2","host":"mtl-1.ca.uncletopia.com","port":27025,"enabled":true,"region":"us-east","cc":"ca","latitude":45.50889,"longitude":-73.56167,"reserved":0,"last_update":"0001-01-01T00:00:00Z","name_a2s":"","protocol":0,"map":"","folder":"","game":"","app_id":0,"player_count":0,"max_players":0,"Bots":0,"server_type":"","server_os":"","password":false,"vac":false,"version":"","steam_id":0,"keywords":null,"game_id":0,"stv_port":0,"stv_name":"","players":null},{"server_id":302,"name":"Uncletopia | Montréal | 3 | One Thousand Uncles","name_short":"mtl-3","host":"mtl-1.ca.uncletopia.com","port":27035,"enabled":true,"region":"us-east","cc":"ca","latitude":45.50889,"longitude":-73.56167,"reserved":0,"last_update":"0001-01-01T00:00:00Z","name_a2s":"","protocol":0,"map":"","folder":"","game":"","app_id":0,"player_count":0,"max_players":0,"Bots":0,"server_type":"","server_os":"","password":false,"vac":false,"version":"","steam_id":0,"keywords":null,"game_id":0,"stv_port":0,"stv_name":"","players":null},{"server_id":13,"name":"Uncletopia | New York City | 1 | All Maps","name_short":"nyc-1","host":"nyc-1.us.uncletopia.com","port":27015,"enabled":true,"region":"us-east","cc":"us","latitude":40.73061,"longitude":-73.93524,"reserved":0,"last_update":"0001-01-01T00:00:00Z","name_a2s":"Uncletopia | New York City | 1 | All Maps","protocol":17,"map":"cp_snakewater_final1","folder":"tf","game":"Team Fortress","app_id":440,"player_count":0,"max_players":24,"Bots":0,"server_type":"Dedicated","server_os":"Linux","password":true,"vac":true,"version":"7961495","steam_id":85568392924469993,"keywords":["cp","nocrits","nodmgspread","uncletopia"],"game_id":440,"stv_port":27016,"stv_name":"Uncletopia | New York City | 1 | All Maps | STV","players":null},{"server_id":14,"name":"Uncletopia | New York City | 2 | All Maps","name_short":"nyc-2","host":"nyc-1.us.uncletopia.com","port":27025,"enabled":true,"region":"us-east","cc":"us","latitude":40.73061,"longitude":-73.93524,"reserved":0,"last_update":"0001-01-01T00:00:00Z","name_a2s":"Uncletopia | New York City | 2 | All Maps","protocol":17,"map":"koth_highpass","folder":"tf","game":"Team Fortress","app_id":440,"player_count":0,"max_players":24,"Bots":0,"server_type":"Dedicated","server_os":"Linux","password":true,"vac":true,"version":"7961495","steam_id":85568392924469994,"keywords":["cp","nocrits","nodmgspread","uncletopia"],"game_id":440,"stv_port":27026,"stv_name":"Uncletopia | New York City | 2 | All Maps | STV","players":null},{"server_id":15,"name":"Uncletopia | New York City | 3 | Stopwatch","name_short":"nyc-3","host":"nyc-1.us.uncletopia.com","port":27035,"enabled":true,"region":"us-east","cc":"us","latitude":40.73061,"longitude":-73.93524,"reserved":0,"last_update":"0001-01-01T00:00:00Z","name_a2s":"Uncletopia | New York City | 3 | Stopwatch","protocol":17,"map":"pl_swiftwater_final1","folder":"tf","game":"Team Fortress","app_id":440,"player_count":0,"max_players":24,"Bots":0,"server_type":"Dedicated","server_os":"Linux","password":true,"vac":true,"version":"7961495","steam_id":85568392924742820,"keywords":["nocrits","nodmgspread","payload","uncletopia"],"game_id":440,"stv_port":27036,"stv_name":"Uncletopia | New York City | 3 | Stopwatch | STV","players":null},{"server_id":16,"name":"Uncletopia | New York City | 4 | Community","name_short":"nyc-4","host":"nyc-1.us.uncletopia.com","port":27045,"enabled":true,"region":"us-east","cc":"us","latitude":40.73061,"longitude":-73.93524,"reserved":0,"last_update":"0001-01-01T00:00:00Z","name_a2s":"Uncletopia | New York City | 4 | Community","protocol":17,"map":"workshop/cp_fulgur_rc2a.ugc2068252300","folder":"tf","game":"Team Fortress","app_id":440,"player_count":0,"max_players":24,"Bots":0,"server_type":"Dedicated","server_os":"Linux","password":true,"vac":true,"version":"7961495","steam_id":85568392924742821,"keywords":["cp","nocrits","nodmgspread","uncletopia"],"game_id":440,"stv_port":27046,"stv_name":"Uncletopia | New York City | 4 | Community | STV","players":null},{"server_id":142,"name":"Uncletopia | São Paulo | 1 | All Maps","name_short":"sao-1","host":"sao-1.br.uncletopia.com","port":27015,"enabled":true,"region":"sa","cc":"br","latitude":-23.533773,"longitude":-46.62529,"reserved":0,"last_update":"0001-01-01T00:00:00Z","name_a2s":"Uncletopia | São Paulo | 1 | All Maps","protocol":17,"map":"koth_cascade","folder":"tf","game":"Team Fortress","app_id":440,"player_count":0,"max_players":24,"Bots":0,"server_type":"Dedicated","server_os":"Linux","password":true,"vac":true,"version":"7961495","steam_id":85568392924469996,"keywords":["cp","nocrits","nodmgspread","uncletopia"],"game_id":440,"stv_port":27016,"stv_name":"Uncletopia | São Paulo | 1 | All Maps | STV","players":null},{"server_id":143,"name":"Uncletopia | São Paulo | 2 | Community","name_short":"sao-2","host":"sao-2.br.uncletopia.com","port":27015,"enabled":true,"region":"sa","cc":"br","latitude":-23.533773,"longitude":-46.62529,"reserved":0,"last_update":"0001-01-01T00:00:00Z","name_a2s":"Uncletopia | São Paulo | 2 | Community","protocol":17,"map":"workshop/koth_product_final.ugc454272353","folder":"tf","game":"Team Fortress","app_id":440,"player_count":0,"max_players":24,"Bots":0,"server_type":"Dedicated","server_os":"Linux","password":true,"vac":true,"version":"7961495","steam_id":85568392924485349,"keywords":["cp","nocrits","nodmgspread","uncletopia"],"game_id":440,"stv_port":27016,"stv_name":"Uncletopia | São Paulo | 2 | Community | STV","players":null},{"server_id":7,"name":"Uncletopia | Seattle | 1 | All Maps","name_short":"sea-1","host":"sea-1.us.uncletopia.com","port":27015,"enabled":true,"region":"us-west","cc":"us","latitude":47.608013,"longitude":-122.33517,"reserved":0,"last_update":"0001-01-01T00:00:00Z","name_a2s":"Uncletopia | Seattle | 1 | All Maps","protocol":17,"map":"pl_pier","folder":"tf","game":"Team Fortress","app_id":440,"player_count":24,"max_players":24,"Bots":0,"server_type":"Dedicated","server_os":"Linux","password":true,"vac":true,"version":"7961495","steam_id":85568392924469997,"keywords":["nocrits","nodmgspread","payload","uncletopia"],"game_id":440,"stv_port":27016,"stv_name":"Uncletopia | Seattle | 1 | All Maps | STV","players":[{"user_id":778,"name":"nolove","steam_id":76561198274550638,"connected_time":2347000000000,"state":"active","ping":108},{"user_id":779,"name":"lshleo","steam_id":76561198366975960,"connected_time":2345000000000,"state":"active","ping":153},{"user_id":777,"name":"gyat","steam_id":76561198043684960,"connected_time":2451000000000,"state":"active","ping":132},{"user_id":801,"name":"Dia Shakez","steam_id":76561198099617734,"connected_time":1009000000000,"state":"active","ping":46},{"user_id":780,"name":"PerKnuckleChuckle","steam_id":76561198023221596,"connected_time":2331000000000,"state":"active","ping":64},{"user_id":802,"name":"Zano","steam_id":76561198066887048,"connected_time":876000000000,"state":"active","ping":75},{"user_id":805,"name":"KrylonHeretic","steam_id":76561198139811459,"connected_time":268000000000,"state":"active","ping":82},{"user_id":800,"name":"SkimpyXBLD","steam_id":76561198048478229,"connected_time":1038000000000,"state":"active","ping":144},{"user_id":787,"name":"Keamy","steam_id":76561199471434875,"connected_time":2178000000000,"state":"active","ping":44},{"user_id":804,"name":"Drapph","steam_id":76561199384213314,"connected_time":688000000000,"state":"active","ping":103},{"user_id":782,"name":"lazyking","steam_id":76561198192695482,"connected_time":2314000000000,"state":"active","ping":66},{"user_id":784,"name":"Archie","steam_id":76561198137112917,"connected_time":2252000000000,"state":"active","ping":67},{"user_id":707,"name":"tapdancing spy","steam_id":76561198065662025,"connected_time":8284000000000,"state":"active","ping":69},{"user_id":746,"name":"A Pizza Already","steam_id":76561198064918401,"connected_time":5215000000000,"state":"active","ping":67},{"user_id":763,"name":"bark","steam_id":76561197992287250,"connected_time":3812000000000,"state":"active","ping":85},{"user_id":761,"name":"Nom Skirrett","steam_id":76561198014600788,"connected_time":4105000000000,"state":"active","ping":62},{"user_id":785,"name":"rock gaming","steam_id":76561199402868311,"connected_time":2238000000000,"state":"active","ping":168},{"user_id":788,"name":"Spare(8)Ball","steam_id":76561197982432995,"connected_time":1997000000000,"state":"active","ping":78},{"user_id":774,"name":"Starkiller","steam_id":76561198101643120,"connected_time":2870000000000,"state":"active","ping":46},{"user_id":806,"name":"Gargathor the Entity Catcher","steam_id":76561198189429665,"connected_time":252000000000,"state":"active","ping":119},{"user_id":793,"name":"FidelGuevara","steam_id":76561198368296171,"connected_time":1628000000000,"state":"active","ping":95},{"user_id":795,"name":"Fred","steam_id":76561197983870604,"connected_time":1516000000000,"state":"active","ping":86},{"user_id":796,"name":"waggyaggy (it/she)","steam_id":76561197998241407,"connected_time":1427000000000,"state":"active","ping":76},{"user_id":792,"name":"CometDrg0n_(he/him)","steam_id":76561198175713051,"connected_time":1795000000000,"state":"active","ping":30}]},{"server_id":119,"name":"Uncletopia | Seattle | 2 | All Maps","name_short":"sea-2","host":"sea-1.us.uncletopia.com","port":27025,"enabled":true,"region":"us-west","cc":"us","latitude":47.608013,"longitude":-122.33517,"reserved":0,"last_update":"0001-01-01T00:00:00Z","name_a2s":"Uncletopia | Seattle | 2 | All Maps","protocol":17,"map":"pl_badwater","folder":"tf","game":"Team Fortress","app_id":440,"player_count":24,"max_players":24,"Bots":0,"server_type":"Dedicated","server_os":"Linux","password":true,"vac":true,"version":"7961495","steam_id":85568392924469998,"keywords":["nocrits","nodmgspread","payload","uncletopia"],"game_id":440,"stv_port":27026,"stv_name":"Uncletopia | Seattle | 2 | All Maps | STV","players":[{"user_id":352,"name":"resh","steam_id":76561198239598834,"connected_time":4607000000000,"state":"active","ping":132},{"user_id":338,"name":"The Population of Sweden","steam_id":76561198202201644,"connected_time":6175000000000,"state":"active","ping":41},{"user_id":368,"name":"kill me","steam_id":76561198032625036,"connected_time":1286000000000,"state":"active","ping":60},{"user_id":337,"name":"bocchi the gock","steam_id":76561198844648825,"connected_time":6186000000000,"state":"active","ping":47},{"user_id":378,"name":"Doctor™","steam_id":76561198134309750,"connected_time":226000000000,"state":"active","ping":104},{"user_id":333,"name":"NEBULA","steam_id":76561198086878595,"connected_time":6465000000000,"state":"active","ping":76},{"user_id":375,"name":"kenZino","steam_id":76561197967971192,"connected_time":665000000000,"state":"active","ping":45},{"user_id":335,"name":"smeasly","steam_id":76561198028718812,"connected_time":6197000000000,"state":"active","ping":45},{"user_id":370,"name":"Scut","steam_id":76561198973734291,"connected_time":1243000000000,"state":"active","ping":63},{"user_id":372,"name":"Polar","steam_id":76561198055781237,"connected_time":961000000000,"state":"active","ping":38},{"user_id":373,"name":"self sufficient kitten","steam_id":76561197960592612,"connected_time":839000000000,"state":"active","ping":45},{"user_id":366,"name":"crime scene princess","steam_id":76561198049258493,"connected_time":1679000000000,"state":"active","ping":59},{"user_id":311,"name":"delight","steam_id":76561197980280272,"connected_time":8337000000000,"state":"active","ping":45},{"user_id":340,"name":"Wafflemuscle","steam_id":76561198868628982,"connected_time":6121000000000,"state":"active","ping":40},{"user_id":346,"name":"nat","steam_id":76561198179923093,"connected_time":5350000000000,"state":"active","ping":92},{"user_id":348,"name":"peachy","steam_id":76561198028721790,"connected_time":5148000000000,"state":"active","ping":60},{"user_id":379,"name":"Sweets","steam_id":76561198998446307,"connected_time":146000000000,"state":"active","ping":73},{"user_id":332,"name":"jorts","steam_id":76561199041179985,"connected_time":6640000000000,"state":"active","ping":59},{"user_id":360,"name":"Tenzin Gyatso","steam_id":76561198258980884,"connected_time":3175000000000,"state":"active","ping":57},{"user_id":329,"name":"Grand","steam_id":76561198290143399,"connected_time":7055000000000,"state":"active","ping":75},{"user_id":362,"name":"HotHead","steam_id":76561198138468982,"connected_time":2162000000000,"state":"active","ping":35},{"user_id":371,"name":"Amazing476","steam_id":76561198103937489,"connected_time":1176000000000,"state":"active","ping":80},{"user_id":316,"name":"rushy :))","steam_id":76561198065825165,"connected_time":7712000000000,"state":"active","ping":109},{"user_id":377,"name":"ed","steam_id":76561198080475712,"connected_time":467000000000,"state":"active","ping":73}]},{"server_id":406,"name":"Uncletopia | Seattle | 3 | Stopwatch","name_short":"sea-3","host":"sea-1.us.uncletopia.com","port":27035,"enabled":true,"region":"us-west","cc":"us","latitude":47.608013,"longitude":-122.33517,"reserved":0,"last_update":"0001-01-01T00:00:00Z","name_a2s":"Uncletopia | Seattle | 3 | Stopwatch","protocol":17,"map":"cp_metalworks","folder":"tf","game":"Team Fortress","app_id":440,"player_count":0,"max_players":24,"Bots":0,"server_type":"Dedicated","server_os":"Linux","password":true,"vac":true,"version":"7961495","steam_id":85568392924515217,"keywords":["cp","nocrits","nodmgspread","uncletopia"],"game_id":440,"stv_port":27036,"stv_name":"Uncletopia | Seattle | 3 | Stopwatch | STV","players":null},{"server_id":17,"name":"Uncletopia | San Francisco | 1 | All Maps","name_short":"sfo-1","host":"sfo-1.us.uncletopia.com","port":27015,"enabled":true,"region":"us-west","cc":"us","latitude":37.77397,"longitude":-122.4313,"reserved":0,"last_update":"0001-01-01T00:00:00Z","name_a2s":"Uncletopia | San Francisco | 1 | All Maps","protocol":17,"map":"koth_highpass","folder":"tf","game":"Team Fortress","app_id":440,"player_count":0,"max_players":24,"Bots":0,"server_type":"Dedicated","server_os":"Linux","password":true,"vac":true,"version":"7961495","steam_id":85568392924469999,"keywords":["cp","nocrits","nodmgspread","uncletopia"],"game_id":440,"stv_port":27016,"stv_name":"Uncletopia | San Francisco | 1 | All Maps | STV","players":null},{"server_id":18,"name":"Uncletopia | San Francisco | 2 | All Maps","name_short":"sfo-2","host":"sfo-1.us.uncletopia.com","port":27025,"enabled":true,"region":"us-west","cc":"us","latitude":37.77397,"longitude":-122.4313,"reserved":0,"last_update":"0001-01-01T00:00:00Z","name_a2s":"Uncletopia | San Francisco | 2 | All Maps","protocol":17,"map":"cp_sunshine","folder":"tf","game":"Team Fortress","app_id":440,"player_count":0,"max_players":24,"Bots":0,"server_type":"Dedicated","server_os":"Linux","password":true,"vac":true,"version":"7961495","steam_id":85568392924470000,"keywords":["cp","nocrits","nodmgspread","uncletopia"],"game_id":440,"stv_port":27026,"stv_name":"Uncletopia | San Francisco | 2 | All Maps | STV","players":null},{"server_id":19,"name":"Uncletopia | San Francisco | 3 | Stopwatch","name_short":"sfo-3","host":"sfo-1.us.uncletopia.com","port":27035,"enabled":true,"region":"us-west","cc":"us","latitude":37.77397,"longitude":-122.4313,"reserved":0,"last_update":"0001-01-01T00:00:00Z","name_a2s":"Uncletopia | San Francisco | 3 | Stopwatch","protocol":17,"map":"workshop/koth_bagel_rc6.ugc2514036946","folder":"tf","game":"Team Fortress","app_id":440,"player_count":0,"max_players":24,"Bots":0,"server_type":"Dedicated","server_os":"Linux","password":true,"vac":true,"version":"7961495","steam_id":85568392924742824,"keywords":["cp","nocrits","nodmgspread","uncletopia"],"game_id":440,"stv_port":27036,"stv_name":"Uncletopia | San Francisco | 3 | Stopwatch | STV","players":null},{"server_id":20,"name":"Uncletopia | San Francisco | 4 | Community","name_short":"sfo-4","host":"sfo-1.us.uncletopia.com","port":27045,"enabled":true,"region":"us-west","cc":"us","latitude":37.77397,"longitude":-122.4313,"reserved":0,"last_update":"0001-01-01T00:00:00Z","name_a2s":"Uncletopia | San Francisco | 4 | Community","protocol":17,"map":"workshop/koth_bagel_rc6.ugc2514036946","folder":"tf","game":"Team Fortress","app_id":440,"player_count":0,"max_players":24,"Bots":0,"server_type":"Dedicated","server_os":"Linux","password":true,"vac":true,"version":"7961495","steam_id":85568392924742826,"keywords":["cp","nocrits","nodmgspread","uncletopia"],"game_id":440,"stv_port":27046,"stv_name":"Uncletopia | San Francisco | 4 | Community | STV","players":null},{"server_id":141,"name":"Uncletopia | Sydney | 1 | All Maps","name_short":"syd-1","host":"syd-1.au.uncletopia.com","port":27015,"enabled":true,"region":"au","cc":"au","latitude":-33.865143,"longitude":151.2099,"reserved":0,"last_update":"0001-01-01T00:00:00Z","name_a2s":"Uncletopia | Sydney | 1 | All Maps","protocol":17,"map":"pl_frontier_final","folder":"tf","game":"Team Fortress","app_id":440,"player_count":24,"max_players":24,"Bots":0,"server_type":"Dedicated","server_os":"Linux","password":true,"vac":true,"version":"7961495","steam_id":85568392924470001,"keywords":["nocrits","nodmgspread","payload","uncletopia"],"game_id":440,"stv_port":27016,"stv_name":"Uncletopia | Sydney | 1 | All Maps | STV","players":[{"user_id":165,"name":"Not A Bean","steam_id":76561198301333750,"connected_time":693000000000,"state":"active","ping":89},{"user_id":125,"name":"Titan","steam_id":76561198343953317,"connected_time":4422000000000,"state":"active","ping":75},{"user_id":151,"name":"hazz_mcpie -BvM-","steam_id":76561198092450084,"connected_time":1883000000000,"state":"active","ping":87},{"user_id":169,"name":"Sinister80s","steam_id":76561198343540472,"connected_time":305000000000,"state":"active","ping":69},{"user_id":130,"name":"michael","steam_id":76561198052848358,"connected_time":4031000000000,"state":"active","ping":62},{"user_id":104,"name":"VISHNU","steam_id":76561197993221889,"connected_time":6555000000000,"state":"active","ping":60},{"user_id":173,"name":"lavanderpumpernickle","steam_id":76561199093611800,"connected_time":163000000000,"state":"active","ping":115},{"user_id":153,"name":"Wiseify!!!","steam_id":76561198265508918,"connected_time":1749000000000,"state":"active","ping":100},{"user_id":160,"name":"LOLLYGAG","steam_id":76561199085941614,"connected_time":1034000000000,"state":"active","ping":54},{"user_id":51,"name":"Nyda","steam_id":76561198152311904,"connected_time":11103000000000,"state":"active","ping":70},{"user_id":111,"name":"dr. sne","steam_id":76561198022485319,"connected_time":5971000000000,"state":"active","ping":58},{"user_id":148,"name":"Dmondude","steam_id":76561198148118533,"connected_time":2158000000000,"state":"active","ping":62},{"user_id":156,"name":"payn.","steam_id":76561199277321828,"connected_time":1717000000000,"state":"active","ping":58},{"user_id":170,"name":"Abraham Lincoln","steam_id":76561198095292515,"connected_time":283000000000,"state":"active","ping":63},{"user_id":159,"name":"skrunkly","steam_id":76561198316515443,"connected_time":1339000000000,"state":"active","ping":78},{"user_id":141,"name":"Ᵽ𐌄Ť𐌄Ұ (cock/balls)","steam_id":76561199140764838,"connected_time":2672000000000,"state":"active","ping":51},{"user_id":135,"name":"Crazybean","steam_id":76561198042181980,"connected_time":3551000000000,"state":"active","ping":66},{"user_id":174,"name":"Intrusive Thoughts","steam_id":76561198013950614,"connected_time":4000000000,"state":"spawning","ping":48},{"user_id":144,"name":"alex","steam_id":76561198199008741,"connected_time":2398000000000,"state":"active","ping":61},{"user_id":106,"name":"rio","steam_id":76561198008646807,"connected_time":6512000000000,"state":"active","ping":92},{"user_id":168,"name":"Eduardo","steam_id":76561198110238382,"connected_time":326000000000,"state":"active","ping":52},{"user_id":158,"name":"Cool Bananas","steam_id":76561197979118548,"connected_time":1560000000000,"state":"active","ping":108},{"user_id":147,"name":"P. Ness (Length/Girth)","steam_id":76561198037664265,"connected_time":2242000000000,"state":"active","ping":61},{"user_id":171,"name":"BILL!!!","steam_id":76561198066726621,"connected_time":279000000000,"state":"active","ping":45}]},{"server_id":123,"name":"Uncletopia | Sydney | 2 | All Maps","name_short":"syd-2","host":"syd-1.au.uncletopia.com","port":27025,"enabled":true,"region":"au","cc":"au","latitude":-33.865143,"longitude":151.2099,"reserved":0,"last_update":"0001-01-01T00:00:00Z","name_a2s":"Uncletopia | Sydney | 2 | All Maps","protocol":17,"map":"cp_dustbowl","folder":"tf","game":"Team Fortress","app_id":440,"player_count":24,"max_players":24,"Bots":0,"server_type":"Dedicated","server_os":"Linux","password":true,"vac":true,"version":"7961495","steam_id":85568392924470002,"keywords":["cp","nocrits","nodmgspread","uncletopia"],"game_id":440,"stv_port":27026,"stv_name":"Uncletopia | Sydney | 2 | All Maps | STV","players":[{"user_id":291,"name":"Bobby Bigman","steam_id":76561198044679656,"connected_time":7503000000000,"state":"active","ping":59},{"user_id":407,"name":"Diavolo Diablo","steam_id":76561198166295333,"connected_time":269000000000,"state":"active","ping":151},{"user_id":398,"name":"no teles 4 u","steam_id":76561198018478297,"connected_time":711000000000,"state":"active","ping":71},{"user_id":387,"name":"Ganome Chilled","steam_id":76561198064898965,"connected_time":1203000000000,"state":"active","ping":90},{"user_id":388,"name":"Zalternative X-treme","steam_id":76561198340730741,"connected_time":1187000000000,"state":"active","ping":62},{"user_id":389,"name":"Dupiter","steam_id":76561198108820767,"connected_time":1111000000000,"state":"active","ping":45},{"user_id":411,"name":"Stock Isn't Bad","steam_id":76561199215150159,"connected_time":148000000000,"state":"active","ping":54},{"user_id":314,"name":"Lord Saladman","steam_id":76561199363661936,"connected_time":6316000000000,"state":"active","ping":59},{"user_id":367,"name":"SamK #ShaveTF2","steam_id":76561198149051619,"connected_time":2481000000000,"state":"active","ping":67},{"user_id":403,"name":"Ophelia Fan","steam_id":76561198158460201,"connected_time":454000000000,"state":"active","ping":52},{"user_id":402,"name":"𝓢𝓪𝓶𝓹𝓵𝓮 𝓣\ufffd\ufffd","steam_id":76561198114666650,"connected_time":482000000000,"state":"active","ping":69},{"user_id":401,"name":"Vivi","steam_id":76561198113409292,"connected_time":600000000000,"state":"active","ping":75},{"user_id":390,"name":"Ishanu","steam_id":76561198009397092,"connected_time":1110000000000,"state":"active","ping":74},{"user_id":408,"name":"Lord Of Fraud","steam_id":76561199134709741,"connected_time":212000000000,"state":"active","ping":69},{"user_id":405,"name":"Blueberry Rat","steam_id":76561198149219455,"connected_time":396000000000,"state":"active","ping":68},{"user_id":365,"name":"CypressFluff (she/her)","steam_id":76561198174667818,"connected_time":2616000000000,"state":"active","ping":55},{"user_id":412,"name":"LaFleur","steam_id":76561198869499113,"connected_time":123000000000,"state":"active","ping":56},{"user_id":413,"name":"Waifu Hunter","steam_id":76561198212046735,"connected_time":120000000000,"state":"active","ping":75},{"user_id":370,"name":"beef","steam_id":76561198405899260,"connected_time":2201000000000,"state":"active","ping":59},{"user_id":391,"name":"Second Lieutenant Pisser","steam_id":76561198866538028,"connected_time":1099000000000,"state":"active","ping":74},{"user_id":392,"name":"duckZ","steam_id":76561197997600639,"connected_time":1094000000000,"state":"active","ping":45},{"user_id":338,"name":"Azure","steam_id":76561198108179408,"connected_time":4858000000000,"state":"active","ping":81},{"user_id":397,"name":"dinxie","steam_id":76561199448765541,"connected_time":754000000000,"state":"active","ping":63},{"user_id":355,"name":"Carpark (not deodorenting)","steam_id":76561198137128594,"connected_time":3469000000000,"state":"active","ping":55}]},{"server_id":395,"name":"Uncletopia | Sydney | 3 | All Maps","name_short":"syd-3","host":"syd-1.au.uncletopia.com","port":27035,"enabled":true,"region":"au","cc":"au","latitude":-33.865143,"longitude":151.2099,"reserved":0,"last_update":"0001-01-01T00:00:00Z","name_a2s":"Uncletopia | Sydney | 3 | All Maps","protocol":17,"map":"koth_lakeside_final","folder":"tf","game":"Team Fortress","app_id":440,"player_count":6,"max_players":24,"Bots":0,"server_type":"Dedicated","server_os":"Linux","password":true,"vac":true,"version":"7961495","steam_id":85568392925194467,"keywords":["cp","nocrits","nodmgspread","uncletopia"],"game_id":440,"stv_port":27036,"stv_name":"Uncletopia | Sydney | 3 | All Maps | STV","players":[{"user_id":34,"name":"Nuhbean","steam_id":76561199497438701,"connected_time":2736000000000,"state":"active","ping":131},{"user_id":41,"name":"Racist Furry","steam_id":76561198253080474,"connected_time":132000000000,"state":"active","ping":61},{"user_id":35,"name":"{holy-miss}","steam_id":76561199444995996,"connected_time":2379000000000,"state":"active","ping":65},{"user_id":42,"name":"Origaki","steam_id":76561198422688665,"connected_time":52000000000,"state":"active","ping":136},{"user_id":38,"name":"UrAvgDMG","steam_id":76561199214859141,"connected_time":566000000000,"state":"active","ping":305},{"user_id":40,"name":"Jr.Burger","steam_id":76561198231292784,"connected_time":374000000000,"state":"active","ping":63}]},{"server_id":396,"name":"Uncletopia | Sydney | 4 | All Maps","name_short":"syd-4","host":"syd-1.au.uncletopia.com","port":27045,"enabled":true,"region":"au","cc":"au","latitude":-33.865143,"longitude":151.2099,"reserved":0,"last_update":"0001-01-01T00:00:00Z","name_a2s":"Uncletopia | Sydney | 4 | All Maps","protocol":17,"map":"pl_snowycoast","folder":"tf","game":"Team Fortress","app_id":440,"player_count":0,"max_players":24,"Bots":0,"server_type":"Dedicated","server_os":"Linux","password":true,"vac":true,"version":"7961495","steam_id":85568392925397958,"keywords":["nocrits","nodmgspread","payload","uncletopia"],"game_id":440,"stv_port":27046,"stv_name":"Uncletopia | Sydney | 4 | All Maps | STV","players":null},{"server_id":58,"name":"Uncletopia | Sydney | 5 | Stopwatch","name_short":"syd-5","host":"syd-1.au.uncletopia.com","port":27055,"enabled":true,"region":"au","cc":"au","latitude":-33.865143,"longitude":151.2099,"reserved":0,"last_update":"0001-01-01T00:00:00Z","name_a2s":"Uncletopia | Sydney | 5 | Stopwatch","protocol":17,"map":"pl_frontier_final","folder":"tf","game":"Team Fortress","app_id":440,"player_count":0,"max_players":24,"Bots":0,"server_type":"Dedicated","server_os":"Linux","password":true,"vac":true,"version":"7961495","steam_id":85568392925397959,"keywords":["nocrits","nodmgspread","payload","uncletopia"],"game_id":440,"stv_port":27056,"stv_name":"Uncletopia | Sydney | 5 | Stopwatch | STV","players":null},{"server_id":59,"name":"Uncletopia | Sydney | 6 | Community","name_short":"syd-6","host":"syd-1.au.uncletopia.com","port":27065,"enabled":true,"region":"au","cc":"au","latitude":-33.865143,"longitude":151.2099,"reserved":0,"last_update":"0001-01-01T00:00:00Z","name_a2s":"Uncletopia | Sydney | 6 | Community","protocol":17,"map":"workshop/cp_glassworks_rc7a.ugc454118349","folder":"tf","game":"Team Fortress","app_id":440,"player_count":0,"max_players":24,"Bots":0,"server_type":"Dedicated","server_os":"Linux","password":true,"vac":true,"version":"7961495","steam_id":85568392925397960,"keywords":["cp","nocrits","nodmgspread","uncletopia"],"game_id":440,"stv_port":27066,"stv_name":"Uncletopia | Sydney | 6 | Community | STV","players":null},{"server_id":49,"name":"Uncletopia | Warsaw | 1 | One Thousand Uncles","name_short":"waw-1","host":"waw-1.pl.uncletopia.com","port":27015,"enabled":true,"region":"eu","cc":"pl","latitude":52.2297,"longitude":21.017532,"reserved":0,"last_update":"0001-01-01T00:00:00Z","name_a2s":"Uncletopia | Warsaw | 1 | One Thousand Uncles","protocol":17,"map":"cp_mercenarypark","folder":"tf","game":"Team Fortress","app_id":440,"player_count":28,"max_players":32,"Bots":16,"server_type":"Dedicated","server_os":"Linux","password":true,"vac":true,"version":"7961495","steam_id":85568392925397850,"keywords":["alltalk","bots","cp","danepve","increased_maxplayers","nocrits","norespawntime","uncletopia"],"game_id":440,"stv_port":0,"stv_name":"","players":[{"user_id":145,"name":"{ST} Oxythemoron","steam_id":76561198060089965,"connected_time":439000000000,"state":"active","ping":166},{"user_id":142,"name":"Dosi","steam_id":76561199032025182,"connected_time":1355000000000,"state":"active","ping":34},{"user_id":146,"name":"Aighto","steam_id":76561199472313160,"connected_time":414000000000,"state":"active","ping":298},{"user_id":147,"name":"THIS","steam_id":76561198103269397,"connected_time":391000000000,"state":"active","ping":67},{"user_id":148,"name":"BUCKET:\\soldier\\Desktop\\","steam_id":76561199047240319,"connected_time":362000000000,"state":"active","ping":109},{"user_id":149,"name":"aja","steam_id":76561198972253395,"connected_time":176000000000,"state":"active","ping":59},{"user_id":112,"name":"ssobesednik13","steam_id":76561198320740750,"connected_time":2497000000000,"state":"active","ping":84},{"user_id":113,"name":"Moron","steam_id":76561198200720886,"connected_time":2486000000000,"state":"active","ping":75},{"user_id":114,"name":"timmy12613","steam_id":76561199504483600,"connected_time":2481000000000,"state":"active","ping":73},{"user_id":110,"name":"Borko(Birthday man)","steam_id":76561199097266352,"connected_time":2689000000000,"state":"active","ping":90},{"user_id":123,"name":"sashashalaev102","steam_id":76561199496477329,"connected_time":1540000000000,"state":"active","ping":86},{"user_id":143,"name":"not a horny femboy","steam_id":76561199135246694,"connected_time":1323000000000,"state":"active","ping":45}]},{"server_id":50,"name":"Uncletopia | Warsaw | 2 | One Thousand Uncles","name_short":"waw-2","host":"waw-1.pl.uncletopia.com","port":27025,"enabled":true,"region":"eu","cc":"pl","latitude":52.2297,"longitude":21.017532,"reserved":0,"last_update":"0001-01-01T00:00:00Z","name_a2s":"Uncletopia | Warsaw | 2 | One Thousand Uncles","protocol":17,"map":"cp_mercenarypark","folder":"tf","game":"Team Fortress","app_id":440,"player_count":18,"max_players":32,"Bots":16,"server_type":"Dedicated","server_os":"Linux","password":true,"vac":true,"version":"7961495","steam_id":85568392925397851,"keywords":["alltalk","bots","cp","danepve","increased_maxplayers","nocrits","norespawntime","uncletopia"],"game_id":440,"stv_port":0,"stv_name":"","players":[{"user_id":119,"name":"Caserbero","steam_id":76561199234963535,"connected_time":377000000000,"state":"active","ping":119},{"user_id":95,"name":"r06u3","steam_id":76561198254099253,"connected_time":3070000000000,"state":"active","ping":171}]},{"server_id":51,"name":"Uncletopia | Warsaw | 3 | All Maps","name_short":"waw-3","host":"waw-1.pl.uncletopia.com","port":27035,"enabled":true,"region":"eu","cc":"pl","latitude":52.2297,"longitude":21.017532,"reserved":0,"last_update":"0001-01-01T00:00:00Z","name_a2s":"Uncletopia | Warsaw | 3 | All Maps","protocol":17,"map":"plr_pipeline","folder":"tf","game":"Team Fortress","app_id":440,"player_count":0,"max_players":24,"Bots":0,"server_type":"Dedicated","server_os":"Linux","password":true,"vac":true,"version":"7961495","steam_id":85568392925397852,"keywords":["nocrits","nodmgspread","payload","uncletopia"],"game_id":440,"stv_port":27036,"stv_name":"Uncletopia | Warsaw | 3 | All Maps | STV","players":null},{"server_id":52,"name":"Uncletopia | Warsaw | 4 | All Maps","name_short":"waw-4","host":"waw-1.pl.uncletopia.com","port":27045,"enabled":true,"region":"eu","cc":"pl","latitude":52.2297,"longitude":21.017532,"reserved":0,"last_update":"0001-01-01T00:00:00Z","name_a2s":"Uncletopia | Warsaw | 4 | All Maps","protocol":17,"map":"cp_coldfront","folder":"tf","game":"Team Fortress","app_id":440,"player_count":0,"max_players":24,"Bots":0,"server_type":"Dedicated","server_os":"Linux","password":true,"vac":true,"version":"7961495","steam_id":85568392925397853,"keywords":["cp","nocrits","nodmgspread","uncletopia"],"game_id":440,"stv_port":27046,"stv_name":"Uncletopia | Warsaw | 4 | All Maps | STV","players":null},{"server_id":53,"name":"Uncletopia | Warsaw | 5 | Stopwatch","name_short":"waw-5","host":"waw-1.pl.uncletopia.com","port":27055,"enabled":true,"region":"eu","cc":"pl","latitude":52.2297,"longitude":21.017532,"reserved":0,"last_update":"0001-01-01T00:00:00Z","name_a2s":"Uncletopia | Warsaw | 5 | Stopwatch","protocol":17,"map":"koth_lakeside_final","folder":"tf","game":"Team Fortress","app_id":440,"player_count":0,"max_players":24,"Bots":0,"server_type":"Dedicated","server_os":"Linux","password":true,"vac":true,"version":"7961495","steam_id":85568392925397854,"keywords":["cp","nocrits","nodmgspread","uncletopia"],"game_id":440,"stv_port":27056,"stv_name":"Uncletopia | Warsaw | 5 | Stopwatch | STV","players":null},{"server_id":54,"name":"Uncletopia | Warsaw | 6 | Community","name_short":"waw-6","host":"waw-1.pl.uncletopia.com","port":27065,"enabled":true,"region":"eu","cc":"pl","latitude":52.2297,"longitude":21.017532,"reserved":0,"last_update":"0001-01-01T00:00:00Z","name_a2s":"Uncletopia | Warsaw | 6 | Community","protocol":17,"map":"workshop/pl_badwater_pro_v12.ugc2142942074","folder":"tf","game":"Team Fortress","app_id":440,"player_count":0,"max_players":24,"Bots":0,"server_type":"Dedicated","server_os":"Linux","password":true,"vac":true,"version":"7961495","steam_id":85568392925397856,"keywords":["nocrits","nodmgspread","payload","uncletopia"],"game_id":440,"stv_port":27066,"stv_name":"Uncletopia | Warsaw | 6 | Community | STV","players":null}]}