{"status":true,"message":"","result":[{"server_id":9,"name":"Uncletopia | Atlanta | 1 | All Maps","name_short":"atl-1","host":"atl-1.us.uncletopia.com","port":27015,"enabled":true,"region":"us-east","cc":"us","latitude":33.753746,"longitude":-84.38633,"reserved":0,"last_update":"0001-01-01T00:00:00Z","name_a2s":"Uncletopia | Atlanta | 1 | All Maps","protocol":17,"map":"koth_cascade","folder":"tf","game":"Team Fortress","app_id":440,"player_count":23,"max_players":24,"Bots":0,"server_type":"Dedicated","server_os":"Linux","password":true,"vac":true,"version":"7882260","steam_id":85568392924469982,"keywords":["cp","nocrits","nodmgspread","uncletopia"],"game_id":440,"stv_port":27016,"stv_name":"Uncletopia | Atlanta | 1 | All Maps | STV","players":[{"user_id":51,"name":"Nox(She/They)","steam_id":76561198141950842,"connected_time":3442000000000,"state":"active","ping":47},{"user_id":93,"name":"Drunk Driver","steam_id":76561198050204475,"connected_time":500000000000,"state":"active","ping":47},{"user_id":77,"name":"Skinny pete","steam_id":76561198801608576,"connected_time":1425000000000,"state":"active","ping":73},{"user_id":56,"name":"William Wallace","steam_id":76561199343316814,"connected_time":3284000000000,"state":"active","ping":52},{"user_id":19,"name":"i forgor","steam_id":76561199120622265,"connected_time":4793000000000,"state":"active","ping":73},{"user_id":39,"name":"captain red","steam_id":76561198191587983,"connected_time":4152000000000,"state":"active","ping":89},{"user_id":88,"name":"CreateADebate","steam_id":76561198115760035,"connected_time":686000000000,"state":"active","ping":46},{"user_id":81,"name":"gamerlegend47","steam_id":76561198122776598,"connected_time":1349000000000,"state":"active","ping":66},{"user_id":96,"name":"Bocchi the Gock","steam_id":76561198152455316,"connected_time":69000000000,"state":"active","ping":122},{"user_id":97,"name":"chombonathy","steam_id":76561198799641133,"connected_time":29000000000,"state":"active","ping":78},{"user_id":95,"name":"NoExit","steam_id":76561198065725996,"connected_time":296000000000,"state":"active","ping":77},{"user_id":59,"name":"Voyager","steam_id":76561199128786637,"connected_time":2549000000000,"state":"active","ping":81},{"user_id":94,"name":"Zero","steam_id":76561198033384990,"connected_time":398000000000,"state":"active","ping":51},{"user_id":63,"name":"Titus Tyrwitt","steam_id":76561197990779673,"connected_time":2291000000000,"state":"active","ping":61},{"user_id":92,"name":"A_Malebolgia","steam_id":76561198097722818,"connected_time":515000000000,"state":"active","ping":89},{"user_id":83,"name":"Jin","steam_id":76561198119873148,"connected_time":1184000000000,"state":"active","ping":77},{"user_id":71,"name":"BackwardsEagle","steam_id":76561199013712612,"connected_time":1780000000000,"state":"active","ping":76},{"user_id":89,"name":";^)","steam_id":76561198269497358,"connected_time":537000000000,"state":"active","ping":71},{"user_id":38,"name":"kibble","steam_id":76561198077083011,"connected_time":4182000000000,"state":"active","ping":96},{"user_id":54,"name":"Gogo","steam_id":76561198172430633,"connected_time":3418000000000,"state":"active","ping":92},{"user_id":55,"name":"Albino Jellyfish","steam_id":76561198208561097,"connected_time":3418000000000,"state":"active","ping":64},{"user_id":90,"name":"metalfan666","steam_id":76561198386344068,"connected_time":536000000000,"state":"active","ping":71}]},{"server_id":104,"name":"Uncletopia | Atlanta | 2 | All Maps","name_short":"atl-2","host":"atl-1.us.uncletopia.com","port":27025,"enabled":true,"region":"us-east","cc":"us","latitude":33.753746,"longitude":-84.38633,"reserved":0,"last_update":"0001-01-01T00:00:00Z","name_a2s":"Uncletopia | Atlanta | 2 | All Maps","protocol":17,"map":"pl_frontier_final","folder":"tf","game":"Team Fortress","app_id":440,"player_count":0,"max_players":24,"Bots":0,"server_type":"Dedicated","server_os":"Linux","password":true,"vac":true,"version":"7882260","steam_id":85568392924469983,"keywords":["nocrits","nodmgspread","payload","uncletopia"],"game_id":440,"stv_port":27026,"stv_name":"Uncletopia | Atlanta | 2 | All Maps | STV","players":null},{"server_id":400,"name":"Uncletopia | Atlanta | 3 | Community","name_short":"atl-3","host":"atl-1.us.uncletopia.com","port":27035,"enabled":true,"region":"us-east","cc":"us","latitude":33.753746,"longitude":-84.38633,"reserved":0,"last_update":"0001-01-01T00:00:00Z","name_a2s":"Uncletopia | Atlanta | 3 | Community","protocol":17,"map":"pl_borneo","folder":"tf","game":"Team Fortress","app_id":440,"player_count":0,"max_players":24,"Bots":0,"server_type":"Dedicated","server_os":"Linux","password":true,"vac":true,"version":"7882260","steam_id":85568392924515187,"keywords":["nocrits","nodmgspread","payload","uncletopia"],"game_id":440,"stv_port":27036,"stv_name":"Uncletopia | Atlanta | 3 | Community | STV","players":null},{"server_id":401,"name":"Uncletopia | Atlanta | 4 | No Payload","name_short":"atl-4","host":"atl-1.us.uncletopia.com","port":27045,"enabled":true,"region":"us-east","cc":"us","latitude":33.753746,"longitude":-84.38633,"reserved":0,"last_update":"0001-01-01T00:00:00Z","name_a2s":"","protocol":0,"map":"","folder":"","game":"","app_id":0,"player_count":0,"max_players":0,"Bots":0,"server_type":"","server_os":"","password":false,"vac":false,"version":"","steam_id":0,"keywords":null,"game_id":0,"stv_port":0,"stv_name":"","players":null},{"server_id":2,"name":"Uncletopia | Chicago | 1 | All Maps","name_short":"chi-1","host":"chi-1.us.uncletopia.com","port":27015,"enabled":true,"region":"us-central","cc":"us","latitude":41.881832,"longitude":-87.62318,"reserved":0,"last_update":"0001-01-01T00:00:00Z","name_a2s":"Uncletopia | Chicago | 1 | All Maps","protocol":17,"map":"pl_pier","folder":"tf","game":"Team Fortress","app_id":440,"player_count":24,"max_players":24,"Bots":0,"server_type":"Dedicated","server_os":"Linux","password":true,"vac":true,"version":"7882260","steam_id":85568392924469984,"keywords":["nocrits","nodmgspread","payload","uncletopia"],"game_id":440,"stv_port":27016,"stv_name":"Uncletopia | Chicago | 1 | All Maps | STV","players":[{"user_id":239,"name":"LerN","steam_id":76561198083463877,"connected_time":5837000000000,"state":"active","ping":55},{"user_id":228,"name":"*‧˚kitsu ʚ♥ɞ","steam_id":76561198091741658,"connected_time":6141000000000,"state":"active","ping":63},{"user_id":273,"name":"你是同性恋","steam_id":76561199073296535,"connected_time":2264000000000,"state":"active","ping":48},{"user_id":259,"name":"Mug Moment Gaming","steam_id":76561198233098136,"connected_time":4202000000000,"state":"active","ping":70},{"user_id":251,"name":"Bellator","steam_id":76561198064103979,"connected_time":4605000000000,"state":"active","ping":109},{"user_id":276,"name":"Peter Hook","steam_id":76561197999105979,"connected_time":1579000000000,"state":"active","ping":57},{"user_id":198,"name":"Cube","steam_id":76561198156746320,"connected_time":7445000000000,"state":"active","ping":46},{"user_id":278,"name":"moe","steam_id":76561198929586245,"connected_time":1525000000000,"state":"active","ping":93},{"user_id":270,"name":"capybara(happy womens month)","steam_id":76561198798828328,"connected_time":3444000000000,"state":"active","ping":55},{"user_id":267,"name":"The Shinsh","steam_id":76561198125181238,"connected_time":3705000000000,"state":"active","ping":55},{"user_id":241,"name":"King","steam_id":76561198039763676,"connected_time":5694000000000,"state":"active","ping":62},{"user_id":268,"name":"Lichy","steam_id":76561198310682841,"connected_time":3659000000000,"state":"active","ping":59},{"user_id":280,"name":"Dabbledornk","steam_id":76561198065241300,"connected_time":1484000000000,"state":"active","ping":60},{"user_id":237,"name":"Hope","steam_id":76561199182558088,"connected_time":5972000000000,"state":"active","ping":64},{"user_id":255,"name":"katryna","steam_id":76561198023440304,"connected_time":4398000000000,"state":"active","ping":57},{"user_id":230,"name":"\u003c3Elise\u003c3","steam_id":76561198146435005,"connected_time":6124000000000,"state":"active","ping":84},{"user_id":286,"name":"LocaKola","steam_id":76561198173435430,"connected_time":899000000000,"state":"active","ping":73},{"user_id":290,"name":"Lynx","steam_id":76561198322363286,"connected_time":688000000000,"state":"active","ping":74},{"user_id":274,"name":"NOBODY","steam_id":76561198094578887,"connected_time":2238000000000,"state":"active","ping":56},{"user_id":282,"name":"TheLuzinator","steam_id":76561198377144604,"connected_time":1430000000000,"state":"active","ping":81},{"user_id":292,"name":"team foolery 2","steam_id":76561199118049168,"connected_time":534000000000,"state":"active","ping":104},{"user_id":291,"name":"paid actor","steam_id":76561198330205913,"connected_time":682000000000,"state":"active","ping":78},{"user_id":252,"name":"「iam3nigma」","steam_id":76561198081580177,"connected_time":4580000000000,"state":"active","ping":68},{"user_id":293,"name":"Bee","steam_id":76561198074681324,"connected_time":248000000000,"state":"active","ping":62}]},{"server_id":106,"name":"Uncletopia | Chicago | 2 | All Maps","name_short":"chi-2","host":"chi-1.us.uncletopia.com","port":27025,"enabled":true,"region":"us-central","cc":"us","latitude":41.881832,"longitude":-87.62318,"reserved":0,"last_update":"0001-01-01T00:00:00Z","name_a2s":"Uncletopia | Chicago | 2 | All Maps","protocol":17,"map":"koth_lakeside_final","folder":"tf","game":"Team Fortress","app_id":440,"player_count":0,"max_players":24,"Bots":0,"server_type":"Dedicated","server_os":"Linux","password":true,"vac":true,"version":"7882260","steam_id":85568392924469985,"keywords":["cp","nocrits","nodmgspread","uncletopia"],"game_id":440,"stv_port":27026,"stv_name":"Uncletopia | Chicago | 2 | All Maps | STV","players":null},{"server_id":402,"name":"Uncletopia | Chicago | 3 | All Maps","name_short":"chi-3","host":"chi-1.us.uncletopia.com","port":27035,"enabled":true,"region":"us-central","cc":"us","latitude":41.881832,"longitude":-87.62318,"reserved":0,"last_update":"0001-01-01T00:00:00Z","name_a2s":"Uncletopia | Chicago | 3 | All Maps","protocol":17,"map":"pl_barnblitz","folder":"tf","game":"Team Fortress","app_id":440,"player_count":22,"max_players":24,"Bots":0,"server_type":"Dedicated","server_os":"Linux","password":true,"vac":true,"version":"7882260","steam_id":85568392924515191,"keywords":["nocrits","nodmgspread","payload","uncletopia"],"game_id":440,"stv_port":27036,"stv_name":"Uncletopia | Chicago | 3 | All Maps | STV","players":[{"user_id":51,"name":"goodoldkyogre_382","steam_id":76561199058872279,"connected_time":58000000000,"state":"active","ping":76},{"user_id":4,"name":"Compress Dong","steam_id":76561198018950826,"connected_time":2637000000000,"state":"active","ping":90},{"user_id":34,"name":"Lukki","steam_id":76561198089026981,"connected_time":1080000000000,"state":"active","ping":72},{"user_id":37,"name":"Travorski","steam_id":76561198072493142,"connected_time":934000000000,"state":"active","ping":85},{"user_id":35,"name":"Röntgen","steam_id":76561197993492325,"connected_time":1016000000000,"state":"active","ping":90},{"user_id":8,"name":"ThrashTillDeth86","steam_id":76561198073625230,"connected_time":2548000000000,"state":"active","ping":101},{"user_id":39,"name":"Pickleball Smigglepants","steam_id":76561199060126941,"connected_time":901000000000,"state":"active","ping":72},{"user_id":12,"name":"Talking Ben.","steam_id":76561198111259720,"connected_time":2157000000000,"state":"active","ping":64},{"user_id":40,"name":"Bee_Pirate","steam_id":76561199000599111,"connected_time":901000000000,"state":"active","ping":60},{"user_id":15,"name":"room temp IQ","steam_id":76561198018724712,"connected_time":2007000000000,"state":"active","ping":56},{"user_id":31,"name":"rawgust","steam_id":76561198004523887,"connected_time":1237000000000,"state":"active","ping":108},{"user_id":41,"name":"Translucent૮₍ • ᴥ •","steam_id":76561199212057076,"connected_time":864000000000,"state":"active","ping":99},{"user_id":25,"name":"RLC_","steam_id":76561198381190305,"connected_time":1696000000000,"state":"active","ping":97},{"user_id":42,"name":"Green_GarBear","steam_id":76561199468912415,"connected_time":824000000000,"state":"active","ping":111},{"user_id":20,"name":"El Bondin","steam_id":76561198820792434,"connected_time":1848000000000,"state":"active","ping":93},{"user_id":22,"name":"Johnny Dollar","steam_id":76561199205213473,"connected_time":1748000000000,"state":"active","ping":68},{"user_id":23,"name":"Chicken nugget consumer","steam_id":76561199121061299,"connected_time":1731000000000,"state":"active","ping":84},{"user_id":50,"name":"Breach","steam_id":76561198045060392,"connected_time":159000000000,"state":"active","ping":46},{"user_id":33,"name":"GooniOoni","steam_id":76561198102154561,"connected_time":1117000000000,"state":"active","ping":43},{"user_id":48,"name":"A Can of Arizona Green Tea","steam_id":76561198062481133,"connected_time":376000000000,"state":"active","ping":79},{"user_id":29,"name":"Sagoogoo","steam_id":76561198176061614,"connected_time":1611000000000,"state":"active","ping":86},{"user_id":46,"name":"StealthyZeroTwo","steam_id":76561198942692649,"connected_time":709000000000,"state":"active","ping":78}]},{"server_id":403,"name":"Uncletopia | Chicago | 4 | All Maps","name_short":"chi-4","host":"chi-1.us.uncletopia.com","port":27045,"enabled":true,"region":"us-central","cc":"us","latitude":41.881832,"longitude":-87.62318,"reserved":0,"last_update":"0001-01-01T00:00:00Z","name_a2s":"Uncletopia | Chicago | 4 | All Maps","protocol":17,"map":"pl_upward","folder":"tf","game":"Team Fortress","app_id":440,"player_count":24,"max_players":24,"Bots":0,"server_type":"Dedicated","server_os":"Linux","password":true,"vac":true,"version":"7882260","steam_id":85568392924515193,"keywords":["nocrits","nodmgspread","payload","uncletopia"],"game_id":440,"stv_port":27046,"stv_name":"Uncletopia | Chicago | 4 | All Maps | STV","players":[{"user_id":182,"name":"anonion","steam_id":76561198056477584,"connected_time":147000000000,"state":"active","ping":77},{"user_id":169,"name":"Jo","steam_id":76561198060447015,"connected_time":1284000000000,"state":"active","ping":77},{"user_id":178,"name":"kallerannar","steam_id":76561199095701143,"connected_time":810000000000,"state":"active","ping":165},{"user_id":179,"name":"j - フライドチキン","steam_id":76561198061224922,"connected_time":388000000000,"state":"active","ping":74},{"user_id":75,"name":"Praise Hero","steam_id":76561198071362210,"connected_time":7896000000000,"state":"active","ping":66},{"user_id":158,"name":"Wigl","steam_id":76561198019324464,"connected_time":2581000000000,"state":"active","ping":67},{"user_id":180,"name":"BugsAreMyWorstEnemy","steam_id":76561199440395505,"connected_time":326000000000,"state":"active","ping":156},{"user_id":154,"name":"TheHiddenBlade","steam_id":76561199129787866,"connected_time":3002000000000,"state":"active","ping":61},{"user_id":172,"name":"Huntpk","steam_id":76561198340591674,"connected_time":1175000000000,"state":"active","ping":40},{"user_id":171,"name":"The Spanked Monkey","steam_id":76561198128293111,"connected_time":1257000000000,"state":"active","ping":71},{"user_id":187,"name":"boy from the rafters","steam_id":76561198042926224,"connected_time":102000000000,"state":"active","ping":90},{"user_id":165,"name":"blitzkriiegi","steam_id":76561198200944766,"connected_time":1968000000000,"state":"active","ping":49},{"user_id":177,"name":"antitrust","steam_id":76561198099225458,"connected_time":999000000000,"state":"active","ping":106},{"user_id":146,"name":"Grebnedulgo The Elder","steam_id":76561199123285878,"connected_time":3818000000000,"state":"active","ping":77},{"user_id":138,"name":"Terry Aki","steam_id":76561199212875471,"connected_time":4493000000000,"state":"active","ping":79},{"user_id":184,"name":"Vaudeville Villain","steam_id":76561199212093339,"connected_time":138000000000,"state":"active","ping":68},{"user_id":147,"name":"Dante","steam_id":76561198798234838,"connected_time":3817000000000,"state":"active","ping":113},{"user_id":164,"name":"gayass","steam_id":76561198396326793,"connected_time":2287000000000,"state":"active","ping":85},{"user_id":185,"name":"pigfarmer.gov","steam_id":76561199071167548,"connected_time":130000000000,"state":"active","ping":55},{"user_id":175,"name":"garfield","steam_id":76561198114119308,"connected_time":1120000000000,"state":"active","ping":61},{"user_id":186,"name":"jfcc","steam_id":76561198043195127,"connected_time":118000000000,"state":"active","ping":61},{"user_id":163,"name":"Temujin","steam_id":76561198030936583,"connected_time":2346000000000,"state":"active","ping":58},{"user_id":162,"name":"Enkinanna","steam_id":76561198045965821,"connected_time":2425000000000,"state":"active","ping":86},{"user_id":188,"name":"|AG| Level","steam_id":76561198063633592,"connected_time":86000000000,"state":"active","ping":94}]},{"server_id":36,"name":"Uncletopia | Chicago | 5 | All Maps","name_short":"chi-5","host":"chi-2.us.uncletopia.com","port":27015,"enabled":true,"region":"us-central","cc":"us","latitude":41.881832,"longitude":-87.62318,"reserved":0,"last_update":"0001-01-01T00:00:00Z","name_a2s":"Uncletopia | Chicago | 5 | All Maps","protocol":17,"map":"pl_borneo","folder":"tf","game":"Team Fortress","app_id":440,"player_count":1,"max_players":24,"Bots":0,"server_type":"Dedicated","server_os":"Linux","password":true,"vac":true,"version":"7882260","steam_id":85568392924866362,"keywords":["nocrits","nodmgspread","payload","uncletopia"],"game_id":440,"stv_port":27016,"stv_name":"Uncletopia | Chicago | 5 | All Maps | STV","players":[{"user_id":6,"name":"Shady Businessman","steam_id":76561198143855968,"connected_time":1008000000000,"state":"active","ping":87}]},{"server_id":37,"name":"Uncletopia | Chicago | 6 | All Maps","name_short":"chi-6","host":"chi-2.us.uncletopia.com","port":27025,"enabled":true,"region":"us-central","cc":"us","latitude":41.881832,"longitude":-87.62318,"reserved":0,"last_update":"0001-01-01T00:00:00Z","name_a2s":"Uncletopia | Chicago | 6 | All Maps","protocol":17,"map":"cp_altitude","folder":"tf","game":"Team Fortress","app_id":440,"player_count":0,"max_players":24,"Bots":0,"server_type":"Dedicated","server_os":"Linux","password":true,"vac":true,"version":"7882260","steam_id":85568392924866363,"keywords":["cp","nocrits","nodmgspread","uncletopia"],"game_id":440,"stv_port":27026,"stv_name":"Uncletopia | Chicago | 6 | All Maps | STV","players":null},{"server_id":38,"name":"Uncletopia | Chicago | 7 | Stopwatch Beta","name_short":"chi-7","host":"chi-2.us.uncletopia.com","port":27035,"enabled":true,"region":"us-central","cc":"us","latitude":41.881832,"longitude":-87.62318,"reserved":0,"last_update":"0001-01-01T00:00:00Z","name_a2s":"Uncletopia | Chicago | 7 | Stopwatch Beta","protocol":17,"map":"pl_upward","folder":"tf","game":"Team Fortress","app_id":440,"player_count":0,"max_players":24,"Bots":0,"server_type":"Dedicated","server_os":"Linux","password":true,"vac":true,"version":"7882260","steam_id":85568392924866364,"keywords":["nocrits","nodmgspread","payload","uncletopia"],"game_id":440,"stv_port":27036,"stv_name":"Uncletopia | Chicago | 7 | Stopwatch Beta | STV","players":null},{"server_id":39,"name":"Uncletopia | Chicago | 8 | Community","name_short":"chi-8","host":"chi-2.us.uncletopia.com","port":27045,"enabled":true,"region":"us-central","cc":"us","latitude":41.881832,"longitude":-87.62318,"reserved":0,"last_update":"0001-01-01T00:00:00Z","name_a2s":"Uncletopia | Chicago | 8 | Community","protocol":17,"map":"workshop/pl_emerge_rc2.ugc888027758","folder":"tf","game":"Team Fortress","app_id":440,"player_count":0,"max_players":24,"Bots":0,"server_type":"Dedicated","server_os":"Linux","password":true,"vac":true,"version":"7882260","steam_id":85568392924866365,"keywords":["nocrits","nodmgspread","payload","uncletopia"],"game_id":440,"stv_port":27046,"stv_name":"Uncletopia | Chicago | 8 | Community | STV","players":null},{"server_id":8,"name":"Uncletopia | Dallas | 1 | All Maps","name_short":"dal-1","host":"dal-1.us.uncletopia.com","port":27015,"enabled":true,"region":"us-central","cc":"us","latitude":32.779167,"longitude":-96.80889,"reserved":0,"last_update":"0001-01-01T00:00:00Z","name_a2s":"Uncletopia | Dallas | 1 | All Maps","protocol":17,"map":"pl_badwater","folder":"tf","game":"Team Fortress","app_id":440,"player_count":25,"max_players":24,"Bots":0,"server_type":"Dedicated","server_os":"Linux","password":true,"vac":true,"version":"7882260","steam_id":85568392924469986,"keywords":["nocrits","nodmgspread","payload","uncletopia"],"game_id":440,"stv_port":27016,"stv_name":"Uncletopia | Dallas | 1 | All Maps | STV","players":[{"user_id":234,"name":"A Crayon FEAST!","steam_id":76561198011675372,"connected_time":3417000000000,"state":"active","ping":105},{"user_id":236,"name":"GlorifiedAshy","steam_id":76561198382684727,"connected_time":3391000000000,"state":"active","ping":102},{"user_id":289,"name":"DualiTea","steam_id":76561198081733870,"connected_time":388000000000,"state":"active","ping":74},{"user_id":201,"name":"BENIS  BOI","steam_id":76561198813112341,"connected_time":7292000000000,"state":"active","ping":49},{"user_id":287,"name":"FortisOne","steam_id":76561198142491518,"connected_time":811000000000,"state":"active","ping":84},{"user_id":283,"name":"wafflehamster2000","steam_id":76561198849161820,"connected_time":989000000000,"state":"active","ping":86},{"user_id":279,"name":"ふわふわ毛布","steam_id":76561198088403016,"connected_time":1137000000000,"state":"active","ping":188},{"user_id":286,"name":"the smiling zombie","steam_id":76561199246231090,"connected_time":931000000000,"state":"active","ping":83},{"user_id":290,"name":"Setsuko","steam_id":76561198830953881,"connected_time":17000000000,"state":"spawning","ping":179},{"user_id":235,"name":"vivian","steam_id":76561198975527343,"connected_time":3407000000000,"state":"active","ping":58},{"user_id":256,"name":"kage","steam_id":76561199207457676,"connected_time":2090000000000,"state":"active","ping":52},{"user_id":282,"name":"ssj4 turles","steam_id":76561198128347876,"connected_time":1039000000000,"state":"active","ping":96},{"user_id":242,"name":"CBTGaeming","steam_id":76561199089290128,"connected_time":3124000000000,"state":"active","ping":160},{"user_id":220,"name":"Lemonade Juice","steam_id":76561198402892608,"connected_time":5536000000000,"state":"active","ping":72},{"user_id":248,"name":"kid named finger","steam_id":76561198882986104,"connected_time":2953000000000,"state":"active","ping":114},{"user_id":288,"name":"Quomples","steam_id":76561198140996628,"connected_time":566000000000,"state":"active","ping":64},{"user_id":281,"name":"Voyage 201","steam_id":76561197961025212,"connected_time":1068000000000,"state":"active","ping":123},{"user_id":255,"name":"Shark Sandwich","steam_id":76561198025007938,"connected_time":2233000000000,"state":"active","ping":112},{"user_id":240,"name":"Upbeat","steam_id":76561198082289547,"connected_time":3325000000000,"state":"active","ping":66},{"user_id":270,"name":"The_Changsta","steam_id":76561198042185053,"connected_time":1497000000000,"state":"active","ping":68},{"user_id":274,"name":"malarkeyman","steam_id":76561198844473584,"connected_time":1302000000000,"state":"active","ping":70},{"user_id":285,"name":"Stryder","steam_id":76561199387418697,"connected_time":964000000000,"state":"active","ping":69},{"user_id":284,"name":"payload","steam_id":76561198063475894,"connected_time":975000000000,"state":"active","ping":68},{"user_id":273,"name":"pafijohn","steam_id":76561198002535190,"connected_time":1369000000000,"state":"active","ping":77},{"user_id":291,"name":"wardex","steam_id":76561198058776834,"connected_time":17000000000,"state":"spawning","ping":148}]},{"server_id":108,"name":"Uncletopia | Dallas | 2 | All Maps","name_short":"dal-2","host":"dal-1.us.uncletopia.com","port":27025,"enabled":true,"region":"us-central","cc":"us","latitude":32.779167,"longitude":-96.80889,"reserved":0,"last_update":"0001-01-01T00:00:00Z","name_a2s":"Uncletopia | Dallas | 2 | All Maps","protocol":17,"map":"cp_snakewater_final1","folder":"tf","game":"Team Fortress","app_id":440,"player_count":0,"max_players":24,"Bots":0,"server_type":"Dedicated","server_os":"Linux","password":true,"vac":true,"version":"7882260","steam_id":85568392924469988,"keywords":["cp","nocrits","nodmgspread","uncletopia"],"game_id":440,"stv_port":27026,"stv_name":"Uncletopia | Dallas | 2 | All Maps | STV","players":null},{"server_id":5,"name":"Uncletopia | Frankfurt | 1 | All Maps","name_short":"frk-1","host":"frk-1.de.uncletopia.com","port":27015,"enabled":true,"region":"eu","cc":"de","latitude":50.110924,"longitude":8.682127,"reserved":0,"last_update":"0001-01-01T00:00:00Z","name_a2s":"Uncletopia | Frankfurt | 1 | All Maps","protocol":17,"map":"pl_frontier_final","folder":"tf","game":"Team Fortress","app_id":440,"player_count":24,"max_players":24,"Bots":0,"server_type":"Dedicated","server_os":"Linux","password":true,"vac":true,"version":"7882260","steam_id":85568392924469989,"keywords":["nocrits","nodmgspread","payload","uncletopia"],"game_id":440,"stv_port":27016,"stv_name":"Uncletopia | Frankfurt | 1 | All Maps | STV","players":[{"user_id":350,"name":"Walter Hartwell White Gaming","steam_id":76561198061996646,"connected_time":3809000000000,"state":"active","ping":72},{"user_id":395,"name":"sz(k)","steam_id":76561198118500940,"connected_time":481000000000,"state":"active","ping":66},{"user_id":388,"name":"Yuzu","steam_id":76561198121694613,"connected_time":1178000000000,"state":"active","ping":55},{"user_id":396,"name":"ricky pee pee","steam_id":76561198152620745,"connected_time":459000000000,"state":"active","ping":70},{"user_id":378,"name":"Plop_","steam_id":76561198112567921,"connected_time":2347000000000,"state":"active","ping":45},{"user_id":389,"name":"RicardoChL","steam_id":76561198452299994,"connected_time":1113000000000,"state":"active","ping":73},{"user_id":397,"name":"Dzieciol","steam_id":76561198160237556,"connected_time":409000000000,"state":"active","ping":67},{"user_id":401,"name":"The SexHaver Gamer","steam_id":76561198093735871,"connected_time":270000000000,"state":"active","ping":54},{"user_id":380,"name":"Äärik ♣","steam_id":76561198131871737,"connected_time":2186000000000,"state":"active","ping":55},{"user_id":403,"name":"PONCHO 90","steam_id":76561198412197820,"connected_time":175000000000,"state":"active","ping":84},{"user_id":398,"name":"Accident","steam_id":76561198115160396,"connected_time":397000000000,"state":"active","ping":65},{"user_id":390,"name":"WolfmanCZ","steam_id":76561199157141414,"connected_time":749000000000,"state":"active","ping":65},{"user_id":387,"name":"ÃNVS DRÃNVS","steam_id":76561198138733015,"connected_time":1259000000000,"state":"active","ping":118},{"user_id":391,"name":"Eazy-E hbivnm","steam_id":76561197996468677,"connected_time":737000000000,"state":"active","ping":55},{"user_id":399,"name":"Lucan","steam_id":76561198219195135,"connected_time":386000000000,"state":"active","ping":57},{"user_id":405,"name":"medicinal man","steam_id":76561198202668788,"connected_time":79000000000,"state":"spawning","ping":57},{"user_id":356,"name":"takumi fujara","steam_id":76561198078928120,"connected_time":3319000000000,"state":"active","ping":77},{"user_id":404,"name":"gagalak","steam_id":76561198089979108,"connected_time":172000000000,"state":"active","ping":87},{"user_id":379,"name":"Vitun vittu","steam_id":76561198110679463,"connected_time":2236000000000,"state":"active","ping":77},{"user_id":344,"name":"Dan86130","steam_id":76561199187190436,"connected_time":4261000000000,"state":"active","ping":70},{"user_id":256,"name":"svantezch","steam_id":76561198373831657,"connected_time":9908000000000,"state":"active","ping":70},{"user_id":406,"name":"KnugenIV","steam_id":76561198127091993,"connected_time":17000000000,"state":"spawning","ping":58},{"user_id":368,"name":"Weeb exterminator","steam_id":76561198078964973,"connected_time":2910000000000,"state":"active","ping":71},{"user_id":393,"name":"Zedespook","steam_id":76561198265479349,"connected_time":700000000000,"state":"active","ping":59}]},{"server_id":110,"name":"Uncletopia | Frankfurt | 2 | All Maps","name_short":"frk-2","host":"frk-1.de.uncletopia.com","port":27025,"enabled":true,"region":"eu","cc":"de","latitude":50.110924,"longitude":8.682127,"reserved":0,"last_update":"0001-01-01T00:00:00Z","name_a2s":"Uncletopia | Frankfurt | 2 | All Maps","protocol":17,"map":"koth_king","folder":"tf","game":"Team Fortress","app_id":440,"player_count":24,"max_players":24,"Bots":0,"server_type":"Dedicated","server_os":"Linux","password":true,"vac":true,"version":"7882260","steam_id":85568392924469990,"keywords":["cp","nocrits","nodmgspread","uncletopia"],"game_id":440,"stv_port":27026,"stv_name":"Uncletopia | Frankfurt | 2 | All Maps | STV","players":[{"user_id":412,"name":"night.s","steam_id":76561198326287823,"connected_time":2027000000000,"state":"active","ping":75},{"user_id":414,"name":"finbar","steam_id":76561198056812396,"connected_time":1779000000000,"state":"active","ping":80},{"user_id":417,"name":"weedminion","steam_id":76561198061248329,"connected_time":1083000000000,"state":"active","ping":67},{"user_id":419,"name":"Faraday's Law","steam_id":76561198105385977,"connected_time":975000000000,"state":"active","ping":63},{"user_id":422,"name":"Engineer gaming","steam_id":76561198275942961,"connected_time":657000000000,"state":"active","ping":44},{"user_id":407,"name":"[Water Splash]","steam_id":76561198055389492,"connected_time":2138000000000,"state":"active","ping":50},{"user_id":427,"name":"Bobo","steam_id":76561198052308399,"connected_time":240000000000,"state":"active","ping":60},{"user_id":207,"name":"Fales","steam_id":76561198126124929,"connected_time":6932000000000,"state":"active","ping":65},{"user_id":304,"name":"jShroom","steam_id":76561198833885769,"connected_time":4014000000000,"state":"active","ping":67},{"user_id":436,"name":"Serhat","steam_id":76561198171613551,"connected_time":8000000000,"state":"spawning","ping":63},{"user_id":413,"name":"remi, she wrote.","steam_id":76561198044045655,"connected_time":1811000000000,"state":"active","ping":80},{"user_id":269,"name":"Highground","steam_id":76561199197544789,"connected_time":4615000000000,"state":"active","ping":178},{"user_id":428,"name":"aerol9241","steam_id":76561199265158596,"connected_time":187000000000,"state":"active","ping":75},{"user_id":396,"name":"\u003c blank \u003e","steam_id":76561198059375315,"connected_time":2314000000000,"state":"active","ping":67},{"user_id":423,"name":"Mads","steam_id":76561198089261782,"connected_time":628000000000,"state":"active","ping":55},{"user_id":429,"name":"cream gravy","steam_id":76561198973069177,"connected_time":147000000000,"state":"active","ping":50},{"user_id":424,"name":"Dolcelatte","steam_id":76561198038501770,"connected_time":626000000000,"state":"active","ping":59},{"user_id":431,"name":"[ETT] uMad","steam_id":76561198336430564,"connected_time":126000000000,"state":"active","ping":55},{"user_id":256,"name":"Nyhde","steam_id":76561198012771416,"connected_time":4985000000000,"state":"active","ping":98},{"user_id":432,"name":"TheFox.tf","steam_id":76561197996851702,"connected_time":85000000000,"state":"active","ping":71},{"user_id":433,"name":"FATHERLESS WORM","steam_id":76561197988085026,"connected_time":62000000000,"state":"active","ping":69},{"user_id":426,"name":"your_local_penguin","steam_id":76561199224954346,"connected_time":610000000000,"state":"active","ping":96},{"user_id":435,"name":"desnot","steam_id":76561198862581894,"connected_time":15000000000,"state":"spawning","ping":82},{"user_id":406,"name":"Stuid","steam_id":76561199427506542,"connected_time":2176000000000,"state":"active","ping":77}]},{"server_id":308,"name":"Uncletopia | Frankfurt | 3 | All Maps","name_short":"frk-3","host":"frk-1.de.uncletopia.com","port":27035,"enabled":true,"region":"eu","cc":"de","latitude":50.110924,"longitude":8.682127,"reserved":0,"last_update":"0001-01-01T00:00:00Z","name_a2s":"Uncletopia | Frankfurt | 3 | All Maps","protocol":17,"map":"pl_badwater","folder":"tf","game":"Team Fortress","app_id":440,"player_count":24,"max_players":24,"Bots":0,"server_type":"Dedicated","server_os":"Linux","password":true,"vac":true,"version":"7882260","steam_id":85568392924504274,"keywords":["nocrits","nodmgspread","payload","uncletopia"],"game_id":440,"stv_port":27036,"stv_name":"Uncletopia | Frankfurt | 3 | All Maps | STV","players":[{"user_id":173,"name":"protëin","steam_id":76561197998423616,"connected_time":6051000000000,"state":"active","ping":73},{"user_id":174,"name":"Shovelhalfrusty","steam_id":76561198346447513,"connected_time":6035000000000,"state":"active","ping":71},{"user_id":219,"name":"Marcos","steam_id":76561198798925721,"connected_time":2705000000000,"state":"active","ping":77},{"user_id":256,"name":"Leibeigener","steam_id":76561199275478305,"connected_time":101000000000,"state":"active","ping":42},{"user_id":235,"name":"USBug999","steam_id":76561199174677820,"connected_time":1992000000000,"state":"active","ping":130},{"user_id":176,"name":"Ennard777","steam_id":76561198965409493,"connected_time":5935000000000,"state":"active","ping":101},{"user_id":247,"name":"Mega Man Legends 3","steam_id":76561198014110199,"connected_time":832000000000,"state":"active","ping":58},{"user_id":245,"name":"ThisGuy","steam_id":76561198152296391,"connected_time":1217000000000,"state":"active","ping":112},{"user_id":222,"name":"Hoxton","steam_id":76561198129209505,"connected_time":2662000000000,"state":"active","ping":68},{"user_id":215,"name":"Mingo","steam_id":76561199191245650,"connected_time":2741000000000,"state":"active","ping":90},{"user_id":214,"name":"Jazzlike","steam_id":76561198839813662,"connected_time":2961000000000,"state":"active","ping":89},{"user_id":200,"name":"Skuld","steam_id":76561198064734905,"connected_time":4148000000000,"state":"active","ping":94},{"user_id":249,"name":"KNARRER","steam_id":76561199130777953,"connected_time":583000000000,"state":"active","ping":56},{"user_id":253,"name":"c4ctus","steam_id":76561198925655488,"connected_time":335000000000,"state":"active","ping":86},{"user_id":237,"name":"Anadest","steam_id":76561198992528373,"connected_time":1540000000000,"state":"active","ping":80},{"user_id":216,"name":"HerrMyrddin","steam_id":76561198045778215,"connected_time":2740000000000,"state":"active","ping":66},{"user_id":252,"name":"Celarvaa (cel-larva)","steam_id":76561198035024894,"connected_time":484000000000,"state":"active","ping":78},{"user_id":230,"name":"Chromega","steam_id":76561199075307750,"connected_time":2421000000000,"state":"active","ping":58},{"user_id":240,"name":"mr_white256","steam_id":76561198129314304,"connected_time":1487000000000,"state":"active","ping":135},{"user_id":232,"name":"Master Of Noob","steam_id":76561198217926783,"connected_time":2370000000000,"state":"active","ping":68},{"user_id":246,"name":"Neklausk","steam_id":76561198174895762,"connected_time":1183000000000,"state":"active","ping":83},{"user_id":241,"name":"le unfunny dog","steam_id":76561198415020571,"connected_time":1483000000000,"state":"active","ping":60},{"user_id":242,"name":"Paintbrush","steam_id":76561198119987705,"connected_time":1464000000000,"state":"active","ping":57},{"user_id":251,"name":"flr","steam_id":76561198249327786,"connected_time":542000000000,"state":"active","ping":72}]},{"server_id":309,"name":"Uncletopia | Frankfurt | 4 | All Maps","name_short":"frk-4","host":"frk-1.de.uncletopia.com","port":27045,"enabled":true,"region":"eu","cc":"de","latitude":50.110924,"longitude":8.682127,"reserved":0,"last_update":"0001-01-01T00:00:00Z","name_a2s":"Uncletopia | Frankfurt | 4 | All Maps","protocol":17,"map":"pl_upward","folder":"tf","game":"Team Fortress","app_id":440,"player_count":24,"max_players":24,"Bots":0,"server_type":"Dedicated","server_os":"Linux","password":true,"vac":true,"version":"7882260","steam_id":85568392924504275,"keywords":["nocrits","nodmgspread","payload","uncletopia"],"game_id":440,"stv_port":27046,"stv_name":"Uncletopia | Frankfurt | 4 | All Maps | STV","players":[{"user_id":37,"name":"pond","steam_id":76561198214849363,"connected_time":993000000000,"state":"active","ping":77},{"user_id":38,"name":"Milk","steam_id":76561198125876588,"connected_time":962000000000,"state":"active","ping":56},{"user_id":25,"name":"sunshine (he/him)","steam_id":76561198084597975,"connected_time":1742000000000,"state":"active","ping":58},{"user_id":27,"name":"Poggito","steam_id":76561198838001276,"connected_time":1630000000000,"state":"active","ping":54},{"user_id":50,"name":"AMD8806","steam_id":76561198959208483,"connected_time":385000000000,"state":"active","ping":60},{"user_id":51,"name":"boy23","steam_id":76561199475322713,"connected_time":363000000000,"state":"active","ping":70},{"user_id":30,"name":"Bob Wildest","steam_id":76561199256639506,"connected_time":1391000000000,"state":"active","ping":156},{"user_id":31,"name":"Lukáš Šustr","steam_id":76561199084310319,"connected_time":1385000000000,"state":"active","ping":65},{"user_id":32,"name":"TooGay2Play","steam_id":76561198839935854,"connected_time":1305000000000,"state":"active","ping":70},{"user_id":34,"name":"laza's boy","steam_id":76561199074095198,"connected_time":1159000000000,"state":"active","ping":114},{"user_id":35,"name":"Tactical Kerbal","steam_id":76561198212970205,"connected_time":1153000000000,"state":"active","ping":74},{"user_id":39,"name":"SlowMode","steam_id":76561198039631442,"connected_time":938000000000,"state":"active","ping":89},{"user_id":52,"name":"Flying skyhigh","steam_id":76561198372971096,"connected_time":360000000000,"state":"active","ping":67},{"user_id":43,"name":"gaming time","steam_id":76561197971182017,"connected_time":800000000000,"state":"active","ping":75},{"user_id":44,"name":"Ixsus\u003c3","steam_id":76561198094756869,"connected_time":693000000000,"state":"active","ping":58},{"user_id":45,"name":"I am the one who donks","steam_id":76561198419583460,"connected_time":653000000000,"state":"active","ping":56},{"user_id":53,"name":"YOU ARE SHITTING YOUR SELF","steam_id":76561198371719058,"connected_time":359000000000,"state":"active","ping":70},{"user_id":54,"name":"The Business Man","steam_id":76561198059907124,"connected_time":280000000000,"state":"active","ping":168},{"user_id":55,"name":"soup","steam_id":76561198386933065,"connected_time":253000000000,"state":"active","ping":62},{"user_id":57,"name":"Spinya","steam_id":76561198086653667,"connected_time":199000000000,"state":"active","ping":66},{"user_id":58,"name":"Dragon","steam_id":76561198163255365,"connected_time":179000000000,"state":"active","ping":100},{"user_id":59,"name":"Perci","steam_id":76561198097789669,"connected_time":151000000000,"state":"active","ping":61},{"user_id":60,"name":"Lightboom","steam_id":76561198104645103,"connected_time":130000000000,"state":"active","ping":85},{"user_id":61,"name":"Laco","steam_id":76561199073073486,"connected_time":112000000000,"state":"active","ping":90}]},{"server_id":310,"name":"Uncletopia | Frankfurt | 5 | All Maps","name_short":"frk-5","host":"frk-1.de.uncletopia.com","port":27055,"enabled":true,"region":"eu","cc":"de","latitude":50.110924,"longitude":8.682127,"reserved":0,"last_update":"0001-01-01T00:00:00Z","name_a2s":"Uncletopia | Frankfurt | 5 | All Maps","protocol":17,"map":"pl_barnblitz","folder":"tf","game":"Team Fortress","app_id":440,"player_count":0,"max_players":24,"Bots":0,"server_type":"Dedicated","server_os":"Linux","password":true,"vac":true,"version":"7882260","steam_id":85568392924504277,"keywords":["nocrits","nodmgspread","payload","uncletopia"],"game_id":440,"stv_port":27056,"stv_name":"Uncletopia | Frankfurt | 5 | All Maps | STV","players":null},{"server_id":311,"name":"Uncletopia | Frankfurt | 6 | All Maps","name_short":"frk-6","host":"frk-1.de.uncletopia.com","port":27065,"enabled":true,"region":"eu","cc":"de","latitude":50.110924,"longitude":8.682127,"reserved":0,"last_update":"0001-01-01T00:00:00Z","name_a2s":"Uncletopia | Frankfurt | 6 | All Maps","protocol":17,"map":"pl_snowycoast","folder":"tf","game":"Team Fortress","app_id":440,"player_count":0,"max_players":24,"Bots":0,"server_type":"Dedicated","server_os":"Linux","password":true,"vac":true,"version":"7882260","steam_id":85568392924504278,"keywords":["nocrits","nodmgspread","payload","uncletopia"],"game_id":440,"stv_port":27066,"stv_name":"Uncletopia | Frankfurt | 6 | All Maps | STV","players":null},{"server_id":23,"name":"Uncletopia | Frankfurt | 7 | Stopwatch Beta","name_short":"frk-7","host":"frk-1.de.uncletopia.com","port":27075,"enabled":true,"region":"eu","cc":"de","latitude":50.110924,"longitude":8.682127,"reserved":0,"last_update":"0001-01-01T00:00:00Z","name_a2s":"Uncletopia | Frankfurt | 7 | Stopwatch Beta","protocol":17,"map":"workshop/koth_clearcut_b15.ugc2107050255","folder":"tf","game":"Team Fortress","app_id":440,"player_count":0,"max_players":24,"Bots":0,"server_type":"Dedicated","server_os":"Linux","password":true,"vac":true,"version":"7882260","steam_id":85568392924742827,"keywords":["cp","nocrits","nodmgspread","uncletopia"],"game_id":440,"stv_port":27076,"stv_name":"Uncletopia | Frankfurt | 7 | Stopwatch Beta | STV","players":null},{"server_id":24,"name":"Uncletopia | Frankfurt | 8 | Community","name_short":"frk-8","host":"frk-1.de.uncletopia.com","port":27085,"enabled":true,"region":"eu","cc":"de","latitude":50.110924,"longitude":8.682127,"reserved":0,"last_update":"0001-01-01T00:00:00Z","name_a2s":"Uncletopia | Frankfurt | 8 | Community","protocol":17,"map":"workshop/pl_fifthcurve_rc1.ugc648227046","folder":"tf","game":"Team Fortress","app_id":440,"player_count":7,"max_players":24,"Bots":0,"server_type":"Dedicated","server_os":"Linux","password":true,"vac":true,"version":"7882260","steam_id":85568392924742828,"keywords":["nocrits","nodmgspread","payload","uncletopia"],"game_id":440,"stv_port":27086,"stv_name":"Uncletopia | Frankfurt | 8 | Community | STV","players":[{"user_id":223,"name":"Ass exploder","steam_id":76561198145312909,"connected_time":84000000000,"state":"active","ping":60},{"user_id":198,"name":"Za Zombie","steam_id":76561198055545262,"connected_time":2790000000000,"state":"active","ping":168},{"user_id":217,"name":"burgz","steam_id":76561198109955787,"connected_time":1064000000000,"state":"active","ping":59},{"user_id":221,"name":"PadrePockets","steam_id":76561197993251606,"connected_time":698000000000,"state":"active","ping":144},{"user_id":222,"name":"sum ting wong","steam_id":76561198144673121,"connected_time":437000000000,"state":"active","ping":149},{"user_id":200,"name":"hisham","steam_id":76561198414437290,"connected_time":2713000000000,"state":"active","ping":112},{"user_id":146,"name":"Eujekas","steam_id":76561198010527145,"connected_time":6317000000000,"state":"active","ping":92}]},{"server_id":202,"name":"Uncletopia | Hong Kong | 1 | All Maps","name_short":"hgk-1","host":"hgk-1.hk.uncletopia.com","port":27015,"enabled":true,"region":"asia","cc":"hk","latitude":22.302711,"longitude":114.177216,"reserved":0,"last_update":"0001-01-01T00:00:00Z","name_a2s":"Uncletopia | Hong Kong | 1 | All Maps","protocol":17,"map":"pl_snowycoast","folder":"tf","game":"Team Fortress","app_id":440,"player_count":21,"max_players":24,"Bots":0,"server_type":"Dedicated","server_os":"Linux","password":true,"vac":true,"version":"7882260","steam_id":85568392924494504,"keywords":["nocrits","nodmgspread","payload","uncletopia"],"game_id":440,"stv_port":27016,"stv_name":"Uncletopia | Hong Kong | 1 | All Maps | STV","players":[{"user_id":440,"name":"yw","steam_id":76561199382726488,"connected_time":4330000000000,"state":"active","ping":42},{"user_id":436,"name":"NoWay","steam_id":76561198223517060,"connected_time":5276000000000,"state":"active","ping":75},{"user_id":463,"name":"Stupid B","steam_id":76561198131423270,"connected_time":1714000000000,"state":"active","ping":116},{"user_id":460,"name":"Kurtie","steam_id":76561198144737876,"connected_time":2121000000000,"state":"active","ping":72},{"user_id":285,"name":"쿠키","steam_id":76561197997220367,"connected_time":12068000000000,"state":"active","ping":51},{"user_id":453,"name":"\"SKS\"","steam_id":76561198187995386,"connected_time":2912000000000,"state":"active","ping":86},{"user_id":320,"name":"母の肉団子@hao123.com","steam_id":76561198069561896,"connected_time":8782000000000,"state":"active","ping":34},{"user_id":472,"name":"Muerto","steam_id":76561198328718520,"connected_time":885000000000,"state":"active","ping":88},{"user_id":475,"name":"Nep","steam_id":76561198394837017,"connected_time":270000000000,"state":"active","ping":66},{"user_id":476,"name":"no vc no c","steam_id":76561197989503095,"connected_time":263000000000,"state":"active","ping":88},{"user_id":473,"name":"SunnyFish","steam_id":76561199016841988,"connected_time":877000000000,"state":"active","ping":43},{"user_id":477,"name":"Chigusa","steam_id":76561198083325211,"connected_time":206000000000,"state":"active","ping":115},{"user_id":481,"name":"Hallelujah","steam_id":76561199024326941,"connected_time":115000000000,"state":"active","ping":73},{"user_id":464,"name":"7853","steam_id":76561199390507975,"connected_time":1690000000000,"state":"active","ping":54},{"user_id":445,"name":"Streety","steam_id":76561199098969003,"connected_time":3730000000000,"state":"active","ping":88},{"user_id":304,"name":"tiden2000","steam_id":76561198092969425,"connected_time":10563000000000,"state":"active","ping":111},{"user_id":480,"name":"Youtube Algorithm#no112","steam_id":76561198095713423,"connected_time":163000000000,"state":"active","ping":98},{"user_id":455,"name":"PapaFranku69","steam_id":76561199446266814,"connected_time":2840000000000,"state":"active","ping":101},{"user_id":482,"name":"蠢脸骑士脸不蠢","steam_id":76561198422372840,"connected_time":16000000000,"state":"active","ping":57},{"user_id":439,"name":"JustAGuy","steam_id":76561199102683303,"connected_time":5165000000000,"state":"active","ping":67},{"user_id":435,"name":"bob","steam_id":76561198378829574,"connected_time":5366000000000,"state":"active","ping":60}]},{"server_id":1,"name":"Uncletopia | Los Angeles | 1 | All Maps","name_short":"lax-1","host":"lax-1.us.uncletopia.com","port":27015,"enabled":true,"region":"us-west","cc":"us","latitude":33.94279,"longitude":-118.41004,"reserved":0,"last_update":"0001-01-01T00:00:00Z","name_a2s":"Uncletopia | Los Angeles | 1 | All Maps","protocol":17,"map":"pl_badwater","folder":"tf","game":"Team Fortress","app_id":440,"player_count":0,"max_players":24,"Bots":0,"server_type":"Dedicated","server_os":"Linux","password":true,"vac":true,"version":"7882260","steam_id":85568392924469991,"keywords":["nocrits","nodmgspread","payload","uncletopia"],"game_id":440,"stv_port":27016,"stv_name":"Uncletopia | Los Angeles | 1 | All Maps | STV","players":null},{"server_id":112,"name":"Uncletopia | Los Angeles | 2 | All Maps","name_short":"lax-2","host":"lax-1.us.uncletopia.com","port":27025,"enabled":true,"region":"us-west","cc":"us","latitude":33.94279,"longitude":-118.41004,"reserved":0,"last_update":"0001-01-01T00:00:00Z","name_a2s":"Uncletopia | Los Angeles | 2 | All Maps","protocol":17,"map":"cp_sunshine","folder":"tf","game":"Team Fortress","app_id":440,"player_count":0,"max_players":24,"Bots":0,"server_type":"Dedicated","server_os":"Linux","password":true,"vac":true,"version":"7882260","steam_id":85568392924469992,"keywords":["cp","nocrits","nodmgspread","uncletopia"],"game_id":440,"stv_port":27026,"stv_name":"Uncletopia | Los Angeles | 2 | All Maps | STV","players":null},{"server_id":324,"name":"Uncletopia | Los Angeles | 3 | All Maps","name_short":"lax-3","host":"lax-1.us.uncletopia.com","port":27035,"enabled":true,"region":"us-west","cc":"us","latitude":33.94279,"longitude":-118.41004,"reserved":0,"last_update":"0001-01-01T00:00:00Z","name_a2s":"Uncletopia | Los Angeles | 3 | All Maps","protocol":17,"map":"pl_swiftwater_final1","folder":"tf","game":"Team Fortress","app_id":440,"player_count":0,"max_players":24,"Bots":0,"server_type":"Dedicated","server_os":"Linux","password":true,"vac":true,"version":"7882260","steam_id":85568392924510198,"keywords":["nocrits","nodmgspread","payload","uncletopia"],"game_id":440,"stv_port":27036,"stv_name":"Uncletopia | Los Angeles | 3 | All Maps | STV","players":null},{"server_id":25,"name":"Uncletopia | Los Angeles | 4 | Stopwatch Beta","name_short":"lax-4","host":"lax-1.us.uncletopia.com","port":27045,"enabled":true,"region":"us-west","cc":"us","latitude":33.94279,"longitude":-118.41004,"reserved":0,"last_update":"0001-01-01T00:00:00Z","name_a2s":"Uncletopia | Los Angeles | 4 | Stopwatch Beta","protocol":17,"map":"koth_viaduct","folder":"tf","game":"Team Fortress","app_id":440,"player_count":0,"max_players":24,"Bots":0,"server_type":"Dedicated","server_os":"Linux","password":true,"vac":true,"version":"7882260","steam_id":85568392924510199,"keywords":["cp","nocrits","nodmgspread","uncletopia"],"game_id":440,"stv_port":27046,"stv_name":"Uncletopia | Los Angeles | 4 | Stopwatch Beta | STV","players":null},{"server_id":11,"name":"Uncletopia | London | 1 | All Maps","name_short":"lon-1","host":"lon-1.uk.uncletopia.com","port":27015,"enabled":true,"region":"eu","cc":"gb","latitude":51.509865,"longitude":-0.118092,"reserved":0,"last_update":"0001-01-01T00:00:00Z","name_a2s":"Uncletopia | London | 1 | All Maps","protocol":17,"map":"pl_borneo","folder":"tf","game":"Team Fortress","app_id":440,"player_count":23,"max_players":24,"Bots":0,"server_type":"Dedicated","server_os":"Linux","password":true,"vac":true,"version":"7882260","steam_id":85568392924367362,"keywords":["nocrits","nodmgspread","payload","uncletopia"],"game_id":440,"stv_port":27016,"stv_name":"Uncletopia | London | 1 | All Maps | STV","players":[{"user_id":501,"name":"THE_FATCAT","steam_id":76561198067211689,"connected_time":3836000000000,"state":"active","ping":37},{"user_id":528,"name":"(no monitor) (no tongue) ayylie","steam_id":76561198042127970,"connected_time":1390000000000,"state":"active","ping":137},{"user_id":466,"name":"quickfast","steam_id":76561199438900919,"connected_time":6522000000000,"state":"active","ping":43},{"user_id":518,"name":"unconditional love","steam_id":76561199026097466,"connected_time":1952000000000,"state":"active","ping":74},{"user_id":530,"name":"Someone","steam_id":76561199030195879,"connected_time":1157000000000,"state":"active","ping":47},{"user_id":517,"name":"♥aura♥","steam_id":76561198066258544,"connected_time":1955000000000,"state":"active","ping":60},{"user_id":537,"name":"Munibe","steam_id":76561198107967904,"connected_time":541000000000,"state":"active","ping":68},{"user_id":548,"name":"dafydd","steam_id":76561198052200325,"connected_time":257000000000,"state":"active","ping":84},{"user_id":538,"name":"Fish","steam_id":76561198152128484,"connected_time":522000000000,"state":"active","ping":49},{"user_id":541,"name":"1952 studebaker coupe","steam_id":76561198965751486,"connected_time":390000000000,"state":"active","ping":58},{"user_id":549,"name":"Autumnsky","steam_id":76561198055161203,"connected_time":236000000000,"state":"active","ping":60},{"user_id":542,"name":"ᛀᚩᛏ ᛖᛞᚷᚤ","steam_id":76561198842950723,"connected_time":389000000000,"state":"active","ping":72},{"user_id":532,"name":"Pancakes","steam_id":76561198196259989,"connected_time":825000000000,"state":"active","ping":45},{"user_id":504,"name":"charlie","steam_id":76561198086924689,"connected_time":3216000000000,"state":"active","ping":58},{"user_id":519,"name":"playing on Drawing Tablet","steam_id":76561198420425217,"connected_time":1951000000000,"state":"active","ping":88},{"user_id":552,"name":"Joseph R. Experience","steam_id":76561198800643204,"connected_time":96000000000,"state":"active","ping":81},{"user_id":544,"name":"quoffee","steam_id":76561199058500526,"connected_time":297000000000,"state":"active","ping":95},{"user_id":545,"name":"HARU404","steam_id":76561198964152048,"connected_time":293000000000,"state":"active","ping":100},{"user_id":546,"name":"Mannequin","steam_id":76561198128833974,"connected_time":274000000000,"state":"active","ping":52},{"user_id":495,"name":"Riley","steam_id":76561198091245047,"connected_time":4076000000000,"state":"active","ping":70},{"user_id":529,"name":"nevim","steam_id":76561199120843402,"connected_time":1377000000000,"state":"active","ping":62},{"user_id":551,"name":"nudjura","steam_id":76561198281986139,"connected_time":148000000000,"state":"active","ping":38}]},{"server_id":114,"name":"Uncletopia | London | 2 | All Maps","name_short":"lon-2","host":"lon-1.uk.uncletopia.com","port":27025,"enabled":true,"region":"eu","cc":"gb","latitude":51.509865,"longitude":-0.118092,"reserved":0,"last_update":"0001-01-01T00:00:00Z","name_a2s":"Uncletopia | London | 2 | All Maps","protocol":17,"map":"pl_thundermountain","folder":"tf","game":"Team Fortress","app_id":440,"player_count":24,"max_players":24,"Bots":0,"server_type":"Dedicated","server_os":"Linux","password":true,"vac":true,"version":"7882260","steam_id":85568392924470941,"keywords":["nocrits","nodmgspread","payload","uncletopia"],"game_id":440,"stv_port":27026,"stv_name":"Uncletopia | London | 2 | All Maps | STV","players":[{"user_id":283,"name":"Kenahr","steam_id":76561198154414219,"connected_time":1294000000000,"state":"active","ping":69},{"user_id":281,"name":"Clovicek","steam_id":76561199047719692,"connected_time":1365000000000,"state":"active","ping":67},{"user_id":297,"name":"MR.CRAB","steam_id":76561198329833659,"connected_time":353000000000,"state":"active","ping":85},{"user_id":290,"name":"Freedoomrocks","steam_id":76561198392511189,"connected_time":910000000000,"state":"active","ping":86},{"user_id":282,"name":"stonebum","steam_id":76561198057004606,"connected_time":1325000000000,"state":"active","ping":60},{"user_id":277,"name":"Rob","steam_id":76561198346638308,"connected_time":1568000000000,"state":"active","ping":56},{"user_id":293,"name":"KODE","steam_id":76561198053212394,"connected_time":725000000000,"state":"active","ping":69},{"user_id":294,"name":"Perämiehenä","steam_id":76561197968945306,"connected_time":721000000000,"state":"active","ping":75},{"user_id":237,"name":"Astyloblatta","steam_id":76561199222909666,"connected_time":3731000000000,"state":"active","ping":60},{"user_id":285,"name":"MajorKlebstoff","steam_id":76561198035489363,"connected_time":1216000000000,"state":"active","ping":60},{"user_id":286,"name":"pardner","steam_id":76561198451471161,"connected_time":1199000000000,"state":"active","ping":53},{"user_id":270,"name":"One Hop Dis Time *BWRAB*","steam_id":76561198146081601,"connected_time":2111000000000,"state":"active","ping":51},{"user_id":267,"name":"Son Goku","steam_id":76561199383437138,"connected_time":2246000000000,"state":"active","ping":125},{"user_id":268,"name":"thebigcheif","steam_id":76561198236015392,"connected_time":2164000000000,"state":"active","ping":120},{"user_id":287,"name":"clems17","steam_id":76561199420685482,"connected_time":1169000000000,"state":"active","ping":63},{"user_id":289,"name":"knife","steam_id":76561199069440196,"connected_time":1110000000000,"state":"active","ping":159},{"user_id":296,"name":"Carney","steam_id":76561198064078751,"connected_time":385000000000,"state":"active","ping":58},{"user_id":295,"name":"the g'nome","steam_id":76561199209218642,"connected_time":714000000000,"state":"active","ping":74},{"user_id":292,"name":"sethlington14","steam_id":76561199438357690,"connected_time":809000000000,"state":"active","ping":58},{"user_id":251,"name":"Kamanie","steam_id":76561198135448255,"connected_time":3462000000000,"state":"active","ping":70},{"user_id":280,"name":"Peppsy","steam_id":76561198074018528,"connected_time":1505000000000,"state":"active","ping":74},{"user_id":298,"name":"Skinny101","steam_id":76561197985599360,"connected_time":314000000000,"state":"active","ping":55},{"user_id":299,"name":"Sixie","steam_id":76561198251675360,"connected_time":204000000000,"state":"active","ping":52},{"user_id":263,"name":"Ark-e","steam_id":76561198261870909,"connected_time":2738000000000,"state":"active","ping":45}]},{"server_id":320,"name":"Uncletopia | London | 3 | All Maps","name_short":"lon-3","host":"lon-1.uk.uncletopia.com","port":27035,"enabled":true,"region":"eu","cc":"gb","latitude":51.509865,"longitude":-0.118092,"reserved":0,"last_update":"0001-01-01T00:00:00Z","name_a2s":"Uncletopia | London | 3 | All Maps","protocol":17,"map":"koth_cascade","folder":"tf","game":"Team Fortress","app_id":440,"player_count":0,"max_players":24,"Bots":0,"server_type":"Dedicated","server_os":"Linux","password":true,"vac":true,"version":"7882260","steam_id":85568392924510192,"keywords":["cp","nocrits","nodmgspread","uncletopia"],"game_id":440,"stv_port":27036,"stv_name":"Uncletopia | London | 3 | All Maps | STV","players":null},{"server_id":321,"name":"Uncletopia | London | 4 | All Maps","name_short":"lon-4","host":"lon-1.uk.uncletopia.com","port":27045,"enabled":true,"region":"eu","cc":"gb","latitude":51.509865,"longitude":-0.118092,"reserved":0,"last_update":"0001-01-01T00:00:00Z","name_a2s":"Uncletopia | London | 4 | All Maps","protocol":17,"map":"pl_swiftwater_final1","folder":"tf","game":"Team Fortress","app_id":440,"player_count":4,"max_players":24,"Bots":0,"server_type":"Dedicated","server_os":"Linux","password":true,"vac":true,"version":"7882260","steam_id":85568392924510193,"keywords":["nocrits","nodmgspread","payload","uncletopia"],"game_id":440,"stv_port":27046,"stv_name":"Uncletopia | London | 4 | All Maps | STV","players":[{"user_id":22,"name":"mcjabba","steam_id":76561198019267806,"connected_time":643000000000,"state":"active","ping":101},{"user_id":24,"name":"You Don't Nomi.","steam_id":76561197969137836,"connected_time":207000000000,"state":"active","ping":122},{"user_id":23,"name":"girls just wanna have fun","steam_id":76561198042182245,"connected_time":600000000000,"state":"active","ping":37},{"user_id":19,"name":"Martin","steam_id":76561199357934976,"connected_time":1585000000000,"state":"active","ping":61}]},{"server_id":21,"name":"Uncletopia | London | 5 | All Maps","name_short":"lon-5","host":"lon-1.uk.uncletopia.com","port":27055,"enabled":true,"region":"eu","cc":"gb","latitude":51.509865,"longitude":-0.118092,"reserved":0,"last_update":"0001-01-01T00:00:00Z","name_a2s":"Uncletopia | London | 5 | All Maps","protocol":17,"map":"koth_viaduct","folder":"tf","game":"Team Fortress","app_id":440,"player_count":1,"max_players":24,"Bots":0,"server_type":"Dedicated","server_os":"Linux","password":true,"vac":true,"version":"7882260","steam_id":85568392924742829,"keywords":["cp","nocrits","nodmgspread","uncletopia"],"game_id":440,"stv_port":27056,"stv_name":"Uncletopia | London | 5 | All Maps | STV","players":[{"user_id":8,"name":"JOL_MAX","steam_id":76561199196047539,"connected_time":9000000000,"state":"spawning","ping":115}]},{"server_id":22,"name":"Uncletopia | London | 6 | All Maps","name_short":"lon-6","host":"lon-1.uk.uncletopia.com","port":27065,"enabled":true,"region":"eu","cc":"gb","latitude":51.509865,"longitude":-0.118092,"reserved":0,"last_update":"0001-01-01T00:00:00Z","name_a2s":"Uncletopia | London | 6 | All Maps","protocol":17,"map":"koth_lakeside_final","folder":"tf","game":"Team Fortress","app_id":440,"player_count":0,"max_players":24,"Bots":0,"server_type":"Dedicated","server_os":"Linux","password":true,"vac":true,"version":"7882260","steam_id":85568392924742830,"keywords":["cp","nocrits","nodmgspread","uncletopia"],"game_id":440,"stv_port":27066,"stv_name":"Uncletopia | London | 6 | All Maps | STV","players":null},{"server_id":40,"name":"Uncletopia | London | 7 | No Payload","name_short":"lon-7","host":"lon-1.uk.uncletopia.com","port":27075,"enabled":true,"region":"eu","cc":"gb","latitude":51.509865,"longitude":-0.118092,"reserved":0,"last_update":"0001-01-01T00:00:00Z","name_a2s":"Uncletopia | London | 7 | No Payload","protocol":17,"map":"cp_5gorge","folder":"tf","game":"Team Fortress","app_id":440,"player_count":24,"max_players":24,"Bots":0,"server_type":"Dedicated","server_os":"Linux","password":true,"vac":true,"version":"7882260","steam_id":85568392924964314,"keywords":["cp","nocrits","nodmgspread","uncletopia"],"game_id":440,"stv_port":27076,"stv_name":"Uncletopia | London | 7 | No Payload | STV","players":[{"user_id":142,"name":"Politické Provokace","steam_id":76561198412700635,"connected_time":338000000000,"state":"active","ping":65},{"user_id":143,"name":"Fat Pigeon","steam_id":76561198817940142,"connected_time":243000000000,"state":"active","ping":45},{"user_id":137,"name":"hhhhhh","steam_id":76561198031982574,"connected_time":583000000000,"state":"active","ping":60},{"user_id":133,"name":"L'espion Français","steam_id":76561198148271880,"connected_time":892000000000,"state":"active","ping":48},{"user_id":144,"name":"static","steam_id":76561198836825741,"connected_time":178000000000,"state":"active","ping":40},{"user_id":122,"name":"Ursa","steam_id":76561198150704425,"connected_time":1413000000000,"state":"active","ping":68},{"user_id":139,"name":"Pumpblench","steam_id":76561199140754311,"connected_time":535000000000,"state":"active","ping":109},{"user_id":145,"name":"FTN | Nice1","steam_id":76561198026969020,"connected_time":171000000000,"state":"active","ping":100},{"user_id":140,"name":"Lone Stranger","steam_id":76561198994639500,"connected_time":522000000000,"state":"active","ping":90},{"user_id":134,"name":"barker","steam_id":76561198128319767,"connected_time":837000000000,"state":"active","ping":33},{"user_id":119,"name":"wrpipe","steam_id":76561198854305411,"connected_time":1425000000000,"state":"active","ping":69},{"user_id":124,"name":"Commander Crocket","steam_id":76561198053149899,"connected_time":1298000000000,"state":"active","ping":29},{"user_id":146,"name":"Mikosuro","steam_id":76561199247883126,"connected_time":165000000000,"state":"active","ping":90},{"user_id":147,"name":"Canis[Magnus]Pectus","steam_id":76561198363775072,"connected_time":143000000000,"state":"active","ping":131},{"user_id":118,"name":"Szeregowy LowiRyb","steam_id":76561198855967762,"connected_time":1433000000000,"state":"active","ping":115},{"user_id":103,"name":"Envy","steam_id":76561198132723219,"connected_time":2002000000000,"state":"active","ping":109},{"user_id":148,"name":"JareJare","steam_id":76561199040893751,"connected_time":87000000000,"state":"active","ping":76},{"user_id":116,"name":"UwU","steam_id":76561198083969087,"connected_time":1440000000000,"state":"active","ping":114},{"user_id":88,"name":"Reverie","steam_id":76561198987005784,"connected_time":3443000000000,"state":"active","ping":149},{"user_id":136,"name":"Tutiwit","steam_id":76561198254481528,"connected_time":659000000000,"state":"active","ping":43},{"user_id":113,"name":"I.AM.THE.BOOP.WHICH.IS.APROACHI","steam_id":76561198049342507,"connected_time":1496000000000,"state":"active","ping":98},{"user_id":149,"name":"Uncle Terry","steam_id":76561198396415736,"connected_time":78000000000,"state":"active","ping":53},{"user_id":131,"name":"MIGHTY PISS","steam_id":76561198226378616,"connected_time":988000000000,"state":"active","ping":85},{"user_id":132,"name":"Jan.","steam_id":76561197974066329,"connected_time":969000000000,"state":"active","ping":60}]},{"server_id":41,"name":"Uncletopia | London | 8 | Community","name_short":"lon-8","host":"lon-1.uk.uncletopia.com","port":27085,"enabled":true,"region":"eu","cc":"gb","latitude":51.509865,"longitude":-0.118092,"reserved":0,"last_update":"0001-01-01T00:00:00Z","name_a2s":"Uncletopia | London | 8 | Community","protocol":17,"map":"workshop/koth_trenchfoot_b1a.ugc731436616","folder":"tf","game":"Team Fortress","app_id":440,"player_count":0,"max_players":24,"Bots":0,"server_type":"Dedicated","server_os":"Linux","password":true,"vac":true,"version":"7882260","steam_id":85568392924964315,"keywords":["cp","nocrits","nodmgspread","uncletopia"],"game_id":440,"stv_port":27086,"stv_name":"Uncletopia | London | 8 | Community | STV","players":null},{"server_id":300,"name":"Uncletopia | Montréal | 1 | All Maps","name_short":"mtl-1","host":"mtl-1.ca.uncletopia.com","port":27015,"enabled":true,"region":"us-east","cc":"ca","latitude":45.50889,"longitude":-73.56167,"reserved":0,"last_update":"0001-01-01T00:00:00Z","name_a2s":"Uncletopia | Montréal | 1 | All Maps","protocol":17,"map":"cp_dustbowl","folder":"tf","game":"Team Fortress","app_id":440,"player_count":0,"max_players":24,"Bots":0,"server_type":"Dedicated","server_os":"Linux","password":true,"vac":true,"version":"7882260","steam_id":85568392924500087,"keywords":["cp","nocrits","nodmgspread","uncletopia"],"game_id":440,"stv_port":27016,"stv_name":"Uncletopia | Montréal | 1 | All Maps | STV","players":null},{"server_id":301,"name":"Uncletopia | Montréal | 2 | All Maps","name_short":"mtl-2","host":"mtl-1.ca.uncletopia.com","port":27025,"enabled":true,"region":"us-east","cc":"ca","latitude":45.50889,"longitude":-73.56167,"reserved":0,"last_update":"0001-01-01T00:00:00Z","name_a2s":"Uncletopia | Montréal | 2 | All Maps","protocol":17,"map":"pl_swiftwater_final1","folder":"tf","game":"Team Fortress","app_id":440,"player_count":0,"max_players":24,"Bots":0,"server_type":"Dedicated","server_os":"Linux","password":true,"vac":true,"version":"7882260","steam_id":85568392924500088,"keywords":["nocrits","nodmgspread","payload","uncletopia"],"game_id":440,"stv_port":27026,"stv_name":"Uncletopia | Montréal | 2 | All Maps | STV","players":null},{"server_id":302,"name":"Uncletopia | Montréal | 3 | All Maps","name_short":"mtl-3","host":"mtl-1.ca.uncletopia.com","port":27035,"enabled":true,"region":"us-east","cc":"ca","latitude":45.50889,"longitude":-73.56167,"reserved":0,"last_update":"0001-01-01T00:00:00Z","name_a2s":"Uncletopia | Montréal | 3 | All Maps","protocol":17,"map":"pl_swiftwater_final1","folder":"tf","game":"Team Fortress","app_id":440,"player_count":0,"max_players":24,"Bots":0,"server_type":"Dedicated","server_os":"Linux","password":true,"vac":true,"version":"7882260","steam_id":85568392924500089,"keywords":["nocrits","nodmgspread","payload","uncletopia"],"game_id":440,"stv_port":27036,"stv_name":"Uncletopia | Montréal | 3 | All Maps | STV","players":null},{"server_id":303,"name":"Uncletopia | Montréal | 4 | No Payload","name_short":"mtl-4","host":"mtl-1.ca.uncletopia.com","port":27045,"enabled":true,"region":"us-east","cc":"ca","latitude":45.50889,"longitude":-73.56167,"reserved":0,"last_update":"0001-01-01T00:00:00Z","name_a2s":"Uncletopia | Montréal | 4 | No Payload","protocol":17,"map":"koth_highpass","folder":"tf","game":"Team Fortress","app_id":440,"player_count":0,"max_players":24,"Bots":0,"server_type":"Dedicated","server_os":"Linux","password":true,"vac":true,"version":"7882260","steam_id":85568392924500090,"keywords":["cp","nocrits","nodmgspread","uncletopia"],"game_id":440,"stv_port":27046,"stv_name":"Uncletopia | Montréal | 4 | No Payload | STV","players":null},{"server_id":13,"name":"Uncletopia | New York City | 1 | All Maps","name_short":"nyc-1","host":"nyc-1.us.uncletopia.com","port":27015,"enabled":true,"region":"us-east","cc":"us","latitude":40.73061,"longitude":-73.93524,"reserved":0,"last_update":"0001-01-01T00:00:00Z","name_a2s":"Uncletopia | New York City | 1 | All Maps","protocol":17,"map":"pl_frontier_final","folder":"tf","game":"Team Fortress","app_id":440,"player_count":0,"max_players":24,"Bots":0,"server_type":"Dedicated","server_os":"Linux","password":true,"vac":true,"version":"7882260","steam_id":85568392924469993,"keywords":["nocrits","nodmgspread","payload","uncletopia"],"game_id":440,"stv_port":27016,"stv_name":"Uncletopia | New York City | 1 | All Maps | STV","players":null},{"server_id":14,"name":"Uncletopia | New York City | 2 | All Maps","name_short":"nyc-2","host":"nyc-1.us.uncletopia.com","port":27025,"enabled":true,"region":"us-east","cc":"us","latitude":40.73061,"longitude":-73.93524,"reserved":0,"last_update":"0001-01-01T00:00:00Z","name_a2s":"Uncletopia | New York City | 2 | All Maps","protocol":17,"map":"pl_frontier_final","folder":"tf","game":"Team Fortress","app_id":440,"player_count":0,"max_players":24,"Bots":0,"server_type":"Dedicated","server_os":"Linux","password":true,"vac":true,"version":"7882260","steam_id":85568392924469994,"keywords":["nocrits","nodmgspread","payload","uncletopia"],"game_id":440,"stv_port":27026,"stv_name":"Uncletopia | New York City | 2 | All Maps | STV","players":null},{"server_id":15,"name":"Uncletopia | New York City | 3 | Stopwatch Beta","name_short":"nyc-3","host":"nyc-1.us.uncletopia.com","port":27035,"enabled":true,"region":"us-east","cc":"us","latitude":40.73061,"longitude":-73.93524,"reserved":0,"last_update":"0001-01-01T00:00:00Z","name_a2s":"Uncletopia | New York City | 3 | Stopwatch Beta","protocol":17,"map":"pl_borneo","folder":"tf","game":"Team Fortress","app_id":440,"player_count":0,"max_players":24,"Bots":0,"server_type":"Dedicated","server_os":"Linux","password":true,"vac":true,"version":"7882260","steam_id":85568392924742820,"keywords":["nocrits","nodmgspread","payload","uncletopia"],"game_id":440,"stv_port":27036,"stv_name":"Uncletopia | New York City | 3 | Stopwatch Beta | STV","players":null},{"server_id":16,"name":"Uncletopia | New York City | 4 | Community","name_short":"nyc-4","host":"nyc-1.us.uncletopia.com","port":27045,"enabled":true,"region":"us-east","cc":"us","latitude":40.73061,"longitude":-73.93524,"reserved":0,"last_update":"0001-01-01T00:00:00Z","name_a2s":"Uncletopia | New York City | 4 | Community","protocol":17,"map":"cp_altitude","folder":"tf","game":"Team Fortress","app_id":440,"player_count":0,"max_players":24,"Bots":0,"server_type":"Dedicated","server_os":"Linux","password":true,"vac":true,"version":"7882260","steam_id":85568392924742821,"keywords":["cp","nocrits","nodmgspread","uncletopia"],"game_id":440,"stv_port":27046,"stv_name":"Uncletopia | New York City | 4 | Community | STV","players":null},{"server_id":142,"name":"Uncletopia | São Paulo | 1 | All Maps","name_short":"sao-1","host":"sao-1.br.uncletopia.com","port":27015,"enabled":true,"region":"sa","cc":"br","latitude":-23.533773,"longitude":-46.62529,"reserved":0,"last_update":"0001-01-01T00:00:00Z","name_a2s":"Uncletopia | São Paulo | 1 | All Maps","protocol":17,"map":"pl_upward","folder":"tf","game":"Team Fortress","app_id":440,"player_count":0,"max_players":24,"Bots":0,"server_type":"Dedicated","server_os":"Linux","password":true,"vac":true,"version":"7882260","steam_id":85568392924469996,"keywords":["nocrits","nodmgspread","payload","uncletopia"],"game_id":440,"stv_port":27016,"stv_name":"Uncletopia | São Paulo | 1 | All Maps | STV","players":null},{"server_id":143,"name":"Uncletopia | São Paulo | 2 | All Maps","name_short":"sao-2","host":"sao-2.br.uncletopia.com","port":27015,"enabled":true,"region":"sa","cc":"br","latitude":-23.533773,"longitude":-46.62529,"reserved":0,"last_update":"0001-01-01T00:00:00Z","name_a2s":"Uncletopia | São Paulo | 2 | All Maps","protocol":17,"map":"cp_mountainlab","folder":"tf","game":"Team Fortress","app_id":440,"player_count":0,"max_players":24,"Bots":0,"server_type":"Dedicated","server_os":"Linux","password":true,"vac":true,"version":"7882260","steam_id":85568392924485349,"keywords":["cp","nocrits","nodmgspread","uncletopia"],"game_id":440,"stv_port":27016,"stv_name":"Uncletopia | São Paulo | 2 | All Maps | STV","players":null},{"server_id":7,"name":"Uncletopia | Seattle | 1 | All Maps","name_short":"sea-1","host":"sea-1.us.uncletopia.com","port":27015,"enabled":true,"region":"us-west","cc":"us","latitude":47.608013,"longitude":-122.33517,"reserved":0,"last_update":"0001-01-01T00:00:00Z","name_a2s":"Uncletopia | Seattle | 1 | All Maps","protocol":17,"map":"pl_badwater","folder":"tf","game":"Team Fortress","app_id":440,"player_count":8,"max_players":24,"Bots":0,"server_type":"Dedicated","server_os":"Linux","password":true,"vac":true,"version":"7882260","steam_id":85568392924469997,"keywords":["nocrits","nodmgspread","payload","uncletopia"],"game_id":440,"stv_port":27016,"stv_name":"Uncletopia | Seattle | 1 | All Maps | STV","players":[{"user_id":9,"name":"Integral","steam_id":76561198158225481,"connected_time":1177000000000,"state":"active","ping":65},{"user_id":18,"name":"BobBallin","steam_id":76561198355299724,"connected_time":251000000000,"state":"active","ping":62},{"user_id":19,"name":"sunny","steam_id":76561198069380992,"connected_time":200000000000,"state":"active","ping":95},{"user_id":12,"name":"blozet","steam_id":76561199120161035,"connected_time":748000000000,"state":"active","ping":82},{"user_id":16,"name":"Raggedy","steam_id":76561198073271513,"connected_time":503000000000,"state":"active","ping":101},{"user_id":14,"name":"The_Man","steam_id":76561199194890696,"connected_time":701000000000,"state":"active","ping":98},{"user_id":17,"name":"my monitor is off","steam_id":76561198074499537,"connected_time":428000000000,"state":"active","ping":83},{"user_id":20,"name":"SlitherDoodle","steam_id":76561198000275473,"connected_time":84000000000,"state":"active","ping":76}]},{"server_id":119,"name":"Uncletopia | Seattle | 2 | All Maps","name_short":"sea-2","host":"sea-1.us.uncletopia.com","port":27025,"enabled":true,"region":"us-west","cc":"us","latitude":47.608013,"longitude":-122.33517,"reserved":0,"last_update":"0001-01-01T00:00:00Z","name_a2s":"Uncletopia | Seattle | 2 | All Maps","protocol":17,"map":"pl_barnblitz","folder":"tf","game":"Team Fortress","app_id":440,"player_count":0,"max_players":24,"Bots":0,"server_type":"Dedicated","server_os":"Linux","password":true,"vac":true,"version":"7882260","steam_id":85568392924469998,"keywords":["nocrits","nodmgspread","payload","uncletopia"],"game_id":440,"stv_port":27026,"stv_name":"Uncletopia | Seattle | 2 | All Maps | STV","players":null},{"server_id":406,"name":"Uncletopia | Seattle | 3 | Stopwatch Beta","name_short":"sea-3","host":"sea-1.us.uncletopia.com","port":27035,"enabled":true,"region":"us-west","cc":"us","latitude":47.608013,"longitude":-122.33517,"reserved":0,"last_update":"0001-01-01T00:00:00Z","name_a2s":"Uncletopia | Seattle | 3 | Stopwatch Beta","protocol":17,"map":"koth_viaduct","folder":"tf","game":"Team Fortress","app_id":440,"player_count":0,"max_players":24,"Bots":0,"server_type":"Dedicated","server_os":"Linux","password":true,"vac":true,"version":"7882260","steam_id":85568392924515217,"keywords":["cp","nocrits","nodmgspread","uncletopia"],"game_id":440,"stv_port":27036,"stv_name":"Uncletopia | Seattle | 3 | Stopwatch Beta | STV","players":null},{"server_id":17,"name":"Uncletopia | San Francisco | 1 | All Maps","name_short":"sfo-1","host":"sfo-1.us.uncletopia.com","port":27015,"enabled":true,"region":"us-west","cc":"us","latitude":37.77397,"longitude":-122.4313,"reserved":0,"last_update":"0001-01-01T00:00:00Z","name_a2s":"Uncletopia | San Francisco | 1 | All Maps","protocol":17,"map":"cp_dustbowl","folder":"tf","game":"Team Fortress","app_id":440,"player_count":0,"max_players":24,"Bots":0,"server_type":"Dedicated","server_os":"Linux","password":true,"vac":true,"version":"7882260","steam_id":85568392924469999,"keywords":["cp","nocrits","nodmgspread","uncletopia"],"game_id":440,"stv_port":27016,"stv_name":"Uncletopia | San Francisco | 1 | All Maps | STV","players":null},{"server_id":18,"name":"Uncletopia | San Francisco | 2 | All Maps","name_short":"sfo-2","host":"sfo-1.us.uncletopia.com","port":27025,"enabled":true,"region":"us-west","cc":"us","latitude":37.77397,"longitude":-122.4313,"reserved":0,"last_update":"0001-01-01T00:00:00Z","name_a2s":"Uncletopia | San Francisco | 2 | All Maps","protocol":17,"map":"pl_frontier_final","folder":"tf","game":"Team Fortress","app_id":440,"player_count":0,"max_players":24,"Bots":0,"server_type":"Dedicated","server_os":"Linux","password":true,"vac":true,"version":"7882260","steam_id":85568392924470000,"keywords":["nocrits","nodmgspread","payload","uncletopia"],"game_id":440,"stv_port":27026,"stv_name":"Uncletopia | San Francisco | 2 | All Maps | STV","players":null},{"server_id":19,"name":"Uncletopia | San Francisco | 3 | Stopwatch Beta","name_short":"sfo-3","host":"sfo-1.us.uncletopia.com","port":27035,"enabled":true,"region":"us-west","cc":"us","latitude":37.77397,"longitude":-122.4313,"reserved":0,"last_update":"0001-01-01T00:00:00Z","name_a2s":"Uncletopia | San Francisco | 3 | Stopwatch Beta","protocol":17,"map":"pl_snowycoast","folder":"tf","game":"Team Fortress","app_id":440,"player_count":0,"max_players":24,"Bots":0,"server_type":"Dedicated","server_os":"Linux","password":true,"vac":true,"version":"7882260","steam_id":85568392924742824,"keywords":["nocrits","nodmgspread","payload","uncletopia"],"game_id":440,"stv_port":27036,"stv_name":"Uncletopia | San Francisco | 3 | Stopwatch Beta | STV","players":null},{"server_id":20,"name":"Uncletopia | San Francisco | 4 | Community","name_short":"sfo-4","host":"sfo-1.us.uncletopia.com","port":27045,"enabled":true,"region":"us-west","cc":"us","latitude":37.77397,"longitude":-122.4313,"reserved":0,"last_update":"0001-01-01T00:00:00Z","name_a2s":"Uncletopia | San Francisco | 4 | Community","protocol":17,"map":"pl_swiftwater_final1","folder":"tf","game":"Team Fortress","app_id":440,"player_count":0,"max_players":24,"Bots":0,"server_type":"Dedicated","server_os":"Linux","password":true,"vac":true,"version":"7882260","steam_id":85568392924742826,"keywords":["nocrits","nodmgspread","payload","uncletopia"],"game_id":440,"stv_port":27046,"stv_name":"Uncletopia | San Francisco | 4 | Community | STV","players":null},{"server_id":141,"name":"Uncletopia | Sydney | 1 | All Maps","name_short":"syd-1","host":"syd-1.au.uncletopia.com","port":27015,"enabled":true,"region":"au","cc":"au","latitude":-33.865143,"longitude":151.2099,"reserved":0,"last_update":"0001-01-01T00:00:00Z","name_a2s":"Uncletopia | Sydney | 1 | All Maps","protocol":17,"map":"cp_altitude","folder":"tf","game":"Team Fortress","app_id":440,"player_count":0,"max_players":24,"Bots":0,"server_type":"Dedicated","server_os":"Linux","password":true,"vac":true,"version":"7882260","steam_id":85568392924470001,"keywords":["cp","nocrits","nodmgspread","uncletopia"],"game_id":440,"stv_port":27016,"stv_name":"Uncletopia | Sydney | 1 | All Maps | STV","players":null},{"server_id":123,"name":"Uncletopia | Sydney | 2 | All Maps","name_short":"syd-2","host":"syd-1.au.uncletopia.com","port":27025,"enabled":true,"region":"au","cc":"au","latitude":-33.865143,"longitude":151.2099,"reserved":0,"last_update":"0001-01-01T00:00:00Z","name_a2s":"Uncletopia | Sydney | 2 | All Maps","protocol":17,"map":"koth_viaduct","folder":"tf","game":"Team Fortress","app_id":440,"player_count":0,"max_players":24,"Bots":0,"server_type":"Dedicated","server_os":"Linux","password":true,"vac":true,"version":"7882260","steam_id":85568392924470002,"keywords":["cp","nocrits","nodmgspread","uncletopia"],"game_id":440,"stv_port":27026,"stv_name":"Uncletopia | Sydney | 2 | All Maps | STV","players":null},{"server_id":395,"name":"Uncletopia | Sydney | 3 | All Maps","name_short":"syd-3","host":"syd-1.au.uncletopia.com","port":27035,"enabled":true,"region":"au","cc":"au","latitude":-33.865143,"longitude":151.2099,"reserved":0,"last_update":"0001-01-01T00:00:00Z","name_a2s":"Uncletopia | Sydney | 3 | All Maps","protocol":17,"map":"koth_cascade","folder":"tf","game":"Team Fortress","app_id":440,"player_count":0,"max_players":24,"Bots":0,"server_type":"Dedicated","server_os":"Linux","password":true,"vac":true,"version":"7882260","steam_id":85568392925194467,"keywords":["cp","nocrits","nodmgspread","uncletopia"],"game_id":440,"stv_port":27036,"stv_name":"Uncletopia | Sydney | 3 | All Maps | STV","players":null},{"server_id":396,"name":"Uncletopia | Sydney | 4 | All Maps","name_short":"syd-4","host":"syd-1.au.uncletopia.com","port":27045,"enabled":true,"region":"au","cc":"au","latitude":-33.865143,"longitude":151.2099,"reserved":0,"last_update":"0001-01-01T00:00:00Z","name_a2s":"Uncletopia | Sydney | 4 | All Maps","protocol":17,"map":"pl_upward","folder":"tf","game":"Team Fortress","app_id":440,"player_count":0,"max_players":24,"Bots":0,"server_type":"Dedicated","server_os":"Linux","password":true,"vac":true,"version":"7882260","steam_id":85568392925397958,"keywords":["nocrits","nodmgspread","payload","uncletopia"],"game_id":440,"stv_port":27046,"stv_name":"Uncletopia | Sydney | 4 | All Maps | STV","players":null},{"server_id":58,"name":"Uncletopia | Sydney | 5 | Stopwatch Beta","name_short":"syd-5","host":"syd-1.au.uncletopia.com","port":27055,"enabled":true,"region":"au","cc":"au","latitude":-33.865143,"longitude":151.2099,"reserved":0,"last_update":"0001-01-01T00:00:00Z","name_a2s":"Uncletopia | Sydney | 5 | Stopwatch Beta","protocol":17,"map":"koth_viaduct","folder":"tf","game":"Team Fortress","app_id":440,"player_count":0,"max_players":24,"Bots":0,"server_type":"Dedicated","server_os":"Linux","password":true,"vac":true,"version":"7882260","steam_id":85568392925397959,"keywords":["cp","nocrits","nodmgspread","uncletopia"],"game_id":440,"stv_port":27056,"stv_name":"Uncletopia | Sydney | 5 | Stopwatch Beta | STV","players":null},{"server_id":59,"name":"Uncletopia | Sydney | 6 | Community","name_short":"syd-6","host":"syd-1.au.uncletopia.com","port":27065,"enabled":true,"region":"au","cc":"au","latitude":-33.865143,"longitude":151.2099,"reserved":0,"last_update":"0001-01-01T00:00:00Z","name_a2s":"Uncletopia | Sydney | 6 | Community","protocol":17,"map":"workshop/koth_bagel_rc6.ugc2514036946","folder":"tf","game":"Team Fortress","app_id":440,"player_count":0,"max_players":24,"Bots":0,"server_type":"Dedicated","server_os":"Linux","password":true,"vac":true,"version":"7882260","steam_id":85568392925397960,"keywords":["cp","nocrits","nodmgspread","uncletopia"],"game_id":440,"stv_port":27066,"stv_name":"Uncletopia | Sydney | 6 | Community | STV","players":null},{"server_id":49,"name":"Uncletopia | Warsaw | 1 | All Maps","name_short":"waw-1","host":"waw-1.pl.uncletopia.com","port":27015,"enabled":true,"region":"eu","cc":"pl","latitude":52.2297,"longitude":21.017532,"reserved":0,"last_update":"0001-01-01T00:00:00Z","name_a2s":"","protocol":0,"map":"","folder":"","game":"","app_id":0,"player_count":0,"max_players":0,"Bots":0,"server_type":"","server_os":"","password":false,"vac":false,"version":"","steam_id":0,"keywords":null,"game_id":0,"stv_port":0,"stv_name":"","players":null},{"server_id":50,"name":"Uncletopia | Warsaw | 2 | All Maps","name_short":"waw-2","host":"waw-1.pl.uncletopia.com","port":27025,"enabled":true,"region":"eu","cc":"pl","latitude":52.2297,"longitude":21.017532,"reserved":0,"last_update":"0001-01-01T00:00:00Z","name_a2s":"Uncletopia | Warsaw | 2 | All Maps","protocol":17,"map":"koth_viaduct","folder":"tf","game":"Team Fortress","app_id":440,"player_count":0,"max_players":24,"Bots":0,"server_type":"Dedicated","server_os":"Linux","password":true,"vac":true,"version":"7882260","steam_id":85568392925397851,"keywords":["cp","nocrits","nodmgspread","uncletopia"],"game_id":440,"stv_port":27026,"stv_name":"Uncletopia | Warsaw | 2 | All Maps | STV","players":null},{"server_id":51,"name":"Uncletopia | Warsaw | 3 | All Maps","name_short":"waw-3","host":"waw-1.pl.uncletopia.com","port":27035,"enabled":true,"region":"eu","cc":"pl","latitude":52.2297,"longitude":21.017532,"reserved":0,"last_update":"0001-01-01T00:00:00Z","name_a2s":"Uncletopia | Warsaw | 3 | All Maps","protocol":17,"map":"pl_badwater","folder":"tf","game":"Team Fortress","app_id":440,"player_count":0,"max_players":24,"Bots":0,"server_type":"Dedicated","server_os":"Linux","password":true,"vac":true,"version":"7882260","steam_id":85568392925397852,"keywords":["nocrits","nodmgspread","payload","uncletopia"],"game_id":440,"stv_port":27036,"stv_name":"Uncletopia | Warsaw | 3 | All Maps | STV","players":null},{"server_id":52,"name":"Uncletopia | Warsaw | 4 | All Maps","name_short":"waw-4","host":"waw-1.pl.uncletopia.com","port":27045,"enabled":true,"region":"eu","cc":"pl","latitude":52.2297,"longitude":21.017532,"reserved":0,"last_update":"0001-01-01T00:00:00Z","name_a2s":"Uncletopia | Warsaw | 4 | All Maps","protocol":17,"map":"koth_cascade","folder":"tf","game":"Team Fortress","app_id":440,"player_count":0,"max_players":24,"Bots":0,"server_type":"Dedicated","server_os":"Linux","password":true,"vac":true,"version":"7882260","steam_id":85568392925397853,"keywords":["cp","nocrits","nodmgspread","uncletopia"],"game_id":440,"stv_port":27046,"stv_name":"Uncletopia | Warsaw | 4 | All Maps | STV","players":null},{"server_id":53,"name":"Uncletopia | Warsaw | 5 | Stopwatch Beta","name_short":"waw-5","host":"waw-1.pl.uncletopia.com","port":27055,"enabled":true,"region":"eu","cc":"pl","latitude":52.2297,"longitude":21.017532,"reserved":0,"last_update":"0001-01-01T00:00:00Z","name_a2s":"Uncletopia | Warsaw | 5 | Stopwatch Beta","protocol":17,"map":"cp_gullywash_final1","folder":"tf","game":"Team Fortress","app_id":440,"player_count":0,"max_players":24,"Bots":0,"server_type":"Dedicated","server_os":"Linux","password":true,"vac":true,"version":"7882260","steam_id":85568392925397854,"keywords":["cp","nocrits","nodmgspread","uncletopia"],"game_id":440,"stv_port":27056,"stv_name":"Uncletopia | Warsaw | 5 | Stopwatch Beta | STV","players":null},{"server_id":54,"name":"Uncletopia | Warsaw | 6 | Community","name_short":"waw-6","host":"waw-1.pl.uncletopia.com","port":27065,"enabled":true,"region":"eu","cc":"pl","latitude":52.2297,"longitude":21.017532,"reserved":0,"last_update":"0001-01-01T00:00:00Z","name_a2s":"Uncletopia | Warsaw | 6 | Community","protocol":17,"map":"cp_dustbowl","folder":"tf","game":"Team Fortress","app_id":440,"player_count":0,"max_players":24,"Bots":0,"server_type":"Dedicated","server_os":"Linux","password":true,"vac":true,"version":"7882260","steam_id":85568392925397856,"keywords":["cp","nocrits","nodmgspread","uncletopia"],"game_id":440,"stv_port":27066,"stv_name":"Uncletopia | Warsaw | 6 | Community | STV","players":null}]}