{"status":true,"message":"","result":[{"server_id":9,"name":"Uncletopia | Atlanta | 1 | All Maps","name_short":"atl-1","host":"atl-1.us.uncletopia.com","port":27015,"enabled":true,"region":"us-east","cc":"us","latitude":33.753746,"longitude":-84.38633,"reserved":0,"last_update":"0001-01-01T00:00:00Z","name_a2s":"Uncletopia | Atlanta | 1 | All Maps","protocol":17,"map":"pl_barnblitz","folder":"tf","game":"Team Fortress","app_id":440,"player_count":24,"max_players":24,"Bots":0,"server_type":"Dedicated","server_os":"Linux","password":true,"vac":true,"version":"7961495","steam_id":85568392924469982,"keywords":["nocrits","nodmgspread","payload","uncletopia"],"game_id":440,"stv_port":27016,"stv_name":"Uncletopia | Atlanta | 1 | All Maps | STV","players":[{"user_id":93,"name":"lil hog","steam_id":76561199230929836,"connected_time":9389000000000,"state":"active","ping":81},{"user_id":161,"name":"Toonice","steam_id":76561198402994885,"connected_time":1234000000000,"state":"active","ping":87},{"user_id":156,"name":"eish","steam_id":76561198089463603,"connected_time":3026000000000,"state":"active","ping":117},{"user_id":164,"name":"Jingles the Box Elf","steam_id":76561198022302843,"connected_time":1200000000000,"state":"active","ping":67},{"user_id":150,"name":"FIJI","steam_id":76561198126087725,"connected_time":3350000000000,"state":"active","ping":61},{"user_id":151,"name":"DeezNoodlez","steam_id":76561198246700372,"connected_time":3346000000000,"state":"active","ping":53},{"user_id":160,"name":"Motorol¬™","steam_id":76561198358119669,"connected_time":1657000000000,"state":"active","ping":116},{"user_id":158,"name":"Button","steam_id":76561199209694624,"connected_time":2586000000000,"state":"active","ping":49},{"user_id":169,"name":"Am Da Best","steam_id":76561198163825955,"connected_time":758000000000,"state":"active","ping":109},{"user_id":126,"name":"William Wallace","steam_id":76561199343316814,"connected_time":6157000000000,"state":"active","ping":61},{"user_id":142,"name":"why","steam_id":76561199059732212,"connected_time":4379000000000,"state":"active","ping":58},{"user_id":143,"name":"Oviraptor Supreme","steam_id":76561198044262534,"connected_time":4332000000000,"state":"active","ping":71},{"user_id":165,"name":"loot","steam_id":76561198069954956,"connected_time":1180000000000,"state":"active","ping":48},{"user_id":170,"name":"lu","steam_id":76561198080731872,"connected_time":354000000000,"state":"active","ping":83},{"user_id":168,"name":"joe","steam_id":76561198045781320,"connected_time":981000000000,"state":"active","ping":74},{"user_id":127,"name":"SnazzyCelestial","steam_id":76561198328763813,"connected_time":5907000000000,"state":"active","ping":69},{"user_id":144,"name":"HARK! TRITON! HARK!","steam_id":76561198064127012,"connected_time":3895000000000,"state":"active","ping":53},{"user_id":137,"name":"Notsocreative","steam_id":76561198236372202,"connected_time":4831000000000,"state":"active","ping":96},{"user_id":162,"name":"Ya viene...ü•µ","steam_id":76561198298364415,"connected_time":1203000000000,"state":"active","ping":103},{"user_id":102,"name":"Albino Jellyfish","steam_id":76561198208561097,"connected_time":8828000000000,"state":"active","ping":59},{"user_id":167,"name":"Sophie","steam_id":76561198170408057,"connected_time":1012000000000,"state":"active","ping":60},{"user_id":153,"name":"tgirl swag","steam_id":76561198128164970,"connected_time":3203000000000,"state":"active","ping":107},{"user_id":163,"name":"Visual Depression","steam_id":76561198825918366,"connected_time":1201000000000,"state":"active","ping":87},{"user_id":141,"name":"/\\","steam_id":76561198045522596,"connected_time":4474000000000,"state":"active","ping":74}]},{"server_id":104,"name":"Uncletopia | Atlanta | 2 | All Maps","name_short":"atl-2","host":"atl-1.us.uncletopia.com","port":27025,"enabled":true,"region":"us-east","cc":"us","latitude":33.753746,"longitude":-84.38633,"reserved":0,"last_update":"0001-01-01T00:00:00Z","name_a2s":"Uncletopia | Atlanta | 2 | All Maps","protocol":17,"map":"koth_cascade","folder":"tf","game":"Team Fortress","app_id":440,"player_count":1,"max_players":24,"Bots":0,"server_type":"Dedicated","server_os":"Linux","password":true,"vac":true,"version":"7961495","steam_id":85568392924469983,"keywords":["cp","nocrits","nodmgspread","uncletopia"],"game_id":440,"stv_port":27026,"stv_name":"Uncletopia | Atlanta | 2 | All Maps | STV","players":[{"user_id":6,"name":"BLOW UP NEW JERSEY","steam_id":76561198364439575,"connected_time":695000000000,"state":"active","ping":79}]},{"server_id":400,"name":"Uncletopia | Atlanta | 3 | Stopwatch","name_short":"atl-3","host":"atl-1.us.uncletopia.com","port":27035,"enabled":true,"region":"us-east","cc":"us","latitude":33.753746,"longitude":-84.38633,"reserved":0,"last_update":"0001-01-01T00:00:00Z","name_a2s":"Uncletopia | Atlanta | 3 | Stopwatch","protocol":17,"map":"pl_upward","folder":"tf","game":"Team Fortress","app_id":440,"player_count":0,"max_players":24,"Bots":0,"server_type":"Dedicated","server_os":"Linux","password":true,"vac":true,"version":"7961495","steam_id":85568392924515187,"keywords":["nocrits","nodmgspread","payload","uncletopia"],"game_id":440,"stv_port":27036,"stv_name":"Uncletopia | Atlanta | 3 | Stopwatch | STV","players":null},{"server_id":401,"name":"Uncletopia | Atlanta | 4 | Community","name_short":"atl-4","host":"atl-1.us.uncletopia.com","port":27045,"enabled":true,"region":"us-east","cc":"us","latitude":33.753746,"longitude":-84.38633,"reserved":0,"last_update":"0001-01-01T00:00:00Z","name_a2s":"Uncletopia | Atlanta | 4 | Community","protocol":17,"map":"workshop/cp_coilblaze_rc7.ugc1272700588","folder":"tf","game":"Team Fortress","app_id":440,"player_count":0,"max_players":24,"Bots":0,"server_type":"Dedicated","server_os":"Linux","password":true,"vac":true,"version":"7961495","steam_id":85568392924515188,"keywords":["cp","nocrits","nodmgspread","uncletopia"],"game_id":440,"stv_port":27046,"stv_name":"Uncletopia | Atlanta | 4 | Community | STV","players":null},{"server_id":2,"name":"Uncletopia | Chicago | 1 | All Maps","name_short":"chi-1","host":"chi-1.us.uncletopia.com","port":27015,"enabled":true,"region":"us-central","cc":"us","latitude":41.881832,"longitude":-87.62318,"reserved":0,"last_update":"0001-01-01T00:00:00Z","name_a2s":"Uncletopia | Chicago | 1 | All Maps","protocol":17,"map":"cp_process_final","folder":"tf","game":"Team Fortress","app_id":440,"player_count":24,"max_players":24,"Bots":0,"server_type":"Dedicated","server_os":"Linux","password":true,"vac":true,"version":"7961495","steam_id":85568392924469984,"keywords":["cp","nocrits","nodmgspread","uncletopia"],"game_id":440,"stv_port":27016,"stv_name":"Uncletopia | Chicago | 1 | All Maps | STV","players":[{"user_id":350,"name":"gretchling","steam_id":76561198046111695,"connected_time":2930000000000,"state":"active","ping":62},{"user_id":367,"name":"Ras","steam_id":76561198123546775,"connected_time":1574000000000,"state":"active","ping":85},{"user_id":355,"name":"FAKE TAXI PRANKS","steam_id":76561198136746987,"connected_time":2600000000000,"state":"active","ping":85},{"user_id":372,"name":"I.C.","steam_id":76561198049256017,"connected_time":657000000000,"state":"active","ping":76},{"user_id":373,"name":"Hylic","steam_id":76561199051314589,"connected_time":649000000000,"state":"active","ping":63},{"user_id":369,"name":"Maurdakar","steam_id":76561197983420976,"connected_time":1413000000000,"state":"active","ping":77},{"user_id":327,"name":"Cooler Ye","steam_id":76561198068830312,"connected_time":4174000000000,"state":"active","ping":45},{"user_id":361,"name":"spencil","steam_id":76561198053727976,"connected_time":2226000000000,"state":"active","ping":60},{"user_id":334,"name":"loscemo","steam_id":76561197994884609,"connected_time":3654000000000,"state":"active","ping":69},{"user_id":383,"name":"corned beef","steam_id":76561199366782761,"connected_time":347000000000,"state":"active","ping":155},{"user_id":366,"name":"dunk","steam_id":76561198132476501,"connected_time":1605000000000,"state":"active","ping":50},{"user_id":215,"name":"NavyDinosaur","steam_id":76561198088459962,"connected_time":12610000000000,"state":"active","ping":113},{"user_id":335,"name":"‚óèÔ∏ø‚óè","steam_id":76561198999217575,"connected_time":3608000000000,"state":"active","ping":63},{"user_id":304,"name":"Amari","steam_id":76561198272446730,"connected_time":6029000000000,"state":"active","ping":59},{"user_id":329,"name":"Tito","steam_id":76561198041702529,"connected_time":3949000000000,"state":"active","ping":85},{"user_id":374,"name":"Leroy","steam_id":76561199013064727,"connected_time":646000000000,"state":"active","ping":62},{"user_id":382,"name":"Kim Jong Un stan","steam_id":76561199139182003,"connected_time":423000000000,"state":"active","ping":63},{"user_id":377,"name":"debin","steam_id":76561198070711217,"connected_time":618000000000,"state":"active","ping":54},{"user_id":378,"name":"1HandsomeLAD","steam_id":76561198807047496,"connected_time":608000000000,"state":"active","ping":90},{"user_id":379,"name":"Milwit","steam_id":76561199084423080,"connected_time":605000000000,"state":"active","ping":66},{"user_id":380,"name":"sillylokisparkles","steam_id":76561198872251615,"connected_time":596000000000,"state":"active","ping":85},{"user_id":368,"name":"the silly","steam_id":76561198850632709,"connected_time":1541000000000,"state":"active","ping":83},{"user_id":371,"name":"WhrSkr","steam_id":76561198845227751,"connected_time":761000000000,"state":"active","ping":59},{"user_id":328,"name":"LerN","steam_id":76561198083463877,"connected_time":4174000000000,"state":"active","ping":58}]},{"server_id":106,"name":"Uncletopia | Chicago | 2 | All Maps","name_short":"chi-2","host":"chi-1.us.uncletopia.com","port":27025,"enabled":true,"region":"us-central","cc":"us","latitude":41.881832,"longitude":-87.62318,"reserved":0,"last_update":"0001-01-01T00:00:00Z","name_a2s":"Uncletopia | Chicago | 2 | All Maps","protocol":17,"map":"pl_badwater","folder":"tf","game":"Team Fortress","app_id":440,"player_count":24,"max_players":24,"Bots":0,"server_type":"Dedicated","server_os":"Linux","password":true,"vac":true,"version":"7961495","steam_id":85568392924469985,"keywords":["nocrits","nodmgspread","payload","uncletopia"],"game_id":440,"stv_port":27026,"stv_name":"Uncletopia | Chicago | 2 | All Maps | STV","players":[{"user_id":7,"name":"Ask Nicely For Heals","steam_id":76561198138478907,"connected_time":1746000000000,"state":"active","ping":83},{"user_id":13,"name":"medd","steam_id":76561198078238722,"connected_time":1190000000000,"state":"active","ping":95},{"user_id":44,"name":"DistantJragon","steam_id":76561198117563641,"connected_time":420000000000,"state":"active","ping":44},{"user_id":10,"name":"Owl Pacino","steam_id":76561197979970666,"connected_time":1464000000000,"state":"active","ping":51},{"user_id":42,"name":"Master Oogway","steam_id":76561198252199106,"connected_time":500000000000,"state":"active","ping":67},{"user_id":15,"name":"Koala Bear","steam_id":76561198118025990,"connected_time":1177000000000,"state":"active","ping":88},{"user_id":17,"name":"Ice","steam_id":76561198045076794,"connected_time":994000000000,"state":"active","ping":48},{"user_id":48,"name":"kao officer","steam_id":76561198931247672,"connected_time":46000000000,"state":"active","ping":95},{"user_id":22,"name":"Chechens Spotted","steam_id":76561199028910893,"connected_time":854000000000,"state":"active","ping":84},{"user_id":24,"name":"Wolfdad Duke","steam_id":76561197986442930,"connected_time":776000000000,"state":"active","ping":135},{"user_id":43,"name":"Church","steam_id":76561199214866732,"connected_time":497000000000,"state":"active","ping":64},{"user_id":26,"name":"Menachem","steam_id":76561198041226420,"connected_time":753000000000,"state":"active","ping":50},{"user_id":49,"name":"Novu","steam_id":76561198886997024,"connected_time":40000000000,"state":"active","ping":89},{"user_id":50,"name":"MrKokonut","steam_id":76561198879575825,"connected_time":39000000000,"state":"active","ping":59},{"user_id":29,"name":"Frontier Psychiatrist","steam_id":76561198038689088,"connected_time":723000000000,"state":"active","ping":87},{"user_id":45,"name":"Rick Assley","steam_id":76561198365019199,"connected_time":198000000000,"state":"active","ping":60},{"user_id":32,"name":"Silvr","steam_id":76561198069368377,"connected_time":712000000000,"state":"active","ping":92},{"user_id":46,"name":"The Hose on Upward","steam_id":76561197965092192,"connected_time":105000000000,"state":"active","ping":85},{"user_id":34,"name":"‡∂û","steam_id":76561199365672047,"connected_time":710000000000,"state":"active","ping":78},{"user_id":35,"name":"Subject Delta","steam_id":76561199109118980,"connected_time":708000000000,"state":"active","ping":110},{"user_id":36,"name":"Rappy \u003c3","steam_id":76561198105613110,"connected_time":708000000000,"state":"active","ping":53},{"user_id":47,"name":"Mad Rex512","steam_id":76561198193533117,"connected_time":79000000000,"state":"active","ping":53},{"user_id":39,"name":"big_poopman2011","steam_id":76561198373996593,"connected_time":683000000000,"state":"active","ping":67},{"user_id":40,"name":"jimmz","steam_id":76561199076776118,"connected_time":665000000000,"state":"active","ping":84}]},{"server_id":402,"name":"Uncletopia | Chicago | 3 | All Maps","name_short":"chi-3","host":"chi-1.us.uncletopia.com","port":27035,"enabled":true,"region":"us-central","cc":"us","latitude":41.881832,"longitude":-87.62318,"reserved":0,"last_update":"0001-01-01T00:00:00Z","name_a2s":"Uncletopia | Chicago | 3 | All Maps","protocol":17,"map":"cp_process_final","folder":"tf","game":"Team Fortress","app_id":440,"player_count":24,"max_players":24,"Bots":0,"server_type":"Dedicated","server_os":"Linux","password":true,"vac":true,"version":"7961495","steam_id":85568392924515191,"keywords":["cp","nocrits","nodmgspread","uncletopia"],"game_id":440,"stv_port":27036,"stv_name":"Uncletopia | Chicago | 3 | All Maps | STV","players":[{"user_id":275,"name":"skaska4","steam_id":76561198080606141,"connected_time":94000000000,"state":"active","ping":160},{"user_id":240,"name":"Headshotsnake","steam_id":76561198067130248,"connected_time":2374000000000,"state":"active","ping":63},{"user_id":266,"name":"NUt","steam_id":76561198031007966,"connected_time":430000000000,"state":"active","ping":59},{"user_id":274,"name":"dave","steam_id":76561198135961731,"connected_time":291000000000,"state":"active","ping":87},{"user_id":265,"name":"Doctor_Redstone","steam_id":76561198061947161,"connected_time":500000000000,"state":"active","ping":72},{"user_id":258,"name":"incredirocks","steam_id":76561198061079993,"connected_time":1058000000000,"state":"active","ping":46},{"user_id":252,"name":"BeautifulDeer","steam_id":76561198119588300,"connected_time":1421000000000,"state":"active","ping":78},{"user_id":253,"name":"Overduecat","steam_id":76561198092452824,"connected_time":1410000000000,"state":"active","ping":66},{"user_id":244,"name":"Vordt","steam_id":76561198040942866,"connected_time":2200000000000,"state":"active","ping":60},{"user_id":276,"name":"SuitedKnight","steam_id":76561198969546736,"connected_time":9000000000,"state":"spawning","ping":87},{"user_id":255,"name":"shnowshner","steam_id":76561198066450438,"connected_time":1215000000000,"state":"active","ping":71},{"user_id":229,"name":"yes daddy","steam_id":76561198166100997,"connected_time":3532000000000,"state":"active","ping":72},{"user_id":267,"name":"Gustavo Fring","steam_id":76561198132807405,"connected_time":407000000000,"state":"active","ping":96},{"user_id":184,"name":"Sunvaar","steam_id":76561198852679851,"connected_time":6913000000000,"state":"active","ping":63},{"user_id":262,"name":"here2he1p","steam_id":76561199216977630,"connected_time":632000000000,"state":"active","ping":107},{"user_id":260,"name":"Tyth","steam_id":76561198062543298,"connected_time":745000000000,"state":"active","ping":89},{"user_id":268,"name":"serious","steam_id":76561198040671133,"connected_time":388000000000,"state":"active","ping":55},{"user_id":256,"name":"Barney8108","steam_id":76561198169844321,"connected_time":1136000000000,"state":"active","ping":70},{"user_id":205,"name":"rizzard of oz","steam_id":76561198040907214,"connected_time":5095000000000,"state":"active","ping":59},{"user_id":263,"name":"Cam","steam_id":76561198139174433,"connected_time":617000000000,"state":"active","ping":88},{"user_id":269,"name":"cbv eagwsewdaefsd","steam_id":76561198304661367,"connected_time":379000000000,"state":"active","ping":74},{"user_id":270,"name":"Decapitation Station","steam_id":76561198201796098,"connected_time":376000000000,"state":"active","ping":89},{"user_id":248,"name":"Ms Twig","steam_id":76561198144111736,"connected_time":1751000000000,"state":"active","ping":51}]},{"server_id":403,"name":"Uncletopia | Chicago | 4 | All Maps","name_short":"chi-4","host":"chi-1.us.uncletopia.com","port":27045,"enabled":true,"region":"us-central","cc":"us","latitude":41.881832,"longitude":-87.62318,"reserved":0,"last_update":"0001-01-01T00:00:00Z","name_a2s":"Uncletopia | Chicago | 4 | All Maps","protocol":17,"map":"pl_upward","folder":"tf","game":"Team Fortress","app_id":440,"player_count":24,"max_players":24,"Bots":0,"server_type":"Dedicated","server_os":"Linux","password":true,"vac":true,"version":"7961495","steam_id":85568392924515193,"keywords":["nocrits","nodmgspread","payload","uncletopia"],"game_id":440,"stv_port":27046,"stv_name":"Uncletopia | Chicago | 4 | All Maps | STV","players":[{"user_id":125,"name":"Swifgz","steam_id":76561198162875756,"connected_time":1569000000000,"state":"active","ping":61},{"user_id":104,"name":"AMD Ryzen #SaveTF2","steam_id":76561198181028110,"connected_time":2321000000000,"state":"active","ping":61},{"user_id":124,"name":"Weerk","steam_id":76561199209543551,"connected_time":1602000000000,"state":"active","ping":79},{"user_id":44,"name":"HAT-WEARING‚Ñ¢ Maggot Gamer Cat","steam_id":76561197973992705,"connected_time":7720000000000,"state":"active","ping":103},{"user_id":143,"name":"Rock buddy","steam_id":76561198209197020,"connected_time":553000000000,"state":"active","ping":69},{"user_id":147,"name":"The No-Longer Mute","steam_id":76561198078359985,"connected_time":170000000000,"state":"active","ping":71},{"user_id":118,"name":"Murchant","steam_id":76561198087744946,"connected_time":1986000000000,"state":"active","ping":63},{"user_id":110,"name":"Naters246","steam_id":76561198844810081,"connected_time":2230000000000,"state":"active","ping":64},{"user_id":122,"name":"Lord Aben","steam_id":76561198135266770,"connected_time":1630000000000,"state":"active","ping":34},{"user_id":146,"name":"Hud","steam_id":76561198146122110,"connected_time":501000000000,"state":"active","ping":46},{"user_id":119,"name":"Shrebbie","steam_id":76561198875230824,"connected_time":1855000000000,"state":"active","ping":58},{"user_id":140,"name":"Seskova","steam_id":76561198090207032,"connected_time":904000000000,"state":"active","ping":113},{"user_id":135,"name":"sunglasses","steam_id":76561198173747227,"connected_time":992000000000,"state":"active","ping":85},{"user_id":126,"name":"chanoc","steam_id":76561198026734746,"connected_time":1521000000000,"state":"active","ping":90},{"user_id":134,"name":"zam","steam_id":76561198295713840,"connected_time":1010000000000,"state":"active","ping":69},{"user_id":133,"name":"Whippin Forgies","steam_id":76561198071058300,"connected_time":1033000000000,"state":"active","ping":70},{"user_id":130,"name":"‚í∏‚ìÜ‚í∑","steam_id":76561199068623664,"connected_time":1327000000000,"state":"active","ping":108},{"user_id":145,"name":"doro","steam_id":76561198099041747,"connected_time":532000000000,"state":"active","ping":90},{"user_id":141,"name":"Riff III","steam_id":76561198066921423,"connected_time":771000000000,"state":"active","ping":70},{"user_id":113,"name":"bouncypear","steam_id":76561198199800094,"connected_time":2175000000000,"state":"active","ping":56},{"user_id":95,"name":"Sentry Gun Main Man","steam_id":76561198327938247,"connected_time":3472000000000,"state":"active","ping":88},{"user_id":36,"name":"THORNFIELDGAMER","steam_id":76561199087167473,"connected_time":8282000000000,"state":"active","ping":89},{"user_id":115,"name":"hollowlilies","steam_id":76561198075315443,"connected_time":2141000000000,"state":"active","ping":78},{"user_id":66,"name":"opossum","steam_id":76561198148905570,"connected_time":6088000000000,"state":"active","ping":69}]},{"server_id":36,"name":"Uncletopia | Chicago | 5 | All Maps","name_short":"chi-5","host":"chi-2.us.uncletopia.com","port":27015,"enabled":true,"region":"us-central","cc":"us","latitude":41.881832,"longitude":-87.62318,"reserved":0,"last_update":"0001-01-01T00:00:00Z","name_a2s":"Uncletopia | Chicago | 5 | All Maps","protocol":17,"map":"koth_viaduct","folder":"tf","game":"Team Fortress","app_id":440,"player_count":0,"max_players":24,"Bots":0,"server_type":"Dedicated","server_os":"Linux","password":true,"vac":true,"version":"7961495","steam_id":85568392924866362,"keywords":["cp","nocrits","nodmgspread","uncletopia"],"game_id":440,"stv_port":27016,"stv_name":"Uncletopia | Chicago | 5 | All Maps | STV","players":null},{"server_id":37,"name":"Uncletopia | Chicago | 6 | All Maps","name_short":"chi-6","host":"chi-2.us.uncletopia.com","port":27025,"enabled":true,"region":"us-central","cc":"us","latitude":41.881832,"longitude":-87.62318,"reserved":0,"last_update":"0001-01-01T00:00:00Z","name_a2s":"Uncletopia | Chicago | 6 | All Maps","protocol":17,"map":"pl_frontier_final","folder":"tf","game":"Team Fortress","app_id":440,"player_count":0,"max_players":24,"Bots":0,"server_type":"Dedicated","server_os":"Linux","password":true,"vac":true,"version":"7961495","steam_id":85568392924866363,"keywords":["nocrits","nodmgspread","payload","uncletopia"],"game_id":440,"stv_port":27026,"stv_name":"Uncletopia | Chicago | 6 | All Maps | STV","players":null},{"server_id":38,"name":"Uncletopia | Chicago | 7 | Stopwatch","name_short":"chi-7","host":"chi-2.us.uncletopia.com","port":27035,"enabled":true,"region":"us-central","cc":"us","latitude":41.881832,"longitude":-87.62318,"reserved":0,"last_update":"0001-01-01T00:00:00Z","name_a2s":"Uncletopia | Chicago | 7 | Stopwatch","protocol":17,"map":"cp_metalworks","folder":"tf","game":"Team Fortress","app_id":440,"player_count":0,"max_players":24,"Bots":0,"server_type":"Dedicated","server_os":"Linux","password":true,"vac":true,"version":"7961495","steam_id":85568392924866364,"keywords":["cp","nocrits","nodmgspread","uncletopia"],"game_id":440,"stv_port":27036,"stv_name":"Uncletopia | Chicago | 7 | Stopwatch | STV","players":null},{"server_id":39,"name":"Uncletopia | Chicago | 8 | Community","name_short":"chi-8","host":"chi-2.us.uncletopia.com","port":27045,"enabled":true,"region":"us-central","cc":"us","latitude":41.881832,"longitude":-87.62318,"reserved":0,"last_update":"0001-01-01T00:00:00Z","name_a2s":"Uncletopia | Chicago | 8 | Community","protocol":17,"map":"workshop/cp_indulge.ugc528106646","folder":"tf","game":"Team Fortress","app_id":440,"player_count":0,"max_players":24,"Bots":0,"server_type":"Dedicated","server_os":"Linux","password":true,"vac":true,"version":"7961495","steam_id":85568392924866365,"keywords":["cp","nocrits","nodmgspread","uncletopia"],"game_id":440,"stv_port":27046,"stv_name":"Uncletopia | Chicago | 8 | Community | STV","players":null},{"server_id":8,"name":"Uncletopia | Dallas | 1 | All Maps","name_short":"dal-1","host":"dal-1.us.uncletopia.com","port":27015,"enabled":true,"region":"us-central","cc":"us","latitude":32.779167,"longitude":-96.80889,"reserved":0,"last_update":"0001-01-01T00:00:00Z","name_a2s":"Uncletopia | Dallas | 1 | All Maps","protocol":17,"map":"cp_gorge","folder":"tf","game":"Team Fortress","app_id":440,"player_count":24,"max_players":24,"Bots":0,"server_type":"Dedicated","server_os":"Linux","password":true,"vac":true,"version":"7961495","steam_id":85568392924469986,"keywords":["cp","nocrits","nodmgspread","uncletopia"],"game_id":440,"stv_port":27016,"stv_name":"Uncletopia | Dallas | 1 | All Maps | STV","players":[{"user_id":22,"name":"Wem-worlds-of-wine.","steam_id":76561199321959230,"connected_time":3493000000000,"state":"active","ping":57},{"user_id":20,"name":"Lyricalnoot","steam_id":76561199164905065,"connected_time":3825000000000,"state":"active","ping":55},{"user_id":15,"name":"Drizzle","steam_id":76561198152143806,"connected_time":4108000000000,"state":"active","ping":85},{"user_id":62,"name":"awawa oyoyo awawa oyoyo","steam_id":76561198062263639,"connected_time":561000000000,"state":"active","ping":55},{"user_id":60,"name":"adapt","steam_id":76561198156181017,"connected_time":773000000000,"state":"active","ping":87},{"user_id":29,"name":"Thequirka","steam_id":76561198968058652,"connected_time":2613000000000,"state":"active","ping":99},{"user_id":28,"name":"Mr.Pan","steam_id":76561198069030613,"connected_time":2644000000000,"state":"active","ping":66},{"user_id":44,"name":"Yengozi","steam_id":76561198448764748,"connected_time":2153000000000,"state":"active","ping":84},{"user_id":33,"name":"deep fried water","steam_id":76561198077272494,"connected_time":2492000000000,"state":"active","ping":64},{"user_id":53,"name":"ben","steam_id":76561198319336957,"connected_time":1980000000000,"state":"active","ping":92},{"user_id":61,"name":"Captain Underbelly","steam_id":76561198811270935,"connected_time":622000000000,"state":"active","ping":90},{"user_id":38,"name":"Propaniac Gaming ‚òë","steam_id":76561198133963270,"connected_time":2386000000000,"state":"active","ping":60},{"user_id":39,"name":"TrueGuardian32.kick","steam_id":76561198149985253,"connected_time":2386000000000,"state":"active","ping":48},{"user_id":41,"name":"mintsmatchamocha","steam_id":76561198420094402,"connected_time":2319000000000,"state":"active","ping":75},{"user_id":42,"name":"Untermensch","steam_id":76561198149634242,"connected_time":2309000000000,"state":"active","ping":95},{"user_id":63,"name":"prospike","steam_id":76561199491903111,"connected_time":546000000000,"state":"active","ping":100},{"user_id":64,"name":"F2P","steam_id":76561199501469347,"connected_time":163000000000,"state":"active","ping":70},{"user_id":59,"name":"inshallah","steam_id":76561198165212575,"connected_time":988000000000,"state":"active","ping":86},{"user_id":58,"name":"171","steam_id":76561199001918194,"connected_time":1083000000000,"state":"active","ping":96},{"user_id":49,"name":"Lovedaddy","steam_id":76561198006569710,"connected_time":2038000000000,"state":"active","ping":102},{"user_id":51,"name":"BoyWithTheBeanie","steam_id":76561199435079308,"connected_time":2019000000000,"state":"active","ping":160},{"user_id":52,"name":"lego star wars on the psp","steam_id":76561198148014773,"connected_time":1988000000000,"state":"active","ping":100},{"user_id":54,"name":"Workwaffle","steam_id":76561198088775748,"connected_time":1974000000000,"state":"active","ping":109},{"user_id":55,"name":"Java_Siege_","steam_id":76561199090000728,"connected_time":1961000000000,"state":"active","ping":85}]},{"server_id":108,"name":"Uncletopia | Dallas | 2 | All Maps","name_short":"dal-2","host":"dal-1.us.uncletopia.com","port":27025,"enabled":true,"region":"us-central","cc":"us","latitude":32.779167,"longitude":-96.80889,"reserved":0,"last_update":"0001-01-01T00:00:00Z","name_a2s":"Uncletopia | Dallas | 2 | All Maps","protocol":17,"map":"pl_upward","folder":"tf","game":"Team Fortress","app_id":440,"player_count":24,"max_players":24,"Bots":0,"server_type":"Dedicated","server_os":"Linux","password":true,"vac":true,"version":"7961495","steam_id":85568392924469988,"keywords":["nocrits","nodmgspread","payload","uncletopia"],"game_id":440,"stv_port":27026,"stv_name":"Uncletopia | Dallas | 2 | All Maps | STV","players":[{"user_id":75,"name":"FI LO","steam_id":76561198976530881,"connected_time":1913000000000,"state":"active","ping":69},{"user_id":14,"name":"Beantama","steam_id":76561198986811476,"connected_time":6396000000000,"state":"active","ping":64},{"user_id":69,"name":"floofy","steam_id":76561198389769098,"connected_time":2562000000000,"state":"active","ping":82},{"user_id":94,"name":"Rin \"Hindwing\" Redtail","steam_id":76561199074865638,"connected_time":88000000000,"state":"active","ping":52},{"user_id":82,"name":"Federico","steam_id":76561198411873065,"connected_time":1406000000000,"state":"active","ping":93},{"user_id":91,"name":"TechnoBear2099","steam_id":76561198238863596,"connected_time":409000000000,"state":"active","ping":46},{"user_id":90,"name":"shellaa","steam_id":76561198044124102,"connected_time":511000000000,"state":"active","ping":44},{"user_id":72,"name":"trash woman","steam_id":76561198049258493,"connected_time":2229000000000,"state":"active","ping":146},{"user_id":68,"name":"Giselle","steam_id":76561198162593640,"connected_time":2588000000000,"state":"active","ping":109},{"user_id":79,"name":"AidenAces","steam_id":76561197999610332,"connected_time":1774000000000,"state":"active","ping":66},{"user_id":87,"name":"monkey squirts","steam_id":76561197983101644,"connected_time":1043000000000,"state":"active","ping":77},{"user_id":32,"name":"gooch_masta","steam_id":76561198151578423,"connected_time":4416000000000,"state":"active","ping":85},{"user_id":33,"name":"SuperColie","steam_id":76561198438503152,"connected_time":4412000000000,"state":"active","ping":69},{"user_id":34,"name":"707_","steam_id":76561199113534229,"connected_time":4400000000000,"state":"active","ping":171},{"user_id":88,"name":"Bene Tlailax","steam_id":76561198131567365,"connected_time":736000000000,"state":"active","ping":78},{"user_id":36,"name":"TheGFG","steam_id":76561198166150556,"connected_time":4196000000000,"state":"active","ping":68},{"user_id":60,"name":"dv","steam_id":76561198094512992,"connected_time":2998000000000,"state":"active","ping":70},{"user_id":73,"name":"B1ight","steam_id":76561198025419686,"connected_time":2200000000000,"state":"active","ping":87},{"user_id":40,"name":"cwnz2","steam_id":76561198418170535,"connected_time":4088000000000,"state":"active","ping":102},{"user_id":41,"name":"Arthur SSJ2","steam_id":76561198043678479,"connected_time":4068000000000,"state":"active","ping":57},{"user_id":77,"name":"Can You Feel It Mr.Krabs","steam_id":76561198128302414,"connected_time":1905000000000,"state":"active","ping":74},{"user_id":89,"name":"mkl","steam_id":76561197986401685,"connected_time":704000000000,"state":"active","ping":56},{"user_id":92,"name":"[‚òØ] randomshagz*","steam_id":76561197968666646,"connected_time":409000000000,"state":"active","ping":75},{"user_id":84,"name":"triph","steam_id":76561198067196509,"connected_time":1221000000000,"state":"active","ping":74}]},{"server_id":404,"name":"Uncletopia | Dallas | 3 | All Maps","name_short":"dal-3","host":"dal-1.us.uncletopia.com","port":27035,"enabled":true,"region":"us-central","cc":"us","latitude":32.779167,"longitude":-96.80889,"reserved":0,"last_update":"0001-01-01T00:00:00Z","name_a2s":"Uncletopia | Dallas | 3 | All Maps","protocol":17,"map":"pl_badwater","folder":"tf","game":"Team Fortress","app_id":440,"player_count":24,"max_players":24,"Bots":0,"server_type":"Dedicated","server_os":"Linux","password":true,"vac":true,"version":"7961495","steam_id":85568392924515219,"keywords":["nocrits","nodmgspread","payload","uncletopia"],"game_id":440,"stv_port":27036,"stv_name":"Uncletopia | Dallas | 3 | All Maps | STV","players":[{"user_id":193,"name":"Antonpirulero10","steam_id":76561198253036781,"connected_time":1896000000000,"state":"active","ping":103},{"user_id":172,"name":"Magik","steam_id":76561198099726660,"connected_time":4293000000000,"state":"active","ping":68},{"user_id":200,"name":"GH578","steam_id":76561199493262585,"connected_time":1785000000000,"state":"active","ping":93},{"user_id":195,"name":"LaChancla","steam_id":76561198971528917,"connected_time":1857000000000,"state":"active","ping":51},{"user_id":186,"name":"Snivy64","steam_id":76561198423445376,"connected_time":3212000000000,"state":"active","ping":70},{"user_id":196,"name":"AzTeK Duel","steam_id":76561198397177330,"connected_time":1846000000000,"state":"active","ping":74},{"user_id":214,"name":"YungSunaGod","steam_id":76561198010480457,"connected_time":517000000000,"state":"active","ping":66},{"user_id":150,"name":"Travorski","steam_id":76561198072493142,"connected_time":5940000000000,"state":"active","ping":86},{"user_id":167,"name":"Philo","steam_id":76561198061873341,"connected_time":4654000000000,"state":"active","ping":92},{"user_id":197,"name":"bdkaine1","steam_id":76561198133545467,"connected_time":1835000000000,"state":"active","ping":65},{"user_id":213,"name":"Cute femboy fox (pyro main)","steam_id":76561199186496740,"connected_time":520000000000,"state":"active","ping":113},{"user_id":212,"name":"meta slave","steam_id":76561199467334502,"connected_time":558000000000,"state":"active","ping":79},{"user_id":198,"name":"SaaxoM","steam_id":76561198208256603,"connected_time":1818000000000,"state":"active","ping":86},{"user_id":215,"name":"American Dad","steam_id":76561198059711448,"connected_time":506000000000,"state":"active","ping":89},{"user_id":216,"name":"googy doogy","steam_id":76561199025852100,"connected_time":489000000000,"state":"active","ping":95},{"user_id":210,"name":"fruitlogic","steam_id":76561198071251588,"connected_time":1233000000000,"state":"active","ping":91},{"user_id":211,"name":"Mr.Tatertot","steam_id":76561198145936848,"connected_time":609000000000,"state":"active","ping":77},{"user_id":217,"name":"AstronautPug","steam_id":76561198162372709,"connected_time":473000000000,"state":"active","ping":88},{"user_id":218,"name":"PizzaFratello","steam_id":76561199059951970,"connected_time":414000000000,"state":"active","ping":70},{"user_id":204,"name":"ericgoodheart","steam_id":76561198871056612,"connected_time":1621000000000,"state":"active","ping":107},{"user_id":219,"name":"87987974","steam_id":76561198046948758,"connected_time":354000000000,"state":"active","ping":78},{"user_id":160,"name":"ayo MY MAN the beat goes on","steam_id":76561198334044006,"connected_time":5636000000000,"state":"active","ping":78},{"user_id":147,"name":"nori","steam_id":76561198014744084,"connected_time":6158000000000,"state":"active","ping":63},{"user_id":163,"name":"small meth pouch","steam_id":76561198130412963,"connected_time":4964000000000,"state":"active","ping":67}]},{"server_id":405,"name":"Uncletopia | Dallas | 4 | Community","name_short":"dal-4","host":"dal-1.us.uncletopia.com","port":27045,"enabled":true,"region":"us-central","cc":"us","latitude":32.779167,"longitude":-96.80889,"reserved":0,"last_update":"0001-01-01T00:00:00Z","name_a2s":"Uncletopia | Dallas | 4 | Community","protocol":17,"map":"pl_pier","folder":"tf","game":"Team Fortress","app_id":440,"player_count":0,"max_players":24,"Bots":0,"server_type":"Dedicated","server_os":"Linux","password":true,"vac":true,"version":"7961495","steam_id":85568392924515220,"keywords":["nocrits","nodmgspread","payload","uncletopia"],"game_id":440,"stv_port":27046,"stv_name":"Uncletopia | Dallas | 4 | Community | STV","players":null},{"server_id":5,"name":"Uncletopia | Frankfurt | 1 | All Maps","name_short":"frk-1","host":"frk-1.de.uncletopia.com","port":27015,"enabled":true,"region":"eu","cc":"de","latitude":50.110924,"longitude":8.682127,"reserved":0,"last_update":"0001-01-01T00:00:00Z","name_a2s":"Uncletopia | Frankfurt | 1 | All Maps","protocol":17,"map":"pl_frontier_final","folder":"tf","game":"Team Fortress","app_id":440,"player_count":24,"max_players":24,"Bots":0,"server_type":"Dedicated","server_os":"Linux","password":true,"vac":true,"version":"7961495","steam_id":85568392924469989,"keywords":["nocrits","nodmgspread","payload","uncletopia"],"game_id":440,"stv_port":27016,"stv_name":"Uncletopia | Frankfurt | 1 | All Maps | STV","players":[{"user_id":820,"name":"TF2","steam_id":76561198256328990,"connected_time":145000000000,"state":"active","ping":86},{"user_id":788,"name":"BasLutnya","steam_id":76561198050575776,"connected_time":2374000000000,"state":"active","ping":75},{"user_id":778,"name":"Nonok","steam_id":76561199480685498,"connected_time":3037000000000,"state":"active","ping":66},{"user_id":795,"name":"=OKB= P4NTH3R","steam_id":76561197999204603,"connected_time":1928000000000,"state":"active","ping":57},{"user_id":777,"name":"Family guy try not to laugh","steam_id":76561198031455800,"connected_time":3229000000000,"state":"active","ping":75},{"user_id":805,"name":"Proper Noun","steam_id":76561198055264269,"connected_time":1457000000000,"state":"active","ping":82},{"user_id":783,"name":"Arsonist","steam_id":76561199087953833,"connected_time":2611000000000,"state":"active","ping":106},{"user_id":786,"name":"Fuvuk","steam_id":76561198044458593,"connected_time":2459000000000,"state":"active","ping":87},{"user_id":811,"name":"Dapper Pan Man","steam_id":76561197981874399,"connected_time":1382000000000,"state":"active","ping":85},{"user_id":812,"name":"Scout","steam_id":76561198992898803,"connected_time":1354000000000,"state":"active","ping":68},{"user_id":810,"name":"_420_StopItDudeCmon","steam_id":76561197997146481,"connected_time":1394000000000,"state":"active","ping":55},{"user_id":765,"name":"MoistMomMauler","steam_id":76561198069359049,"connected_time":3808000000000,"state":"active","ping":82},{"user_id":821,"name":"antondstepanenko","steam_id":76561198966147466,"connected_time":88000000000,"state":"active","ping":77},{"user_id":781,"name":"Frostlight","steam_id":76561198016360449,"connected_time":2911000000000,"state":"active","ping":74},{"user_id":813,"name":"engineer drip","steam_id":76561198991032570,"connected_time":1334000000000,"state":"active","ping":93},{"user_id":808,"name":"scarecrowshelper","steam_id":76561198072260553,"connected_time":1423000000000,"state":"active","ping":46},{"user_id":822,"name":"sokige","steam_id":76561198167112371,"connected_time":23000000000,"state":"spawning","ping":93},{"user_id":800,"name":"gfjhsdf","steam_id":76561198136736426,"connected_time":1498000000000,"state":"active","ping":49},{"user_id":785,"name":"doeks","steam_id":76561198129504653,"connected_time":2469000000000,"state":"active","ping":96},{"user_id":818,"name":"imveryhungry","steam_id":76561199289596889,"connected_time":751000000000,"state":"active","ping":69},{"user_id":776,"name":"Axter","steam_id":76561198118747192,"connected_time":3260000000000,"state":"active","ping":81},{"user_id":823,"name":"Raivop","steam_id":76561197980854307,"connected_time":1000000000,"state":"spawning","ping":43},{"user_id":731,"name":"MR BUBBLES","steam_id":76561198019005259,"connected_time":6526000000000,"state":"active","ping":95},{"user_id":817,"name":"Niyaah","steam_id":76561198110209191,"connected_time":1271000000000,"state":"active","ping":63}]},{"server_id":110,"name":"Uncletopia | Frankfurt | 2 | All Maps","name_short":"frk-2","host":"frk-1.de.uncletopia.com","port":27025,"enabled":true,"region":"eu","cc":"de","latitude":50.110924,"longitude":8.682127,"reserved":0,"last_update":"0001-01-01T00:00:00Z","name_a2s":"Uncletopia | Frankfurt | 2 | All Maps","protocol":17,"map":"pl_upward","folder":"tf","game":"Team Fortress","app_id":440,"player_count":24,"max_players":24,"Bots":0,"server_type":"Dedicated","server_os":"Linux","password":true,"vac":true,"version":"7961495","steam_id":85568392924469990,"keywords":["nocrits","nodmgspread","payload","uncletopia"],"game_id":440,"stv_port":27026,"stv_name":"Uncletopia | Frankfurt | 2 | All Maps | STV","players":[{"user_id":467,"name":"Skyrider of Spaceways","steam_id":76561197991678236,"connected_time":3924000000000,"state":"active","ping":130},{"user_id":367,"name":"Finnish Farmer","steam_id":76561198205366043,"connected_time":10543000000000,"state":"active","ping":82},{"user_id":530,"name":"DragonslayerEE","steam_id":76561199023041492,"connected_time":554000000000,"state":"active","ping":55},{"user_id":511,"name":"Finem Belli","steam_id":76561198227177976,"connected_time":1557000000000,"state":"active","ping":47},{"user_id":439,"name":"Vacys Maslionka","steam_id":76561198126518252,"connected_time":4861000000000,"state":"active","ping":75},{"user_id":525,"name":"shankz","steam_id":76561198128803260,"connected_time":984000000000,"state":"active","ping":60},{"user_id":473,"name":"myon","steam_id":76561197992528570,"connected_time":3543000000000,"state":"active","ping":85},{"user_id":534,"name":"lulu","steam_id":76561199147764133,"connected_time":423000000000,"state":"active","ping":76},{"user_id":499,"name":"golyama ma√Ømuna","steam_id":76561198111807532,"connected_time":1893000000000,"state":"active","ping":63},{"user_id":531,"name":"xx","steam_id":76561198095560087,"connected_time":546000000000,"state":"active","ping":72},{"user_id":538,"name":"Jessen2002","steam_id":76561198119503211,"connected_time":238000000000,"state":"active","ping":58},{"user_id":539,"name":"qualiTY","steam_id":76561198011909737,"connected_time":201000000000,"state":"active","ping":56},{"user_id":540,"name":"Pyrolander","steam_id":76561198050785450,"connected_time":112000000000,"state":"active","ping":48},{"user_id":541,"name":"manure merchant","steam_id":76561198010109316,"connected_time":108000000000,"state":"active","ping":58},{"user_id":493,"name":"TheSpaceWizard","steam_id":76561198361055692,"connected_time":2521000000000,"state":"active","ping":71},{"user_id":524,"name":"Hoff","steam_id":76561198138540938,"connected_time":1145000000000,"state":"active","ping":81},{"user_id":533,"name":"applefrompear","steam_id":76561199258816743,"connected_time":511000000000,"state":"active","ping":92},{"user_id":519,"name":"turbo shart","steam_id":76561198012351808,"connected_time":1469000000000,"state":"active","ping":69},{"user_id":501,"name":"VolcanicArts","steam_id":76561198063453246,"connected_time":1750000000000,"state":"active","ping":71},{"user_id":543,"name":"Spotmonkey","steam_id":76561198003994092,"connected_time":71000000000,"state":"active","ping":72},{"user_id":535,"name":"ladies fear me","steam_id":76561199145943588,"connected_time":400000000000,"state":"active","ping":69},{"user_id":498,"name":"Necator","steam_id":76561198094006970,"connected_time":1958000000000,"state":"active","ping":71},{"user_id":537,"name":"Elsuedi","steam_id":76561198074722832,"connected_time":288000000000,"state":"active","ping":56},{"user_id":489,"name":"Roboolet","steam_id":76561198107353953,"connected_time":2761000000000,"state":"active","ping":55}]},{"server_id":308,"name":"Uncletopia | Frankfurt | 3 | All Maps","name_short":"frk-3","host":"frk-1.de.uncletopia.com","port":27035,"enabled":true,"region":"eu","cc":"de","latitude":50.110924,"longitude":8.682127,"reserved":0,"last_update":"0001-01-01T00:00:00Z","name_a2s":"Uncletopia | Frankfurt | 3 | All Maps","protocol":17,"map":"cp_dustbowl","folder":"tf","game":"Team Fortress","app_id":440,"player_count":24,"max_players":24,"Bots":0,"server_type":"Dedicated","server_os":"Linux","password":true,"vac":true,"version":"7961495","steam_id":85568392924504274,"keywords":["cp","nocrits","nodmgspread","uncletopia"],"game_id":440,"stv_port":27036,"stv_name":"Uncletopia | Frankfurt | 3 | All Maps | STV","players":[{"user_id":463,"name":"HAMtastic","steam_id":76561198879769410,"connected_time":439000000000,"state":"active","ping":74},{"user_id":411,"name":"Scobra","steam_id":76561198000734400,"connected_time":3470000000000,"state":"active","ping":102},{"user_id":414,"name":"Biggest Homie","steam_id":76561198373107677,"connected_time":3409000000000,"state":"active","ping":85},{"user_id":445,"name":"Archive","steam_id":76561198071255385,"connected_time":1650000000000,"state":"active","ping":92},{"user_id":460,"name":"Reznov","steam_id":76561199125472187,"connected_time":681000000000,"state":"active","ping":118},{"user_id":412,"name":"Trollstoy","steam_id":76561198072017175,"connected_time":3459000000000,"state":"active","ping":60},{"user_id":433,"name":"Mi≈õ Polarny","steam_id":76561198083655097,"connected_time":2675000000000,"state":"active","ping":81},{"user_id":454,"name":"Nittugai","steam_id":76561198067366462,"connected_time":1011000000000,"state":"active","ping":60},{"user_id":403,"name":"Wandrus[PL]","steam_id":76561198109051675,"connected_time":3652000000000,"state":"active","ping":93},{"user_id":446,"name":"Lucky Number 13","steam_id":76561198043951279,"connected_time":1645000000000,"state":"active","ping":124},{"user_id":415,"name":"kittylover55","steam_id":76561198136297981,"connected_time":3405000000000,"state":"active","ping":64},{"user_id":461,"name":"sto cazzo","steam_id":76561198066071855,"connected_time":589000000000,"state":"active","ping":59},{"user_id":457,"name":"ËôæÊâØËõã.Lonely","steam_id":76561198022989560,"connected_time":790000000000,"state":"active","ping":75},{"user_id":465,"name":"gei nas x","steam_id":76561199204740482,"connected_time":119000000000,"state":"active","ping":85},{"user_id":462,"name":"Julio Delfuego","steam_id":76561197970736009,"connected_time":574000000000,"state":"active","ping":56},{"user_id":439,"name":"YANIV5OO","steam_id":76561198953566872,"connected_time":2366000000000,"state":"active","ping":95},{"user_id":459,"name":"Haschgott 2.0","steam_id":76561198049820307,"connected_time":720000000000,"state":"active","ping":54},{"user_id":422,"name":"Skepingawich","steam_id":76561198038736553,"connected_time":3153000000000,"state":"active","ping":60},{"user_id":466,"name":"anders McFlanders","steam_id":76561198022811995,"connected_time":102000000000,"state":"active","ping":63},{"user_id":464,"name":"kurage","steam_id":76561198021221288,"connected_time":157000000000,"state":"active","ping":56},{"user_id":366,"name":"GrokeytheHunter","steam_id":76561198136995521,"connected_time":6418000000000,"state":"active","ping":173},{"user_id":438,"name":"emko√ß","steam_id":76561198846782346,"connected_time":2459000000000,"state":"active","ping":106},{"user_id":437,"name":"Roxio","steam_id":76561198061586945,"connected_time":2563000000000,"state":"active","ping":71},{"user_id":449,"name":"Lord of Birds","steam_id":76561198268952995,"connected_time":1606000000000,"state":"active","ping":70}]},{"server_id":309,"name":"Uncletopia | Frankfurt | 4 | All Maps","name_short":"frk-4","host":"frk-1.de.uncletopia.com","port":27045,"enabled":true,"region":"eu","cc":"de","latitude":50.110924,"longitude":8.682127,"reserved":0,"last_update":"0001-01-01T00:00:00Z","name_a2s":"Uncletopia | Frankfurt | 4 | All Maps","protocol":17,"map":"cp_sunshine","folder":"tf","game":"Team Fortress","app_id":440,"player_count":24,"max_players":24,"Bots":0,"server_type":"Dedicated","server_os":"Linux","password":true,"vac":true,"version":"7961495","steam_id":85568392924504275,"keywords":["cp","nocrits","nodmgspread","uncletopia"],"game_id":440,"stv_port":27046,"stv_name":"Uncletopia | Frankfurt | 4 | All Maps | STV","players":[{"user_id":354,"name":"la pistola","steam_id":76561198190073005,"connected_time":4180000000000,"state":"active","ping":57},{"user_id":389,"name":"2006 Mitsubishi Lancer","steam_id":76561198036632498,"connected_time":1786000000000,"state":"active","ping":54},{"user_id":372,"name":"dia","steam_id":76561198033281405,"connected_time":2964000000000,"state":"active","ping":84},{"user_id":410,"name":"JENNY","steam_id":76561198072302273,"connected_time":72000000000,"state":"active","ping":51},{"user_id":408,"name":"Bob the Juicer","steam_id":76561198284932136,"connected_time":314000000000,"state":"active","ping":81},{"user_id":398,"name":"The Lady","steam_id":76561198029895809,"connected_time":859000000000,"state":"active","ping":72},{"user_id":387,"name":"nezolif","steam_id":76561198102030382,"connected_time":2041000000000,"state":"active","ping":67},{"user_id":390,"name":"ran is running","steam_id":76561199443185667,"connected_time":1785000000000,"state":"active","ping":131},{"user_id":356,"name":"Bajas","steam_id":76561198179339326,"connected_time":4095000000000,"state":"active","ping":81},{"user_id":368,"name":"Vershal Smershal","steam_id":76561198116223995,"connected_time":3308000000000,"state":"active","ping":59},{"user_id":407,"name":"DeterminedXD[HUN]","steam_id":76561199469006453,"connected_time":477000000000,"state":"active","ping":77},{"user_id":391,"name":"piss man (real)","steam_id":76561198839843428,"connected_time":1780000000000,"state":"active","ping":112},{"user_id":405,"name":"o_o","steam_id":76561198113045011,"connected_time":524000000000,"state":"active","ping":84},{"user_id":378,"name":"Corporate Cuck Kermit","steam_id":76561198914063104,"connected_time":2730000000000,"state":"active","ping":173},{"user_id":363,"name":"boywife","steam_id":76561198160047415,"connected_time":4024000000000,"state":"active","ping":88},{"user_id":380,"name":"Theleomaster","steam_id":76561198342580499,"connected_time":2615000000000,"state":"active","ping":78},{"user_id":384,"name":"Bobirulez","steam_id":76561198009125458,"connected_time":2214000000000,"state":"active","ping":80},{"user_id":397,"name":"Udinese Dion","steam_id":76561198067931573,"connected_time":1244000000000,"state":"active","ping":49},{"user_id":376,"name":"LogainAblar","steam_id":76561198353261190,"connected_time":2870000000000,"state":"active","ping":78},{"user_id":399,"name":"Tea","steam_id":76561198799243030,"connected_time":603000000000,"state":"active","ping":82},{"user_id":411,"name":"rob","steam_id":76561198122211848,"connected_time":69000000000,"state":"active","ping":82},{"user_id":385,"name":"wes","steam_id":76561198067000117,"connected_time":2154000000000,"state":"active","ping":62},{"user_id":412,"name":"Terrance-w-","steam_id":76561199400481314,"connected_time":42000000000,"state":"active","ping":75},{"user_id":400,"name":"M√©bh √ìg MacT√≠re","steam_id":76561198346399624,"connected_time":590000000000,"state":"active","ping":74}]},{"server_id":310,"name":"Uncletopia | Frankfurt | 5 | All Maps","name_short":"frk-5","host":"frk-1.de.uncletopia.com","port":27055,"enabled":true,"region":"eu","cc":"de","latitude":50.110924,"longitude":8.682127,"reserved":0,"last_update":"0001-01-01T00:00:00Z","name_a2s":"Uncletopia | Frankfurt | 5 | All Maps","protocol":17,"map":"pl_borneo","folder":"tf","game":"Team Fortress","app_id":440,"player_count":24,"max_players":24,"Bots":0,"server_type":"Dedicated","server_os":"Linux","password":true,"vac":true,"version":"7961495","steam_id":85568392924504277,"keywords":["nocrits","nodmgspread","payload","uncletopia"],"game_id":440,"stv_port":27056,"stv_name":"Uncletopia | Frankfurt | 5 | All Maps | STV","players":[{"user_id":602,"name":"Syd","steam_id":76561198020515027,"connected_time":1896000000000,"state":"active","ping":90},{"user_id":616,"name":"Damin","steam_id":76561198288156612,"connected_time":923000000000,"state":"active","ping":45},{"user_id":614,"name":"Magos","steam_id":76561198885792320,"connected_time":1049000000000,"state":"active","ping":80},{"user_id":560,"name":"dumbai","steam_id":76561199098418729,"connected_time":4758000000000,"state":"active","ping":104},{"user_id":596,"name":"MaRo","steam_id":76561198992286676,"connected_time":2085000000000,"state":"active","ping":70},{"user_id":606,"name":"._.","steam_id":76561198300316801,"connected_time":1770000000000,"state":"active","ping":123},{"user_id":603,"name":"Ecton","steam_id":76561198025103720,"connected_time":1883000000000,"state":"active","ping":60},{"user_id":583,"name":"glyph","steam_id":76561197980736364,"connected_time":2748000000000,"state":"active","ping":74},{"user_id":622,"name":"Qdarks","steam_id":76561198013391340,"connected_time":735000000000,"state":"active","ping":138},{"user_id":592,"name":"yuck","steam_id":76561197987249568,"connected_time":2133000000000,"state":"active","ping":104},{"user_id":582,"name":"endlesshills","steam_id":76561198081908373,"connected_time":2992000000000,"state":"active","ping":54},{"user_id":617,"name":"M1","steam_id":76561198392997232,"connected_time":904000000000,"state":"active","ping":91},{"user_id":619,"name":"Ilsagar","steam_id":76561198182957762,"connected_time":896000000000,"state":"active","ping":73},{"user_id":568,"name":"Ketich","steam_id":76561198021772703,"connected_time":3964000000000,"state":"active","ping":74},{"user_id":590,"name":"Gamlader","steam_id":76561198306177608,"connected_time":2378000000000,"state":"active","ping":86},{"user_id":625,"name":"Abska","steam_id":76561198118323803,"connected_time":493000000000,"state":"active","ping":125},{"user_id":594,"name":"Not A Fake Uncletopia Server","steam_id":76561198152871288,"connected_time":2130000000000,"state":"active","ping":62},{"user_id":621,"name":"_Alonso","steam_id":76561198041893314,"connected_time":825000000000,"state":"active","ping":54},{"user_id":615,"name":"Superiumentarius","steam_id":76561198081642249,"connected_time":1039000000000,"state":"active","ping":58},{"user_id":551,"name":"else1","steam_id":76561197996558319,"connected_time":5614000000000,"state":"active","ping":80},{"user_id":598,"name":"Tom Cruise","steam_id":76561198871991529,"connected_time":2062000000000,"state":"active","ping":83},{"user_id":600,"name":"Chambersite","steam_id":76561198197022399,"connected_time":2031000000000,"state":"active","ping":69},{"user_id":624,"name":"CJ_from_Groove","steam_id":76561198889928743,"connected_time":551000000000,"state":"active","ping":93},{"user_id":627,"name":"Hitotsume","steam_id":76561198129157178,"connected_time":136000000000,"state":"active","ping":96}]},{"server_id":311,"name":"Uncletopia | Frankfurt | 6 | All Maps","name_short":"frk-6","host":"frk-1.de.uncletopia.com","port":27065,"enabled":true,"region":"eu","cc":"de","latitude":50.110924,"longitude":8.682127,"reserved":0,"last_update":"0001-01-01T00:00:00Z","name_a2s":"Uncletopia | Frankfurt | 6 | All Maps","protocol":17,"map":"pl_swiftwater_final1","folder":"tf","game":"Team Fortress","app_id":440,"player_count":24,"max_players":24,"Bots":0,"server_type":"Dedicated","server_os":"Linux","password":true,"vac":true,"version":"7961495","steam_id":85568392924504278,"keywords":["nocrits","nodmgspread","payload","uncletopia"],"game_id":440,"stv_port":27066,"stv_name":"Uncletopia | Frankfurt | 6 | All Maps | STV","players":[{"user_id":673,"name":"maya","steam_id":76561198116072854,"connected_time":1320000000000,"state":"active","ping":59},{"user_id":686,"name":"q47tx","steam_id":76561199181333933,"connected_time":198000000000,"state":"active","ping":87},{"user_id":690,"name":"Darth Falcon","steam_id":76561199033727636,"connected_time":46000000000,"state":"active","ping":168},{"user_id":667,"name":"Klown Beatbox","steam_id":76561198131125058,"connected_time":1373000000000,"state":"active","ping":60},{"user_id":668,"name":"pond","steam_id":76561198214849363,"connected_time":1366000000000,"state":"active","ping":76},{"user_id":679,"name":"B≈Å√§ck..","steam_id":76561198300644952,"connected_time":599000000000,"state":"active","ping":65},{"user_id":676,"name":"kreeekz","steam_id":76561198014431602,"connected_time":1125000000000,"state":"active","ping":69},{"user_id":614,"name":"Eric Catman","steam_id":76561198802117294,"connected_time":4941000000000,"state":"active","ping":83},{"user_id":670,"name":"1hour1life","steam_id":76561198949828663,"connected_time":1358000000000,"state":"active","ping":94},{"user_id":687,"name":"sirsmit1","steam_id":76561199129778001,"connected_time":197000000000,"state":"active","ping":145},{"user_id":638,"name":"Hoxton","steam_id":76561198129209505,"connected_time":2885000000000,"state":"active","ping":79},{"user_id":659,"name":"PLUTO","steam_id":76561198312436128,"connected_time":2020000000000,"state":"active","ping":122},{"user_id":660,"name":"Hey, I¬¥m Andy!","steam_id":76561198060337777,"connected_time":1785000000000,"state":"active","ping":81},{"user_id":671,"name":"zazuza","steam_id":76561198049820905,"connected_time":1353000000000,"state":"active","ping":70},{"user_id":662,"name":"Mega Man Legends 3","steam_id":76561198014110199,"connected_time":1643000000000,"state":"active","ping":55},{"user_id":684,"name":"Jack Fox","steam_id":76561198132826595,"connected_time":312000000000,"state":"active","ping":106},{"user_id":653,"name":"s a i","steam_id":76561197970379754,"connected_time":2399000000000,"state":"active","ping":50},{"user_id":657,"name":"Biggie Cheese","steam_id":76561198964943831,"connected_time":2148000000000,"state":"active","ping":63},{"user_id":643,"name":"djbillybool420","steam_id":76561199487559099,"connected_time":2826000000000,"state":"active","ping":65},{"user_id":685,"name":"me (real)","steam_id":76561198013770973,"connected_time":278000000000,"state":"active","ping":74},{"user_id":582,"name":"Banana khan (F2P)","steam_id":76561198992414056,"connected_time":7003000000000,"state":"active","ping":191},{"user_id":682,"name":"golfmastr","steam_id":76561198993144124,"connected_time":574000000000,"state":"active","ping":86},{"user_id":688,"name":"Nozzo","steam_id":76561198012367783,"connected_time":71000000000,"state":"active","ping":82},{"user_id":672,"name":"Vonacht","steam_id":76561198016033944,"connected_time":1349000000000,"state":"active","ping":68}]},{"server_id":23,"name":"Uncletopia | Frankfurt | 7 | Stopwatch","name_short":"frk-7","host":"frk-1.de.uncletopia.com","port":27075,"enabled":true,"region":"eu","cc":"de","latitude":50.110924,"longitude":8.682127,"reserved":0,"last_update":"0001-01-01T00:00:00Z","name_a2s":"Uncletopia | Frankfurt | 7 | Stopwatch","protocol":17,"map":"workshop/pl_vigil_rc10.ugc1266210012","folder":"tf","game":"Team Fortress","app_id":440,"player_count":0,"max_players":24,"Bots":0,"server_type":"Dedicated","server_os":"Linux","password":true,"vac":true,"version":"7961495","steam_id":85568392924742827,"keywords":["nocrits","nodmgspread","payload","uncletopia"],"game_id":440,"stv_port":27076,"stv_name":"Uncletopia | Frankfurt | 7 | Stopwatch | STV","players":null},{"server_id":24,"name":"Uncletopia | Frankfurt | 8 | Community","name_short":"frk-8","host":"frk-1.de.uncletopia.com","port":27085,"enabled":true,"region":"eu","cc":"de","latitude":50.110924,"longitude":8.682127,"reserved":0,"last_update":"0001-01-01T00:00:00Z","name_a2s":"Uncletopia | Frankfurt | 8 | Community","protocol":17,"map":"workshop/cp_logjam_rc12.ugc454812035","folder":"tf","game":"Team Fortress","app_id":440,"player_count":22,"max_players":24,"Bots":0,"server_type":"Dedicated","server_os":"Linux","password":true,"vac":true,"version":"7961495","steam_id":85568392924742828,"keywords":["cp","nocrits","nodmgspread","uncletopia"],"game_id":440,"stv_port":27086,"stv_name":"Uncletopia | Frankfurt | 8 | Community | STV","players":[{"user_id":249,"name":"Dobsoj","steam_id":76561198047775276,"connected_time":693000000000,"state":"active","ping":62},{"user_id":258,"name":"myffdii","steam_id":76561198067677196,"connected_time":463000000000,"state":"active","ping":73},{"user_id":247,"name":"Sckuish","steam_id":76561198297216345,"connected_time":770000000000,"state":"active","ping":165},{"user_id":196,"name":"sAmasam","steam_id":76561198114953928,"connected_time":3238000000000,"state":"active","ping":59},{"user_id":259,"name":"Lozo","steam_id":76561198091866601,"connected_time":462000000000,"state":"active","ping":70},{"user_id":251,"name":"Sunshine Moon","steam_id":76561198022604491,"connected_time":654000000000,"state":"active","ping":63},{"user_id":248,"name":"TheAnonymeKiller","steam_id":76561198190680978,"connected_time":724000000000,"state":"active","ping":60},{"user_id":243,"name":"Skatnaset","steam_id":76561198298457353,"connected_time":883000000000,"state":"active","ping":85},{"user_id":253,"name":"Rotan999","steam_id":76561198896907653,"connected_time":551000000000,"state":"active","ping":78},{"user_id":263,"name":"Vischan but worse","steam_id":76561199371650805,"connected_time":296000000000,"state":"active","ping":99},{"user_id":255,"name":"Baron","steam_id":76561198021901783,"connected_time":509000000000,"state":"active","ping":69},{"user_id":245,"name":"Joo ‚ô¶","steam_id":76561197987609203,"connected_time":831000000000,"state":"active","ping":68},{"user_id":260,"name":"linuxabuser","steam_id":76561198044014377,"connected_time":462000000000,"state":"active","ping":159},{"user_id":233,"name":"cl","steam_id":76561199436640904,"connected_time":1270000000000,"state":"active","ping":71},{"user_id":217,"name":"Osek","steam_id":76561197972646003,"connected_time":2129000000000,"state":"active","ping":66},{"user_id":203,"name":"t0ksi","steam_id":76561198107240798,"connected_time":2889000000000,"state":"active","ping":73},{"user_id":257,"name":"Teecho","steam_id":76561197995269610,"connected_time":479000000000,"state":"active","ping":70},{"user_id":198,"name":"Knusperfrosch","steam_id":76561198071278017,"connected_time":3205000000000,"state":"active","ping":47},{"user_id":268,"name":"NoctilucentDavid","steam_id":76561199248746732,"connected_time":189000000000,"state":"active","ping":77},{"user_id":265,"name":"Amandus","steam_id":76561198036281079,"connected_time":287000000000,"state":"active","ping":60},{"user_id":266,"name":"M√ºesli","steam_id":76561198183105149,"connected_time":287000000000,"state":"active","ping":35},{"user_id":267,"name":"MostSereneDogeBestDoge","steam_id":76561198061196566,"connected_time":273000000000,"state":"active","ping":77}]},{"server_id":202,"name":"Uncletopia | Hong Kong | 1 | All Maps","name_short":"hgk-1","host":"hgk-1.hk.uncletopia.com","port":27015,"enabled":true,"region":"asia","cc":"hk","latitude":22.302711,"longitude":114.177216,"reserved":0,"last_update":"0001-01-01T00:00:00Z","name_a2s":"Uncletopia | Hong Kong | 1 | All Maps","protocol":17,"map":"pl_snowycoast","folder":"tf","game":"Team Fortress","app_id":440,"player_count":0,"max_players":24,"Bots":0,"server_type":"Dedicated","server_os":"Linux","password":true,"vac":true,"version":"7961495","steam_id":85568392924494504,"keywords":["nocrits","nodmgspread","payload","uncletopia"],"game_id":440,"stv_port":27016,"stv_name":"Uncletopia | Hong Kong | 1 | All Maps | STV","players":null},{"server_id":1,"name":"Uncletopia | Los Angeles | 1 | All Maps","name_short":"lax-1","host":"lax-1.us.uncletopia.com","port":27015,"enabled":true,"region":"us-west","cc":"us","latitude":33.94279,"longitude":-118.41004,"reserved":0,"last_update":"0001-01-01T00:00:00Z","name_a2s":"Uncletopia | Los Angeles | 1 | All Maps","protocol":17,"map":"cp_process_final","folder":"tf","game":"Team Fortress","app_id":440,"player_count":0,"max_players":24,"Bots":0,"server_type":"Dedicated","server_os":"Linux","password":true,"vac":true,"version":"7961495","steam_id":85568392924469991,"keywords":["cp","nocrits","nodmgspread","uncletopia"],"game_id":440,"stv_port":27016,"stv_name":"Uncletopia | Los Angeles | 1 | All Maps | STV","players":null},{"server_id":112,"name":"Uncletopia | Los Angeles | 2 | All Maps","name_short":"lax-2","host":"lax-1.us.uncletopia.com","port":27025,"enabled":true,"region":"us-west","cc":"us","latitude":33.94279,"longitude":-118.41004,"reserved":0,"last_update":"0001-01-01T00:00:00Z","name_a2s":"Uncletopia | Los Angeles | 2 | All Maps","protocol":17,"map":"koth_cascade","folder":"tf","game":"Team Fortress","app_id":440,"player_count":0,"max_players":24,"Bots":0,"server_type":"Dedicated","server_os":"Linux","password":true,"vac":true,"version":"7961495","steam_id":85568392924469992,"keywords":["cp","nocrits","nodmgspread","uncletopia"],"game_id":440,"stv_port":27026,"stv_name":"Uncletopia | Los Angeles | 2 | All Maps | STV","players":null},{"server_id":324,"name":"Uncletopia | Los Angeles | 3 | All Maps","name_short":"lax-3","host":"lax-1.us.uncletopia.com","port":27035,"enabled":true,"region":"us-west","cc":"us","latitude":33.94279,"longitude":-118.41004,"reserved":0,"last_update":"0001-01-01T00:00:00Z","name_a2s":"Uncletopia | Los Angeles | 3 | All Maps","protocol":17,"map":"pl_frontier_final","folder":"tf","game":"Team Fortress","app_id":440,"player_count":0,"max_players":24,"Bots":0,"server_type":"Dedicated","server_os":"Linux","password":true,"vac":true,"version":"7961495","steam_id":85568392924510198,"keywords":["nocrits","nodmgspread","payload","uncletopia"],"game_id":440,"stv_port":27036,"stv_name":"Uncletopia | Los Angeles | 3 | All Maps | STV","players":null},{"server_id":25,"name":"Uncletopia | Los Angeles | 4 | Stopwatch","name_short":"lax-4","host":"lax-1.us.uncletopia.com","port":27045,"enabled":true,"region":"us-west","cc":"us","latitude":33.94279,"longitude":-118.41004,"reserved":0,"last_update":"0001-01-01T00:00:00Z","name_a2s":"Uncletopia | Los Angeles | 4 | Stopwatch","protocol":17,"map":"pl_barnblitz","folder":"tf","game":"Team Fortress","app_id":440,"player_count":0,"max_players":24,"Bots":0,"server_type":"Dedicated","server_os":"Linux","password":true,"vac":true,"version":"7961495","steam_id":85568392924510199,"keywords":["nocrits","nodmgspread","payload","uncletopia"],"game_id":440,"stv_port":27046,"stv_name":"Uncletopia | Los Angeles | 4 | Stopwatch | STV","players":null},{"server_id":11,"name":"Uncletopia | London | 1 | All Maps","name_short":"lon-1","host":"lon-1.uk.uncletopia.com","port":27015,"enabled":true,"region":"eu","cc":"gb","latitude":51.509865,"longitude":-0.118092,"reserved":0,"last_update":"0001-01-01T00:00:00Z","name_a2s":"Uncletopia | London | 1 | All Maps","protocol":17,"map":"pl_upward","folder":"tf","game":"Team Fortress","app_id":440,"player_count":24,"max_players":24,"Bots":0,"server_type":"Dedicated","server_os":"Linux","password":true,"vac":true,"version":"7961495","steam_id":85568392924367362,"keywords":["nocrits","nodmgspread","payload","uncletopia"],"game_id":440,"stv_port":27016,"stv_name":"Uncletopia | London | 1 | All Maps | STV","players":[{"user_id":574,"name":"Birch","steam_id":76561197998712822,"connected_time":2861000000000,"state":"active","ping":45},{"user_id":601,"name":"GLUEEATER hedon","steam_id":76561198249832770,"connected_time":1861000000000,"state":"active","ping":46},{"user_id":599,"name":"hmscole09","steam_id":76561198811362788,"connected_time":2070000000000,"state":"active","ping":59},{"user_id":604,"name":"SuperBob103","steam_id":76561199175360012,"connected_time":1406000000000,"state":"active","ping":55},{"user_id":595,"name":"Schiever","steam_id":76561198052136026,"connected_time":2401000000000,"state":"active","ping":61},{"user_id":602,"name":"‚ú™ Danny","steam_id":76561198104483241,"connected_time":1852000000000,"state":"active","ping":56},{"user_id":605,"name":"Aaron","steam_id":76561197990046953,"connected_time":1404000000000,"state":"active","ping":58},{"user_id":611,"name":"Explosive Poptart","steam_id":76561198023918830,"connected_time":249000000000,"state":"active","ping":45},{"user_id":582,"name":"ein","steam_id":76561198152162834,"connected_time":2620000000000,"state":"active","ping":105},{"user_id":612,"name":"jermany (not jerma)","steam_id":76561198126599355,"connected_time":246000000000,"state":"active","ping":68},{"user_id":606,"name":"weshanus","steam_id":76561198035380064,"connected_time":905000000000,"state":"active","ping":55},{"user_id":566,"name":"MGE Brother","steam_id":76561198860424456,"connected_time":3363000000000,"state":"active","ping":66},{"user_id":592,"name":"trite","steam_id":76561197983765323,"connected_time":2507000000000,"state":"active","ping":55},{"user_id":600,"name":"SOPHIIAA","steam_id":76561198443798981,"connected_time":1998000000000,"state":"active","ping":73},{"user_id":614,"name":"Jyghc","steam_id":76561198405980575,"connected_time":39000000000,"state":"active","ping":69},{"user_id":569,"name":"panda","steam_id":76561198215136941,"connected_time":3208000000000,"state":"active","ping":121},{"user_id":572,"name":"map","steam_id":76561198370196400,"connected_time":3128000000000,"state":"active","ping":90},{"user_id":588,"name":"Dewotter","steam_id":76561198007653168,"connected_time":2557000000000,"state":"active","ping":53},{"user_id":462,"name":"-KV-Michael557 [OS]","steam_id":76561198041221257,"connected_time":11497000000000,"state":"active","ping":60},{"user_id":593,"name":"precisely 348279402472cm alice","steam_id":76561198180361759,"connected_time":2486000000000,"state":"active","ping":44},{"user_id":585,"name":"Sandshee","steam_id":76561198088574666,"connected_time":2605000000000,"state":"active","ping":48},{"user_id":603,"name":"Minimi","steam_id":76561198873850443,"connected_time":1839000000000,"state":"active","ping":44},{"user_id":608,"name":"Son Goku","steam_id":76561199383437138,"connected_time":513000000000,"state":"active","ping":118},{"user_id":591,"name":"Voks_","steam_id":76561198159687785,"connected_time":2540000000000,"state":"active","ping":74}]},{"server_id":114,"name":"Uncletopia | London | 2 | All Maps","name_short":"lon-2","host":"lon-1.uk.uncletopia.com","port":27025,"enabled":true,"region":"eu","cc":"gb","latitude":51.509865,"longitude":-0.118092,"reserved":0,"last_update":"0001-01-01T00:00:00Z","name_a2s":"Uncletopia | London | 2 | All Maps","protocol":17,"map":"pl_swiftwater_final1","folder":"tf","game":"Team Fortress","app_id":440,"player_count":22,"max_players":24,"Bots":0,"server_type":"Dedicated","server_os":"Linux","password":true,"vac":true,"version":"7961495","steam_id":85568392924470941,"keywords":["nocrits","nodmgspread","payload","uncletopia"],"game_id":440,"stv_port":27026,"stv_name":"Uncletopia | London | 2 | All Maps | STV","players":[{"user_id":785,"name":"TreatFly","steam_id":76561198069707362,"connected_time":1329000000000,"state":"active","ping":54},{"user_id":787,"name":"lillunya ‚ô°","steam_id":76561198330418866,"connected_time":1044000000000,"state":"active","ping":67},{"user_id":745,"name":"Sixten the Pale","steam_id":76561197981806008,"connected_time":4071000000000,"state":"active","ping":71},{"user_id":772,"name":"FoOzTV","steam_id":76561197998636728,"connected_time":2225000000000,"state":"active","ping":66},{"user_id":789,"name":"gpupdate","steam_id":76561198154677956,"connected_time":989000000000,"state":"active","ping":77},{"user_id":766,"name":"kalaa ‚Ä†","steam_id":76561198134652336,"connected_time":2882000000000,"state":"active","ping":74},{"user_id":779,"name":"I sell exotic parrots","steam_id":76561199192434258,"connected_time":1874000000000,"state":"active","ping":95},{"user_id":800,"name":"ShiihS","steam_id":76561198320858710,"connected_time":195000000000,"state":"active","ping":76},{"user_id":801,"name":"Hugh","steam_id":76561198976348754,"connected_time":192000000000,"state":"active","ping":38},{"user_id":788,"name":"Yuval","steam_id":76561198241802390,"connected_time":1006000000000,"state":"active","ping":114},{"user_id":802,"name":"elchi","steam_id":76561198009531752,"connected_time":190000000000,"state":"active","ping":45},{"user_id":803,"name":"James","steam_id":76561198168882012,"connected_time":183000000000,"state":"active","ping":55},{"user_id":786,"name":"Bucky","steam_id":76561198058111951,"connected_time":1244000000000,"state":"active","ping":57},{"user_id":799,"name":"General Petrov","steam_id":76561198027204104,"connected_time":225000000000,"state":"active","ping":79},{"user_id":807,"name":"Swayer","steam_id":76561198056192460,"connected_time":127000000000,"state":"active","ping":64},{"user_id":790,"name":"Relic","steam_id":76561199499093258,"connected_time":988000000000,"state":"active","ping":60},{"user_id":793,"name":"Darim","steam_id":76561198097062529,"connected_time":819000000000,"state":"active","ping":129},{"user_id":781,"name":"Gent","steam_id":76561198037167890,"connected_time":1631000000000,"state":"active","ping":80},{"user_id":770,"name":"Arthur","steam_id":76561198066109166,"connected_time":2562000000000,"state":"active","ping":86},{"user_id":794,"name":"Temp0_ ‚ô•","steam_id":76561198162068639,"connected_time":707000000000,"state":"active","ping":63},{"user_id":754,"name":"Zanryiel","steam_id":76561198120723872,"connected_time":3308000000000,"state":"active","ping":80},{"user_id":797,"name":"wazaaap","steam_id":76561198080648647,"connected_time":240000000000,"state":"active","ping":56}]},{"server_id":320,"name":"Uncletopia | London | 3 | All Maps","name_short":"lon-3","host":"lon-1.uk.uncletopia.com","port":27035,"enabled":true,"region":"eu","cc":"gb","latitude":51.509865,"longitude":-0.118092,"reserved":0,"last_update":"0001-01-01T00:00:00Z","name_a2s":"Uncletopia | London | 3 | All Maps","protocol":17,"map":"pl_upward","folder":"tf","game":"Team Fortress","app_id":440,"player_count":24,"max_players":24,"Bots":0,"server_type":"Dedicated","server_os":"Linux","password":true,"vac":true,"version":"7961495","steam_id":85568392924510192,"keywords":["nocrits","nodmgspread","payload","uncletopia"],"game_id":440,"stv_port":27036,"stv_name":"Uncletopia | London | 3 | All Maps | STV","players":[{"user_id":584,"name":"Omni","steam_id":76561197964320557,"connected_time":2786000000000,"state":"active","ping":55},{"user_id":610,"name":"Jnet","steam_id":76561198001282720,"connected_time":533000000000,"state":"active","ping":93},{"user_id":583,"name":"Wuffington","steam_id":76561198033762881,"connected_time":2859000000000,"state":"active","ping":47},{"user_id":605,"name":"Dictatorial Karelian","steam_id":76561198196736457,"connected_time":977000000000,"state":"active","ping":75},{"user_id":611,"name":"Rob","steam_id":76561198234139612,"connected_time":420000000000,"state":"active","ping":79},{"user_id":591,"name":"Chris Hansen, Kell of Kells","steam_id":76561198986775156,"connected_time":2537000000000,"state":"active","ping":130},{"user_id":600,"name":"jeezo","steam_id":76561198123592400,"connected_time":1241000000000,"state":"active","ping":91},{"user_id":617,"name":"HNDRXX","steam_id":76561198202741199,"connected_time":201000000000,"state":"active","ping":79},{"user_id":572,"name":"Lemmy","steam_id":76561199038870751,"connected_time":3232000000000,"state":"active","ping":65},{"user_id":608,"name":"Aaron Cahill","steam_id":76561198132831088,"connected_time":687000000000,"state":"active","ping":75},{"user_id":587,"name":"srobb","steam_id":76561197985615971,"connected_time":2723000000000,"state":"active","ping":72},{"user_id":504,"name":"soder.","steam_id":76561199294336405,"connected_time":7066000000000,"state":"active","ping":81},{"user_id":595,"name":"Deacon Dracul","steam_id":76561198046880663,"connected_time":1618000000000,"state":"active","ping":98},{"user_id":613,"name":"Drift7114","steam_id":76561199044419505,"connected_time":378000000000,"state":"active","ping":71},{"user_id":607,"name":"LEGEND FUMO.","steam_id":76561198061033903,"connected_time":739000000000,"state":"active","ping":53},{"user_id":585,"name":"cold#panda","steam_id":76561199220136710,"connected_time":2774000000000,"state":"active","ping":127},{"user_id":614,"name":"bladerunner | Trade.tf","steam_id":76561198272175230,"connected_time":369000000000,"state":"active","ping":57},{"user_id":606,"name":"POOTIS #saveTF2","steam_id":76561198384735957,"connected_time":870000000000,"state":"active","ping":60},{"user_id":533,"name":"Owlet","steam_id":76561198065613974,"connected_time":5725000000000,"state":"active","ping":66},{"user_id":582,"name":"Temperance","steam_id":76561198446955878,"connected_time":2883000000000,"state":"active","ping":69},{"user_id":602,"name":"mendako","steam_id":76561198295305088,"connected_time":1202000000000,"state":"active","ping":60},{"user_id":603,"name":"FlyingSpiderbaby","steam_id":76561197988411376,"connected_time":1198000000000,"state":"active","ping":65},{"user_id":597,"name":"Tri-","steam_id":76561198133524794,"connected_time":1405000000000,"state":"active","ping":44},{"user_id":616,"name":"overman","steam_id":76561198038348301,"connected_time":218000000000,"state":"active","ping":61}]},{"server_id":321,"name":"Uncletopia | London | 4 | All Maps","name_short":"lon-4","host":"lon-1.uk.uncletopia.com","port":27045,"enabled":true,"region":"eu","cc":"gb","latitude":51.509865,"longitude":-0.118092,"reserved":0,"last_update":"0001-01-01T00:00:00Z","name_a2s":"Uncletopia | London | 4 | All Maps","protocol":17,"map":"pl_borneo","folder":"tf","game":"Team Fortress","app_id":440,"player_count":23,"max_players":24,"Bots":0,"server_type":"Dedicated","server_os":"Linux","password":true,"vac":true,"version":"7961495","steam_id":85568392924510193,"keywords":["nocrits","nodmgspread","payload","uncletopia"],"game_id":440,"stv_port":27046,"stv_name":"Uncletopia | London | 4 | All Maps | STV","players":[{"user_id":265,"name":"Cat","steam_id":76561199030180843,"connected_time":2008000000000,"state":"active","ping":102},{"user_id":288,"name":"Guwop","steam_id":76561197970425737,"connected_time":176000000000,"state":"active","ping":143},{"user_id":247,"name":"The Subway Scientist","steam_id":76561198193757646,"connected_time":2563000000000,"state":"active","ping":45},{"user_id":257,"name":"Zero Sleep Gaming","steam_id":76561198982674420,"connected_time":2190000000000,"state":"active","ping":41},{"user_id":259,"name":"noot","steam_id":76561198148074472,"connected_time":2094000000000,"state":"active","ping":51},{"user_id":266,"name":"Cream","steam_id":76561198204266952,"connected_time":1990000000000,"state":"active","ping":100},{"user_id":289,"name":"snail","steam_id":76561198147277460,"connected_time":173000000000,"state":"active","ping":74},{"user_id":279,"name":"Tavish","steam_id":76561197971486686,"connected_time":942000000000,"state":"active","ping":48},{"user_id":278,"name":"GogsCrunchyNuts","steam_id":76561198150599213,"connected_time":1126000000000,"state":"active","ping":106},{"user_id":277,"name":"The Duke","steam_id":76561198063644325,"connected_time":1474000000000,"state":"active","ping":56},{"user_id":238,"name":"Ôº¨ÔΩïÔΩéÔΩÑÔΩÖÔΩíÔΩìÂÑö","steam_id":76561198001599722,"connected_time":3115000000000,"state":"active","ping":89},{"user_id":182,"name":"LordTrap.exe","steam_id":76561198318089716,"connected_time":6122000000000,"state":"active","ping":67},{"user_id":284,"name":"Chris","steam_id":76561198179791702,"connected_time":700000000000,"state":"active","ping":177},{"user_id":285,"name":"Mastenbier","steam_id":76561199067658590,"connected_time":686000000000,"state":"active","ping":126},{"user_id":286,"name":"—Ç—ã —á—Ç–æ –¥—É—Ä–∞–∫","steam_id":76561198163244605,"connected_time":217000000000,"state":"active","ping":73},{"user_id":290,"name":"Xenometan","steam_id":76561198208408392,"connected_time":134000000000,"state":"active","ping":112},{"user_id":249,"name":"Fimpy","steam_id":76561199231784736,"connected_time":2496000000000,"state":"active","ping":53},{"user_id":276,"name":"Pomson Gaming","steam_id":76561199200442395,"connected_time":1608000000000,"state":"active","ping":86},{"user_id":245,"name":"ha,burger","steam_id":76561199093584225,"connected_time":2727000000000,"state":"active","ping":67},{"user_id":280,"name":"i do hard drugs on the regular","steam_id":76561198263228457,"connected_time":931000000000,"state":"active","ping":88},{"user_id":272,"name":"Cpt_frost","steam_id":76561198218034817,"connected_time":1801000000000,"state":"active","ping":40},{"user_id":263,"name":"bryophyta","steam_id":76561197968945306,"connected_time":2076000000000,"state":"active","ping":68},{"user_id":281,"name":"SynthBox3","steam_id":76561199094075745,"connected_time":918000000000,"state":"active","ping":104}]},{"server_id":21,"name":"Uncletopia | London | 5 | All Maps","name_short":"lon-5","host":"lon-1.uk.uncletopia.com","port":27055,"enabled":true,"region":"eu","cc":"gb","latitude":51.509865,"longitude":-0.118092,"reserved":0,"last_update":"0001-01-01T00:00:00Z","name_a2s":"Uncletopia | London | 5 | All Maps","protocol":17,"map":"cp_sunshine","folder":"tf","game":"Team Fortress","app_id":440,"player_count":24,"max_players":24,"Bots":0,"server_type":"Dedicated","server_os":"Linux","password":true,"vac":true,"version":"7961495","steam_id":85568392924742829,"keywords":["cp","nocrits","nodmgspread","uncletopia"],"game_id":440,"stv_port":27056,"stv_name":"Uncletopia | London | 5 | All Maps | STV","players":[{"user_id":428,"name":"Oak","steam_id":76561198067315672,"connected_time":2973000000000,"state":"active","ping":44},{"user_id":456,"name":"about","steam_id":76561199160427187,"connected_time":442000000000,"state":"active","ping":34},{"user_id":455,"name":"Bonca","steam_id":76561198137503531,"connected_time":501000000000,"state":"active","ping":71},{"user_id":384,"name":"yuno appreciator","steam_id":76561198083286511,"connected_time":6398000000000,"state":"active","ping":37},{"user_id":444,"name":"J√§germann","steam_id":76561198048506715,"connected_time":1154000000000,"state":"active","ping":72},{"user_id":301,"name":"It's a me Malario","steam_id":76561198176546013,"connected_time":11745000000000,"state":"active","ping":51},{"user_id":450,"name":"kid bean","steam_id":76561198063328792,"connected_time":1031000000000,"state":"active","ping":98},{"user_id":423,"name":"Ullr","steam_id":76561198140547483,"connected_time":3266000000000,"state":"active","ping":43},{"user_id":445,"name":"Steven Toast","steam_id":76561198109943492,"connected_time":1146000000000,"state":"active","ping":53},{"user_id":452,"name":"Alpaca","steam_id":76561198029839079,"connected_time":964000000000,"state":"active","ping":50},{"user_id":435,"name":"Kachigga","steam_id":76561198273112995,"connected_time":2024000000000,"state":"active","ping":50},{"user_id":347,"name":"Boba","steam_id":76561198261766530,"connected_time":8644000000000,"state":"active","ping":78},{"user_id":431,"name":"$kelly","steam_id":76561198195270894,"connected_time":2445000000000,"state":"active","ping":75},{"user_id":424,"name":"Packet","steam_id":76561199173195875,"connected_time":3260000000000,"state":"active","ping":103},{"user_id":438,"name":"Beh","steam_id":76561198251208926,"connected_time":1987000000000,"state":"active","ping":52},{"user_id":439,"name":"I AM DOT","steam_id":76561198354118090,"connected_time":1937000000000,"state":"active","ping":89},{"user_id":437,"name":"pocket sand","steam_id":76561198045821708,"connected_time":2001000000000,"state":"active","ping":161},{"user_id":457,"name":"Dr Bondus Bolongus Dongus","steam_id":76561198378657692,"connected_time":342000000000,"state":"active","ping":48},{"user_id":451,"name":"Many Pardo","steam_id":76561199027005565,"connected_time":1020000000000,"state":"active","ping":46},{"user_id":453,"name":"Cillian","steam_id":76561199471571148,"connected_time":694000000000,"state":"active","ping":71},{"user_id":406,"name":"Caramel","steam_id":76561198021214844,"connected_time":4160000000000,"state":"active","ping":53},{"user_id":429,"name":"LukeLeal","steam_id":76561198049822995,"connected_time":2748000000000,"state":"active","ping":170},{"user_id":434,"name":"Nomad","steam_id":76561198267819704,"connected_time":2045000000000,"state":"active","ping":90},{"user_id":449,"name":"ExtraFlames","steam_id":76561199136146246,"connected_time":1138000000000,"state":"active","ping":58}]},{"server_id":22,"name":"Uncletopia | London | 6 | All Maps","name_short":"lon-6","host":"lon-1.uk.uncletopia.com","port":27065,"enabled":true,"region":"eu","cc":"gb","latitude":51.509865,"longitude":-0.118092,"reserved":0,"last_update":"0001-01-01T00:00:00Z","name_a2s":"Uncletopia | London | 6 | All Maps","protocol":17,"map":"pl_badwater","folder":"tf","game":"Team Fortress","app_id":440,"player_count":23,"max_players":24,"Bots":0,"server_type":"Dedicated","server_os":"Linux","password":true,"vac":true,"version":"7961495","steam_id":85568392924742830,"keywords":["nocrits","nodmgspread","payload","uncletopia"],"game_id":440,"stv_port":27066,"stv_name":"Uncletopia | London | 6 | All Maps | STV","players":[{"user_id":490,"name":"ABrown","steam_id":76561198168545591,"connected_time":97000000000,"state":"active","ping":54},{"user_id":444,"name":"pvtemback","steam_id":76561198887302382,"connected_time":3599000000000,"state":"spawning","ping":103},{"user_id":452,"name":"Rodak","steam_id":76561199135986344,"connected_time":3046000000000,"state":"active","ping":74},{"user_id":479,"name":"Dr. Funkenstein","steam_id":76561197977816210,"connected_time":1447000000000,"state":"active","ping":47},{"user_id":375,"name":"mhib","steam_id":76561198048037379,"connected_time":7753000000000,"state":"active","ping":84},{"user_id":461,"name":"[P-roc] BadJacKS","steam_id":76561197972666377,"connected_time":2532000000000,"state":"active","ping":63},{"user_id":454,"name":"Fliits","steam_id":76561198129780632,"connected_time":2927000000000,"state":"active","ping":85},{"user_id":455,"name":"Paint","steam_id":76561198166823873,"connected_time":2899000000000,"state":"active","ping":54},{"user_id":473,"name":"Onvee","steam_id":76561198205342551,"connected_time":1946000000000,"state":"active","ping":61},{"user_id":456,"name":"race car driver jerry","steam_id":76561198054047446,"connected_time":2842000000000,"state":"active","ping":66},{"user_id":487,"name":"–ê–Ω–¥—Ä–µ–π","steam_id":76561199004027817,"connected_time":865000000000,"state":"active","ping":104},{"user_id":483,"name":"Chish n' Fips","steam_id":76561198012300440,"connected_time":1112000000000,"state":"active","ping":48},{"user_id":376,"name":"GrzMik","steam_id":76561198061951968,"connected_time":7735000000000,"state":"active","ping":92},{"user_id":462,"name":"Bobo","steam_id":76561198052308399,"connected_time":2524000000000,"state":"active","ping":64},{"user_id":450,"name":"PatoEnsalada","steam_id":76561199490043521,"connected_time":3488000000000,"state":"active","ping":71},{"user_id":491,"name":"emu","steam_id":76561198067937303,"connected_time":71000000000,"state":"active","ping":92},{"user_id":488,"name":"killerdiam","steam_id":76561198806422317,"connected_time":671000000000,"state":"active","ping":50},{"user_id":489,"name":"glorpis","steam_id":76561199225333422,"connected_time":250000000000,"state":"active","ping":46},{"user_id":481,"name":"NitPig","steam_id":76561198212991935,"connected_time":1385000000000,"state":"active","ping":86},{"user_id":467,"name":"SourMyth","steam_id":76561198071818351,"connected_time":2319000000000,"state":"active","ping":48},{"user_id":469,"name":"Skarpy","steam_id":76561198034398376,"connected_time":2182000000000,"state":"active","ping":59},{"user_id":471,"name":"Goose","steam_id":76561198316133736,"connected_time":2137000000000,"state":"active","ping":55},{"user_id":478,"name":"Fu Manchu","steam_id":76561197995224539,"connected_time":1702000000000,"state":"active","ping":65}]},{"server_id":40,"name":"Uncletopia | London | 7 | Stopwatch","name_short":"lon-7","host":"lon-1.uk.uncletopia.com","port":27075,"enabled":true,"region":"eu","cc":"gb","latitude":51.509865,"longitude":-0.118092,"reserved":0,"last_update":"0001-01-01T00:00:00Z","name_a2s":"Uncletopia | London | 7 | Stopwatch","protocol":17,"map":"koth_highpass","folder":"tf","game":"Team Fortress","app_id":440,"player_count":0,"max_players":24,"Bots":0,"server_type":"Dedicated","server_os":"Linux","password":true,"vac":true,"version":"7961495","steam_id":85568392924964314,"keywords":["cp","nocrits","nodmgspread","uncletopia"],"game_id":440,"stv_port":27076,"stv_name":"Uncletopia | London | 7 | Stopwatch | STV","players":null},{"server_id":41,"name":"Uncletopia | London | 8 | Community","name_short":"lon-8","host":"lon-1.uk.uncletopia.com","port":27085,"enabled":true,"region":"eu","cc":"gb","latitude":51.509865,"longitude":-0.118092,"reserved":0,"last_update":"0001-01-01T00:00:00Z","name_a2s":"Uncletopia | London | 8 | Community","protocol":17,"map":"workshop/pl_highwood_b13.ugc1769496557","folder":"tf","game":"Team Fortress","app_id":440,"player_count":0,"max_players":24,"Bots":0,"server_type":"Dedicated","server_os":"Linux","password":true,"vac":true,"version":"7961495","steam_id":85568392924964315,"keywords":["nocrits","nodmgspread","payload","uncletopia"],"game_id":440,"stv_port":27086,"stv_name":"Uncletopia | London | 8 | Community | STV","players":null},{"server_id":300,"name":"Uncletopia | Montr√©al | 1 | One Thousand Uncles","name_short":"mtl-1","host":"mtl-1.ca.uncletopia.com","port":27015,"enabled":true,"region":"us-east","cc":"ca","latitude":45.50889,"longitude":-73.56167,"reserved":0,"last_update":"0001-01-01T00:00:00Z","name_a2s":"","protocol":0,"map":"","folder":"","game":"","app_id":0,"player_count":10,"max_players":0,"Bots":0,"server_type":"","server_os":"","password":false,"vac":false,"version":"","steam_id":0,"keywords":null,"game_id":0,"stv_port":0,"stv_name":"","players":[{"user_id":259,"name":"Sallomone","steam_id":76561198878216775,"connected_time":916000000000,"state":"active","ping":174},{"user_id":254,"name":"Nitroshot666","steam_id":76561198202167416,"connected_time":1216000000000,"state":"active","ping":53},{"user_id":248,"name":"BIGMOOD","steam_id":76561199086966716,"connected_time":2933000000000,"state":"active","ping":111},{"user_id":264,"name":"Memes","steam_id":76561198354087246,"connected_time":14000000000,"state":"spawning","ping":111},{"user_id":202,"name":"Nova Astral","steam_id":76561198068127098,"connected_time":6432000000000,"state":"active","ping":62},{"user_id":257,"name":"Jared","steam_id":76561198020432651,"connected_time":1146000000000,"state":"active","ping":55},{"user_id":260,"name":"Kenny Gaming","steam_id":76561199382783363,"connected_time":601000000000,"state":"active","ping":92},{"user_id":258,"name":"Kaiser","steam_id":76561198140729247,"connected_time":1140000000000,"state":"active","ping":45},{"user_id":262,"name":"JoeFalco","steam_id":76561198064005012,"connected_time":209000000000,"state":"active","ping":90},{"user_id":193,"name":"Snoopy","steam_id":76561198273735974,"connected_time":9277000000000,"state":"active","ping":95}]},{"server_id":301,"name":"Uncletopia | Montr√©al | 2 | One Thousand Uncles","name_short":"mtl-2","host":"mtl-1.ca.uncletopia.com","port":27025,"enabled":true,"region":"us-east","cc":"ca","latitude":45.50889,"longitude":-73.56167,"reserved":0,"last_update":"0001-01-01T00:00:00Z","name_a2s":"","protocol":0,"map":"","folder":"","game":"","app_id":0,"player_count":0,"max_players":0,"Bots":0,"server_type":"","server_os":"","password":false,"vac":false,"version":"","steam_id":0,"keywords":null,"game_id":0,"stv_port":0,"stv_name":"","players":null},{"server_id":302,"name":"Uncletopia | Montr√©al | 3 | One Thousand Uncles","name_short":"mtl-3","host":"mtl-1.ca.uncletopia.com","port":27035,"enabled":true,"region":"us-east","cc":"ca","latitude":45.50889,"longitude":-73.56167,"reserved":0,"last_update":"0001-01-01T00:00:00Z","name_a2s":"","protocol":0,"map":"","folder":"","game":"","app_id":0,"player_count":0,"max_players":0,"Bots":0,"server_type":"","server_os":"","password":false,"vac":false,"version":"","steam_id":0,"keywords":null,"game_id":0,"stv_port":0,"stv_name":"","players":null},{"server_id":13,"name":"Uncletopia | New York City | 1 | All Maps","name_short":"nyc-1","host":"nyc-1.us.uncletopia.com","port":27015,"enabled":true,"region":"us-east","cc":"us","latitude":40.73061,"longitude":-73.93524,"reserved":0,"last_update":"0001-01-01T00:00:00Z","name_a2s":"Uncletopia | New York City | 1 | All Maps","protocol":17,"map":"cp_process_final","folder":"tf","game":"Team Fortress","app_id":440,"player_count":24,"max_players":24,"Bots":0,"server_type":"Dedicated","server_os":"Linux","password":true,"vac":true,"version":"7961495","steam_id":85568392924469993,"keywords":["cp","nocrits","nodmgspread","uncletopia"],"game_id":440,"stv_port":27016,"stv_name":"Uncletopia | New York City | 1 | All Maps | STV","players":[{"user_id":109,"name":"Glennithy","steam_id":76561198339332079,"connected_time":574000000000,"state":"active","ping":69},{"user_id":106,"name":"WibbyOne","steam_id":76561198052843846,"connected_time":929000000000,"state":"active","ping":43},{"user_id":96,"name":"CornDog","steam_id":76561198249446918,"connected_time":1655000000000,"state":"active","ping":35},{"user_id":64,"name":"High School Nudical","steam_id":76561198172120615,"connected_time":4221000000000,"state":"active","ping":33},{"user_id":107,"name":"Kiradias777","steam_id":76561198067176309,"connected_time":927000000000,"state":"active","ping":86},{"user_id":68,"name":"benny worm","steam_id":76561198163238434,"connected_time":3897000000000,"state":"active","ping":47},{"user_id":79,"name":"Havok","steam_id":76561198063455003,"connected_time":2734000000000,"state":"active","ping":53},{"user_id":102,"name":"917-258-3609","steam_id":76561198174436329,"connected_time":968000000000,"state":"active","ping":63},{"user_id":91,"name":"Bother","steam_id":76561198336750909,"connected_time":2101000000000,"state":"active","ping":47},{"user_id":103,"name":"Carpet enthusiast","steam_id":76561198024040142,"connected_time":957000000000,"state":"active","ping":90},{"user_id":76,"name":"olg","steam_id":76561198163423805,"connected_time":2942000000000,"state":"active","ping":66},{"user_id":92,"name":"wool","steam_id":76561198869689933,"connected_time":2079000000000,"state":"active","ping":58},{"user_id":89,"name":"skid","steam_id":76561198057536994,"connected_time":2436000000000,"state":"active","ping":63},{"user_id":83,"name":"Horrowes","steam_id":76561198318446417,"connected_time":2678000000000,"state":"active","ping":64},{"user_id":61,"name":"Shakenpenguin23","steam_id":76561199104835393,"connected_time":4278000000000,"state":"active","ping":80},{"user_id":104,"name":"Explodingmayo","steam_id":76561198361728591,"connected_time":955000000000,"state":"active","ping":87},{"user_id":39,"name":"Drake the Pixel","steam_id":76561198131824401,"connected_time":4938000000000,"state":"active","ping":41},{"user_id":98,"name":"BeerPowder","steam_id":76561198058129400,"connected_time":992000000000,"state":"active","ping":45},{"user_id":100,"name":"UnlivingSkunk","steam_id":76561198324517387,"connected_time":988000000000,"state":"active","ping":57},{"user_id":94,"name":"Wafflez","steam_id":76561198081611996,"connected_time":1727000000000,"state":"active","ping":59},{"user_id":97,"name":"Smashing93","steam_id":76561199058453316,"connected_time":1479000000000,"state":"active","ping":67},{"user_id":77,"name":"ExtraSoap","steam_id":76561198008712409,"connected_time":2816000000000,"state":"active","ping":45},{"user_id":86,"name":"el soprano forma ultra instinct","steam_id":76561198058469527,"connected_time":2622000000000,"state":"active","ping":69},{"user_id":99,"name":"that 240hz dif","steam_id":76561198044443985,"connected_time":990000000000,"state":"active","ping":96}]},{"server_id":14,"name":"Uncletopia | New York City | 2 | All Maps","name_short":"nyc-2","host":"nyc-1.us.uncletopia.com","port":27025,"enabled":true,"region":"us-east","cc":"us","latitude":40.73061,"longitude":-73.93524,"reserved":0,"last_update":"0001-01-01T00:00:00Z","name_a2s":"Uncletopia | New York City | 2 | All Maps","protocol":17,"map":"koth_cascade","folder":"tf","game":"Team Fortress","app_id":440,"player_count":11,"max_players":24,"Bots":0,"server_type":"Dedicated","server_os":"Linux","password":true,"vac":true,"version":"7961495","steam_id":85568392924469994,"keywords":["cp","nocrits","nodmgspread","uncletopia"],"game_id":440,"stv_port":27026,"stv_name":"Uncletopia | New York City | 2 | All Maps | STV","players":[{"user_id":28,"name":"Orange Gaming Llama","steam_id":76561199088577021,"connected_time":1453000000000,"state":"active","ping":88},{"user_id":29,"name":"johs","steam_id":76561198827312411,"connected_time":1446000000000,"state":"active","ping":70},{"user_id":45,"name":"yer_nerd","steam_id":76561199435454093,"connected_time":128000000000,"state":"active","ping":60},{"user_id":42,"name":"Xemyr","steam_id":76561198044090177,"connected_time":363000000000,"state":"active","ping":87},{"user_id":43,"name":"Anstorner","steam_id":76561198274026015,"connected_time":307000000000,"state":"active","ping":104},{"user_id":38,"name":"Soul of Cinder (aka SoC)","steam_id":76561198018958668,"connected_time":579000000000,"state":"active","ping":57},{"user_id":44,"name":"beastierbeast","steam_id":76561199030645530,"connected_time":227000000000,"state":"active","ping":86},{"user_id":39,"name":"TheSmolPopato","steam_id":76561199076606348,"connected_time":568000000000,"state":"active","ping":74},{"user_id":46,"name":"Dreszerg","steam_id":76561198838757422,"connected_time":58000000000,"state":"active","ping":68},{"user_id":47,"name":"NoobsSlayer","steam_id":76561199102765122,"connected_time":38000000000,"state":"active","ping":137},{"user_id":48,"name":"Minkarou","steam_id":76561198870077864,"connected_time":36000000000,"state":"spawning","ping":54}]},{"server_id":15,"name":"Uncletopia | New York City | 3 | Stopwatch","name_short":"nyc-3","host":"nyc-1.us.uncletopia.com","port":27035,"enabled":true,"region":"us-east","cc":"us","latitude":40.73061,"longitude":-73.93524,"reserved":0,"last_update":"0001-01-01T00:00:00Z","name_a2s":"Uncletopia | New York City | 3 | Stopwatch","protocol":17,"map":"cp_snakewater_final1","folder":"tf","game":"Team Fortress","app_id":440,"player_count":0,"max_players":24,"Bots":0,"server_type":"Dedicated","server_os":"Linux","password":true,"vac":true,"version":"7961495","steam_id":85568392924742820,"keywords":["cp","nocrits","nodmgspread","uncletopia"],"game_id":440,"stv_port":27036,"stv_name":"Uncletopia | New York City | 3 | Stopwatch | STV","players":null},{"server_id":16,"name":"Uncletopia | New York City | 4 | Community","name_short":"nyc-4","host":"nyc-1.us.uncletopia.com","port":27045,"enabled":true,"region":"us-east","cc":"us","latitude":40.73061,"longitude":-73.93524,"reserved":0,"last_update":"0001-01-01T00:00:00Z","name_a2s":"Uncletopia | New York City | 4 | Community","protocol":17,"map":"cp_altitude","folder":"tf","game":"Team Fortress","app_id":440,"player_count":2,"max_players":24,"Bots":0,"server_type":"Dedicated","server_os":"Linux","password":true,"vac":true,"version":"7961495","steam_id":85568392924742821,"keywords":["cp","nocrits","nodmgspread","uncletopia"],"game_id":440,"stv_port":27046,"stv_name":"Uncletopia | New York City | 4 | Community | STV","players":[{"user_id":3,"name":"A Giant Girl Scout","steam_id":76561199160429755,"connected_time":897000000000,"state":"active","ping":74},{"user_id":4,"name":"flipper___334","steam_id":76561199247926199,"connected_time":859000000000,"state":"active","ping":80}]},{"server_id":142,"name":"Uncletopia | S√£o Paulo | 1 | All Maps","name_short":"sao-1","host":"sao-1.br.uncletopia.com","port":27015,"enabled":true,"region":"sa","cc":"br","latitude":-23.533773,"longitude":-46.62529,"reserved":0,"last_update":"0001-01-01T00:00:00Z","name_a2s":"Uncletopia | S√£o Paulo | 1 | All Maps","protocol":17,"map":"koth_viaduct","folder":"tf","game":"Team Fortress","app_id":440,"player_count":0,"max_players":24,"Bots":0,"server_type":"Dedicated","server_os":"Linux","password":true,"vac":true,"version":"7961495","steam_id":85568392924469996,"keywords":["cp","nocrits","nodmgspread","uncletopia"],"game_id":440,"stv_port":27016,"stv_name":"Uncletopia | S√£o Paulo | 1 | All Maps | STV","players":null},{"server_id":143,"name":"Uncletopia | S√£o Paulo | 2 | Community","name_short":"sao-2","host":"sao-2.br.uncletopia.com","port":27015,"enabled":true,"region":"sa","cc":"br","latitude":-23.533773,"longitude":-46.62529,"reserved":0,"last_update":"0001-01-01T00:00:00Z","name_a2s":"Uncletopia | S√£o Paulo | 2 | Community","protocol":17,"map":"workshop/pl_boundary_final1.ugc456799153","folder":"tf","game":"Team Fortress","app_id":440,"player_count":0,"max_players":24,"Bots":0,"server_type":"Dedicated","server_os":"Linux","password":true,"vac":true,"version":"7961495","steam_id":85568392924485349,"keywords":["nocrits","nodmgspread","payload","uncletopia"],"game_id":440,"stv_port":27016,"stv_name":"Uncletopia | S√£o Paulo | 2 | Community | STV","players":null},{"server_id":7,"name":"Uncletopia | Seattle | 1 | All Maps","name_short":"sea-1","host":"sea-1.us.uncletopia.com","port":27015,"enabled":true,"region":"us-west","cc":"us","latitude":47.608013,"longitude":-122.33517,"reserved":0,"last_update":"0001-01-01T00:00:00Z","name_a2s":"Uncletopia | Seattle | 1 | All Maps","protocol":17,"map":"cp_process_final","folder":"tf","game":"Team Fortress","app_id":440,"player_count":24,"max_players":24,"Bots":0,"server_type":"Dedicated","server_os":"Linux","password":true,"vac":true,"version":"7961495","steam_id":85568392924469997,"keywords":["cp","nocrits","nodmgspread","uncletopia"],"game_id":440,"stv_port":27016,"stv_name":"Uncletopia | Seattle | 1 | All Maps | STV","players":[{"user_id":173,"name":"Mr8bittripper","steam_id":76561198133894229,"connected_time":1195000000000,"state":"active","ping":41},{"user_id":77,"name":"Snale","steam_id":76561198039517965,"connected_time":9873000000000,"state":"active","ping":57},{"user_id":148,"name":"Choncago","steam_id":76561199247095754,"connected_time":3353000000000,"state":"active","ping":59},{"user_id":162,"name":"TommyBoi","steam_id":76561198025528637,"connected_time":2193000000000,"state":"active","ping":37},{"user_id":123,"name":"box","steam_id":76561198049531483,"connected_time":5722000000000,"state":"active","ping":134},{"user_id":128,"name":"my monitor is off","steam_id":76561198074499537,"connected_time":5198000000000,"state":"active","ping":66},{"user_id":95,"name":"Patio","steam_id":76561197986082608,"connected_time":7714000000000,"state":"active","ping":45},{"user_id":154,"name":"mach5","steam_id":76561198014094290,"connected_time":2676000000000,"state":"active","ping":100},{"user_id":156,"name":"Theodore John Kaczynski","steam_id":76561199127590316,"connected_time":2625000000000,"state":"active","ping":76},{"user_id":165,"name":"Buswolley","steam_id":76561197995205571,"connected_time":2034000000000,"state":"active","ping":55},{"user_id":143,"name":"dust | it/she","steam_id":76561198045218909,"connected_time":3747000000000,"state":"active","ping":42},{"user_id":176,"name":"lukamine","steam_id":76561198166827208,"connected_time":661000000000,"state":"active","ping":44},{"user_id":158,"name":"Dimple","steam_id":76561198980324190,"connected_time":2329000000000,"state":"active","ping":58},{"user_id":150,"name":"jayeskae","steam_id":76561198144220801,"connected_time":2707000000000,"state":"active","ping":51},{"user_id":179,"name":"Tenzin Gyatso","steam_id":76561198258980884,"connected_time":361000000000,"state":"active","ping":53},{"user_id":174,"name":"Grumbo","steam_id":76561199002106124,"connected_time":1190000000000,"state":"active","ping":122},{"user_id":175,"name":"korkskrou","steam_id":76561198422156430,"connected_time":1034000000000,"state":"active","ping":47},{"user_id":161,"name":"roach","steam_id":76561198354811369,"connected_time":2307000000000,"state":"active","ping":76},{"user_id":163,"name":"Linksaver1","steam_id":76561198096312838,"connected_time":2161000000000,"state":"active","ping":75},{"user_id":151,"name":"Madelyn Stillwell's Breast Milk","steam_id":76561198323298672,"connected_time":2707000000000,"state":"active","ping":53},{"user_id":152,"name":"Leaky Louie","steam_id":76561198132755619,"connected_time":2707000000000,"state":"active","ping":68},{"user_id":178,"name":"Blueyou","steam_id":76561198086516692,"connected_time":380000000000,"state":"active","ping":51},{"user_id":145,"name":"Nibotshooter","steam_id":76561199284825579,"connected_time":3613000000000,"state":"active","ping":73},{"user_id":153,"name":"Daz","steam_id":76561198041431938,"connected_time":2704000000000,"state":"active","ping":54}]},{"server_id":119,"name":"Uncletopia | Seattle | 2 | All Maps","name_short":"sea-2","host":"sea-1.us.uncletopia.com","port":27025,"enabled":true,"region":"us-west","cc":"us","latitude":47.608013,"longitude":-122.33517,"reserved":0,"last_update":"0001-01-01T00:00:00Z","name_a2s":"Uncletopia | Seattle | 2 | All Maps","protocol":17,"map":"koth_cascade","folder":"tf","game":"Team Fortress","app_id":440,"player_count":1,"max_players":24,"Bots":0,"server_type":"Dedicated","server_os":"Linux","password":true,"vac":true,"version":"7961495","steam_id":85568392924469998,"keywords":["cp","nocrits","nodmgspread","uncletopia"],"game_id":440,"stv_port":27026,"stv_name":"Uncletopia | Seattle | 2 | All Maps | STV","players":[{"user_id":14,"name":"woodpigeon","steam_id":76561199488457138,"connected_time":98000000000,"state":"active","ping":44}]},{"server_id":406,"name":"Uncletopia | Seattle | 3 | Stopwatch","name_short":"sea-3","host":"sea-1.us.uncletopia.com","port":27035,"enabled":true,"region":"us-west","cc":"us","latitude":47.608013,"longitude":-122.33517,"reserved":0,"last_update":"0001-01-01T00:00:00Z","name_a2s":"Uncletopia | Seattle | 3 | Stopwatch","protocol":17,"map":"cp_process_final","folder":"tf","game":"Team Fortress","app_id":440,"player_count":0,"max_players":24,"Bots":0,"server_type":"Dedicated","server_os":"Linux","password":true,"vac":true,"version":"7961495","steam_id":85568392924515217,"keywords":["cp","nocrits","nodmgspread","uncletopia"],"game_id":440,"stv_port":27036,"stv_name":"Uncletopia | Seattle | 3 | Stopwatch | STV","players":null},{"server_id":17,"name":"Uncletopia | San Francisco | 1 | All Maps","name_short":"sfo-1","host":"sfo-1.us.uncletopia.com","port":27015,"enabled":true,"region":"us-west","cc":"us","latitude":37.77397,"longitude":-122.4313,"reserved":0,"last_update":"0001-01-01T00:00:00Z","name_a2s":"Uncletopia | San Francisco | 1 | All Maps","protocol":17,"map":"koth_cascade","folder":"tf","game":"Team Fortress","app_id":440,"player_count":0,"max_players":24,"Bots":0,"server_type":"Dedicated","server_os":"Linux","password":true,"vac":true,"version":"7961495","steam_id":85568392924469999,"keywords":["cp","nocrits","nodmgspread","uncletopia"],"game_id":440,"stv_port":27016,"stv_name":"Uncletopia | San Francisco | 1 | All Maps | STV","players":null},{"server_id":18,"name":"Uncletopia | San Francisco | 2 | All Maps","name_short":"sfo-2","host":"sfo-1.us.uncletopia.com","port":27025,"enabled":true,"region":"us-west","cc":"us","latitude":37.77397,"longitude":-122.4313,"reserved":0,"last_update":"0001-01-01T00:00:00Z","name_a2s":"Uncletopia | San Francisco | 2 | All Maps","protocol":17,"map":"cp_snakewater_final1","folder":"tf","game":"Team Fortress","app_id":440,"player_count":0,"max_players":24,"Bots":0,"server_type":"Dedicated","server_os":"Linux","password":true,"vac":true,"version":"7961495","steam_id":85568392924470000,"keywords":["cp","nocrits","nodmgspread","uncletopia"],"game_id":440,"stv_port":27026,"stv_name":"Uncletopia | San Francisco | 2 | All Maps | STV","players":null},{"server_id":19,"name":"Uncletopia | San Francisco | 3 | Stopwatch","name_short":"sfo-3","host":"sfo-1.us.uncletopia.com","port":27035,"enabled":true,"region":"us-west","cc":"us","latitude":37.77397,"longitude":-122.4313,"reserved":0,"last_update":"0001-01-01T00:00:00Z","name_a2s":"Uncletopia | San Francisco | 3 | Stopwatch","protocol":17,"map":"pl_pier","folder":"tf","game":"Team Fortress","app_id":440,"player_count":0,"max_players":24,"Bots":0,"server_type":"Dedicated","server_os":"Linux","password":true,"vac":true,"version":"7961495","steam_id":85568392924742824,"keywords":["nocrits","nodmgspread","payload","uncletopia"],"game_id":440,"stv_port":27036,"stv_name":"Uncletopia | San Francisco | 3 | Stopwatch | STV","players":null},{"server_id":20,"name":"Uncletopia | San Francisco | 4 | Community","name_short":"sfo-4","host":"sfo-1.us.uncletopia.com","port":27045,"enabled":true,"region":"us-west","cc":"us","latitude":37.77397,"longitude":-122.4313,"reserved":0,"last_update":"0001-01-01T00:00:00Z","name_a2s":"Uncletopia | San Francisco | 4 | Community","protocol":17,"map":"pl_pier","folder":"tf","game":"Team Fortress","app_id":440,"player_count":0,"max_players":24,"Bots":0,"server_type":"Dedicated","server_os":"Linux","password":true,"vac":true,"version":"7961495","steam_id":85568392924742826,"keywords":["nocrits","nodmgspread","payload","uncletopia"],"game_id":440,"stv_port":27046,"stv_name":"Uncletopia | San Francisco | 4 | Community | STV","players":null},{"server_id":141,"name":"Uncletopia | Sydney | 1 | All Maps","name_short":"syd-1","host":"syd-1.au.uncletopia.com","port":27015,"enabled":true,"region":"au","cc":"au","latitude":-33.865143,"longitude":151.2099,"reserved":0,"last_update":"0001-01-01T00:00:00Z","name_a2s":"Uncletopia | Sydney | 1 | All Maps","protocol":17,"map":"koth_viaduct","folder":"tf","game":"Team Fortress","app_id":440,"player_count":0,"max_players":24,"Bots":0,"server_type":"Dedicated","server_os":"Linux","password":true,"vac":true,"version":"7961495","steam_id":85568392924470001,"keywords":["cp","nocrits","nodmgspread","uncletopia"],"game_id":440,"stv_port":27016,"stv_name":"Uncletopia | Sydney | 1 | All Maps | STV","players":null},{"server_id":123,"name":"Uncletopia | Sydney | 2 | All Maps","name_short":"syd-2","host":"syd-1.au.uncletopia.com","port":27025,"enabled":true,"region":"au","cc":"au","latitude":-33.865143,"longitude":151.2099,"reserved":0,"last_update":"0001-01-01T00:00:00Z","name_a2s":"Uncletopia | Sydney | 2 | All Maps","protocol":17,"map":"koth_lakeside_final","folder":"tf","game":"Team Fortress","app_id":440,"player_count":0,"max_players":24,"Bots":0,"server_type":"Dedicated","server_os":"Linux","password":true,"vac":true,"version":"7961495","steam_id":85568392924470002,"keywords":["cp","nocrits","nodmgspread","uncletopia"],"game_id":440,"stv_port":27026,"stv_name":"Uncletopia | Sydney | 2 | All Maps | STV","players":null},{"server_id":395,"name":"Uncletopia | Sydney | 3 | All Maps","name_short":"syd-3","host":"syd-1.au.uncletopia.com","port":27035,"enabled":true,"region":"au","cc":"au","latitude":-33.865143,"longitude":151.2099,"reserved":0,"last_update":"0001-01-01T00:00:00Z","name_a2s":"Uncletopia | Sydney | 3 | All Maps","protocol":17,"map":"pl_frontier_final","folder":"tf","game":"Team Fortress","app_id":440,"player_count":0,"max_players":24,"Bots":0,"server_type":"Dedicated","server_os":"Linux","password":true,"vac":true,"version":"7961495","steam_id":85568392925194467,"keywords":["nocrits","nodmgspread","payload","uncletopia"],"game_id":440,"stv_port":27036,"stv_name":"Uncletopia | Sydney | 3 | All Maps | STV","players":null},{"server_id":396,"name":"Uncletopia | Sydney | 4 | All Maps","name_short":"syd-4","host":"syd-1.au.uncletopia.com","port":27045,"enabled":true,"region":"au","cc":"au","latitude":-33.865143,"longitude":151.2099,"reserved":0,"last_update":"0001-01-01T00:00:00Z","name_a2s":"Uncletopia | Sydney | 4 | All Maps","protocol":17,"map":"cp_process_final","folder":"tf","game":"Team Fortress","app_id":440,"player_count":0,"max_players":24,"Bots":0,"server_type":"Dedicated","server_os":"Linux","password":true,"vac":true,"version":"7961495","steam_id":85568392925397958,"keywords":["cp","nocrits","nodmgspread","uncletopia"],"game_id":440,"stv_port":27046,"stv_name":"Uncletopia | Sydney | 4 | All Maps | STV","players":null},{"server_id":58,"name":"Uncletopia | Sydney | 5 | Stopwatch","name_short":"syd-5","host":"syd-1.au.uncletopia.com","port":27055,"enabled":true,"region":"au","cc":"au","latitude":-33.865143,"longitude":151.2099,"reserved":0,"last_update":"0001-01-01T00:00:00Z","name_a2s":"Uncletopia | Sydney | 5 | Stopwatch","protocol":17,"map":"pl_frontier_final","folder":"tf","game":"Team Fortress","app_id":440,"player_count":0,"max_players":24,"Bots":0,"server_type":"Dedicated","server_os":"Linux","password":true,"vac":true,"version":"7961495","steam_id":85568392925397959,"keywords":["nocrits","nodmgspread","payload","uncletopia"],"game_id":440,"stv_port":27056,"stv_name":"Uncletopia | Sydney | 5 | Stopwatch | STV","players":null},{"server_id":59,"name":"Uncletopia | Sydney | 6 | Community","name_short":"syd-6","host":"syd-1.au.uncletopia.com","port":27065,"enabled":true,"region":"au","cc":"au","latitude":-33.865143,"longitude":151.2099,"reserved":0,"last_update":"0001-01-01T00:00:00Z","name_a2s":"Uncletopia | Sydney | 6 | Community","protocol":17,"map":"cp_sunshine","folder":"tf","game":"Team Fortress","app_id":440,"player_count":0,"max_players":24,"Bots":0,"server_type":"Dedicated","server_os":"Linux","password":true,"vac":true,"version":"7961495","steam_id":85568392925397960,"keywords":["cp","nocrits","nodmgspread","uncletopia"],"game_id":440,"stv_port":27066,"stv_name":"Uncletopia | Sydney | 6 | Community | STV","players":null},{"server_id":49,"name":"Uncletopia | Warsaw | 1 | One Thousand Uncles","name_short":"waw-1","host":"waw-1.pl.uncletopia.com","port":27015,"enabled":true,"region":"eu","cc":"pl","latitude":52.2297,"longitude":21.017532,"reserved":0,"last_update":"0001-01-01T00:00:00Z","name_a2s":"Uncletopia | Warsaw | 1 | One Thousand Uncles","protocol":17,"map":"cp_egypt_final","folder":"tf","game":"Team Fortress","app_id":440,"player_count":25,"max_players":32,"Bots":16,"server_type":"Dedicated","server_os":"Linux","password":true,"vac":true,"version":"7961495","steam_id":85568392925397850,"keywords":["alltalk","bots","cp","danepve","increased_maxplayers","nocrits","norespawntime","uncletopia"],"game_id":440,"stv_port":0,"stv_name":"","players":[{"user_id":664,"name":"Pepefuckurmom","steam_id":76561199467404806,"connected_time":528000000000,"state":"active","ping":71},{"user_id":549,"name":"kakash","steam_id":76561199420637314,"connected_time":8723000000000,"state":"active","ping":74},{"user_id":665,"name":"The Big J","steam_id":76561198158202901,"connected_time":353000000000,"state":"active","ping":59},{"user_id":666,"name":"Hapy","steam_id":76561199157398169,"connected_time":321000000000,"state":"active","ping":189},{"user_id":652,"name":"Kaia Brodbecker","steam_id":76561198294109951,"connected_time":1568000000000,"state":"active","ping":99},{"user_id":660,"name":"mex :3","steam_id":76561198091083324,"connected_time":1056000000000,"state":"active","ping":66},{"user_id":661,"name":"Callawe","steam_id":76561198129785792,"connected_time":979000000000,"state":"active","ping":70},{"user_id":656,"name":"ZharMeny","steam_id":76561199086841610,"connected_time":1313000000000,"state":"active","ping":96},{"user_id":657,"name":"Sindik","steam_id":76561198973176041,"connected_time":1278000000000,"state":"active","ping":105}]},{"server_id":50,"name":"Uncletopia | Warsaw | 2 | One Thousand Uncles","name_short":"waw-2","host":"waw-1.pl.uncletopia.com","port":27025,"enabled":true,"region":"eu","cc":"pl","latitude":52.2297,"longitude":21.017532,"reserved":0,"last_update":"0001-01-01T00:00:00Z","name_a2s":"Uncletopia | Warsaw | 2 | One Thousand Uncles","protocol":17,"map":"pl_barnblitz","folder":"tf","game":"Team Fortress","app_id":440,"player_count":20,"max_players":32,"Bots":16,"server_type":"Dedicated","server_os":"Linux","password":true,"vac":true,"version":"7961495","steam_id":85568392925397851,"keywords":["alltalk","bots","danepve","increased_maxplayers","nocrits","norespawntime","payload","uncletopia"],"game_id":440,"stv_port":0,"stv_name":"","players":[{"user_id":402,"name":"Claw","steam_id":76561198060985181,"connected_time":1149000000000,"state":"active","ping":89},{"user_id":329,"name":"I.C. Wiener","steam_id":76561197999912254,"connected_time":4939000000000,"state":"active","ping":53},{"user_id":370,"name":"walking plane","steam_id":76561198146779559,"connected_time":2464000000000,"state":"active","ping":94},{"user_id":322,"name":"Max Power","steam_id":76561198019269089,"connected_time":5703000000000,"state":"active","ping":60}]},{"server_id":51,"name":"Uncletopia | Warsaw | 3 | All Maps","name_short":"waw-3","host":"waw-1.pl.uncletopia.com","port":27035,"enabled":true,"region":"eu","cc":"pl","latitude":52.2297,"longitude":21.017532,"reserved":0,"last_update":"0001-01-01T00:00:00Z","name_a2s":"Uncletopia | Warsaw | 3 | All Maps","protocol":17,"map":"koth_highpass","folder":"tf","game":"Team Fortress","app_id":440,"player_count":0,"max_players":24,"Bots":0,"server_type":"Dedicated","server_os":"Linux","password":true,"vac":true,"version":"7961495","steam_id":85568392925397852,"keywords":["cp","nocrits","nodmgspread","uncletopia"],"game_id":440,"stv_port":27036,"stv_name":"Uncletopia | Warsaw | 3 | All Maps | STV","players":null},{"server_id":52,"name":"Uncletopia | Warsaw | 4 | All Maps","name_short":"waw-4","host":"waw-1.pl.uncletopia.com","port":27045,"enabled":true,"region":"eu","cc":"pl","latitude":52.2297,"longitude":21.017532,"reserved":0,"last_update":"0001-01-01T00:00:00Z","name_a2s":"Uncletopia | Warsaw | 4 | All Maps","protocol":17,"map":"koth_lakeside_final","folder":"tf","game":"Team Fortress","app_id":440,"player_count":0,"max_players":24,"Bots":0,"server_type":"Dedicated","server_os":"Linux","password":true,"vac":true,"version":"7961495","steam_id":85568392925397853,"keywords":["cp","nocrits","nodmgspread","uncletopia"],"game_id":440,"stv_port":27046,"stv_name":"Uncletopia | Warsaw | 4 | All Maps | STV","players":null},{"server_id":53,"name":"Uncletopia | Warsaw | 5 | Stopwatch","name_short":"waw-5","host":"waw-1.pl.uncletopia.com","port":27055,"enabled":true,"region":"eu","cc":"pl","latitude":52.2297,"longitude":21.017532,"reserved":0,"last_update":"0001-01-01T00:00:00Z","name_a2s":"Uncletopia | Warsaw | 5 | Stopwatch","protocol":17,"map":"koth_lakeside_final","folder":"tf","game":"Team Fortress","app_id":440,"player_count":0,"max_players":24,"Bots":0,"server_type":"Dedicated","server_os":"Linux","password":true,"vac":true,"version":"7961495","steam_id":85568392925397854,"keywords":["cp","nocrits","nodmgspread","uncletopia"],"game_id":440,"stv_port":27056,"stv_name":"Uncletopia | Warsaw | 5 | Stopwatch | STV","players":null},{"server_id":54,"name":"Uncletopia | Warsaw | 6 | Community","name_short":"waw-6","host":"waw-1.pl.uncletopia.com","port":27065,"enabled":true,"region":"eu","cc":"pl","latitude":52.2297,"longitude":21.017532,"reserved":0,"last_update":"0001-01-01T00:00:00Z","name_a2s":"Uncletopia | Warsaw | 6 | Community","protocol":17,"map":"workshop/cp_indulge.ugc528106646","folder":"tf","game":"Team Fortress","app_id":440,"player_count":0,"max_players":24,"Bots":0,"server_type":"Dedicated","server_os":"Linux","password":true,"vac":true,"version":"7961495","steam_id":85568392925397856,"keywords":["cp","nocrits","nodmgspread","uncletopia"],"game_id":440,"stv_port":27066,"stv_name":"Uncletopia | Warsaw | 6 | Community | STV","players":null}]}