{"status":true,"message":"","result":[{"server_id":9,"name":"Uncletopia | Atlanta | 1 | All Maps","name_short":"atl-1","host":"atl-1.us.uncletopia.com","port":27015,"enabled":true,"region":"us-east","cc":"us","latitude":33.753746,"longitude":-84.38633,"reserved":0,"last_update":"0001-01-01T00:00:00Z","name_a2s":"Uncletopia | Atlanta | 1 | All Maps","protocol":17,"map":"pl_swiftwater_final1","folder":"tf","game":"Team Fortress","app_id":440,"player_count":24,"max_players":24,"Bots":0,"server_type":"Dedicated","server_os":"Linux","password":true,"vac":true,"version":"7757534","steam_id":85568392924469982,"keywords":["nocrits","nodmgspread","payload","uncletopia"],"game_id":440,"stv_port":27016,"stv_name":"Uncletopia | Atlanta | 1 | All Maps | STV","players":[{"user_id":118,"name":"FancyBones","steam_id":76561198180198885,"connected_time":4036000000000,"state":"active","ping":65},{"user_id":47,"name":"Scorch","steam_id":76561198167024005,"connected_time":8503000000000,"state":"active","ping":485},{"user_id":119,"name":"Khailby","steam_id":76561198811728410,"connected_time":4027000000000,"state":"active","ping":44},{"user_id":145,"name":"mayhem","steam_id":76561199246637881,"connected_time":1714000000000,"state":"active","ping":58},{"user_id":148,"name":"Ashes!","steam_id":76561197998475441,"connected_time":1126000000000,"state":"active","ping":67},{"user_id":160,"name":"The Joker","steam_id":76561199114753519,"connected_time":130000000000,"state":"active","ping":55},{"user_id":134,"name":"Lost","steam_id":76561198093713427,"connected_time":2943000000000,"state":"active","ping":75},{"user_id":60,"name":"Super","steam_id":76561199179611350,"connected_time":7750000000000,"state":"active","ping":89},{"user_id":64,"name":"Monster","steam_id":76561198189429665,"connected_time":7652000000000,"state":"active","ping":57},{"user_id":144,"name":"Higgle Poggers","steam_id":76561198043960257,"connected_time":1796000000000,"state":"active","ping":81},{"user_id":76,"name":"Thotimus Begonimus","steam_id":76561197970275938,"connected_time":7135000000000,"state":"active","ping":44},{"user_id":151,"name":"ATL1 | Crystron","steam_id":76561198880437428,"connected_time":954000000000,"state":"active","ping":78},{"user_id":115,"name":"Eins","steam_id":76561199030343810,"connected_time":4064000000000,"state":"active","ping":49},{"user_id":154,"name":"Dr.Zarann","steam_id":76561198163952958,"connected_time":611000000000,"state":"active","ping":57},{"user_id":135,"name":"vitamin","steam_id":76561198277799227,"connected_time":2831000000000,"state":"active","ping":64},{"user_id":153,"name":"Jakkson Lee Blakkson","steam_id":76561198072488403,"connected_time":865000000000,"state":"active","ping":78},{"user_id":156,"name":"porfer","steam_id":76561199118049168,"connected_time":218000000000,"state":"active","ping":102},{"user_id":157,"name":"BackwardsEagle","steam_id":76561199013712612,"connected_time":217000000000,"state":"active","ping":100},{"user_id":132,"name":"Brandonazz","steam_id":76561197994366351,"connected_time":3325000000000,"state":"active","ping":73},{"user_id":158,"name":"Dr. drips","steam_id":76561198209380493,"connected_time":207000000000,"state":"active","ping":62},{"user_id":142,"name":"hoboways","steam_id":76561198168035195,"connected_time":1849000000000,"state":"active","ping":84},{"user_id":103,"name":"firetamer2","steam_id":76561198040886980,"connected_time":5697000000000,"state":"active","ping":54},{"user_id":139,"name":"N√∏rzaq","steam_id":76561198143188802,"connected_time":2284000000000,"state":"active","ping":119},{"user_id":159,"name":"Karma","steam_id":76561198030565234,"connected_time":207000000000,"state":"active","ping":70}]},{"server_id":104,"name":"Uncletopia | Atlanta | 2 | All Maps","name_short":"atl-2","host":"atl-1.us.uncletopia.com","port":27025,"enabled":true,"region":"us-east","cc":"us","latitude":33.753746,"longitude":-84.38633,"reserved":0,"last_update":"0001-01-01T00:00:00Z","name_a2s":"Uncletopia | Atlanta | 2 | All Maps","protocol":17,"map":"koth_suijin","folder":"tf","game":"Team Fortress","app_id":440,"player_count":13,"max_players":24,"Bots":0,"server_type":"Dedicated","server_os":"Linux","password":true,"vac":true,"version":"7757534","steam_id":85568392924469983,"keywords":["cp","nocrits","nodmgspread","uncletopia"],"game_id":440,"stv_port":27026,"stv_name":"Uncletopia | Atlanta | 2 | All Maps | STV","players":[{"user_id":13,"name":"Pig master","steam_id":76561199388075545,"connected_time":2179000000000,"state":"active","ping":122},{"user_id":14,"name":"Madd Maxx","steam_id":76561198339584998,"connected_time":2072000000000,"state":"active","ping":82},{"user_id":32,"name":"Tom Foolery","steam_id":76561198142772896,"connected_time":34000000000,"state":"active","ping":122},{"user_id":24,"name":"Sprinklze","steam_id":76561198163562681,"connected_time":654000000000,"state":"active","ping":50},{"user_id":17,"name":"ThyConius","steam_id":76561198257291154,"connected_time":1276000000000,"state":"active","ping":172},{"user_id":27,"name":"Ch4rl33","steam_id":76561198037008621,"connected_time":356000000000,"state":"active","ping":63},{"user_id":25,"name":"nup noodle","steam_id":76561198101278181,"connected_time":653000000000,"state":"active","ping":82},{"user_id":33,"name":"Notsocreative","steam_id":76561198236372202,"connected_time":25000000000,"state":"active","ping":75},{"user_id":23,"name":"Spooky Scary","steam_id":76561198195388759,"connected_time":812000000000,"state":"active","ping":56},{"user_id":28,"name":"malicious uber driver","steam_id":76561198981319328,"connected_time":342000000000,"state":"active","ping":49},{"user_id":29,"name":"Jos!","steam_id":76561198361335001,"connected_time":338000000000,"state":"active","ping":54},{"user_id":30,"name":"Speedy2025","steam_id":76561198325563470,"connected_time":270000000000,"state":"active","ping":87},{"user_id":31,"name":"Doctor Vegeta","steam_id":76561198353898356,"connected_time":226000000000,"state":"active","ping":71}]},{"server_id":400,"name":"Uncletopia | Atlanta | 3 | Community","name_short":"atl-3","host":"atl-1.us.uncletopia.com","port":27035,"enabled":true,"region":"us-east","cc":"us","latitude":33.753746,"longitude":-84.38633,"reserved":0,"last_update":"0001-01-01T00:00:00Z","name_a2s":"Uncletopia | Atlanta | 3 | Community","protocol":17,"map":"workshop/koth_ashville_final.ugc2130459942","folder":"tf","game":"Team Fortress","app_id":440,"player_count":3,"max_players":24,"Bots":0,"server_type":"Dedicated","server_os":"Linux","password":true,"vac":true,"version":"7757534","steam_id":85568392924515187,"keywords":["cp","nocrits","nodmgspread","uncletopia"],"game_id":440,"stv_port":27036,"stv_name":"Uncletopia | Atlanta | 3 | Community | STV","players":[{"user_id":7,"name":"TMinusBlastedRocket #SaveTF2","steam_id":76561198161368476,"connected_time":572000000000,"state":"active","ping":38},{"user_id":8,"name":"Pathetic Ham Sniper","steam_id":76561199143951435,"connected_time":336000000000,"state":"active","ping":156},{"user_id":9,"name":"Natasha119","steam_id":76561199148450628,"connected_time":321000000000,"state":"active","ping":122}]},{"server_id":401,"name":"Uncletopia | Atlanta | 4 | No Payload","name_short":"atl-4","host":"atl-1.us.uncletopia.com","port":27045,"enabled":true,"region":"us-east","cc":"us","latitude":33.753746,"longitude":-84.38633,"reserved":0,"last_update":"0001-01-01T00:00:00Z","name_a2s":"","protocol":0,"map":"","folder":"","game":"","app_id":0,"player_count":0,"max_players":0,"Bots":0,"server_type":"","server_os":"","password":false,"vac":false,"version":"","steam_id":0,"keywords":null,"game_id":0,"stv_port":0,"stv_name":"","players":null},{"server_id":2,"name":"Uncletopia | Chicago | 1 | All Maps","name_short":"chi-1","host":"chi-1.us.uncletopia.com","port":27015,"enabled":true,"region":"us-central","cc":"us","latitude":41.881832,"longitude":-87.62318,"reserved":0,"last_update":"0001-01-01T00:00:00Z","name_a2s":"Uncletopia | Chicago | 1 | All Maps","protocol":17,"map":"koth_harvest_final","folder":"tf","game":"Team Fortress","app_id":440,"player_count":24,"max_players":24,"Bots":0,"server_type":"Dedicated","server_os":"Linux","password":true,"vac":true,"version":"7757534","steam_id":85568392924469984,"keywords":["cp","nocrits","nodmgspread","uncletopia"],"game_id":440,"stv_port":27016,"stv_name":"Uncletopia | Chicago | 1 | All Maps | STV","players":[{"user_id":362,"name":"sammy #freecream","steam_id":76561199001307670,"connected_time":3282000000000,"state":"active","ping":90},{"user_id":401,"name":"Sway","steam_id":76561198170353885,"connected_time":164000000000,"state":"active","ping":75},{"user_id":375,"name":"GREG","steam_id":76561198073021168,"connected_time":2313000000000,"state":"active","ping":72},{"user_id":394,"name":"destroylonely","steam_id":76561198349941380,"connected_time":792000000000,"state":"active","ping":42},{"user_id":377,"name":"tim-","steam_id":76561199119101315,"connected_time":2221000000000,"state":"active","ping":66},{"user_id":341,"name":"hoodwink00‚ù§","steam_id":76561198133869796,"connected_time":4722000000000,"state":"active","ping":86},{"user_id":371,"name":"xiii","steam_id":76561198079416036,"connected_time":2998000000000,"state":"active","ping":41},{"user_id":400,"name":"jayzak24","steam_id":76561198354267509,"connected_time":472000000000,"state":"active","ping":86},{"user_id":356,"name":"Veir≈´ Viseris","steam_id":76561197989857176,"connected_time":4031000000000,"state":"active","ping":167},{"user_id":382,"name":"ole_diggy","steam_id":76561198970212746,"connected_time":1983000000000,"state":"active","ping":66},{"user_id":390,"name":"Inquisitribble","steam_id":76561198022402409,"connected_time":850000000000,"state":"active","ping":47},{"user_id":397,"name":"juhg, koop","steam_id":76561198388955908,"connected_time":589000000000,"state":"active","ping":72},{"user_id":387,"name":"Oli B\u003eQS/BP/Bulk w/ 500+ keys","steam_id":76561198140316312,"connected_time":903000000000,"state":"active","ping":52},{"user_id":384,"name":"King of The Wood","steam_id":76561198132147358,"connected_time":1575000000000,"state":"active","ping":66},{"user_id":398,"name":"Quiet","steam_id":76561198119175817,"connected_time":558000000000,"state":"active","ping":86},{"user_id":386,"name":"No Telefrag Plz","steam_id":76561198113931312,"connected_time":939000000000,"state":"active","ping":76},{"user_id":265,"name":"vv","steam_id":76561198134813102,"connected_time":9155000000000,"state":"active","ping":59},{"user_id":328,"name":"Argo","steam_id":76561198353725622,"connected_time":5692000000000,"state":"active","ping":84},{"user_id":388,"name":"im trying my best","steam_id":76561198919095185,"connected_time":877000000000,"state":"active","ping":68},{"user_id":380,"name":"Thamahawk76","steam_id":76561198061986360,"connected_time":2033000000000,"state":"active","ping":85},{"user_id":374,"name":"snail","steam_id":76561198312155722,"connected_time":2624000000000,"state":"active","ping":170},{"user_id":315,"name":"roller","steam_id":76561198091233439,"connected_time":6185000000000,"state":"active","ping":49},{"user_id":391,"name":"Herr M√ºller","steam_id":76561198064876829,"connected_time":846000000000,"state":"active","ping":98},{"user_id":385,"name":"Mister Frank","steam_id":76561198161473385,"connected_time":1359000000000,"state":"active","ping":62}]},{"server_id":106,"name":"Uncletopia | Chicago | 2 | All Maps","name_short":"chi-2","host":"chi-1.us.uncletopia.com","port":27025,"enabled":true,"region":"us-central","cc":"us","latitude":41.881832,"longitude":-87.62318,"reserved":0,"last_update":"0001-01-01T00:00:00Z","name_a2s":"Uncletopia | Chicago | 2 | All Maps","protocol":17,"map":"pl_badwater","folder":"tf","game":"Team Fortress","app_id":440,"player_count":24,"max_players":24,"Bots":0,"server_type":"Dedicated","server_os":"Linux","password":true,"vac":true,"version":"7757534","steam_id":85568392924469985,"keywords":["nocrits","nodmgspread","payload","uncletopia"],"game_id":440,"stv_port":27026,"stv_name":"Uncletopia | Chicago | 2 | All Maps | STV","players":[{"user_id":102,"name":"Davy Jones","steam_id":76561198956823243,"connected_time":3685000000000,"state":"active","ping":65},{"user_id":131,"name":"team fortress","steam_id":76561198115443354,"connected_time":1265000000000,"state":"active","ping":45},{"user_id":137,"name":"Aristotle Voulton","steam_id":76561198100174923,"connected_time":668000000000,"state":"active","ping":88},{"user_id":133,"name":"Prophet","steam_id":76561198134948582,"connected_time":734000000000,"state":"active","ping":110},{"user_id":98,"name":"Shrek I Guess","steam_id":76561198152587680,"connected_time":4007000000000,"state":"active","ping":105},{"user_id":117,"name":"Chirox","steam_id":76561198034516923,"connected_time":3021000000000,"state":"active","ping":45},{"user_id":135,"name":"DJFunnyBone","steam_id":76561198892528359,"connected_time":687000000000,"state":"active","ping":36},{"user_id":127,"name":"AceDeuce","steam_id":76561198049904924,"connected_time":1378000000000,"state":"active","ping":56},{"user_id":92,"name":"Shuual","steam_id":76561198004395256,"connected_time":4555000000000,"state":"active","ping":83},{"user_id":115,"name":"‚ñ≤‚ñº‚ñ≤ Paul Atreideeznuts","steam_id":76561198015714075,"connected_time":3322000000000,"state":"active","ping":83},{"user_id":132,"name":"Highphin","steam_id":76561198986584680,"connected_time":749000000000,"state":"active","ping":65},{"user_id":106,"name":"Yeagle","steam_id":76561199086620299,"connected_time":3500000000000,"state":"active","ping":76},{"user_id":108,"name":"Cyan","steam_id":76561198090433914,"connected_time":3424000000000,"state":"active","ping":95},{"user_id":142,"name":"Guil","steam_id":76561197993289176,"connected_time":333000000000,"state":"active","ping":81},{"user_id":145,"name":"ÔºîÔºê Ôº¶Ôº∞Ôº≥","steam_id":76561198272394965,"connected_time":209000000000,"state":"active","ping":132},{"user_id":140,"name":"6t26j","steam_id":76561198278282836,"connected_time":513000000000,"state":"active","ping":55},{"user_id":134,"name":"^2Moving^1shadoW","steam_id":76561198078674411,"connected_time":725000000000,"state":"active","ping":75},{"user_id":71,"name":"Bullwinkle J. Moose","steam_id":76561198075977196,"connected_time":5960000000000,"state":"active","ping":67},{"user_id":120,"name":"ROGUE-PLANET","steam_id":76561198116023052,"connected_time":2895000000000,"state":"active","ping":65},{"user_id":82,"name":"Dude Named Bob","steam_id":76561198310448093,"connected_time":4974000000000,"state":"active","ping":47},{"user_id":130,"name":"Vet7ar","steam_id":76561198958199655,"connected_time":1324000000000,"state":"active","ping":55},{"user_id":111,"name":"Vacation","steam_id":76561198348081238,"connected_time":3403000000000,"state":"active","ping":137},{"user_id":112,"name":"cassius","steam_id":76561198203851303,"connected_time":3366000000000,"state":"active","ping":88},{"user_id":146,"name":"Ogginok","steam_id":76561197997497971,"connected_time":198000000000,"state":"active","ping":148}]},{"server_id":402,"name":"Uncletopia | Chicago | 3 | All Maps","name_short":"chi-3","host":"chi-1.us.uncletopia.com","port":27035,"enabled":true,"region":"us-central","cc":"us","latitude":41.881832,"longitude":-87.62318,"reserved":0,"last_update":"0001-01-01T00:00:00Z","name_a2s":"Uncletopia | Chicago | 3 | All Maps","protocol":17,"map":"pl_upward","folder":"tf","game":"Team Fortress","app_id":440,"player_count":24,"max_players":24,"Bots":0,"server_type":"Dedicated","server_os":"Linux","password":true,"vac":true,"version":"7757534","steam_id":85568392924515191,"keywords":["nocrits","nodmgspread","payload","uncletopia"],"game_id":440,"stv_port":27036,"stv_name":"Uncletopia | Chicago | 3 | All Maps | STV","players":[{"user_id":7,"name":"The World's Softest Sandwich","steam_id":76561198015577707,"connected_time":4227000000000,"state":"active","ping":74},{"user_id":42,"name":"noodlehairronaldoprime","steam_id":76561199471954402,"connected_time":2536000000000,"state":"active","ping":145},{"user_id":9,"name":"Fresh Lychee","steam_id":76561198045399559,"connected_time":3774000000000,"state":"active","ping":51},{"user_id":73,"name":"Snoball","steam_id":76561198205838372,"connected_time":205000000000,"state":"active","ping":70},{"user_id":24,"name":"Doctor Bear  ï ‚Ä¢·¥•‚Ä¢ î","steam_id":76561197968103161,"connected_time":2911000000000,"state":"active","ping":64},{"user_id":54,"name":"BambuBabyPackRunner","steam_id":76561198320866421,"connected_time":1768000000000,"state":"active","ping":69},{"user_id":27,"name":"bird doctor","steam_id":76561199144340440,"connected_time":2789000000000,"state":"active","ping":70},{"user_id":14,"name":"wiffel biffel","steam_id":76561198041670957,"connected_time":3173000000000,"state":"active","ping":85},{"user_id":74,"name":"Quansen","steam_id":76561198151594550,"connected_time":193000000000,"state":"active","ping":52},{"user_id":66,"name":"Commodore_Perry","steam_id":76561197986675784,"connected_time":1137000000000,"state":"active","ping":69},{"user_id":52,"name":"Schizophrenic Gaming","steam_id":76561199229608394,"connected_time":1941000000000,"state":"active","ping":71},{"user_id":72,"name":"chen","steam_id":76561198064872330,"connected_time":207000000000,"state":"active","ping":75},{"user_id":77,"name":"DangerVanDam","steam_id":76561198131655653,"connected_time":100000000000,"state":"active","ping":135},{"user_id":71,"name":"Beany","steam_id":76561198102299438,"connected_time":213000000000,"state":"active","ping":56},{"user_id":60,"name":"old birb man","steam_id":76561199410269097,"connected_time":1358000000000,"state":"active","ping":131},{"user_id":70,"name":"MillerWhite","steam_id":76561198076060357,"connected_time":576000000000,"state":"active","ping":77},{"user_id":75,"name":"Œõlxium","steam_id":76561198131272900,"connected_time":189000000000,"state":"active","ping":55},{"user_id":31,"name":"rickle the pick hog","steam_id":76561198165299077,"connected_time":2748000000000,"state":"active","ping":73},{"user_id":61,"name":"who is gavin?","steam_id":76561198069415057,"connected_time":1349000000000,"state":"active","ping":63},{"user_id":68,"name":"jzplr üé∑üêõ","steam_id":76561198091901520,"connected_time":1063000000000,"state":"active","ping":60},{"user_id":76,"name":"Howard Hamlin","steam_id":76561198881039861,"connected_time":112000000000,"state":"active","ping":56},{"user_id":67,"name":"agentish","steam_id":76561198055088122,"connected_time":1075000000000,"state":"active","ping":51},{"user_id":36,"name":"Snapdragron","steam_id":76561198348485302,"connected_time":2718000000000,"state":"active","ping":80},{"user_id":69,"name":"pepsibobby","steam_id":76561198853864511,"connected_time":860000000000,"state":"active","ping":74}]},{"server_id":403,"name":"Uncletopia | Chicago | 4 | All Maps","name_short":"chi-4","host":"chi-1.us.uncletopia.com","port":27045,"enabled":true,"region":"us-central","cc":"us","latitude":41.881832,"longitude":-87.62318,"reserved":0,"last_update":"0001-01-01T00:00:00Z","name_a2s":"Uncletopia | Chicago | 4 | All Maps","protocol":17,"map":"pl_borneo","folder":"tf","game":"Team Fortress","app_id":440,"player_count":24,"max_players":24,"Bots":0,"server_type":"Dedicated","server_os":"Linux","password":true,"vac":true,"version":"7757534","steam_id":85568392924515193,"keywords":["nocrits","nodmgspread","payload","uncletopia"],"game_id":440,"stv_port":27046,"stv_name":"Uncletopia | Chicago | 4 | All Maps | STV","players":[{"user_id":479,"name":"crack crisis","steam_id":76561198332519926,"connected_time":2570000000000,"state":"active","ping":82},{"user_id":198,"name":"dog","steam_id":76561198263873491,"connected_time":10615000000000,"state":"active","ping":42},{"user_id":498,"name":"Trusty","steam_id":76561198035444237,"connected_time":950000000000,"state":"active","ping":63},{"user_id":499,"name":"Kevin the Minion","steam_id":76561198052380794,"connected_time":827000000000,"state":"active","ping":81},{"user_id":504,"name":"later aligater","steam_id":76561198021609442,"connected_time":286000000000,"state":"active","ping":59},{"user_id":449,"name":"ShadBad","steam_id":76561198248287390,"connected_time":4743000000000,"state":"active","ping":136},{"user_id":502,"name":"Duck nut","steam_id":76561198355475831,"connected_time":314000000000,"state":"active","ping":97},{"user_id":503,"name":"kris736","steam_id":76561198038208255,"connected_time":308000000000,"state":"active","ping":54},{"user_id":492,"name":"AdmiralSharpie","steam_id":76561198066394239,"connected_time":1524000000000,"state":"active","ping":69},{"user_id":485,"name":"BigOrca54","steam_id":76561198181360271,"connected_time":2376000000000,"state":"active","ping":57},{"user_id":505,"name":"franky","steam_id":76561198070903328,"connected_time":283000000000,"state":"active","ping":74},{"user_id":507,"name":"bean3d","steam_id":76561198285786989,"connected_time":273000000000,"state":"active","ping":97},{"user_id":508,"name":"ttv/Muenstier","steam_id":76561198312153623,"connected_time":272000000000,"state":"active","ping":75},{"user_id":500,"name":"Ziath","steam_id":76561198094009164,"connected_time":718000000000,"state":"active","ping":63},{"user_id":512,"name":"monke","steam_id":76561198308289194,"connected_time":99000000000,"state":"active","ping":73},{"user_id":436,"name":"JACOB","steam_id":76561198211874895,"connected_time":6760000000000,"state":"active","ping":76},{"user_id":510,"name":"Rukks","steam_id":76561197993918954,"connected_time":237000000000,"state":"active","ping":90},{"user_id":428,"name":"Neo Kojiro","steam_id":76561198000967076,"connected_time":7010000000000,"state":"active","ping":73},{"user_id":511,"name":"king dedede","steam_id":76561198965562679,"connected_time":236000000000,"state":"active","ping":79},{"user_id":469,"name":"MrCalmL.I","steam_id":76561198966598137,"connected_time":3276000000000,"state":"active","ping":70},{"user_id":457,"name":"THE KING","steam_id":76561198066174041,"connected_time":3865000000000,"state":"active","ping":67},{"user_id":513,"name":"gabagool","steam_id":76561198882758067,"connected_time":88000000000,"state":"active","ping":42},{"user_id":240,"name":"hideyochest","steam_id":76561198090366059,"connected_time":9974000000000,"state":"active","ping":64},{"user_id":490,"name":"stevemarshall","steam_id":76561198405982285,"connected_time":1748000000000,"state":"active","ping":46}]},{"server_id":36,"name":"Uncletopia | Chicago | 5 | All Maps","name_short":"chi-5","host":"chi-2.us.uncletopia.com","port":27015,"enabled":true,"region":"us-central","cc":"us","latitude":41.881832,"longitude":-87.62318,"reserved":0,"last_update":"0001-01-01T00:00:00Z","name_a2s":"Uncletopia | Chicago | 5 | All Maps","protocol":17,"map":"pl_barnblitz","folder":"tf","game":"Team Fortress","app_id":440,"player_count":5,"max_players":24,"Bots":0,"server_type":"Dedicated","server_os":"Linux","password":true,"vac":true,"version":"7757534","steam_id":85568392924866362,"keywords":["nocrits","nodmgspread","payload","uncletopia"],"game_id":440,"stv_port":27016,"stv_name":"Uncletopia | Chicago | 5 | All Maps | STV","players":[{"user_id":23,"name":"chiswola","steam_id":76561198046920142,"connected_time":211000000000,"state":"active","ping":77},{"user_id":13,"name":"volta","steam_id":76561199214283884,"connected_time":1188000000000,"state":"active","ping":99},{"user_id":24,"name":"Fishmonger","steam_id":76561198372237027,"connected_time":82000000000,"state":"active","ping":79},{"user_id":20,"name":"-‚Åß‚Åß Rin „É™„É≥","steam_id":76561198155841915,"connected_time":680000000000,"state":"active","ping":61},{"user_id":25,"name":"Tideflat","steam_id":76561198179850851,"connected_time":46000000000,"state":"active","ping":97}]},{"server_id":37,"name":"Uncletopia | Chicago | 6 | All Maps","name_short":"chi-6","host":"chi-2.us.uncletopia.com","port":27025,"enabled":true,"region":"us-central","cc":"us","latitude":41.881832,"longitude":-87.62318,"reserved":0,"last_update":"0001-01-01T00:00:00Z","name_a2s":"Uncletopia | Chicago | 6 | All Maps","protocol":17,"map":"pl_swiftwater_final1","folder":"tf","game":"Team Fortress","app_id":440,"player_count":24,"max_players":24,"Bots":0,"server_type":"Dedicated","server_os":"Linux","password":true,"vac":true,"version":"7757534","steam_id":85568392924866363,"keywords":["nocrits","nodmgspread","payload","uncletopia"],"game_id":440,"stv_port":27026,"stv_name":"Uncletopia | Chicago | 6 | All Maps | STV","players":[{"user_id":80,"name":"Camfour","steam_id":76561198083090140,"connected_time":187000000000,"state":"active","ping":102},{"user_id":69,"name":"Mr. Tickle","steam_id":76561198126684647,"connected_time":2508000000000,"state":"active","ping":60},{"user_id":51,"name":"bash -lc ./asshat.sh","steam_id":76561198004584315,"connected_time":3871000000000,"state":"active","ping":62},{"user_id":17,"name":"Robo Intern","steam_id":76561199067098696,"connected_time":5637000000000,"state":"active","ping":84},{"user_id":67,"name":"TynMaiden","steam_id":76561198847327488,"connected_time":2852000000000,"state":"active","ping":91},{"user_id":56,"name":"Buff Wizard","steam_id":76561198151397667,"connected_time":3819000000000,"state":"active","ping":102},{"user_id":68,"name":"canners","steam_id":76561198103496593,"connected_time":2845000000000,"state":"active","ping":66},{"user_id":62,"name":"Sandwich Thief","steam_id":76561198094928735,"connected_time":3672000000000,"state":"active","ping":65},{"user_id":57,"name":"Orc peon","steam_id":76561198208567789,"connected_time":3813000000000,"state":"active","ping":88},{"user_id":79,"name":"mio","steam_id":76561198239286750,"connected_time":452000000000,"state":"active","ping":62},{"user_id":81,"name":"PL0T0","steam_id":76561198157481171,"connected_time":166000000000,"state":"active","ping":94},{"user_id":82,"name":"Certified BigMan","steam_id":76561198095544632,"connected_time":143000000000,"state":"active","ping":61},{"user_id":75,"name":"Smeller","steam_id":76561198041767882,"connected_time":928000000000,"state":"active","ping":48},{"user_id":37,"name":"Moop","steam_id":76561198096984681,"connected_time":4759000000000,"state":"active","ping":92},{"user_id":83,"name":"RyInc","steam_id":76561198874261643,"connected_time":143000000000,"state":"active","ping":47},{"user_id":47,"name":"Zero","steam_id":76561199383267408,"connected_time":4041000000000,"state":"active","ping":79},{"user_id":66,"name":"popfulmail","steam_id":76561198865971290,"connected_time":2893000000000,"state":"active","ping":84},{"user_id":63,"name":"Dr.KombatPhD.ttv","steam_id":76561198263847667,"connected_time":3532000000000,"state":"active","ping":64},{"user_id":71,"name":"G00D G00GLY M00GLY!!","steam_id":76561199177310566,"connected_time":1958000000000,"state":"active","ping":82},{"user_id":76,"name":"psy","steam_id":76561198013195018,"connected_time":888000000000,"state":"active","ping":79},{"user_id":60,"name":"flamingcookies","steam_id":76561198280864779,"connected_time":3714000000000,"state":"active","ping":78},{"user_id":77,"name":"shibaba bababool","steam_id":76561197972601902,"connected_time":887000000000,"state":"active","ping":78},{"user_id":78,"name":"Prime Rizziler","steam_id":76561199100612353,"connected_time":869000000000,"state":"active","ping":54},{"user_id":65,"name":"‚ù§‚ô°ÔΩ•ÔæüBubblesÔΩ•Ôæü‚ô°‚ù§","steam_id":76561198041057042,"connected_time":3397000000000,"state":"active","ping":64}]},{"server_id":38,"name":"Uncletopia | Chicago | 7 | Stopwatch Beta","name_short":"chi-7","host":"chi-2.us.uncletopia.com","port":27035,"enabled":true,"region":"us-central","cc":"us","latitude":41.881832,"longitude":-87.62318,"reserved":0,"last_update":"0001-01-01T00:00:00Z","name_a2s":"Uncletopia | Chicago | 7 | Stopwatch Beta","protocol":17,"map":"pl_barnblitz","folder":"tf","game":"Team Fortress","app_id":440,"player_count":0,"max_players":24,"Bots":0,"server_type":"Dedicated","server_os":"Linux","password":true,"vac":true,"version":"7757534","steam_id":85568392924866364,"keywords":["nocrits","nodmgspread","payload","uncletopia"],"game_id":440,"stv_port":27036,"stv_name":"Uncletopia | Chicago | 7 | Stopwatch Beta | STV","players":null},{"server_id":39,"name":"Uncletopia | Chicago | 8 | Community","name_short":"chi-8","host":"chi-2.us.uncletopia.com","port":27045,"enabled":true,"region":"us-central","cc":"us","latitude":41.881832,"longitude":-87.62318,"reserved":0,"last_update":"0001-01-01T00:00:00Z","name_a2s":"Uncletopia | Chicago | 8 | Community","protocol":17,"map":"koth_cascade","folder":"tf","game":"Team Fortress","app_id":440,"player_count":0,"max_players":24,"Bots":0,"server_type":"Dedicated","server_os":"Linux","password":true,"vac":true,"version":"7757534","steam_id":85568392924866365,"keywords":["cp","nocrits","nodmgspread","uncletopia"],"game_id":440,"stv_port":27046,"stv_name":"Uncletopia | Chicago | 8 | Community | STV","players":null},{"server_id":8,"name":"Uncletopia | Dallas | 1 | All Maps","name_short":"dal-1","host":"dal-1.us.uncletopia.com","port":27015,"enabled":true,"region":"us-central","cc":"us","latitude":32.779167,"longitude":-96.80889,"reserved":0,"last_update":"0001-01-01T00:00:00Z","name_a2s":"Uncletopia | Dallas | 1 | All Maps","protocol":17,"map":"cp_snakewater_final1","folder":"tf","game":"Team Fortress","app_id":440,"player_count":24,"max_players":24,"Bots":0,"server_type":"Dedicated","server_os":"Linux","password":true,"vac":true,"version":"7757534","steam_id":85568392924469986,"keywords":["cp","nocrits","nodmgspread","uncletopia"],"game_id":440,"stv_port":27016,"stv_name":"Uncletopia | Dallas | 1 | All Maps | STV","players":[{"user_id":198,"name":"Aztea","steam_id":76561198982089893,"connected_time":584000000000,"state":"active","ping":86},{"user_id":208,"name":"Chicanery","steam_id":76561198977589038,"connected_time":225000000000,"state":"active","ping":54},{"user_id":165,"name":"gamerlegend47","steam_id":76561198122776598,"connected_time":2456000000000,"state":"active","ping":74},{"user_id":209,"name":"ClickityShiba","steam_id":76561199381626991,"connected_time":109000000000,"state":"active","ping":65},{"user_id":131,"name":"Agent Q","steam_id":76561198830829003,"connected_time":5382000000000,"state":"active","ping":93},{"user_id":150,"name":"dicksnip","steam_id":76561198356515396,"connected_time":4122000000000,"state":"active","ping":54},{"user_id":187,"name":"Dartel","steam_id":76561197963977254,"connected_time":1727000000000,"state":"active","ping":80},{"user_id":197,"name":"Vergil V3","steam_id":76561199362236174,"connected_time":1175000000000,"state":"active","ping":190},{"user_id":196,"name":"SneakyRocks","steam_id":76561198201694213,"connected_time":1234000000000,"state":"active","ping":85},{"user_id":203,"name":"coleslavv","steam_id":76561199293350435,"connected_time":577000000000,"state":"active","ping":129},{"user_id":210,"name":"xXx420YoloSwaggins69xXx","steam_id":76561198054889312,"connected_time":92000000000,"state":"active","ping":61},{"user_id":211,"name":"Unregistered Hypercam 2","steam_id":76561198046895822,"connected_time":23000000000,"state":"active","ping":95},{"user_id":204,"name":"TuBz","steam_id":76561198967971442,"connected_time":553000000000,"state":"active","ping":78},{"user_id":186,"name":"A Gamer [F2P]","steam_id":76561198138712892,"connected_time":1873000000000,"state":"active","ping":41},{"user_id":156,"name":"Meth Goblin","steam_id":76561198086355221,"connected_time":3643000000000,"state":"active","ping":55},{"user_id":205,"name":"Ivyprophen","steam_id":76561198096893644,"connected_time":541000000000,"state":"active","ping":58},{"user_id":152,"name":"Ambrose Kenny-Smith (Real)","steam_id":76561198822069026,"connected_time":3945000000000,"state":"active","ping":108},{"user_id":191,"name":"Derply","steam_id":76561198871211642,"connected_time":1526000000000,"state":"active","ping":79},{"user_id":200,"name":"St. Michael","steam_id":76561198037611052,"connected_time":579000000000,"state":"active","ping":43},{"user_id":160,"name":"rumes","steam_id":76561198349219467,"connected_time":3328000000000,"state":"active","ping":73},{"user_id":161,"name":"luree","steam_id":76561198799737331,"connected_time":3057000000000,"state":"active","ping":94},{"user_id":207,"name":"Oh no, my hungry wolf husband!","steam_id":76561199302471485,"connected_time":412000000000,"state":"active","ping":70},{"user_id":184,"name":"brolio","steam_id":76561199189416201,"connected_time":2070000000000,"state":"active","ping":81},{"user_id":202,"name":"Slingwolf","steam_id":76561198132720460,"connected_time":577000000000,"state":"active","ping":103}]},{"server_id":108,"name":"Uncletopia | Dallas | 2 | All Maps","name_short":"dal-2","host":"dal-1.us.uncletopia.com","port":27025,"enabled":true,"region":"us-central","cc":"us","latitude":32.779167,"longitude":-96.80889,"reserved":0,"last_update":"0001-01-01T00:00:00Z","name_a2s":"Uncletopia | Dallas | 2 | All Maps","protocol":17,"map":"cp_dustbowl","folder":"tf","game":"Team Fortress","app_id":440,"player_count":18,"max_players":24,"Bots":0,"server_type":"Dedicated","server_os":"Linux","password":true,"vac":true,"version":"7757534","steam_id":85568392924469988,"keywords":["cp","nocrits","nodmgspread","uncletopia"],"game_id":440,"stv_port":27026,"stv_name":"Uncletopia | Dallas | 2 | All Maps | STV","players":[{"user_id":113,"name":"yeyoi","steam_id":76561198069821885,"connected_time":2052000000000,"state":"active","ping":75},{"user_id":103,"name":"Vato Tostado","steam_id":76561197970450546,"connected_time":2753000000000,"state":"active","ping":115},{"user_id":91,"name":"CreepaZoid08","steam_id":76561199077199356,"connected_time":4379000000000,"state":"spawning","ping":67},{"user_id":127,"name":"Vimh","steam_id":76561198384938589,"connected_time":1167000000000,"state":"spawning","ping":307},{"user_id":115,"name":"Joe Byron","steam_id":76561198996069414,"connected_time":2039000000000,"state":"active","ping":84},{"user_id":102,"name":"Poof","steam_id":76561199025247812,"connected_time":2826000000000,"state":"active","ping":63},{"user_id":16,"name":"TheGhostThatWas","steam_id":76561198055836483,"connected_time":8561000000000,"state":"active","ping":75},{"user_id":48,"name":"CyberBeans","steam_id":76561198239042642,"connected_time":7209000000000,"state":"active","ping":72},{"user_id":128,"name":"chimpynoise","steam_id":76561198415253659,"connected_time":1036000000000,"state":"active","ping":64},{"user_id":124,"name":"Riff","steam_id":76561198066921423,"connected_time":1616000000000,"state":"active","ping":63},{"user_id":126,"name":"shokolad","steam_id":76561198431770137,"connected_time":1246000000000,"state":"active","ping":36},{"user_id":84,"name":"Donnie Oats","steam_id":76561198091111592,"connected_time":4830000000000,"state":"active","ping":61},{"user_id":83,"name":"ferretsock","steam_id":76561198209927431,"connected_time":4854000000000,"state":"active","ping":161},{"user_id":109,"name":"nefarious criminal","steam_id":76561198077506415,"connected_time":2186000000000,"state":"active","ping":62},{"user_id":112,"name":"Tohubohu","steam_id":76561198077838448,"connected_time":2081000000000,"state":"active","ping":88},{"user_id":131,"name":"El Gordo Bondiola","steam_id":76561198150625509,"connected_time":547000000000,"state":"active","ping":101},{"user_id":133,"name":"apricity_a","steam_id":76561198202273263,"connected_time":136000000000,"state":"active","ping":69},{"user_id":117,"name":"Dylan","steam_id":76561198265522923,"connected_time":2000000000000,"state":"active","ping":69}]},{"server_id":5,"name":"Uncletopia | Frankfurt | 1 | All Maps","name_short":"frk-1","host":"frk-1.de.uncletopia.com","port":27015,"enabled":true,"region":"eu","cc":"de","latitude":50.110924,"longitude":8.682127,"reserved":0,"last_update":"0001-01-01T00:00:00Z","name_a2s":"Uncletopia | Frankfurt | 1 | All Maps","protocol":17,"map":"koth_viaduct","folder":"tf","game":"Team Fortress","app_id":440,"player_count":0,"max_players":24,"Bots":0,"server_type":"Dedicated","server_os":"Linux","password":true,"vac":true,"version":"7757534","steam_id":85568392924469989,"keywords":["cp","nocrits","nodmgspread","uncletopia"],"game_id":440,"stv_port":27016,"stv_name":"Uncletopia | Frankfurt | 1 | All Maps | STV","players":null},{"server_id":110,"name":"Uncletopia | Frankfurt | 2 | All Maps","name_short":"frk-2","host":"frk-1.de.uncletopia.com","port":27025,"enabled":true,"region":"eu","cc":"de","latitude":50.110924,"longitude":8.682127,"reserved":0,"last_update":"0001-01-01T00:00:00Z","name_a2s":"Uncletopia | Frankfurt | 2 | All Maps","protocol":17,"map":"pl_upward","folder":"tf","game":"Team Fortress","app_id":440,"player_count":24,"max_players":24,"Bots":0,"server_type":"Dedicated","server_os":"Linux","password":true,"vac":true,"version":"7757534","steam_id":85568392924469990,"keywords":["nocrits","nodmgspread","payload","uncletopia"],"game_id":440,"stv_port":27026,"stv_name":"Uncletopia | Frankfurt | 2 | All Maps | STV","players":[{"user_id":376,"name":"Noob_with_source","steam_id":76561198870362103,"connected_time":245000000000,"state":"active","ping":60},{"user_id":378,"name":"Michael","steam_id":76561198003146906,"connected_time":213000000000,"state":"active","ping":57},{"user_id":351,"name":"The real Slim Shady","steam_id":76561198001377076,"connected_time":2458000000000,"state":"active","ping":76},{"user_id":375,"name":"fan","steam_id":76561198210792815,"connected_time":516000000000,"state":"active","ping":75},{"user_id":345,"name":"supercharger832","steam_id":76561198871408515,"connected_time":2941000000000,"state":"active","ping":58},{"user_id":360,"name":"Owlogood","steam_id":76561199182543965,"connected_time":1401000000000,"state":"active","ping":124},{"user_id":372,"name":"Valoxi","steam_id":76561197995042938,"connected_time":946000000000,"state":"active","ping":69},{"user_id":370,"name":"Rez","steam_id":76561198410598772,"connected_time":1187000000000,"state":"active","ping":54},{"user_id":365,"name":"Bumblebee","steam_id":76561198033551105,"connected_time":1359000000000,"state":"active","ping":66},{"user_id":324,"name":"doe","steam_id":76561198058432834,"connected_time":3904000000000,"state":"active","ping":48},{"user_id":333,"name":"Grillem Dafoe","steam_id":76561198306874574,"connected_time":3703000000000,"state":"active","ping":75},{"user_id":332,"name":"gagalak","steam_id":76561198089979108,"connected_time":3729000000000,"state":"active","ping":90},{"user_id":374,"name":"Haggabah,WhoPliesTheUmbralPath","steam_id":76561198846984399,"connected_time":831000000000,"state":"active","ping":81},{"user_id":368,"name":"DededeMain | trade.tf","steam_id":76561198310951632,"connected_time":1271000000000,"state":"active","ping":152},{"user_id":364,"name":"Testicular torsion","steam_id":76561198119547399,"connected_time":1364000000000,"state":"active","ping":63},{"user_id":369,"name":"LuGiO","steam_id":76561198404105206,"connected_time":1255000000000,"state":"active","ping":58},{"user_id":341,"name":"„ÉÜ„Ç§„É´„Çπ","steam_id":76561198022403271,"connected_time":3495000000000,"state":"active","ping":45},{"user_id":371,"name":"Adrenaline","steam_id":76561197970852048,"connected_time":1068000000000,"state":"active","ping":60},{"user_id":353,"name":"Janitor","steam_id":76561198418538887,"connected_time":2087000000000,"state":"active","ping":96},{"user_id":330,"name":"Der er et s√∏m igennem mit ben","steam_id":76561198204171871,"connected_time":3826000000000,"state":"active","ping":99},{"user_id":293,"name":"Ixsus\u003c3","steam_id":76561198094756869,"connected_time":6806000000000,"state":"active","ping":58},{"user_id":280,"name":"Pacanaz","steam_id":76561198011514552,"connected_time":7353000000000,"state":"active","ping":78},{"user_id":352,"name":"Pepegi","steam_id":76561198001230113,"connected_time":2261000000000,"state":"active","ping":71},{"user_id":355,"name":"Total noob","steam_id":76561198274105878,"connected_time":2029000000000,"state":"active","ping":88}]},{"server_id":308,"name":"Uncletopia | Frankfurt | 3 | All Maps","name_short":"frk-3","host":"frk-1.de.uncletopia.com","port":27035,"enabled":true,"region":"eu","cc":"de","latitude":50.110924,"longitude":8.682127,"reserved":0,"last_update":"0001-01-01T00:00:00Z","name_a2s":"Uncletopia | Frankfurt | 3 | All Maps","protocol":17,"map":"pl_borneo","folder":"tf","game":"Team Fortress","app_id":440,"player_count":24,"max_players":24,"Bots":0,"server_type":"Dedicated","server_os":"Linux","password":true,"vac":true,"version":"7757534","steam_id":85568392924504274,"keywords":["nocrits","nodmgspread","payload","uncletopia"],"game_id":440,"stv_port":27036,"stv_name":"Uncletopia | Frankfurt | 3 | All Maps | STV","players":[{"user_id":481,"name":"NeiroüëΩ·ó©YY ·í™·ó∞·ó©O","steam_id":76561198046743985,"connected_time":1743000000000,"state":"active","ping":89},{"user_id":485,"name":"die","steam_id":76561198283638355,"connected_time":1497000000000,"state":"active","ping":71},{"user_id":498,"name":"Gio'sMonkey","steam_id":76561198892432223,"connected_time":661000000000,"state":"active","ping":87},{"user_id":502,"name":"Syll","steam_id":76561198040736202,"connected_time":188000000000,"state":"active","ping":93},{"user_id":504,"name":"VORTEX(COMMS OPEN)","steam_id":76561199074746528,"connected_time":82000000000,"state":"active","ping":60},{"user_id":480,"name":"tf2 snake","steam_id":76561198193971167,"connected_time":1833000000000,"state":"active","ping":50},{"user_id":483,"name":"Lolbyte","steam_id":76561199239627724,"connected_time":1665000000000,"state":"active","ping":115},{"user_id":493,"name":"Spooks","steam_id":76561199171471823,"connected_time":1150000000000,"state":"active","ping":55},{"user_id":505,"name":"KingVoker","steam_id":76561198039602539,"connected_time":76000000000,"state":"active","ping":70},{"user_id":506,"name":"Goose of Wisdom","steam_id":76561198233465044,"connected_time":51000000000,"state":"active","ping":148},{"user_id":492,"name":"Regan","steam_id":76561198100631086,"connected_time":1188000000000,"state":"active","ping":88},{"user_id":444,"name":"wasto-/-‚Ñ¢","steam_id":76561198102888038,"connected_time":3626000000000,"state":"active","ping":55},{"user_id":503,"name":"ZAZA pro","steam_id":76561198033845455,"connected_time":104000000000,"state":"active","ping":92},{"user_id":495,"name":"TKN_Paps997","steam_id":76561198419868465,"connected_time":940000000000,"state":"active","ping":78},{"user_id":507,"name":"cursedbygod‚ô°","steam_id":76561198318291047,"connected_time":46000000000,"state":"active","ping":108},{"user_id":467,"name":"cult","steam_id":76561198188647690,"connected_time":2820000000000,"state":"active","ping":68},{"user_id":470,"name":"Vytuzas","steam_id":76561198012868436,"connected_time":2571000000000,"state":"active","ping":52},{"user_id":508,"name":"SLiPpeRyJoe.nosound","steam_id":76561197977206359,"connected_time":41000000000,"state":"active","ping":176},{"user_id":487,"name":"Creative","steam_id":76561198835034247,"connected_time":1457000000000,"state":"active","ping":85},{"user_id":458,"name":"pumaschildkroete","steam_id":76561198044892630,"connected_time":3327000000000,"state":"active","ping":109},{"user_id":491,"name":"breedable","steam_id":76561198010300032,"connected_time":1404000000000,"state":"active","ping":73},{"user_id":496,"name":"REN","steam_id":76561198000596385,"connected_time":749000000000,"state":"active","ping":71},{"user_id":499,"name":"Polech","steam_id":76561199187916824,"connected_time":623000000000,"state":"active","ping":77},{"user_id":406,"name":"G1","steam_id":76561199097753630,"connected_time":5922000000000,"state":"active","ping":70}]},{"server_id":309,"name":"Uncletopia | Frankfurt | 4 | All Maps","name_short":"frk-4","host":"frk-1.de.uncletopia.com","port":27045,"enabled":true,"region":"eu","cc":"de","latitude":50.110924,"longitude":8.682127,"reserved":0,"last_update":"0001-01-01T00:00:00Z","name_a2s":"Uncletopia | Frankfurt | 4 | All Maps","protocol":17,"map":"pl_barnblitz","folder":"tf","game":"Team Fortress","app_id":440,"player_count":24,"max_players":24,"Bots":0,"server_type":"Dedicated","server_os":"Linux","password":true,"vac":true,"version":"7757534","steam_id":85568392924504275,"keywords":["nocrits","nodmgspread","payload","uncletopia"],"game_id":440,"stv_port":27046,"stv_name":"Uncletopia | Frankfurt | 4 | All Maps | STV","players":[{"user_id":415,"name":"Gamlader","steam_id":76561198306177608,"connected_time":131000000000,"state":"active","ping":80},{"user_id":402,"name":"LivEssense","steam_id":76561198052476979,"connected_time":635000000000,"state":"active","ping":75},{"user_id":404,"name":"Slim3rs","steam_id":76561199088010585,"connected_time":585000000000,"state":"active","ping":190},{"user_id":387,"name":"Pooryoungfrog","steam_id":76561199174779667,"connected_time":1216000000000,"state":"active","ping":166},{"user_id":393,"name":"FlameTheGame","steam_id":76561198841108519,"connected_time":995000000000,"state":"active","ping":91},{"user_id":388,"name":"Ash","steam_id":76561198110133179,"connected_time":1099000000000,"state":"active","ping":73},{"user_id":372,"name":"wasps","steam_id":76561198049485054,"connected_time":2137000000000,"state":"active","ping":76},{"user_id":399,"name":"Raptor","steam_id":76561198061638593,"connected_time":781000000000,"state":"active","ping":159},{"user_id":389,"name":"pfear","steam_id":76561197999207328,"connected_time":1089000000000,"state":"active","ping":75},{"user_id":403,"name":"Ziemniaczki z koperkiem","steam_id":76561198829123464,"connected_time":616000000000,"state":"active","ping":74},{"user_id":347,"name":"Sabotat","steam_id":76561198985732740,"connected_time":3075000000000,"state":"active","ping":88},{"user_id":405,"name":"kallerannar","steam_id":76561199095701143,"connected_time":583000000000,"state":"active","ping":94},{"user_id":406,"name":"ÁÅ∞Koo","steam_id":76561199435201488,"connected_time":571000000000,"state":"active","ping":93},{"user_id":412,"name":"2D","steam_id":76561199113659141,"connected_time":306000000000,"state":"active","ping":139},{"user_id":276,"name":"biden blast","steam_id":76561198059699043,"connected_time":8505000000000,"state":"active","ping":77},{"user_id":397,"name":"transgender e-girl","steam_id":76561198168589809,"connected_time":887000000000,"state":"active","ping":72},{"user_id":394,"name":"Nutella","steam_id":76561198217477276,"connected_time":990000000000,"state":"active","ping":69},{"user_id":407,"name":"gabagool","steam_id":76561198307111838,"connected_time":561000000000,"state":"active","ping":63},{"user_id":413,"name":"HAMtastic","steam_id":76561198879769410,"connected_time":283000000000,"state":"active","ping":81},{"user_id":414,"name":"Wattseyy","steam_id":76561198248567360,"connected_time":266000000000,"state":"active","ping":51},{"user_id":391,"name":"Marty","steam_id":76561198075616058,"connected_time":1077000000000,"state":"active","ping":68},{"user_id":408,"name":"Flying skyhigh","steam_id":76561198372971096,"connected_time":543000000000,"state":"active","ping":69},{"user_id":409,"name":"zaleek69","steam_id":76561198058877595,"connected_time":542000000000,"state":"active","ping":59},{"user_id":411,"name":"Le p√®re Volca","steam_id":76561198235814492,"connected_time":512000000000,"state":"active","ping":81}]},{"server_id":310,"name":"Uncletopia | Frankfurt | 5 | All Maps","name_short":"frk-5","host":"frk-1.de.uncletopia.com","port":27055,"enabled":true,"region":"eu","cc":"de","latitude":50.110924,"longitude":8.682127,"reserved":0,"last_update":"0001-01-01T00:00:00Z","name_a2s":"Uncletopia | Frankfurt | 5 | All Maps","protocol":17,"map":"cp_process_final","folder":"tf","game":"Team Fortress","app_id":440,"player_count":24,"max_players":24,"Bots":0,"server_type":"Dedicated","server_os":"Linux","password":true,"vac":true,"version":"7757534","steam_id":85568392924504277,"keywords":["cp","nocrits","nodmgspread","uncletopia"],"game_id":440,"stv_port":27056,"stv_name":"Uncletopia | Frankfurt | 5 | All Maps | STV","players":[{"user_id":392,"name":"Petight","steam_id":76561197999438798,"connected_time":1980000000000,"state":"active","ping":50},{"user_id":413,"name":"Jack","steam_id":76561198325505238,"connected_time":575000000000,"state":"active","ping":76},{"user_id":401,"name":"Kage","steam_id":76561199054037036,"connected_time":935000000000,"state":"active","ping":40},{"user_id":407,"name":"Setter Ball Gaul","steam_id":76561198130427881,"connected_time":763000000000,"state":"active","ping":165},{"user_id":399,"name":"MRLOLENO","steam_id":76561198450911838,"connected_time":979000000000,"state":"active","ping":69},{"user_id":375,"name":"AddamsFamilyReject","steam_id":76561198035046824,"connected_time":2878000000000,"state":"active","ping":72},{"user_id":400,"name":"New","steam_id":76561198402195911,"connected_time":939000000000,"state":"active","ping":124},{"user_id":312,"name":"–ü–µ—Å –ü–∞—Ç—Ä–æ–Ω","steam_id":76561198273199378,"connected_time":6241000000000,"state":"active","ping":63},{"user_id":368,"name":"Endi","steam_id":76561198914938199,"connected_time":3113000000000,"state":"active","ping":91},{"user_id":418,"name":"tob:ias","steam_id":76561198832146626,"connected_time":19000000000,"state":"spawning","ping":60},{"user_id":414,"name":"Hattmannen","steam_id":76561198340884902,"connected_time":551000000000,"state":"active","ping":70},{"user_id":415,"name":"Lexiss","steam_id":76561198086211346,"connected_time":456000000000,"state":"active","ping":69},{"user_id":417,"name":"boudgra","steam_id":76561198035380064,"connected_time":32000000000,"state":"active","ping":59},{"user_id":376,"name":"Crayzo A.s.","steam_id":76561199049654752,"connected_time":2872000000000,"state":"active","ping":78},{"user_id":348,"name":"punk rock loser","steam_id":76561199117720299,"connected_time":4245000000000,"state":"active","ping":58},{"user_id":405,"name":"Bromoneto","steam_id":76561198876695014,"connected_time":817000000000,"state":"active","ping":67},{"user_id":406,"name":"the catboy","steam_id":76561198236015506,"connected_time":812000000000,"state":"active","ping":102},{"user_id":410,"name":"Viisaus","steam_id":76561198316533099,"connected_time":698000000000,"state":"active","ping":57},{"user_id":396,"name":"ThatTFguy","steam_id":76561198056794321,"connected_time":1601000000000,"state":"active","ping":70},{"user_id":269,"name":"cislastar","steam_id":76561198027202375,"connected_time":9177000000000,"state":"active","ping":77},{"user_id":411,"name":"‡∂ûbominasus 2137  #SaveTF2","steam_id":76561198030062981,"connected_time":684000000000,"state":"active","ping":66},{"user_id":397,"name":"Wujek Cacek","steam_id":76561198010267943,"connected_time":1597000000000,"state":"active","ping":75},{"user_id":412,"name":"modesttoast","steam_id":76561199056833187,"connected_time":677000000000,"state":"active","ping":86},{"user_id":398,"name":"...","steam_id":76561198969234594,"connected_time":1570000000000,"state":"active","ping":82}]},{"server_id":311,"name":"Uncletopia | Frankfurt | 6 | All Maps","name_short":"frk-6","host":"frk-1.de.uncletopia.com","port":27065,"enabled":true,"region":"eu","cc":"de","latitude":50.110924,"longitude":8.682127,"reserved":0,"last_update":"0001-01-01T00:00:00Z","name_a2s":"Uncletopia | Frankfurt | 6 | All Maps","protocol":17,"map":"pl_upward","folder":"tf","game":"Team Fortress","app_id":440,"player_count":24,"max_players":24,"Bots":0,"server_type":"Dedicated","server_os":"Linux","password":true,"vac":true,"version":"7757534","steam_id":85568392924504278,"keywords":["nocrits","nodmgspread","payload","uncletopia"],"game_id":440,"stv_port":27066,"stv_name":"Uncletopia | Frankfurt | 6 | All Maps | STV","players":[{"user_id":150,"name":"Boki","steam_id":76561198044553351,"connected_time":5255000000000,"state":"active","ping":75},{"user_id":207,"name":"beurgeur","steam_id":76561198872426314,"connected_time":1739000000000,"state":"active","ping":45},{"user_id":264,"name":"Dag!","steam_id":76561198030147941,"connected_time":185000000000,"state":"active","ping":61},{"user_id":269,"name":"cl","steam_id":76561199436640904,"connected_time":69000000000,"state":"active","ping":69},{"user_id":249,"name":"Mikeal (very good at the game)","steam_id":76561198241759034,"connected_time":566000000000,"state":"active","ping":96},{"user_id":202,"name":"Deathhound7","steam_id":76561198120807283,"connected_time":2081000000000,"state":"active","ping":148},{"user_id":194,"name":"makiverem","steam_id":76561198425866216,"connected_time":2339000000000,"state":"active","ping":87},{"user_id":247,"name":"Kris","steam_id":76561198240638652,"connected_time":595000000000,"state":"active","ping":48},{"user_id":244,"name":"Spenji","steam_id":76561198126634202,"connected_time":755000000000,"state":"active","ping":70},{"user_id":178,"name":"Seail_M","steam_id":76561198002405605,"connected_time":2949000000000,"state":"active","ping":56},{"user_id":179,"name":"Wardruna96","steam_id":76561199057083828,"connected_time":2939000000000,"state":"active","ping":89},{"user_id":180,"name":"LIGHTWEIGHT BABY","steam_id":76561198002761980,"connected_time":2928000000000,"state":"active","ping":60},{"user_id":172,"name":"Sputnik","steam_id":76561198138660241,"connected_time":3411000000000,"state":"active","ping":86},{"user_id":181,"name":"poo brother","steam_id":76561199368726811,"connected_time":2914000000000,"state":"active","ping":88},{"user_id":222,"name":"Ross from F.R.I.E.N.D.S.","steam_id":76561198008511665,"connected_time":1035000000000,"state":"active","ping":60},{"user_id":183,"name":"Sch","steam_id":76561198071341689,"connected_time":2894000000000,"state":"active","ping":55},{"user_id":224,"name":"lvl. 50 honkler","steam_id":76561198061688660,"connected_time":1018000000000,"state":"active","ping":113},{"user_id":209,"name":"Dr.090","steam_id":76561198201215334,"connected_time":1681000000000,"state":"active","ping":89},{"user_id":169,"name":"Soerlssoelss√∂en","steam_id":76561197993060585,"connected_time":3680000000000,"state":"active","ping":65},{"user_id":248,"name":"—Å—ã–Ω –¥–∂–µ—Ñ—Ñ–∞ —É–±–∏–π—Ü\ufffd","steam_id":76561199149307190,"connected_time":574000000000,"state":"active","ping":77},{"user_id":189,"name":"ProfessorCrack","steam_id":76561199035475627,"connected_time":2862000000000,"state":"active","ping":85},{"user_id":253,"name":"united chunk","steam_id":76561199017850298,"connected_time":376000000000,"state":"active","ping":75},{"user_id":259,"name":"a straight white male","steam_id":76561198381120660,"connected_time":291000000000,"state":"active","ping":91},{"user_id":196,"name":"DrExplosive","steam_id":76561198063678579,"connected_time":2250000000000,"state":"active","ping":65}]},{"server_id":23,"name":"Uncletopia | Frankfurt | 7 | Stopwatch Beta","name_short":"frk-7","host":"frk-1.de.uncletopia.com","port":27075,"enabled":true,"region":"eu","cc":"de","latitude":50.110924,"longitude":8.682127,"reserved":0,"last_update":"0001-01-01T00:00:00Z","name_a2s":"Uncletopia | Frankfurt | 7 | Stopwatch Beta","protocol":17,"map":"workshop/koth_clearcut_b15.ugc2107050255","folder":"tf","game":"Team Fortress","app_id":440,"player_count":0,"max_players":24,"Bots":0,"server_type":"Dedicated","server_os":"Linux","password":true,"vac":true,"version":"7757534","steam_id":85568392924742827,"keywords":["cp","nocrits","nodmgspread","uncletopia"],"game_id":440,"stv_port":27076,"stv_name":"Uncletopia | Frankfurt | 7 | Stopwatch Beta | STV","players":null},{"server_id":24,"name":"Uncletopia | Frankfurt | 8 | Community","name_short":"frk-8","host":"frk-1.de.uncletopia.com","port":27085,"enabled":true,"region":"eu","cc":"de","latitude":50.110924,"longitude":8.682127,"reserved":0,"last_update":"0001-01-01T00:00:00Z","name_a2s":"Uncletopia | Frankfurt | 8 | Community","protocol":17,"map":"workshop/cp_hazyfort_rc6.ugc1365963729","folder":"tf","game":"Team Fortress","app_id":440,"player_count":0,"max_players":24,"Bots":0,"server_type":"Dedicated","server_os":"Linux","password":true,"vac":true,"version":"7757534","steam_id":85568392924742828,"keywords":["cp","nocrits","nodmgspread","uncletopia"],"game_id":440,"stv_port":27086,"stv_name":"Uncletopia | Frankfurt | 8 | Community | STV","players":null},{"server_id":202,"name":"Uncletopia | Hong Kong | 1 | All Maps","name_short":"hgk-1","host":"hgk-1.hk.uncletopia.com","port":27015,"enabled":true,"region":"asia","cc":"hk","latitude":22.302711,"longitude":114.177216,"reserved":0,"last_update":"0001-01-01T00:00:00Z","name_a2s":"Uncletopia | Hong Kong | 1 | All Maps","protocol":17,"map":"cp_altitude","folder":"tf","game":"Team Fortress","app_id":440,"player_count":0,"max_players":24,"Bots":0,"server_type":"Dedicated","server_os":"Linux","password":true,"vac":true,"version":"7757534","steam_id":85568392924494504,"keywords":["cp","nocrits","nodmgspread","uncletopia"],"game_id":440,"stv_port":27016,"stv_name":"Uncletopia | Hong Kong | 1 | All Maps | STV","players":null},{"server_id":1,"name":"Uncletopia | Los Angeles | 1 | All Maps","name_short":"lax-1","host":"lax-1.us.uncletopia.com","port":27015,"enabled":true,"region":"us-west","cc":"us","latitude":33.94279,"longitude":-118.41004,"reserved":0,"last_update":"0001-01-01T00:00:00Z","name_a2s":"Uncletopia | Los Angeles | 1 | All Maps","protocol":17,"map":"koth_lakeside_final","folder":"tf","game":"Team Fortress","app_id":440,"player_count":0,"max_players":24,"Bots":0,"server_type":"Dedicated","server_os":"Linux","password":true,"vac":true,"version":"7757534","steam_id":85568392924469991,"keywords":["cp","nocrits","nodmgspread","uncletopia"],"game_id":440,"stv_port":27016,"stv_name":"Uncletopia | Los Angeles | 1 | All Maps | STV","players":null},{"server_id":112,"name":"Uncletopia | Los Angeles | 2 | All Maps","name_short":"lax-2","host":"lax-1.us.uncletopia.com","port":27025,"enabled":true,"region":"us-west","cc":"us","latitude":33.94279,"longitude":-118.41004,"reserved":0,"last_update":"0001-01-01T00:00:00Z","name_a2s":"Uncletopia | Los Angeles | 2 | All Maps","protocol":17,"map":"cp_snakewater_final1","folder":"tf","game":"Team Fortress","app_id":440,"player_count":0,"max_players":24,"Bots":0,"server_type":"Dedicated","server_os":"Linux","password":true,"vac":true,"version":"7757534","steam_id":85568392924469992,"keywords":["cp","nocrits","nodmgspread","uncletopia"],"game_id":440,"stv_port":27026,"stv_name":"Uncletopia | Los Angeles | 2 | All Maps | STV","players":null},{"server_id":324,"name":"Uncletopia | Los Angeles | 3 | All Maps","name_short":"lax-3","host":"lax-1.us.uncletopia.com","port":27035,"enabled":true,"region":"us-west","cc":"us","latitude":33.94279,"longitude":-118.41004,"reserved":0,"last_update":"0001-01-01T00:00:00Z","name_a2s":"Uncletopia | Los Angeles | 3 | All Maps","protocol":17,"map":"pl_barnblitz","folder":"tf","game":"Team Fortress","app_id":440,"player_count":0,"max_players":24,"Bots":0,"server_type":"Dedicated","server_os":"Linux","password":true,"vac":true,"version":"7757534","steam_id":85568392924510198,"keywords":["nocrits","nodmgspread","payload","uncletopia"],"game_id":440,"stv_port":27036,"stv_name":"Uncletopia | Los Angeles | 3 | All Maps | STV","players":null},{"server_id":25,"name":"Uncletopia | Los Angeles | 4 | Stopwatch Beta","name_short":"lax-4","host":"lax-1.us.uncletopia.com","port":27045,"enabled":true,"region":"us-west","cc":"us","latitude":33.94279,"longitude":-118.41004,"reserved":0,"last_update":"0001-01-01T00:00:00Z","name_a2s":"Uncletopia | Los Angeles | 4 | Stopwatch Beta","protocol":17,"map":"pl_swiftwater_final1","folder":"tf","game":"Team Fortress","app_id":440,"player_count":0,"max_players":24,"Bots":0,"server_type":"Dedicated","server_os":"Linux","password":true,"vac":true,"version":"7757534","steam_id":85568392924510199,"keywords":["nocrits","nodmgspread","payload","uncletopia"],"game_id":440,"stv_port":27046,"stv_name":"Uncletopia | Los Angeles | 4 | Stopwatch Beta | STV","players":null},{"server_id":11,"name":"Uncletopia | London | 1 | All Maps","name_short":"lon-1","host":"lon-1.uk.uncletopia.com","port":27015,"enabled":true,"region":"eu","cc":"gb","latitude":51.509865,"longitude":-0.118092,"reserved":0,"last_update":"0001-01-01T00:00:00Z","name_a2s":"Uncletopia | London | 1 | All Maps","protocol":17,"map":"cp_process_final","folder":"tf","game":"Team Fortress","app_id":440,"player_count":24,"max_players":24,"Bots":0,"server_type":"Dedicated","server_os":"Linux","password":true,"vac":true,"version":"7757534","steam_id":85568392924367362,"keywords":["cp","nocrits","nodmgspread","uncletopia"],"game_id":440,"stv_port":27016,"stv_name":"Uncletopia | London | 1 | All Maps | STV","players":[{"user_id":746,"name":"‚Ä† RUBENEITOR ‚Ä†","steam_id":76561198017805714,"connected_time":422000000000,"state":"active","ping":63},{"user_id":745,"name":"Stabbyratbag","steam_id":76561198119531916,"connected_time":450000000000,"state":"active","ping":45},{"user_id":747,"name":"eduardo","steam_id":76561198014491925,"connected_time":418000000000,"state":"active","ping":90},{"user_id":720,"name":"Nifi","steam_id":76561198102682566,"connected_time":2724000000000,"state":"active","ping":75},{"user_id":733,"name":"Syd","steam_id":76561198020515027,"connected_time":1474000000000,"state":"active","ping":77},{"user_id":740,"name":"Eggcracker","steam_id":76561199274850641,"connected_time":735000000000,"state":"active","ping":95},{"user_id":722,"name":"Yggdrasill","steam_id":76561198304162236,"connected_time":2399000000000,"state":"active","ping":105},{"user_id":752,"name":"efigrbx","steam_id":76561198044836770,"connected_time":150000000000,"state":"active","ping":78},{"user_id":724,"name":"Jnyu","steam_id":76561198070532575,"connected_time":2069000000000,"state":"active","ping":78},{"user_id":734,"name":"ErevOuder","steam_id":76561198842604384,"connected_time":1286000000000,"state":"active","ping":98},{"user_id":729,"name":"Raeschen","steam_id":76561198010188055,"connected_time":1735000000000,"state":"active","ping":52},{"user_id":743,"name":"Sara","steam_id":76561198065287954,"connected_time":505000000000,"state":"active","ping":83},{"user_id":748,"name":"THE WINDOW MAN","steam_id":76561198194327061,"connected_time":414000000000,"state":"active","ping":44},{"user_id":705,"name":"Solarflame","steam_id":76561198158780844,"connected_time":3800000000000,"state":"active","ping":94},{"user_id":744,"name":"Sloneczku","steam_id":76561198032886890,"connected_time":464000000000,"state":"active","ping":94},{"user_id":730,"name":"Udinese Dion","steam_id":76561198067931573,"connected_time":1713000000000,"state":"active","ping":55},{"user_id":750,"name":"Child of the Prophecy","steam_id":76561198036824480,"connected_time":354000000000,"state":"active","ping":93},{"user_id":632,"name":"A Pigeon","steam_id":76561198114090555,"connected_time":6346000000000,"state":"active","ping":76},{"user_id":741,"name":"Hetmanych","steam_id":76561198870926865,"connected_time":616000000000,"state":"active","ping":45},{"user_id":731,"name":"Kaboob","steam_id":76561199121870665,"connected_time":1651000000000,"state":"active","ping":135},{"user_id":702,"name":"Hercules","steam_id":76561198041164170,"connected_time":3944000000000,"state":"active","ping":69},{"user_id":714,"name":"Uncle Terry","steam_id":76561198396415736,"connected_time":3459000000000,"state":"active","ping":54},{"user_id":751,"name":"usia","steam_id":76561198120406679,"connected_time":346000000000,"state":"active","ping":98},{"user_id":723,"name":"GEP Gun","steam_id":76561197981821003,"connected_time":2343000000000,"state":"active","ping":60}]},{"server_id":114,"name":"Uncletopia | London | 2 | All Maps","name_short":"lon-2","host":"lon-1.uk.uncletopia.com","port":27025,"enabled":true,"region":"eu","cc":"gb","latitude":51.509865,"longitude":-0.118092,"reserved":0,"last_update":"0001-01-01T00:00:00Z","name_a2s":"Uncletopia | London | 2 | All Maps","protocol":17,"map":"koth_viaduct","folder":"tf","game":"Team Fortress","app_id":440,"player_count":24,"max_players":24,"Bots":0,"server_type":"Dedicated","server_os":"Linux","password":true,"vac":true,"version":"7757534","steam_id":85568392924470941,"keywords":["cp","nocrits","nodmgspread","uncletopia"],"game_id":440,"stv_port":27026,"stv_name":"Uncletopia | London | 2 | All Maps | STV","players":[{"user_id":364,"name":"Egor Pomidor","steam_id":76561199175688390,"connected_time":162000000000,"state":"active","ping":85},{"user_id":340,"name":"static","steam_id":76561198836825741,"connected_time":1071000000000,"state":"active","ping":41},{"user_id":366,"name":"Fran","steam_id":76561199070516960,"connected_time":136000000000,"state":"active","ping":64},{"user_id":339,"name":"JohnbhoyGamer","steam_id":76561198422302017,"connected_time":1083000000000,"state":"active","ping":63},{"user_id":257,"name":"Mato","steam_id":76561198267114673,"connected_time":6999000000000,"state":"active","ping":70},{"user_id":365,"name":"ParussMan","steam_id":76561198446245146,"connected_time":154000000000,"state":"active","ping":115},{"user_id":361,"name":"john fortress","steam_id":76561198013237629,"connected_time":298000000000,"state":"active","ping":87},{"user_id":357,"name":"panakid","steam_id":76561198364121077,"connected_time":452000000000,"state":"active","ping":101},{"user_id":367,"name":"Cruzys","steam_id":76561198248838556,"connected_time":120000000000,"state":"active","ping":88},{"user_id":288,"name":"Lil StinGa","steam_id":76561198069444222,"connected_time":4033000000000,"state":"active","ping":50},{"user_id":352,"name":"spiegelsberge","steam_id":76561199469797619,"connected_time":515000000000,"state":"active","ping":56},{"user_id":353,"name":"Filleman","steam_id":76561198159386946,"connected_time":511000000000,"state":"active","ping":70},{"user_id":344,"name":"Dr. Le Quack","steam_id":76561197995711176,"connected_time":758000000000,"state":"active","ping":95},{"user_id":345,"name":"Fat Pigeon","steam_id":76561198817940142,"connected_time":725000000000,"state":"active","ping":51},{"user_id":349,"name":"Angelatine","steam_id":76561198101624996,"connected_time":622000000000,"state":"active","ping":101},{"user_id":368,"name":"Tomo -∆í$-","steam_id":76561199015097595,"connected_time":119000000000,"state":"active","ping":45},{"user_id":369,"name":"Leszy","steam_id":76561198372172135,"connected_time":82000000000,"state":"active","ping":73},{"user_id":308,"name":"dr. coom","steam_id":76561198172193711,"connected_time":2965000000000,"state":"active","ping":41},{"user_id":347,"name":"‚ô¶Silvia‚ô¶","steam_id":76561198373039444,"connected_time":713000000000,"state":"active","ping":115},{"user_id":348,"name":"‚ú™ Danny","steam_id":76561198104483241,"connected_time":655000000000,"state":"active","ping":50},{"user_id":300,"name":"[O\u0026O]YaboiDucki","steam_id":76561198195976589,"connected_time":3393000000000,"state":"active","ping":65},{"user_id":362,"name":"Minimi","steam_id":76561198873850443,"connected_time":287000000000,"state":"active","ping":42},{"user_id":363,"name":"Jon","steam_id":76561198148858397,"connected_time":224000000000,"state":"active","ping":67},{"user_id":370,"name":"Pyrolander","steam_id":76561198050785450,"connected_time":78000000000,"state":"active","ping":54}]},{"server_id":320,"name":"Uncletopia | London | 3 | All Maps","name_short":"lon-3","host":"lon-1.uk.uncletopia.com","port":27035,"enabled":true,"region":"eu","cc":"gb","latitude":51.509865,"longitude":-0.118092,"reserved":0,"last_update":"0001-01-01T00:00:00Z","name_a2s":"Uncletopia | London | 3 | All Maps","protocol":17,"map":"cp_dustbowl","folder":"tf","game":"Team Fortress","app_id":440,"player_count":24,"max_players":24,"Bots":0,"server_type":"Dedicated","server_os":"Linux","password":true,"vac":true,"version":"7757534","steam_id":85568392924510192,"keywords":["cp","nocrits","nodmgspread","uncletopia"],"game_id":440,"stv_port":27036,"stv_name":"Uncletopia | London | 3 | All Maps | STV","players":[{"user_id":509,"name":"Tonnoman","steam_id":76561199025710941,"connected_time":327000000000,"state":"active","ping":50},{"user_id":504,"name":"Axord","steam_id":76561199289652176,"connected_time":938000000000,"state":"active","ping":52},{"user_id":514,"name":"Dezalt","steam_id":76561198154866092,"connected_time":228000000000,"state":"active","ping":77},{"user_id":483,"name":"Charged","steam_id":76561199127215130,"connected_time":2146000000000,"state":"active","ping":95},{"user_id":510,"name":"rlty","steam_id":76561198009395055,"connected_time":324000000000,"state":"active","ping":121},{"user_id":505,"name":"ZanzibarPalm","steam_id":76561198059508828,"connected_time":918000000000,"state":"active","ping":55},{"user_id":512,"name":"Fatass","steam_id":76561198143115077,"connected_time":259000000000,"state":"active","ping":90},{"user_id":513,"name":"Casted","steam_id":76561199224054775,"connected_time":253000000000,"state":"active","ping":85},{"user_id":489,"name":"whatever","steam_id":76561198255357694,"connected_time":1958000000000,"state":"active","ping":90},{"user_id":488,"name":"gibb (official)","steam_id":76561198074097655,"connected_time":1981000000000,"state":"active","ping":44},{"user_id":511,"name":"Denzonian","steam_id":76561198445738614,"connected_time":317000000000,"state":"active","ping":59},{"user_id":515,"name":"::doc::","steam_id":76561198010826248,"connected_time":206000000000,"state":"active","ping":87},{"user_id":479,"name":"Qwertuss","steam_id":76561198026305366,"connected_time":2454000000000,"state":"active","ping":55},{"user_id":495,"name":"kamikaze bat enjoyer","steam_id":76561198865364180,"connected_time":1602000000000,"state":"active","ping":73},{"user_id":516,"name":"19$ Regirock","steam_id":76561198142584465,"connected_time":203000000000,"state":"active","ping":77},{"user_id":503,"name":"VlaDICK","steam_id":76561198224436388,"connected_time":1105000000000,"state":"active","ping":104},{"user_id":497,"name":"hipster_doofus","steam_id":76561197970902697,"connected_time":1576000000000,"state":"active","ping":54},{"user_id":517,"name":"desnot","steam_id":76561198862581894,"connected_time":190000000000,"state":"active","ping":70},{"user_id":521,"name":"Deva Path","steam_id":76561198085763542,"connected_time":123000000000,"state":"active","ping":88},{"user_id":507,"name":"Frobmiak","steam_id":76561198088811544,"connected_time":506000000000,"state":"active","ping":77},{"user_id":519,"name":"Nards","steam_id":76561198001819260,"connected_time":172000000000,"state":"active","ping":81},{"user_id":500,"name":"The Daniella","steam_id":76561198023075547,"connected_time":1549000000000,"state":"active","ping":61},{"user_id":501,"name":"Your Average Scout Main","steam_id":76561199403752637,"connected_time":1450000000000,"state":"active","ping":57},{"user_id":522,"name":"Ambr√≥sio","steam_id":76561198170020311,"connected_time":95000000000,"state":"active","ping":81}]},{"server_id":321,"name":"Uncletopia | London | 4 | All Maps","name_short":"lon-4","host":"lon-1.uk.uncletopia.com","port":27045,"enabled":true,"region":"eu","cc":"gb","latitude":51.509865,"longitude":-0.118092,"reserved":0,"last_update":"0001-01-01T00:00:00Z","name_a2s":"Uncletopia | London | 4 | All Maps","protocol":17,"map":"pl_frontier_final","folder":"tf","game":"Team Fortress","app_id":440,"player_count":24,"max_players":24,"Bots":0,"server_type":"Dedicated","server_os":"Linux","password":true,"vac":true,"version":"7757534","steam_id":85568392924510193,"keywords":["nocrits","nodmgspread","payload","uncletopia"],"game_id":440,"stv_port":27046,"stv_name":"Uncletopia | London | 4 | All Maps | STV","players":[{"user_id":218,"name":"Chum","steam_id":76561199113165764,"connected_time":4994000000000,"state":"active","ping":363},{"user_id":301,"name":"Bob Burger","steam_id":76561197996149548,"connected_time":2746000000000,"state":"active","ping":50},{"user_id":304,"name":"RiX","steam_id":76561197969053733,"connected_time":2288000000000,"state":"active","ping":68},{"user_id":266,"name":"Milca_11","steam_id":76561198848650365,"connected_time":4311000000000,"state":"active","ping":82},{"user_id":327,"name":"Xriasp","steam_id":76561198104721321,"connected_time":60000000000,"state":"active","ping":81},{"user_id":309,"name":"Reult","steam_id":76561199444524084,"connected_time":1685000000000,"state":"active","ping":63},{"user_id":267,"name":"sz(k)","steam_id":76561198118500940,"connected_time":4307000000000,"state":"active","ping":66},{"user_id":310,"name":"Zireael","steam_id":76561198040657962,"connected_time":1675000000000,"state":"active","ping":84},{"user_id":318,"name":"Alpha","steam_id":76561198153183789,"connected_time":1416000000000,"state":"active","ping":113},{"user_id":312,"name":"3igen3ggy","steam_id":76561197989548015,"connected_time":1625000000000,"state":"active","ping":73},{"user_id":305,"name":"EagleFire","steam_id":76561198352938403,"connected_time":2212000000000,"state":"active","ping":75},{"user_id":299,"name":"Gnaisse","steam_id":76561198010560642,"connected_time":2983000000000,"state":"active","ping":77},{"user_id":296,"name":"meriones","steam_id":76561198034234373,"connected_time":3158000000000,"state":"active","ping":42},{"user_id":306,"name":"V-Hades","steam_id":76561198351193229,"connected_time":2171000000000,"state":"active","ping":47},{"user_id":292,"name":"Tory","steam_id":76561198870533769,"connected_time":3288000000000,"state":"active","ping":102},{"user_id":313,"name":"Turtle Fuckers 2","steam_id":76561198071938027,"connected_time":1585000000000,"state":"active","ping":43},{"user_id":308,"name":"Bingus","steam_id":76561198012351470,"connected_time":1833000000000,"state":"active","ping":45},{"user_id":326,"name":"miev","steam_id":76561198078278737,"connected_time":145000000000,"state":"active","ping":90},{"user_id":325,"name":"British Disapproval","steam_id":76561198001375260,"connected_time":860000000000,"state":"active","ping":56},{"user_id":315,"name":"Imperial","steam_id":76561198345693539,"connected_time":1522000000000,"state":"active","ping":113},{"user_id":328,"name":"nachtraaf","steam_id":76561197960473205,"connected_time":39000000000,"state":"spawning","ping":52},{"user_id":302,"name":"ginger cunt","steam_id":76561198334528186,"connected_time":2542000000000,"state":"active","ping":50},{"user_id":316,"name":"Batturo Arslan","steam_id":76561198257624461,"connected_time":1520000000000,"state":"active","ping":114},{"user_id":317,"name":"leibh√©alfaidh m√© th√∫","steam_id":76561198078484073,"connected_time":1519000000000,"state":"active","ping":88}]},{"server_id":21,"name":"Uncletopia | London | 5 | All Maps","name_short":"lon-5","host":"lon-1.uk.uncletopia.com","port":27055,"enabled":true,"region":"eu","cc":"gb","latitude":51.509865,"longitude":-0.118092,"reserved":0,"last_update":"0001-01-01T00:00:00Z","name_a2s":"Uncletopia | London | 5 | All Maps","protocol":17,"map":"koth_lakeside_final","folder":"tf","game":"Team Fortress","app_id":440,"player_count":0,"max_players":24,"Bots":0,"server_type":"Dedicated","server_os":"Linux","password":true,"vac":true,"version":"7757534","steam_id":85568392924742829,"keywords":["cp","nocrits","nodmgspread","uncletopia"],"game_id":440,"stv_port":27056,"stv_name":"Uncletopia | London | 5 | All Maps | STV","players":null},{"server_id":22,"name":"Uncletopia | London | 6 | All Maps","name_short":"lon-6","host":"lon-1.uk.uncletopia.com","port":27065,"enabled":true,"region":"eu","cc":"gb","latitude":51.509865,"longitude":-0.118092,"reserved":0,"last_update":"0001-01-01T00:00:00Z","name_a2s":"Uncletopia | London | 6 | All Maps","protocol":17,"map":"koth_highpass","folder":"tf","game":"Team Fortress","app_id":440,"player_count":0,"max_players":24,"Bots":0,"server_type":"Dedicated","server_os":"Linux","password":true,"vac":true,"version":"7757534","steam_id":85568392924742830,"keywords":["cp","nocrits","nodmgspread","uncletopia"],"game_id":440,"stv_port":27066,"stv_name":"Uncletopia | London | 6 | All Maps | STV","players":null},{"server_id":40,"name":"Uncletopia | London | 7 | No Payload","name_short":"lon-7","host":"lon-1.uk.uncletopia.com","port":27075,"enabled":true,"region":"eu","cc":"gb","latitude":51.509865,"longitude":-0.118092,"reserved":0,"last_update":"0001-01-01T00:00:00Z","name_a2s":"Uncletopia | London | 7 | No Payload","protocol":17,"map":"koth_king","folder":"tf","game":"Team Fortress","app_id":440,"player_count":0,"max_players":24,"Bots":0,"server_type":"Dedicated","server_os":"Linux","password":true,"vac":true,"version":"7757534","steam_id":85568392924964314,"keywords":["cp","nocrits","nodmgspread","uncletopia"],"game_id":440,"stv_port":27076,"stv_name":"Uncletopia | London | 7 | No Payload | STV","players":null},{"server_id":41,"name":"Uncletopia | London | 8 | Community","name_short":"lon-8","host":"lon-1.uk.uncletopia.com","port":27085,"enabled":true,"region":"eu","cc":"gb","latitude":51.509865,"longitude":-0.118092,"reserved":0,"last_update":"0001-01-01T00:00:00Z","name_a2s":"Uncletopia | London | 8 | Community","protocol":17,"map":"workshop/pl_barnblitz_pro7.ugc582280235","folder":"tf","game":"Team Fortress","app_id":440,"player_count":23,"max_players":24,"Bots":0,"server_type":"Dedicated","server_os":"Linux","password":true,"vac":true,"version":"7757534","steam_id":85568392924964315,"keywords":["nocrits","nodmgspread","payload","uncletopia"],"game_id":440,"stv_port":27086,"stv_name":"Uncletopia | London | 8 | Community | STV","players":[{"user_id":79,"name":"GoatLord1","steam_id":76561198157964544,"connected_time":420000000000,"state":"active","ping":48},{"user_id":30,"name":"mumbler","steam_id":76561197970641239,"connected_time":2566000000000,"state":"active","ping":59},{"user_id":44,"name":"PizzaPete123","steam_id":76561198089478290,"connected_time":2334000000000,"state":"active","ping":41},{"user_id":56,"name":"Unfortunate","steam_id":76561198125500777,"connected_time":1422000000000,"state":"active","ping":95},{"user_id":47,"name":"wouris","steam_id":76561198876188003,"connected_time":2042000000000,"state":"active","ping":71},{"user_id":75,"name":"Mr stonkles","steam_id":76561198397163021,"connected_time":577000000000,"state":"active","ping":147},{"user_id":76,"name":"Lucky B.üèÜ","steam_id":76561198077571162,"connected_time":571000000000,"state":"active","ping":54},{"user_id":63,"name":"Magirby","steam_id":76561198818777390,"connected_time":1237000000000,"state":"active","ping":115},{"user_id":33,"name":"SKFBoge","steam_id":76561198269038278,"connected_time":2545000000000,"state":"active","ping":82},{"user_id":80,"name":"swagbra","steam_id":76561198051828515,"connected_time":415000000000,"state":"active","ping":42},{"user_id":74,"name":"Cerabond","steam_id":76561199230915333,"connected_time":766000000000,"state":"active","ping":131},{"user_id":58,"name":"THE Bucket Man","steam_id":76561198851816161,"connected_time":1293000000000,"state":"active","ping":154},{"user_id":49,"name":"benibachi","steam_id":76561198190816499,"connected_time":1917000000000,"state":"active","ping":80},{"user_id":68,"name":"squo","steam_id":76561198324357479,"connected_time":1101000000000,"state":"active","ping":85},{"user_id":60,"name":"player","steam_id":76561198054474684,"connected_time":1263000000000,"state":"active","ping":90},{"user_id":61,"name":"Chaine","steam_id":76561198088660956,"connected_time":1258000000000,"state":"active","ping":78},{"user_id":34,"name":"Rogue Biscuit","steam_id":76561198086447685,"connected_time":2541000000000,"state":"active","ping":115},{"user_id":62,"name":"Artur ‚òª","steam_id":76561198264297604,"connected_time":1246000000000,"state":"active","ping":76},{"user_id":64,"name":"iattwink","steam_id":76561198963378933,"connected_time":1230000000000,"state":"active","ping":42},{"user_id":77,"name":"david.barabas1963","steam_id":76561198075232017,"connected_time":568000000000,"state":"active","ping":59},{"user_id":38,"name":"‚òØ","steam_id":76561198351154533,"connected_time":2497000000000,"state":"active","ping":54},{"user_id":78,"name":"Marcin Gaye","steam_id":76561198402363748,"connected_time":566000000000,"state":"active","ping":53},{"user_id":40,"name":"Dr. Jabbinton","steam_id":76561198180007387,"connected_time":2463000000000,"state":"active","ping":48}]},{"server_id":300,"name":"Uncletopia | Montr√©al | 1 | All Maps","name_short":"mtl-1","host":"mtl-1.ca.uncletopia.com","port":27015,"enabled":true,"region":"us-east","cc":"ca","latitude":45.50889,"longitude":-73.56167,"reserved":0,"last_update":"0001-01-01T00:00:00Z","name_a2s":"Uncletopia | Montr√©al | 1 | All Maps","protocol":17,"map":"koth_viaduct","folder":"tf","game":"Team Fortress","app_id":440,"player_count":0,"max_players":24,"Bots":0,"server_type":"Dedicated","server_os":"Linux","password":true,"vac":true,"version":"7757534","steam_id":85568392924500087,"keywords":["cp","nocrits","nodmgspread","uncletopia"],"game_id":440,"stv_port":27016,"stv_name":"Uncletopia | Montr√©al | 1 | All Maps | STV","players":null},{"server_id":301,"name":"Uncletopia | Montr√©al | 2 | All Maps","name_short":"mtl-2","host":"mtl-1.ca.uncletopia.com","port":27025,"enabled":true,"region":"us-east","cc":"ca","latitude":45.50889,"longitude":-73.56167,"reserved":0,"last_update":"0001-01-01T00:00:00Z","name_a2s":"Uncletopia | Montr√©al | 2 | All Maps","protocol":17,"map":"cp_process_final","folder":"tf","game":"Team Fortress","app_id":440,"player_count":0,"max_players":24,"Bots":0,"server_type":"Dedicated","server_os":"Linux","password":true,"vac":true,"version":"7757534","steam_id":85568392924500088,"keywords":["cp","nocrits","nodmgspread","uncletopia"],"game_id":440,"stv_port":27026,"stv_name":"Uncletopia | Montr√©al | 2 | All Maps | STV","players":null},{"server_id":302,"name":"Uncletopia | Montr√©al | 3 | All Maps","name_short":"mtl-3","host":"mtl-1.ca.uncletopia.com","port":27035,"enabled":true,"region":"us-east","cc":"ca","latitude":45.50889,"longitude":-73.56167,"reserved":0,"last_update":"0001-01-01T00:00:00Z","name_a2s":"Uncletopia | Montr√©al | 3 | All Maps","protocol":17,"map":"pl_swiftwater_final1","folder":"tf","game":"Team Fortress","app_id":440,"player_count":0,"max_players":24,"Bots":0,"server_type":"Dedicated","server_os":"Linux","password":true,"vac":true,"version":"7757534","steam_id":85568392924500089,"keywords":["nocrits","nodmgspread","payload","uncletopia"],"game_id":440,"stv_port":27036,"stv_name":"Uncletopia | Montr√©al | 3 | All Maps | STV","players":null},{"server_id":303,"name":"Uncletopia | Montr√©al | 4 | No Payload","name_short":"mtl-4","host":"mtl-1.ca.uncletopia.com","port":27045,"enabled":true,"region":"us-east","cc":"ca","latitude":45.50889,"longitude":-73.56167,"reserved":0,"last_update":"0001-01-01T00:00:00Z","name_a2s":"Uncletopia | Montr√©al | 4 | No Payload","protocol":17,"map":"pl_pier","folder":"tf","game":"Team Fortress","app_id":440,"player_count":0,"max_players":24,"Bots":0,"server_type":"Dedicated","server_os":"Linux","password":true,"vac":true,"version":"7757534","steam_id":85568392924500090,"keywords":["nocrits","nodmgspread","payload","uncletopia"],"game_id":440,"stv_port":27046,"stv_name":"Uncletopia | Montr√©al | 4 | No Payload | STV","players":null},{"server_id":13,"name":"Uncletopia | New York City | 1 | All Maps","name_short":"nyc-1","host":"nyc-1.us.uncletopia.com","port":27015,"enabled":true,"region":"us-east","cc":"us","latitude":40.73061,"longitude":-73.93524,"reserved":0,"last_update":"0001-01-01T00:00:00Z","name_a2s":"Uncletopia | New York City | 1 | All Maps","protocol":17,"map":"cp_sunshine","folder":"tf","game":"Team Fortress","app_id":440,"player_count":18,"max_players":24,"Bots":0,"server_type":"Dedicated","server_os":"Linux","password":true,"vac":true,"version":"7757534","steam_id":85568392924469993,"keywords":["cp","nocrits","nodmgspread","uncletopia"],"game_id":440,"stv_port":27016,"stv_name":"Uncletopia | New York City | 1 | All Maps | STV","players":[{"user_id":224,"name":"{LB}Electric_Daniel","steam_id":76561198076458681,"connected_time":149000000000,"state":"active","ping":52},{"user_id":225,"name":"EliminateSingleFamilyZoning","steam_id":76561198276653985,"connected_time":23000000000,"state":"active","ping":64},{"user_id":211,"name":"Warkeidan","steam_id":76561198118805546,"connected_time":1002000000000,"state":"active","ping":57},{"user_id":199,"name":"Wahooka","steam_id":76561197962240925,"connected_time":1913000000000,"state":"active","ping":45},{"user_id":200,"name":"Cats","steam_id":76561197965022076,"connected_time":1874000000000,"state":"active","ping":45},{"user_id":181,"name":"Box Spy","steam_id":76561198414175953,"connected_time":3526000000000,"state":"active","ping":126},{"user_id":222,"name":"carrot cake","steam_id":76561198055174915,"connected_time":227000000000,"state":"active","ping":75},{"user_id":220,"name":"NoShando","steam_id":76561198019219575,"connected_time":281000000000,"state":"active","ping":63},{"user_id":217,"name":"Ronnie McNutt","steam_id":76561198453543661,"connected_time":379000000000,"state":"active","ping":72},{"user_id":169,"name":"Juanelo","steam_id":76561199096390505,"connected_time":3854000000000,"state":"active","ping":95},{"user_id":204,"name":"binbows255","steam_id":76561198865289097,"connected_time":1455000000000,"state":"active","ping":75},{"user_id":206,"name":"stbb","steam_id":76561198173047169,"connected_time":1319000000000,"state":"active","ping":38},{"user_id":219,"name":"Pickle Chips","steam_id":76561198271951504,"connected_time":368000000000,"state":"active","ping":44},{"user_id":221,"name":"tabasco","steam_id":76561198355094896,"connected_time":280000000000,"state":"active","ping":45},{"user_id":195,"name":"kaibow","steam_id":76561199245270298,"connected_time":2124000000000,"state":"active","ping":85},{"user_id":173,"name":"apricot liquor","steam_id":76561198289280906,"connected_time":3820000000000,"state":"active","ping":91},{"user_id":184,"name":"captjosh22","steam_id":76561199092650499,"connected_time":3161000000000,"state":"active","ping":75},{"user_id":196,"name":"Room_237","steam_id":76561199135081315,"connected_time":2110000000000,"state":"active","ping":61}]},{"server_id":14,"name":"Uncletopia | New York City | 2 | All Maps","name_short":"nyc-2","host":"nyc-1.us.uncletopia.com","port":27025,"enabled":true,"region":"us-east","cc":"us","latitude":40.73061,"longitude":-73.93524,"reserved":0,"last_update":"0001-01-01T00:00:00Z","name_a2s":"Uncletopia | New York City | 2 | All Maps","protocol":17,"map":"pl_rumford_event","folder":"tf","game":"Team Fortress","app_id":440,"player_count":23,"max_players":24,"Bots":0,"server_type":"Dedicated","server_os":"Linux","password":true,"vac":true,"version":"7757534","steam_id":85568392924469994,"keywords":["nocrits","nodmgspread","payload","uncletopia"],"game_id":440,"stv_port":27026,"stv_name":"Uncletopia | New York City | 2 | All Maps | STV","players":[{"user_id":243,"name":"Sapphireblitz","steam_id":76561198272635379,"connected_time":4156000000000,"state":"active","ping":65},{"user_id":287,"name":"JustLooking","steam_id":76561198207877387,"connected_time":1317000000000,"state":"active","ping":40},{"user_id":296,"name":"Your Local NPR Station","steam_id":76561198143830279,"connected_time":652000000000,"state":"active","ping":60},{"user_id":301,"name":"Sheev Palpatine","steam_id":76561198252332430,"connected_time":330000000000,"state":"active","ping":99},{"user_id":302,"name":"BoxTrox Requiem","steam_id":76561199084781818,"connected_time":322000000000,"state":"active","ping":77},{"user_id":309,"name":"Bony","steam_id":76561199001748822,"connected_time":121000000000,"state":"active","ping":112},{"user_id":263,"name":"Winkrill","steam_id":76561198108515561,"connected_time":2249000000000,"state":"active","ping":54},{"user_id":304,"name":"Rhutebeer","steam_id":76561198018302761,"connected_time":283000000000,"state":"active","ping":101},{"user_id":295,"name":"Shiroompa","steam_id":76561198010705959,"connected_time":842000000000,"state":"active","ping":102},{"user_id":305,"name":"Xbox Live Ultimate Free Trail","steam_id":76561198965340653,"connected_time":280000000000,"state":"active","ping":81},{"user_id":306,"name":"awootism","steam_id":76561198046130018,"connected_time":245000000000,"state":"active","ping":61},{"user_id":307,"name":"Alexhcgar„ÉÖ","steam_id":76561198085706389,"connected_time":218000000000,"state":"active","ping":84},{"user_id":288,"name":"Spirit","steam_id":76561199069322627,"connected_time":1311000000000,"state":"active","ping":63},{"user_id":236,"name":"oel","steam_id":76561198021224745,"connected_time":4596000000000,"state":"active","ping":35},{"user_id":308,"name":"mineofmaggots","steam_id":76561199418921451,"connected_time":208000000000,"state":"active","ping":164},{"user_id":300,"name":"hsoj318","steam_id":76561198062564543,"connected_time":345000000000,"state":"active","ping":99},{"user_id":310,"name":"clack","steam_id":76561198966980576,"connected_time":65000000000,"state":"active","ping":44},{"user_id":311,"name":"Lt. Nugget","steam_id":76561198253488961,"connected_time":64000000000,"state":"active","ping":158},{"user_id":312,"name":"heimdall","steam_id":76561198069380992,"connected_time":46000000000,"state":"active","ping":94},{"user_id":266,"name":"Anxious Nerd Bird","steam_id":76561198112178602,"connected_time":1791000000000,"state":"active","ping":128},{"user_id":313,"name":"sus_ape_society","steam_id":76561199042602389,"connected_time":32000000000,"state":"active","ping":40},{"user_id":245,"name":"Spiral Mountain","steam_id":76561198058683715,"connected_time":3892000000000,"state":"active","ping":68},{"user_id":267,"name":"[F8P] ‚ô†Robs-Insanity‚ô¶‚Ñ¢","steam_id":76561198055521233,"connected_time":1745000000000,"state":"active","ping":66}]},{"server_id":15,"name":"Uncletopia | New York City | 3 | Stopwatch Beta","name_short":"nyc-3","host":"nyc-1.us.uncletopia.com","port":27035,"enabled":true,"region":"us-east","cc":"us","latitude":40.73061,"longitude":-73.93524,"reserved":0,"last_update":"0001-01-01T00:00:00Z","name_a2s":"Uncletopia | New York City | 3 | Stopwatch Beta","protocol":17,"map":"workshop/koth_bagel_rc6.ugc2514036946","folder":"tf","game":"Team Fortress","app_id":440,"player_count":1,"max_players":24,"Bots":0,"server_type":"Dedicated","server_os":"Linux","password":true,"vac":true,"version":"7757534","steam_id":85568392924742820,"keywords":["cp","nocrits","nodmgspread","uncletopia"],"game_id":440,"stv_port":27036,"stv_name":"Uncletopia | New York City | 3 | Stopwatch Beta | STV","players":[{"user_id":16,"name":"Nice21","steam_id":76561199427548141,"connected_time":169000000000,"state":"active","ping":69}]},{"server_id":16,"name":"Uncletopia | New York City | 4 | Community","name_short":"nyc-4","host":"nyc-1.us.uncletopia.com","port":27045,"enabled":true,"region":"us-east","cc":"us","latitude":40.73061,"longitude":-73.93524,"reserved":0,"last_update":"0001-01-01T00:00:00Z","name_a2s":"Uncletopia | New York City | 4 | Community","protocol":17,"map":"workshop/koth_ramjam_rc1.ugc459778887","folder":"tf","game":"Team Fortress","app_id":440,"player_count":23,"max_players":24,"Bots":0,"server_type":"Dedicated","server_os":"Linux","password":true,"vac":true,"version":"7757534","steam_id":85568392924742821,"keywords":["cp","nocrits","nodmgspread","uncletopia"],"game_id":440,"stv_port":27046,"stv_name":"Uncletopia | New York City | 4 | Community | STV","players":[{"user_id":64,"name":"BasicPeaches","steam_id":76561198190890150,"connected_time":1001000000000,"state":"active","ping":60},{"user_id":87,"name":"YarnballWasHere","steam_id":76561198066796158,"connected_time":294000000000,"state":"active","ping":44},{"user_id":45,"name":"Medic Main 2009","steam_id":76561198119656287,"connected_time":2103000000000,"state":"active","ping":131},{"user_id":86,"name":"TeriyakiDynamite","steam_id":76561198050049346,"connected_time":341000000000,"state":"active","ping":135},{"user_id":49,"name":"Slimeyboi","steam_id":76561199057487214,"connected_time":1687000000000,"state":"active","ping":57},{"user_id":14,"name":"MagicMuffinman","steam_id":76561198149255313,"connected_time":8598000000000,"state":"active","ping":78},{"user_id":50,"name":"Huey","steam_id":76561198972816386,"connected_time":1677000000000,"state":"active","ping":89},{"user_id":63,"name":"mr.sapyoursentry","steam_id":76561199202571828,"connected_time":1018000000000,"state":"active","ping":90},{"user_id":52,"name":"moe5x","steam_id":76561198316877833,"connected_time":1648000000000,"state":"active","ping":127},{"user_id":59,"name":"I shided","steam_id":76561199191483997,"connected_time":1239000000000,"state":"active","ping":81},{"user_id":81,"name":"tf2 hater","steam_id":76561198127149121,"connected_time":597000000000,"state":"active","ping":61},{"user_id":67,"name":"OPOC","steam_id":76561198026539183,"connected_time":860000000000,"state":"active","ping":58},{"user_id":82,"name":"Moe Lester","steam_id":76561198375575841,"connected_time":595000000000,"state":"active","ping":75},{"user_id":68,"name":"carrion goat she/it","steam_id":76561198262064871,"connected_time":844000000000,"state":"active","ping":47},{"user_id":70,"name":"INCOMPETENT","steam_id":76561198079401635,"connected_time":788000000000,"state":"active","ping":68},{"user_id":71,"name":"Swifgz","steam_id":76561198162875756,"connected_time":785000000000,"state":"active","ping":45},{"user_id":72,"name":"Aeonspassed","steam_id":76561198014016451,"connected_time":772000000000,"state":"active","ping":75},{"user_id":83,"name":"That Guy","steam_id":76561198798973444,"connected_time":519000000000,"state":"active","ping":51},{"user_id":84,"name":"Grify","steam_id":76561198012292317,"connected_time":502000000000,"state":"active","ping":88},{"user_id":75,"name":"deech","steam_id":76561198066429444,"connected_time":762000000000,"state":"active","ping":57},{"user_id":76,"name":"fnewland","steam_id":76561197986051713,"connected_time":747000000000,"state":"active","ping":85},{"user_id":88,"name":"barter 6","steam_id":76561198126965306,"connected_time":43000000000,"state":"active","ping":77},{"user_id":80,"name":"gorf?","steam_id":76561198142286417,"connected_time":676000000000,"state":"active","ping":74}]},{"server_id":142,"name":"Uncletopia | S√£o Paulo | 1 | All Maps","name_short":"sao-1","host":"sao-1.br.uncletopia.com","port":27015,"enabled":true,"region":"sa","cc":"br","latitude":-23.533773,"longitude":-46.62529,"reserved":0,"last_update":"0001-01-01T00:00:00Z","name_a2s":"Uncletopia | S√£o Paulo | 1 | All Maps","protocol":17,"map":"koth_lakeside_final","folder":"tf","game":"Team Fortress","app_id":440,"player_count":0,"max_players":24,"Bots":0,"server_type":"Dedicated","server_os":"Linux","password":true,"vac":true,"version":"7757534","steam_id":85568392924469996,"keywords":["cp","nocrits","nodmgspread","uncletopia"],"game_id":440,"stv_port":27016,"stv_name":"Uncletopia | S√£o Paulo | 1 | All Maps | STV","players":null},{"server_id":143,"name":"Uncletopia | S√£o Paulo | 2 | All Maps","name_short":"sao-2","host":"sao-2.br.uncletopia.com","port":27015,"enabled":true,"region":"sa","cc":"br","latitude":-23.533773,"longitude":-46.62529,"reserved":0,"last_update":"0001-01-01T00:00:00Z","name_a2s":"Uncletopia | S√£o Paulo | 2 | All Maps","protocol":17,"map":"pl_badwater","folder":"tf","game":"Team Fortress","app_id":440,"player_count":22,"max_players":24,"Bots":0,"server_type":"Dedicated","server_os":"Linux","password":true,"vac":true,"version":"7757534","steam_id":85568392924485349,"keywords":["nocrits","nodmgspread","payload","uncletopia"],"game_id":440,"stv_port":27016,"stv_name":"Uncletopia | S√£o Paulo | 2 | All Maps | STV","players":[{"user_id":109,"name":"Derretimento Geral 2017","steam_id":76561198194300069,"connected_time":647000000000,"state":"active","ping":38},{"user_id":119,"name":"mineblast99","steam_id":76561199065648954,"connected_time":102000000000,"state":"active","ping":163},{"user_id":69,"name":"(F2P)YellowEyePatch","steam_id":76561199108111310,"connected_time":3184000000000,"state":"active","ping":57},{"user_id":81,"name":"celso","steam_id":76561198072331775,"connected_time":1934000000000,"state":"active","ping":96},{"user_id":54,"name":"susi spah","steam_id":76561199095176649,"connected_time":4579000000000,"state":"active","ping":42},{"user_id":72,"name":"AtUm","steam_id":76561199025395478,"connected_time":2880000000000,"state":"active","ping":83},{"user_id":120,"name":"cherry :3","steam_id":76561199063196183,"connected_time":88000000000,"state":"active","ping":37},{"user_id":83,"name":"mimimito","steam_id":76561198002565927,"connected_time":1767000000000,"state":"active","ping":40},{"user_id":84,"name":"Ôº•ÔΩéÔΩÑÔΩÖÔΩíÔºÆÔΩÖÔΩÉÔΩíÔΩè","steam_id":76561198044304293,"connected_time":1756000000000,"state":"active","ping":34},{"user_id":85,"name":"videogames","steam_id":76561198012204309,"connected_time":1729000000000,"state":"active","ping":42},{"user_id":87,"name":"Pathetic","steam_id":76561198051056987,"connected_time":1670000000000,"state":"active","ping":59},{"user_id":92,"name":"Cherry Cupcake","steam_id":76561198012448942,"connected_time":1582000000000,"state":"active","ping":33},{"user_id":89,"name":"Tlaloc","steam_id":76561198375215983,"connected_time":1624000000000,"state":"active","ping":69},{"user_id":117,"name":"Kenoxn","steam_id":76561198045818080,"connected_time":243000000000,"state":"active","ping":88},{"user_id":116,"name":"Ronildo 2077","steam_id":76561198964560976,"connected_time":343000000000,"state":"active","ping":48},{"user_id":98,"name":"thims","steam_id":76561199252537253,"connected_time":908000000000,"state":"active","ping":61},{"user_id":100,"name":"kaoru mitoma","steam_id":76561198143438576,"connected_time":824000000000,"state":"active","ping":44},{"user_id":102,"name":"flamingo","steam_id":76561198854099251,"connected_time":780000000000,"state":"active","ping":65},{"user_id":103,"name":"PrYume","steam_id":76561198976110673,"connected_time":766000000000,"state":"active","ping":61},{"user_id":105,"name":"niruma","steam_id":76561198067799345,"connected_time":730000000000,"state":"active","ping":45},{"user_id":118,"name":"$r. Hello There#savetf2","steam_id":76561198874231807,"connected_time":201000000000,"state":"active","ping":45}]},{"server_id":7,"name":"Uncletopia | Seattle | 1 | All Maps","name_short":"sea-1","host":"sea-1.us.uncletopia.com","port":27015,"enabled":true,"region":"us-west","cc":"us","latitude":47.608013,"longitude":-122.33517,"reserved":0,"last_update":"0001-01-01T00:00:00Z","name_a2s":"Uncletopia | Seattle | 1 | All Maps","protocol":17,"map":"pl_frontier_final","folder":"tf","game":"Team Fortress","app_id":440,"player_count":22,"max_players":24,"Bots":0,"server_type":"Dedicated","server_os":"Linux","password":true,"vac":true,"version":"7757534","steam_id":85568392924469997,"keywords":["nocrits","nodmgspread","payload","uncletopia"],"game_id":440,"stv_port":27016,"stv_name":"Uncletopia | Seattle | 1 | All Maps | STV","players":[{"user_id":277,"name":"Chicken soup","steam_id":76561198820390472,"connected_time":196000000000,"state":"active","ping":114},{"user_id":254,"name":"Sakisano","steam_id":76561198245814880,"connected_time":1868000000000,"state":"active","ping":74},{"user_id":234,"name":"LILIUM","steam_id":76561198086591493,"connected_time":4092000000000,"state":"active","ping":91},{"user_id":246,"name":"Nen","steam_id":76561198893347370,"connected_time":3169000000000,"state":"active","ping":84},{"user_id":209,"name":"Cob","steam_id":76561198042518365,"connected_time":5075000000000,"state":"active","ping":67},{"user_id":266,"name":"ORANGE","steam_id":76561198000401769,"connected_time":1394000000000,"state":"active","ping":46},{"user_id":213,"name":"Little Linguine","steam_id":76561198816986370,"connected_time":4968000000000,"state":"active","ping":53},{"user_id":220,"name":"AmiableNebula","steam_id":76561198094306627,"connected_time":4599000000000,"state":"active","ping":75},{"user_id":252,"name":"Seaweed","steam_id":76561198960298800,"connected_time":2536000000000,"state":"active","ping":49},{"user_id":274,"name":"Titocheeto","steam_id":76561198994684924,"connected_time":401000000000,"state":"active","ping":78},{"user_id":229,"name":"SenTreats","steam_id":76561198085835841,"connected_time":4210000000000,"state":"active","ping":93},{"user_id":270,"name":"TV","steam_id":76561198177326926,"connected_time":1040000000000,"state":"active","ping":131},{"user_id":268,"name":"doobie the hutt","steam_id":76561198088873640,"connected_time":1101000000000,"state":"active","ping":59},{"user_id":236,"name":"Mignyanne :3","steam_id":76561198048754056,"connected_time":3928000000000,"state":"active","ping":60},{"user_id":259,"name":"BLU3","steam_id":76561198059652670,"connected_time":1475000000000,"state":"active","ping":46},{"user_id":243,"name":"merkury731","steam_id":76561198110565430,"connected_time":3221000000000,"state":"active","ping":114},{"user_id":273,"name":"Daz","steam_id":76561198041431938,"connected_time":764000000000,"state":"active","ping":123},{"user_id":257,"name":"Bonks","steam_id":76561198972835565,"connected_time":1623000000000,"state":"active","ping":42},{"user_id":275,"name":"thebestman982","steam_id":76561199001698710,"connected_time":358000000000,"state":"active","ping":91},{"user_id":271,"name":"LX-24","steam_id":76561198016168993,"connected_time":899000000000,"state":"active","ping":111},{"user_id":235,"name":"A Duck With Socks","steam_id":76561198018844227,"connected_time":4007000000000,"state":"active","ping":56},{"user_id":253,"name":"camp3r","steam_id":76561197992870439,"connected_time":2121000000000,"state":"active","ping":32}]},{"server_id":119,"name":"Uncletopia | Seattle | 2 | All Maps","name_short":"sea-2","host":"sea-1.us.uncletopia.com","port":27025,"enabled":true,"region":"us-west","cc":"us","latitude":47.608013,"longitude":-122.33517,"reserved":0,"last_update":"0001-01-01T00:00:00Z","name_a2s":"Uncletopia | Seattle | 2 | All Maps","protocol":17,"map":"pl_badwater","folder":"tf","game":"Team Fortress","app_id":440,"player_count":24,"max_players":24,"Bots":0,"server_type":"Dedicated","server_os":"Linux","password":true,"vac":true,"version":"7757534","steam_id":85568392924469998,"keywords":["nocrits","nodmgspread","payload","uncletopia"],"game_id":440,"stv_port":27026,"stv_name":"Uncletopia | Seattle | 2 | All Maps | STV","players":[{"user_id":123,"name":"Justy","steam_id":76561198044014069,"connected_time":3016000000000,"state":"active","ping":75},{"user_id":124,"name":"firestabber","steam_id":76561198057055577,"connected_time":2898000000000,"state":"active","ping":46},{"user_id":128,"name":"Felipe Ramirez 2013","steam_id":76561198150497397,"connected_time":2256000000000,"state":"active","ping":84},{"user_id":131,"name":"DNA","steam_id":76561199108272375,"connected_time":2233000000000,"state":"active","ping":48},{"user_id":127,"name":"cheesynipples","steam_id":76561198169768539,"connected_time":2425000000000,"state":"active","ping":117},{"user_id":113,"name":"Nibotshooter","steam_id":76561199284825579,"connected_time":3914000000000,"state":"active","ping":105},{"user_id":147,"name":"[ibb‚Ñ¢]Shadow20X6-ENGI","steam_id":76561198019292755,"connected_time":671000000000,"state":"active","ping":82},{"user_id":139,"name":"T     H     E    PinheadLary","steam_id":76561199091466927,"connected_time":1248000000000,"state":"active","ping":90},{"user_id":151,"name":"pipis","steam_id":76561198140971525,"connected_time":641000000000,"state":"active","ping":106},{"user_id":142,"name":"FoodzAreGoodz","steam_id":76561198309262052,"connected_time":1089000000000,"state":"active","ping":84},{"user_id":137,"name":"Dimple #TF2Center","steam_id":76561198980324190,"connected_time":1618000000000,"state":"active","ping":60},{"user_id":150,"name":"YahYeeterson","steam_id":76561198120480906,"connected_time":645000000000,"state":"active","ping":70},{"user_id":158,"name":"Chicken soup","steam_id":76561198820390472,"connected_time":223000000000,"state":"connecting","ping":0},{"user_id":156,"name":"asphalt eater","steam_id":76561198844273999,"connected_time":540000000000,"state":"active","ping":45},{"user_id":154,"name":"doghouse","steam_id":76561198000319035,"connected_time":584000000000,"state":"active","ping":101},{"user_id":157,"name":"Quarter Cheese","steam_id":76561198115814588,"connected_time":276000000000,"state":"active","ping":42},{"user_id":138,"name":"gloobern","steam_id":76561198341190679,"connected_time":1286000000000,"state":"active","ping":70},{"user_id":97,"name":"Mr8bittripper","steam_id":76561198133894229,"connected_time":5549000000000,"state":"active","ping":45},{"user_id":159,"name":"Tibetan Pop Star","steam_id":76561198844903984,"connected_time":177000000000,"state":"active","ping":91},{"user_id":108,"name":"‚ô•Lyra‚ô•","steam_id":76561198092853824,"connected_time":4754000000000,"state":"active","ping":65},{"user_id":144,"name":"Mr.Kevin120","steam_id":76561199186919096,"connected_time":1045000000000,"state":"active","ping":132},{"user_id":101,"name":"charley","steam_id":76561198828238339,"connected_time":5434000000000,"state":"active","ping":87},{"user_id":105,"name":"Deja Vu","steam_id":76561198062090620,"connected_time":5053000000000,"state":"active","ping":89},{"user_id":155,"name":"alpha1zer0ready","steam_id":76561199206731331,"connected_time":556000000000,"state":"active","ping":94}]},{"server_id":406,"name":"Uncletopia | Seattle | 3 | Stopwatch Beta","name_short":"sea-3","host":"sea-1.us.uncletopia.com","port":27035,"enabled":true,"region":"us-west","cc":"us","latitude":47.608013,"longitude":-122.33517,"reserved":0,"last_update":"0001-01-01T00:00:00Z","name_a2s":"Uncletopia | Seattle | 3 | Stopwatch Beta","protocol":17,"map":"workshop/pl_vigil_rc9.ugc1266210012","folder":"tf","game":"Team Fortress","app_id":440,"player_count":0,"max_players":24,"Bots":0,"server_type":"Dedicated","server_os":"Linux","password":true,"vac":true,"version":"7757534","steam_id":85568392924515217,"keywords":["nocrits","nodmgspread","payload","uncletopia"],"game_id":440,"stv_port":27036,"stv_name":"Uncletopia | Seattle | 3 | Stopwatch Beta | STV","players":null},{"server_id":17,"name":"Uncletopia | San Francisco | 1 | All Maps","name_short":"sfo-1","host":"sfo-1.us.uncletopia.com","port":27015,"enabled":true,"region":"us-west","cc":"us","latitude":37.77397,"longitude":-122.4313,"reserved":0,"last_update":"0001-01-01T00:00:00Z","name_a2s":"Uncletopia | San Francisco | 1 | All Maps","protocol":17,"map":"cp_dustbowl","folder":"tf","game":"Team Fortress","app_id":440,"player_count":24,"max_players":24,"Bots":0,"server_type":"Dedicated","server_os":"Linux","password":true,"vac":true,"version":"7757534","steam_id":85568392924469999,"keywords":["cp","nocrits","nodmgspread","uncletopia"],"game_id":440,"stv_port":27016,"stv_name":"Uncletopia | San Francisco | 1 | All Maps | STV","players":[{"user_id":221,"name":"PLak-PlaK","steam_id":76561198115688122,"connected_time":2694000000000,"state":"active","ping":68},{"user_id":238,"name":"aaron123","steam_id":76561198184669555,"connected_time":1409000000000,"state":"active","ping":54},{"user_id":229,"name":"‚ú™ Y V E S","steam_id":76561198299479796,"connected_time":2038000000000,"state":"active","ping":51},{"user_id":236,"name":"MilkMan","steam_id":76561198114477684,"connected_time":1567000000000,"state":"active","ping":68},{"user_id":183,"name":"primordialheath","steam_id":76561199386942638,"connected_time":4917000000000,"state":"active","ping":132},{"user_id":246,"name":"megaroboleg","steam_id":76561198844644993,"connected_time":158000000000,"state":"active","ping":64},{"user_id":240,"name":"Also UbeR","steam_id":76561198166926843,"connected_time":1160000000000,"state":"active","ping":52},{"user_id":202,"name":"Noodlesmasher2","steam_id":76561199084186813,"connected_time":3372000000000,"state":"active","ping":116},{"user_id":218,"name":"onisock","steam_id":76561198166589402,"connected_time":2890000000000,"state":"active","ping":45},{"user_id":247,"name":"Eden","steam_id":76561198081284664,"connected_time":105000000000,"state":"active","ping":52},{"user_id":156,"name":"zpalmtree","steam_id":76561198134307620,"connected_time":6258000000000,"state":"active","ping":121},{"user_id":249,"name":"TheAilingSword","steam_id":76561198250350844,"connected_time":17000000000,"state":"spawning","ping":75},{"user_id":216,"name":"monkey","steam_id":76561199110953283,"connected_time":2986000000000,"state":"active","ping":67},{"user_id":210,"name":"Once in a Lifetime","steam_id":76561199180652178,"connected_time":3097000000000,"state":"active","ping":119},{"user_id":242,"name":"It's a Doggydog World","steam_id":76561198018232414,"connected_time":861000000000,"state":"active","ping":60},{"user_id":201,"name":"Laxoloni","steam_id":76561199197045700,"connected_time":3553000000000,"state":"active","ping":69},{"user_id":248,"name":"Engynier Gaimeang (F2P)","steam_id":76561199013888779,"connected_time":55000000000,"state":"spawning","ping":50},{"user_id":146,"name":"Training Arc","steam_id":76561198038832034,"connected_time":7100000000000,"state":"active","ping":75},{"user_id":97,"name":"Summer's Snowman","steam_id":76561198057140854,"connected_time":10743000000000,"state":"active","ping":60},{"user_id":244,"name":"Reisen","steam_id":76561199174579733,"connected_time":659000000000,"state":"active","ping":113},{"user_id":245,"name":"the gamer","steam_id":76561198334059206,"connected_time":168000000000,"state":"active","ping":60},{"user_id":243,"name":"BurningKev","steam_id":76561198057688837,"connected_time":845000000000,"state":"active","ping":77},{"user_id":241,"name":"solitaire","steam_id":76561198964025682,"connected_time":1047000000000,"state":"active","ping":44},{"user_id":225,"name":"Mufalito","steam_id":76561198951889482,"connected_time":2408000000000,"state":"active","ping":182}]},{"server_id":18,"name":"Uncletopia | San Francisco | 2 | All Maps","name_short":"sfo-2","host":"sfo-1.us.uncletopia.com","port":27025,"enabled":true,"region":"us-west","cc":"us","latitude":37.77397,"longitude":-122.4313,"reserved":0,"last_update":"0001-01-01T00:00:00Z","name_a2s":"Uncletopia | San Francisco | 2 | All Maps","protocol":17,"map":"koth_highpass","folder":"tf","game":"Team Fortress","app_id":440,"player_count":0,"max_players":24,"Bots":0,"server_type":"Dedicated","server_os":"Linux","password":true,"vac":true,"version":"7757534","steam_id":85568392924470000,"keywords":["cp","nocrits","nodmgspread","uncletopia"],"game_id":440,"stv_port":27026,"stv_name":"Uncletopia | San Francisco | 2 | All Maps | STV","players":null},{"server_id":19,"name":"Uncletopia | San Francisco | 3 | Stopwatch Beta","name_short":"sfo-3","host":"sfo-1.us.uncletopia.com","port":27035,"enabled":true,"region":"us-west","cc":"us","latitude":37.77397,"longitude":-122.4313,"reserved":0,"last_update":"0001-01-01T00:00:00Z","name_a2s":"Uncletopia | San Francisco | 3 | Stopwatch Beta","protocol":17,"map":"koth_lakeside_final","folder":"tf","game":"Team Fortress","app_id":440,"player_count":0,"max_players":24,"Bots":0,"server_type":"Dedicated","server_os":"Linux","password":true,"vac":true,"version":"7757534","steam_id":85568392924742824,"keywords":["cp","nocrits","nodmgspread","uncletopia"],"game_id":440,"stv_port":27036,"stv_name":"Uncletopia | San Francisco | 3 | Stopwatch Beta | STV","players":null},{"server_id":20,"name":"Uncletopia | San Francisco | 4 | Community","name_short":"sfo-4","host":"sfo-1.us.uncletopia.com","port":27045,"enabled":true,"region":"us-west","cc":"us","latitude":37.77397,"longitude":-122.4313,"reserved":0,"last_update":"0001-01-01T00:00:00Z","name_a2s":"Uncletopia | San Francisco | 4 | Community","protocol":17,"map":"cp_altitude","folder":"tf","game":"Team Fortress","app_id":440,"player_count":0,"max_players":24,"Bots":0,"server_type":"Dedicated","server_os":"Linux","password":true,"vac":true,"version":"7757534","steam_id":85568392924742826,"keywords":["cp","nocrits","nodmgspread","uncletopia"],"game_id":440,"stv_port":27046,"stv_name":"Uncletopia | San Francisco | 4 | Community | STV","players":null},{"server_id":141,"name":"Uncletopia | Sydney | 1 | All Maps","name_short":"syd-1","host":"syd-1.au.uncletopia.com","port":27015,"enabled":true,"region":"au","cc":"au","latitude":-33.865143,"longitude":151.2099,"reserved":0,"last_update":"0001-01-01T00:00:00Z","name_a2s":"Uncletopia | Sydney | 1 | All Maps","protocol":17,"map":"koth_highpass","folder":"tf","game":"Team Fortress","app_id":440,"player_count":0,"max_players":24,"Bots":0,"server_type":"Dedicated","server_os":"Linux","password":true,"vac":true,"version":"7757534","steam_id":85568392924470001,"keywords":["cp","nocrits","nodmgspread","uncletopia"],"game_id":440,"stv_port":27016,"stv_name":"Uncletopia | Sydney | 1 | All Maps | STV","players":null},{"server_id":123,"name":"Uncletopia | Sydney | 2 | All Maps","name_short":"syd-2","host":"syd-1.au.uncletopia.com","port":27025,"enabled":true,"region":"au","cc":"au","latitude":-33.865143,"longitude":151.2099,"reserved":0,"last_update":"0001-01-01T00:00:00Z","name_a2s":"Uncletopia | Sydney | 2 | All Maps","protocol":17,"map":"pl_barnblitz","folder":"tf","game":"Team Fortress","app_id":440,"player_count":0,"max_players":24,"Bots":0,"server_type":"Dedicated","server_os":"Linux","password":true,"vac":true,"version":"7757534","steam_id":85568392924470002,"keywords":["nocrits","nodmgspread","payload","uncletopia"],"game_id":440,"stv_port":27026,"stv_name":"Uncletopia | Sydney | 2 | All Maps | STV","players":null},{"server_id":395,"name":"Uncletopia | Sydney | 3 | All Maps","name_short":"syd-3","host":"syd-1.au.uncletopia.com","port":27035,"enabled":true,"region":"au","cc":"au","latitude":-33.865143,"longitude":151.2099,"reserved":0,"last_update":"0001-01-01T00:00:00Z","name_a2s":"Uncletopia | Sydney | 3 | All Maps","protocol":17,"map":"koth_lakeside_final","folder":"tf","game":"Team Fortress","app_id":440,"player_count":0,"max_players":24,"Bots":0,"server_type":"Dedicated","server_os":"Linux","password":true,"vac":true,"version":"7757534","steam_id":85568392925194467,"keywords":["cp","nocrits","nodmgspread","uncletopia"],"game_id":440,"stv_port":27036,"stv_name":"Uncletopia | Sydney | 3 | All Maps | STV","players":null},{"server_id":396,"name":"Uncletopia | Sydney | 4 | All Maps","name_short":"syd-4","host":"syd-1.au.uncletopia.com","port":27045,"enabled":true,"region":"au","cc":"au","latitude":-33.865143,"longitude":151.2099,"reserved":0,"last_update":"0001-01-01T00:00:00Z","name_a2s":"Uncletopia | Sydney | 4 | All Maps","protocol":17,"map":"cp_snakewater_final1","folder":"tf","game":"Team Fortress","app_id":440,"player_count":0,"max_players":24,"Bots":0,"server_type":"Dedicated","server_os":"Linux","password":true,"vac":true,"version":"7757534","steam_id":85568392925397958,"keywords":["cp","nocrits","nodmgspread","uncletopia"],"game_id":440,"stv_port":27046,"stv_name":"Uncletopia | Sydney | 4 | All Maps | STV","players":null},{"server_id":58,"name":"Uncletopia | Sydney | 5 | Stopwatch Beta","name_short":"syd-5","host":"syd-1.au.uncletopia.com","port":27055,"enabled":true,"region":"au","cc":"au","latitude":-33.865143,"longitude":151.2099,"reserved":0,"last_update":"0001-01-01T00:00:00Z","name_a2s":"Uncletopia | Sydney | 5 | Stopwatch Beta","protocol":17,"map":"pl_upward","folder":"tf","game":"Team Fortress","app_id":440,"player_count":0,"max_players":24,"Bots":0,"server_type":"Dedicated","server_os":"Linux","password":true,"vac":true,"version":"7757534","steam_id":85568392925397959,"keywords":["nocrits","nodmgspread","payload","uncletopia"],"game_id":440,"stv_port":27056,"stv_name":"Uncletopia | Sydney | 5 | Stopwatch Beta | STV","players":null},{"server_id":59,"name":"Uncletopia | Sydney | 6 | Community","name_short":"syd-6","host":"syd-1.au.uncletopia.com","port":27065,"enabled":true,"region":"au","cc":"au","latitude":-33.865143,"longitude":151.2099,"reserved":0,"last_update":"0001-01-01T00:00:00Z","name_a2s":"Uncletopia | Sydney | 6 | Community","protocol":17,"map":"workshop/pl_cashworks_final1.ugc2904065412","folder":"tf","game":"Team Fortress","app_id":440,"player_count":2,"max_players":24,"Bots":0,"server_type":"Dedicated","server_os":"Linux","password":true,"vac":true,"version":"7757534","steam_id":85568392925397960,"keywords":["nocrits","nodmgspread","payload","uncletopia"],"game_id":440,"stv_port":27066,"stv_name":"Uncletopia | Sydney | 6 | Community | STV","players":[{"user_id":24,"name":"osiris","steam_id":76561198172640226,"connected_time":815000000000,"state":"active","ping":51},{"user_id":25,"name":"MuntedRoostah","steam_id":76561198274016143,"connected_time":700000000000,"state":"active","ping":63}]},{"server_id":49,"name":"Uncletopia | Warsaw | 1 | All Maps","name_short":"waw-1","host":"waw-1.pl.uncletopia.com","port":27015,"enabled":true,"region":"eu","cc":"pl","latitude":52.2297,"longitude":21.017532,"reserved":0,"last_update":"0001-01-01T00:00:00Z","name_a2s":"","protocol":0,"map":"","folder":"","game":"","app_id":0,"player_count":0,"max_players":0,"Bots":0,"server_type":"","server_os":"","password":false,"vac":false,"version":"","steam_id":0,"keywords":null,"game_id":0,"stv_port":0,"stv_name":"","players":null},{"server_id":50,"name":"Uncletopia | Warsaw | 2 | All Maps","name_short":"waw-2","host":"waw-1.pl.uncletopia.com","port":27025,"enabled":true,"region":"eu","cc":"pl","latitude":52.2297,"longitude":21.017532,"reserved":0,"last_update":"0001-01-01T00:00:00Z","name_a2s":"Uncletopia | Warsaw | 2 | All Maps","protocol":17,"map":"koth_lakeside_final","folder":"tf","game":"Team Fortress","app_id":440,"player_count":0,"max_players":24,"Bots":0,"server_type":"Dedicated","server_os":"Linux","password":true,"vac":true,"version":"7757534","steam_id":85568392925397851,"keywords":["cp","nocrits","nodmgspread","uncletopia"],"game_id":440,"stv_port":27026,"stv_name":"Uncletopia | Warsaw | 2 | All Maps | STV","players":null},{"server_id":51,"name":"Uncletopia | Warsaw | 3 | All Maps","name_short":"waw-3","host":"waw-1.pl.uncletopia.com","port":27035,"enabled":true,"region":"eu","cc":"pl","latitude":52.2297,"longitude":21.017532,"reserved":0,"last_update":"0001-01-01T00:00:00Z","name_a2s":"Uncletopia | Warsaw | 3 | All Maps","protocol":17,"map":"pl_snowycoast","folder":"tf","game":"Team Fortress","app_id":440,"player_count":0,"max_players":24,"Bots":0,"server_type":"Dedicated","server_os":"Linux","password":true,"vac":true,"version":"7757534","steam_id":85568392925397852,"keywords":["nocrits","nodmgspread","payload","uncletopia"],"game_id":440,"stv_port":27036,"stv_name":"Uncletopia | Warsaw | 3 | All Maps | STV","players":null},{"server_id":52,"name":"Uncletopia | Warsaw | 4 | All Maps","name_short":"waw-4","host":"waw-1.pl.uncletopia.com","port":27045,"enabled":true,"region":"eu","cc":"pl","latitude":52.2297,"longitude":21.017532,"reserved":0,"last_update":"0001-01-01T00:00:00Z","name_a2s":"Uncletopia | Warsaw | 4 | All Maps","protocol":17,"map":"koth_lakeside_final","folder":"tf","game":"Team Fortress","app_id":440,"player_count":0,"max_players":24,"Bots":0,"server_type":"Dedicated","server_os":"Linux","password":true,"vac":true,"version":"7757534","steam_id":85568392925397853,"keywords":["cp","nocrits","nodmgspread","uncletopia"],"game_id":440,"stv_port":27046,"stv_name":"Uncletopia | Warsaw | 4 | All Maps | STV","players":null},{"server_id":53,"name":"Uncletopia | Warsaw | 5 | Stopwatch Beta","name_short":"waw-5","host":"waw-1.pl.uncletopia.com","port":27055,"enabled":true,"region":"eu","cc":"pl","latitude":52.2297,"longitude":21.017532,"reserved":0,"last_update":"0001-01-01T00:00:00Z","name_a2s":"Uncletopia | Warsaw | 5 | Stopwatch Beta","protocol":17,"map":"workshop/koth_bagel_rc6.ugc2514036946","folder":"tf","game":"Team Fortress","app_id":440,"player_count":0,"max_players":24,"Bots":0,"server_type":"Dedicated","server_os":"Linux","password":true,"vac":true,"version":"7757534","steam_id":85568392925397854,"keywords":["cp","nocrits","nodmgspread","uncletopia"],"game_id":440,"stv_port":27056,"stv_name":"Uncletopia | Warsaw | 5 | Stopwatch Beta | STV","players":null},{"server_id":54,"name":"Uncletopia | Warsaw | 6 | Community","name_short":"waw-6","host":"waw-1.pl.uncletopia.com","port":27065,"enabled":true,"region":"eu","cc":"pl","latitude":52.2297,"longitude":21.017532,"reserved":0,"last_update":"0001-01-01T00:00:00Z","name_a2s":"Uncletopia | Warsaw | 6 | Community","protocol":17,"map":"workshop/koth_kemptown_rc1.ugc767410655","folder":"tf","game":"Team Fortress","app_id":440,"player_count":0,"max_players":24,"Bots":0,"server_type":"Dedicated","server_os":"Linux","password":true,"vac":true,"version":"7757534","steam_id":85568392925397856,"keywords":["cp","nocrits","nodmgspread","uncletopia"],"game_id":440,"stv_port":27066,"stv_name":"Uncletopia | Warsaw | 6 | Community | STV","players":null}]}