{"status":true,"message":"","result":[{"server_id":9,"name":"Uncletopia | Atlanta | 1 | All Maps","name_short":"atl-1","host":"atl-1.us.uncletopia.com","port":27015,"enabled":true,"region":"us-east","cc":"us","latitude":33.753746,"longitude":-84.38633,"reserved":0,"last_update":"0001-01-01T00:00:00Z","name_a2s":"Uncletopia | Atlanta | 1 | All Maps","protocol":17,"map":"pl_pier","folder":"tf","game":"Team Fortress","app_id":440,"player_count":24,"max_players":24,"Bots":0,"server_type":"Dedicated","server_os":"Linux","password":true,"vac":true,"version":"7961495","steam_id":85568392924469982,"keywords":["nocrits","nodmgspread","payload","uncletopia"],"game_id":440,"stv_port":27016,"stv_name":"Uncletopia | Atlanta | 1 | All Maps | STV","players":null},{"server_id":104,"name":"Uncletopia | Atlanta | 2 | All Maps","name_short":"atl-2","host":"atl-1.us.uncletopia.com","port":27025,"enabled":true,"region":"us-east","cc":"us","latitude":33.753746,"longitude":-84.38633,"reserved":0,"last_update":"0001-01-01T00:00:00Z","name_a2s":"Uncletopia | Atlanta | 2 | All Maps","protocol":17,"map":"pl_borneo","folder":"tf","game":"Team Fortress","app_id":440,"player_count":24,"max_players":24,"Bots":0,"server_type":"Dedicated","server_os":"Linux","password":true,"vac":true,"version":"7961495","steam_id":85568392924469983,"keywords":["nocrits","nodmgspread","payload","uncletopia"],"game_id":440,"stv_port":27026,"stv_name":"Uncletopia | Atlanta | 2 | All Maps | STV","players":null},{"server_id":400,"name":"Uncletopia | Atlanta | 3 | Stopwatch","name_short":"atl-3","host":"atl-1.us.uncletopia.com","port":27035,"enabled":true,"region":"us-east","cc":"us","latitude":33.753746,"longitude":-84.38633,"reserved":0,"last_update":"0001-01-01T00:00:00Z","name_a2s":"Uncletopia | Atlanta | 3 | Stopwatch","protocol":17,"map":"koth_clearcut_b15","folder":"tf","game":"Team Fortress","app_id":440,"player_count":0,"max_players":24,"Bots":0,"server_type":"Dedicated","server_os":"Linux","password":true,"vac":true,"version":"7961495","steam_id":85568392924515187,"keywords":["cp","nocrits","nodmgspread","uncletopia"],"game_id":440,"stv_port":27036,"stv_name":"Uncletopia | Atlanta | 3 | Stopwatch | STV","players":null},{"server_id":401,"name":"Uncletopia | Atlanta | 4 | Community","name_short":"atl-4","host":"atl-1.us.uncletopia.com","port":27045,"enabled":true,"region":"us-east","cc":"us","latitude":33.753746,"longitude":-84.38633,"reserved":0,"last_update":"0001-01-01T00:00:00Z","name_a2s":"Uncletopia | Atlanta | 4 | Community","protocol":17,"map":"koth_trenchfoot_b1a","folder":"tf","game":"Team Fortress","app_id":440,"player_count":0,"max_players":24,"Bots":0,"server_type":"Dedicated","server_os":"Linux","password":true,"vac":true,"version":"7961495","steam_id":85568392924515188,"keywords":["cp","nocrits","nodmgspread","uncletopia"],"game_id":440,"stv_port":27046,"stv_name":"Uncletopia | Atlanta | 4 | Community | STV","players":null},{"server_id":2,"name":"Uncletopia | Chicago | 1 | All Maps","name_short":"chi-1","host":"chi-1.us.uncletopia.com","port":27015,"enabled":true,"region":"us-central","cc":"us","latitude":41.881832,"longitude":-87.62318,"reserved":0,"last_update":"0001-01-01T00:00:00Z","name_a2s":"Uncletopia | Chicago | 1 | All Maps","protocol":17,"map":"pl_thundermountain","folder":"tf","game":"Team Fortress","app_id":440,"player_count":24,"max_players":24,"Bots":0,"server_type":"Dedicated","server_os":"Linux","password":true,"vac":true,"version":"7961495","steam_id":85568392924469984,"keywords":["nocrits","nodmgspread","payload","uncletopia"],"game_id":440,"stv_port":27016,"stv_name":"Uncletopia | Chicago | 1 | All Maps | STV","players":[{"user_id":234,"name":"DiscoTraveler","steam_id":76561199240168088,"connected_time":6179000000000,"state":"active","ping":62},{"user_id":288,"name":"debin","steam_id":76561198070711217,"connected_time":1398000000000,"state":"active","ping":53},{"user_id":232,"name":"Remedy","steam_id":76561198207726951,"connected_time":6192000000000,"state":"active","ping":68},{"user_id":297,"name":"Space","steam_id":76561198350489754,"connected_time":150000000000,"state":"active","ping":57},{"user_id":195,"name":"THE MEWTWO","steam_id":76561199092618496,"connected_time":8833000000000,"state":"active","ping":83},{"user_id":248,"name":"Hylic","steam_id":76561199051314589,"connected_time":4634000000000,"state":"active","ping":65},{"user_id":278,"name":"Ultra","steam_id":76561198204547111,"connected_time":2455000000000,"state":"active","ping":69},{"user_id":261,"name":"Nexusuxen","steam_id":76561198117547131,"connected_time":4204000000000,"state":"active","ping":72},{"user_id":290,"name":"Rx Auntie","steam_id":76561198051618393,"connected_time":1064000000000,"state":"active","ping":60},{"user_id":289,"name":"Michael Fettuccine","steam_id":76561198056953903,"connected_time":1149000000000,"state":"active","ping":99},{"user_id":293,"name":"Gachalover","steam_id":76561199231552074,"connected_time":796000000000,"state":"active","ping":81},{"user_id":287,"name":"pim","steam_id":76561198095163441,"connected_time":1534000000000,"state":"active","ping":69},{"user_id":285,"name":"Oopsie Daisy ‚ùã","steam_id":76561198042144492,"connected_time":1790000000000,"state":"active","ping":77},{"user_id":298,"name":"Astoriae!","steam_id":76561199090168858,"connected_time":149000000000,"state":"active","ping":69},{"user_id":296,"name":"ArtemisTheGreat","steam_id":76561198065959582,"connected_time":493000000000,"state":"active","ping":72},{"user_id":280,"name":"Bullshell","steam_id":76561198154430083,"connected_time":1982000000000,"state":"active","ping":80},{"user_id":244,"name":".JIFF","steam_id":76561198045181760,"connected_time":4878000000000,"state":"active","ping":60},{"user_id":284,"name":"Harven Cosset","steam_id":76561198399526024,"connected_time":1838000000000,"state":"active","ping":69},{"user_id":294,"name":"God's Drunkest Driver","steam_id":76561199174579733,"connected_time":578000000000,"state":"active","ping":73},{"user_id":291,"name":"Ghoulenoir","steam_id":76561198074314573,"connected_time":1062000000000,"state":"active","ping":51},{"user_id":259,"name":"Kid named download","steam_id":76561199192074448,"connected_time":4253000000000,"state":"active","ping":72},{"user_id":295,"name":"Lo-Pan","steam_id":76561198085670133,"connected_time":560000000000,"state":"active","ping":92},{"user_id":222,"name":"King Crust of Crustmus","steam_id":76561198160930421,"connected_time":7144000000000,"state":"active","ping":78},{"user_id":247,"name":"Lia_Rein","steam_id":76561198151569597,"connected_time":4650000000000,"state":"active","ping":143}]},{"server_id":106,"name":"Uncletopia | Chicago | 2 | All Maps","name_short":"chi-2","host":"chi-1.us.uncletopia.com","port":27025,"enabled":true,"region":"us-central","cc":"us","latitude":41.881832,"longitude":-87.62318,"reserved":0,"last_update":"0001-01-01T00:00:00Z","name_a2s":"Uncletopia | Chicago | 2 | All Maps","protocol":17,"map":"pl_snowycoast","folder":"tf","game":"Team Fortress","app_id":440,"player_count":23,"max_players":24,"Bots":0,"server_type":"Dedicated","server_os":"Linux","password":true,"vac":true,"version":"7961495","steam_id":85568392924469985,"keywords":["nocrits","nodmgspread","payload","uncletopia"],"game_id":440,"stv_port":27026,"stv_name":"Uncletopia | Chicago | 2 | All Maps | STV","players":[{"user_id":509,"name":"A Puppy","steam_id":76561198828184456,"connected_time":2645000000000,"state":"active","ping":58},{"user_id":467,"name":"Shrimp Fried Rice","steam_id":76561198247688228,"connected_time":5160000000000,"state":"active","ping":119},{"user_id":497,"name":"High School Nudical","steam_id":76561198172120615,"connected_time":3449000000000,"state":"active","ping":54},{"user_id":557,"name":"Donut?","steam_id":76561199122315920,"connected_time":239000000000,"state":"active","ping":61},{"user_id":545,"name":"BackToSchoolAds","steam_id":76561198870281128,"connected_time":776000000000,"state":"active","ping":80},{"user_id":559,"name":"Aspxts","steam_id":76561199125254746,"connected_time":139000000000,"state":"active","ping":57},{"user_id":543,"name":"josie","steam_id":76561198170848553,"connected_time":862000000000,"state":"active","ping":86},{"user_id":426,"name":"ViserOfOrder","steam_id":76561198137222506,"connected_time":8250000000000,"state":"active","ping":68},{"user_id":547,"name":"LoboPaciente","steam_id":76561198088870962,"connected_time":744000000000,"state":"active","ping":102},{"user_id":546,"name":"flwrgrl","steam_id":76561198815644949,"connected_time":774000000000,"state":"active","ping":59},{"user_id":561,"name":"Jango","steam_id":76561198084589742,"connected_time":98000000000,"state":"active","ping":76},{"user_id":548,"name":"Raven","steam_id":76561198087296188,"connected_time":743000000000,"state":"active","ping":100},{"user_id":549,"name":"JimmySquid","steam_id":76561198254242530,"connected_time":742000000000,"state":"active","ping":63},{"user_id":538,"name":"froggy :3","steam_id":76561198079405234,"connected_time":1276000000000,"state":"active","ping":59},{"user_id":560,"name":"lfty","steam_id":76561198283841707,"connected_time":135000000000,"state":"active","ping":72},{"user_id":565,"name":"Kritzburgh","steam_id":76561198149466938,"connected_time":31000000000,"state":"spawning","ping":67},{"user_id":566,"name":"Mi cara","steam_id":76561198190771759,"connected_time":9000000000,"state":"spawning","ping":112},{"user_id":563,"name":"minecraft","steam_id":76561198104345201,"connected_time":91000000000,"state":"active","ping":65},{"user_id":552,"name":"alien","steam_id":76561198007464245,"connected_time":716000000000,"state":"active","ping":74},{"user_id":514,"name":"poverty gaming","steam_id":76561199177831971,"connected_time":2100000000000,"state":"active","ping":72},{"user_id":564,"name":"kid named weezer","steam_id":76561198813566335,"connected_time":80000000000,"state":"active","ping":76},{"user_id":524,"name":"Antoni","steam_id":76561198090577320,"connected_time":1717000000000,"state":"active","ping":53},{"user_id":535,"name":"DADDY ESCANOR","steam_id":76561198075102565,"connected_time":1400000000000,"state":"active","ping":59}]},{"server_id":402,"name":"Uncletopia | Chicago | 3 | All Maps","name_short":"chi-3","host":"chi-1.us.uncletopia.com","port":27035,"enabled":true,"region":"us-central","cc":"us","latitude":41.881832,"longitude":-87.62318,"reserved":0,"last_update":"0001-01-01T00:00:00Z","name_a2s":"Uncletopia | Chicago | 3 | All Maps","protocol":17,"map":"pl_upward","folder":"tf","game":"Team Fortress","app_id":440,"player_count":23,"max_players":24,"Bots":0,"server_type":"Dedicated","server_os":"Linux","password":true,"vac":true,"version":"7961495","steam_id":85568392924515191,"keywords":["nocrits","nodmgspread","payload","uncletopia"],"game_id":440,"stv_port":27036,"stv_name":"Uncletopia | Chicago | 3 | All Maps | STV","players":[{"user_id":69,"name":"silly feller","steam_id":76561199118569153,"connected_time":79000000000,"state":"active","ping":56},{"user_id":37,"name":"imng","steam_id":76561198014988031,"connected_time":1514000000000,"state":"active","ping":74},{"user_id":64,"name":"Reznika","steam_id":76561198116144377,"connected_time":547000000000,"state":"active","ping":72},{"user_id":35,"name":"saturn eating his own ass","steam_id":76561198016826181,"connected_time":1736000000000,"state":"active","ping":70},{"user_id":63,"name":"Lube","steam_id":76561199110893188,"connected_time":611000000000,"state":"active","ping":100},{"user_id":68,"name":"Fart Smella","steam_id":76561198377835843,"connected_time":91000000000,"state":"active","ping":37},{"user_id":41,"name":"Shaby_Frost","steam_id":76561198401334563,"connected_time":1111000000000,"state":"active","ping":46},{"user_id":42,"name":"Fish_man_Jon","steam_id":76561198068158264,"connected_time":1086000000000,"state":"active","ping":69},{"user_id":43,"name":"Ludens","steam_id":76561198044423822,"connected_time":1062000000000,"state":"active","ping":75},{"user_id":45,"name":"Dawdle","steam_id":76561198331501540,"connected_time":1029000000000,"state":"active","ping":88},{"user_id":48,"name":"AilurosMajor88","steam_id":76561198350900640,"connected_time":965000000000,"state":"active","ping":96},{"user_id":54,"name":"The_Fire_Guy","steam_id":76561199102423113,"connected_time":864000000000,"state":"active","ping":120},{"user_id":49,"name":"Narwaichen","steam_id":76561198136890329,"connected_time":961000000000,"state":"active","ping":114},{"user_id":51,"name":"‡ºò ‚ãÜÀöüéßCaffeine‚òï*Àñ¬∞","steam_id":76561199259309294,"connected_time":943000000000,"state":"active","ping":79},{"user_id":52,"name":"Jokergamma","steam_id":76561198807984541,"connected_time":903000000000,"state":"active","ping":72},{"user_id":53,"name":"jaaj","steam_id":76561198193405221,"connected_time":898000000000,"state":"active","ping":43},{"user_id":55,"name":"_Ati","steam_id":76561198339777801,"connected_time":848000000000,"state":"active","ping":112},{"user_id":56,"name":"KyonHB","steam_id":76561198050311904,"connected_time":846000000000,"state":"active","ping":85},{"user_id":57,"name":"6t26j","steam_id":76561198278282836,"connected_time":840000000000,"state":"active","ping":51},{"user_id":58,"name":"rickyrickyricky","steam_id":76561198041765918,"connected_time":833000000000,"state":"active","ping":84},{"user_id":62,"name":"homsar","steam_id":76561199031742838,"connected_time":743000000000,"state":"active","ping":72},{"user_id":60,"name":"Dung Pie","steam_id":76561198935859163,"connected_time":828000000000,"state":"active","ping":74},{"user_id":61,"name":"THOTDADDY","steam_id":76561198069868942,"connected_time":814000000000,"state":"active","ping":61}]},{"server_id":403,"name":"Uncletopia | Chicago | 4 | All Maps","name_short":"chi-4","host":"chi-1.us.uncletopia.com","port":27045,"enabled":true,"region":"us-central","cc":"us","latitude":41.881832,"longitude":-87.62318,"reserved":0,"last_update":"0001-01-01T00:00:00Z","name_a2s":"Uncletopia | Chicago | 4 | All Maps","protocol":17,"map":"pl_badwater","folder":"tf","game":"Team Fortress","app_id":440,"player_count":24,"max_players":24,"Bots":0,"server_type":"Dedicated","server_os":"Linux","password":true,"vac":true,"version":"7961495","steam_id":85568392924515193,"keywords":["nocrits","nodmgspread","payload","uncletopia"],"game_id":440,"stv_port":27046,"stv_name":"Uncletopia | Chicago | 4 | All Maps | STV","players":[{"user_id":49,"name":"Infurno","steam_id":76561198817371052,"connected_time":6122000000000,"state":"active","ping":91},{"user_id":68,"name":"Pasta","steam_id":76561199498088524,"connected_time":4254000000000,"state":"active","ping":101},{"user_id":39,"name":"Tay","steam_id":76561198059605568,"connected_time":6786000000000,"state":"active","ping":72},{"user_id":87,"name":"stungoperation","steam_id":76561199162409918,"connected_time":2534000000000,"state":"active","ping":77},{"user_id":19,"name":"andyiscolorless","steam_id":76561199239870921,"connected_time":7210000000000,"state":"active","ping":140},{"user_id":88,"name":"anonpain","steam_id":76561198081317092,"connected_time":2436000000000,"state":"active","ping":54},{"user_id":103,"name":"Dongus","steam_id":76561197979056451,"connected_time":477000000000,"state":"active","ping":90},{"user_id":78,"name":"TacoMan","steam_id":76561198049405741,"connected_time":3268000000000,"state":"active","ping":95},{"user_id":41,"name":"Lost","steam_id":76561198025933206,"connected_time":6708000000000,"state":"active","ping":59},{"user_id":76,"name":"Franco","steam_id":76561199483952215,"connected_time":3299000000000,"state":"active","ping":123},{"user_id":102,"name":"mountain goat","steam_id":76561198326628884,"connected_time":497000000000,"state":"active","ping":68},{"user_id":27,"name":"Protato","steam_id":76561198061182563,"connected_time":6883000000000,"state":"active","ping":73},{"user_id":28,"name":"Cowbo #enablecrits","steam_id":76561198081220016,"connected_time":6874000000000,"state":"active","ping":46},{"user_id":29,"name":"LegendaryMister151","steam_id":76561198064890524,"connected_time":6872000000000,"state":"active","ping":82},{"user_id":104,"name":"Leifvs","steam_id":76561198255946142,"connected_time":471000000000,"state":"active","ping":89},{"user_id":79,"name":"Terry Crews from Brooklyn 99","steam_id":76561198357806819,"connected_time":3249000000000,"state":"active","ping":80},{"user_id":97,"name":"Satan-2","steam_id":76561199231742764,"connected_time":1015000000000,"state":"active","ping":74},{"user_id":70,"name":"og biden pack cart","steam_id":76561198253731826,"connected_time":4178000000000,"state":"active","ping":60},{"user_id":92,"name":"phroliax","steam_id":76561198207075529,"connected_time":1848000000000,"state":"active","ping":94},{"user_id":38,"name":"VinnyTheG","steam_id":76561198862202293,"connected_time":6794000000000,"state":"active","ping":91},{"user_id":99,"name":"SUPREME CHAMPION","steam_id":76561198072112905,"connected_time":643000000000,"state":"active","ping":60},{"user_id":105,"name":"Blu2pm","steam_id":76561199003490260,"connected_time":455000000000,"state":"active","ping":58},{"user_id":44,"name":"RandomRainbow","steam_id":76561199107573588,"connected_time":6696000000000,"state":"active","ping":46},{"user_id":101,"name":"Aerobro","steam_id":76561198033530996,"connected_time":608000000000,"state":"active","ping":92}]},{"server_id":36,"name":"Uncletopia | Chicago | 5 | All Maps","name_short":"chi-5","host":"chi-2.us.uncletopia.com","port":27015,"enabled":true,"region":"us-central","cc":"us","latitude":41.881832,"longitude":-87.62318,"reserved":0,"last_update":"0001-01-01T00:00:00Z","name_a2s":"Uncletopia | Chicago | 5 | All Maps","protocol":17,"map":"pl_pier","folder":"tf","game":"Team Fortress","app_id":440,"player_count":24,"max_players":24,"Bots":0,"server_type":"Dedicated","server_os":"Linux","password":true,"vac":true,"version":"7961495","steam_id":85568392924866362,"keywords":["nocrits","nodmgspread","payload","uncletopia"],"game_id":440,"stv_port":27016,"stv_name":"Uncletopia | Chicago | 5 | All Maps | STV","players":[{"user_id":55,"name":"DistantJragon","steam_id":76561198117563641,"connected_time":951000000000,"state":"active","ping":44},{"user_id":58,"name":"div?","steam_id":76561198413930183,"connected_time":644000000000,"state":"active","ping":61},{"user_id":57,"name":"FaZe hyazZzZaZa","steam_id":76561199100342013,"connected_time":845000000000,"state":"active","ping":91},{"user_id":59,"name":"Level 1 Crook","steam_id":76561198441098132,"connected_time":641000000000,"state":"active","ping":45},{"user_id":12,"name":"Ringo x Seiran","steam_id":76561198357437908,"connected_time":3044000000000,"state":"active","ping":72},{"user_id":13,"name":"TinyTator","steam_id":76561198799282234,"connected_time":2961000000000,"state":"active","ping":87},{"user_id":56,"name":"02vg3","steam_id":76561198404320154,"connected_time":947000000000,"state":"active","ping":114},{"user_id":19,"name":"Lord Cutler Beckett","steam_id":76561198091356047,"connected_time":2654000000000,"state":"active","ping":60},{"user_id":51,"name":"Fresh0c0","steam_id":76561198271933283,"connected_time":1505000000000,"state":"active","ping":58},{"user_id":38,"name":"Johnny Lawrence #JohnnyMaxxing","steam_id":76561199367141671,"connected_time":2087000000000,"state":"active","ping":63},{"user_id":25,"name":"inshallah","steam_id":76561198165212575,"connected_time":2250000000000,"state":"active","ping":66},{"user_id":53,"name":"ThatGamingKiwi","steam_id":76561199170522237,"connected_time":1149000000000,"state":"active","ping":90},{"user_id":47,"name":"algebruh","steam_id":76561199379415267,"connected_time":1739000000000,"state":"active","ping":96},{"user_id":64,"name":"owlman owl","steam_id":76561199167996712,"connected_time":480000000000,"state":"active","ping":64},{"user_id":36,"name":"glasklar","steam_id":76561198144675074,"connected_time":2137000000000,"state":"active","ping":49},{"user_id":61,"name":"PK","steam_id":76561198368722500,"connected_time":630000000000,"state":"active","ping":75},{"user_id":34,"name":"chok","steam_id":76561198242016100,"connected_time":2167000000000,"state":"active","ping":89},{"user_id":62,"name":"a 1930s robber","steam_id":76561198125237406,"connected_time":603000000000,"state":"active","ping":80},{"user_id":44,"name":"Dark Souls","steam_id":76561198131174016,"connected_time":1959000000000,"state":"active","ping":92},{"user_id":40,"name":"bobbone","steam_id":76561198450974762,"connected_time":2055000000000,"state":"active","ping":63},{"user_id":63,"name":"Greasy Guavas","steam_id":76561198089650428,"connected_time":603000000000,"state":"active","ping":89},{"user_id":42,"name":"CinnamonBoy","steam_id":76561198882330338,"connected_time":2002000000000,"state":"active","ping":68},{"user_id":65,"name":"Atoc","steam_id":76561198300877325,"connected_time":5000000000,"state":"spawning","ping":71},{"user_id":45,"name":"Switchclackback","steam_id":76561198014355417,"connected_time":1943000000000,"state":"active","ping":60}]},{"server_id":37,"name":"Uncletopia | Chicago | 6 | All Maps","name_short":"chi-6","host":"chi-2.us.uncletopia.com","port":27025,"enabled":true,"region":"us-central","cc":"us","latitude":41.881832,"longitude":-87.62318,"reserved":0,"last_update":"0001-01-01T00:00:00Z","name_a2s":"Uncletopia | Chicago | 6 | All Maps","protocol":17,"map":"koth_harvest_final","folder":"tf","game":"Team Fortress","app_id":440,"player_count":24,"max_players":24,"Bots":0,"server_type":"Dedicated","server_os":"Linux","password":true,"vac":true,"version":"7961495","steam_id":85568392924866363,"keywords":["cp","nocrits","nodmgspread","uncletopia"],"game_id":440,"stv_port":27026,"stv_name":"Uncletopia | Chicago | 6 | All Maps | STV","players":[{"user_id":186,"name":"5yt LFB","steam_id":76561198041643833,"connected_time":2724000000000,"state":"active","ping":91},{"user_id":219,"name":"White_Wizard_Named_Corona","steam_id":76561198055652735,"connected_time":1022000000000,"state":"active","ping":96},{"user_id":238,"name":"MikeLovesRabbit","steam_id":76561197997742625,"connected_time":158000000000,"state":"active","ping":60},{"user_id":193,"name":"bumrusherz","steam_id":76561198440658195,"connected_time":2309000000000,"state":"active","ping":82},{"user_id":203,"name":"TwoBit","steam_id":76561198062437559,"connected_time":1659000000000,"state":"active","ping":77},{"user_id":222,"name":"NUt","steam_id":76561198031007966,"connected_time":689000000000,"state":"active","ping":75},{"user_id":234,"name":"U œâ U","steam_id":76561198118802562,"connected_time":358000000000,"state":"active","ping":114},{"user_id":200,"name":"Jerk Tryhard (roleplay)","steam_id":76561199470538309,"connected_time":1785000000000,"state":"active","ping":53},{"user_id":223,"name":"Asfedia","steam_id":76561199386836351,"connected_time":617000000000,"state":"active","ping":147},{"user_id":240,"name":"leaving lunar orbit","steam_id":76561199085974120,"connected_time":85000000000,"state":"active","ping":83},{"user_id":229,"name":"XeroDollars","steam_id":76561198137858047,"connected_time":496000000000,"state":"active","ping":60},{"user_id":236,"name":"Tri-Dot","steam_id":76561199075186597,"connected_time":279000000000,"state":"active","ping":64},{"user_id":225,"name":"WheelockWarlock","steam_id":76561198171456553,"connected_time":596000000000,"state":"active","ping":86},{"user_id":209,"name":"DamerDoozle","steam_id":76561199121686201,"connected_time":1481000000000,"state":"active","ping":65},{"user_id":178,"name":"karlonieva2005","steam_id":76561199098573261,"connected_time":3273000000000,"state":"active","ping":111},{"user_id":237,"name":"Jazz2T","steam_id":76561198154418867,"connected_time":254000000000,"state":"active","ping":96},{"user_id":201,"name":"PinkyMonika03","steam_id":76561198814573267,"connected_time":1737000000000,"state":"active","ping":75},{"user_id":179,"name":"josh","steam_id":76561198111565081,"connected_time":3268000000000,"state":"active","ping":113},{"user_id":239,"name":"Punks","steam_id":76561199140940650,"connected_time":126000000000,"state":"active","ping":54},{"user_id":227,"name":"MR SKELTAL","steam_id":76561198031089598,"connected_time":561000000000,"state":"active","ping":74},{"user_id":220,"name":"M1Garand but anime","steam_id":76561199009173496,"connected_time":981000000000,"state":"active","ping":42},{"user_id":202,"name":"Dr. Robotniks Mean Bean Machine","steam_id":76561198047980627,"connected_time":1713000000000,"state":"active","ping":53},{"user_id":211,"name":"Borat Voice My Wife","steam_id":76561198020474727,"connected_time":1476000000000,"state":"active","ping":74},{"user_id":233,"name":"Combez","steam_id":76561198215028184,"connected_time":469000000000,"state":"active","ping":76}]},{"server_id":38,"name":"Uncletopia | Chicago | 7 | Stopwatch","name_short":"chi-7","host":"chi-2.us.uncletopia.com","port":27035,"enabled":true,"region":"us-central","cc":"us","latitude":41.881832,"longitude":-87.62318,"reserved":0,"last_update":"0001-01-01T00:00:00Z","name_a2s":"Uncletopia | Chicago | 7 | Stopwatch","protocol":17,"map":"pl_swiftwater_final1","folder":"tf","game":"Team Fortress","app_id":440,"player_count":17,"max_players":24,"Bots":0,"server_type":"Dedicated","server_os":"Linux","password":true,"vac":true,"version":"7961495","steam_id":85568392924866364,"keywords":["nocrits","nodmgspread","payload","uncletopia"],"game_id":440,"stv_port":27036,"stv_name":"Uncletopia | Chicago | 7 | Stopwatch | STV","players":[{"user_id":98,"name":"[chef] iron","steam_id":76561197970888616,"connected_time":104000000000,"state":"active","ping":40},{"user_id":95,"name":"Fudgely","steam_id":76561198039425862,"connected_time":227000000000,"state":"active","ping":88},{"user_id":99,"name":"Sud","steam_id":76561199102300588,"connected_time":100000000000,"state":"active","ping":189},{"user_id":85,"name":"cheetaz","steam_id":76561198224614084,"connected_time":743000000000,"state":"active","ping":70},{"user_id":84,"name":"LordCDAWG","steam_id":76561198026581404,"connected_time":763000000000,"state":"active","ping":63},{"user_id":48,"name":"MensRightsActivist","steam_id":76561199482149729,"connected_time":2402000000000,"state":"active","ping":58},{"user_id":88,"name":"Herb","steam_id":76561198330311949,"connected_time":549000000000,"state":"active","ping":62},{"user_id":60,"name":"Forehead","steam_id":76561198124151399,"connected_time":1899000000000,"state":"active","ping":64},{"user_id":68,"name":"celluloid atrocity","steam_id":76561198105666663,"connected_time":1614000000000,"state":"active","ping":86},{"user_id":27,"name":"dinkolaw","steam_id":76561198154072948,"connected_time":3137000000000,"state":"active","ping":63},{"user_id":80,"name":"Totouri","steam_id":76561198004229789,"connected_time":1137000000000,"state":"active","ping":60},{"user_id":52,"name":"blunder","steam_id":76561198838223023,"connected_time":2279000000000,"state":"active","ping":49},{"user_id":75,"name":"Luigiman626","steam_id":76561198349032234,"connected_time":1273000000000,"state":"active","ping":97},{"user_id":64,"name":"Ranch","steam_id":76561198035557013,"connected_time":1792000000000,"state":"active","ping":46},{"user_id":76,"name":"BL√òRG","steam_id":76561198036126673,"connected_time":1260000000000,"state":"active","ping":80},{"user_id":69,"name":"Rasputia","steam_id":76561198132051047,"connected_time":1605000000000,"state":"active","ping":120},{"user_id":92,"name":"daniely43","steam_id":76561199051703038,"connected_time":436000000000,"state":"active","ping":90}]},{"server_id":39,"name":"Uncletopia | Chicago | 8 | Community","name_short":"chi-8","host":"chi-2.us.uncletopia.com","port":27045,"enabled":true,"region":"us-central","cc":"us","latitude":41.881832,"longitude":-87.62318,"reserved":0,"last_update":"0001-01-01T00:00:00Z","name_a2s":"Uncletopia | Chicago | 8 | Community","protocol":17,"map":"pl_pier","folder":"tf","game":"Team Fortress","app_id":440,"player_count":0,"max_players":24,"Bots":0,"server_type":"Dedicated","server_os":"Linux","password":true,"vac":true,"version":"7961495","steam_id":85568392924866365,"keywords":["nocrits","nodmgspread","payload","uncletopia"],"game_id":440,"stv_port":27046,"stv_name":"Uncletopia | Chicago | 8 | Community | STV","players":null},{"server_id":8,"name":"Uncletopia | Dallas | 1 | All Maps","name_short":"dal-1","host":"dal-1.us.uncletopia.com","port":27015,"enabled":true,"region":"us-central","cc":"us","latitude":32.779167,"longitude":-96.80889,"reserved":0,"last_update":"0001-01-01T00:00:00Z","name_a2s":"Uncletopia | Dallas | 1 | All Maps","protocol":17,"map":"pl_upward","folder":"tf","game":"Team Fortress","app_id":440,"player_count":24,"max_players":24,"Bots":0,"server_type":"Dedicated","server_os":"Linux","password":true,"vac":true,"version":"7961495","steam_id":85568392924469986,"keywords":["nocrits","nodmgspread","payload","uncletopia"],"game_id":440,"stv_port":27016,"stv_name":"Uncletopia | Dallas | 1 | All Maps | STV","players":[{"user_id":239,"name":"Boot","steam_id":76561198149912039,"connected_time":4986000000000,"state":"active","ping":62},{"user_id":290,"name":"Pippermint","steam_id":76561198292091925,"connected_time":1381000000000,"state":"active","ping":77},{"user_id":282,"name":"Kc","steam_id":76561198210734407,"connected_time":2736000000000,"state":"active","ping":69},{"user_id":225,"name":"Sweet Tooth","steam_id":76561198830158092,"connected_time":6652000000000,"state":"active","ping":82},{"user_id":292,"name":"Jaydyn","steam_id":76561198140326797,"connected_time":1353000000000,"state":"active","ping":100},{"user_id":307,"name":"Mr. Mime","steam_id":76561199197676776,"connected_time":271000000000,"state":"active","ping":66},{"user_id":284,"name":"NeptuneÀñ‚Å∫ÔΩ°Àö‚ãÜÀô‚ô•","steam_id":76561199054203198,"connected_time":2696000000000,"state":"active","ping":81},{"user_id":313,"name":"PRETTY D3M0N R0KKSTAR","steam_id":76561198206177593,"connected_time":126000000000,"state":"active","ping":76},{"user_id":278,"name":"TrashPanda (she/her)","steam_id":76561198447864095,"connected_time":2948000000000,"state":"active","ping":56},{"user_id":305,"name":"Anor","steam_id":76561198356139775,"connected_time":320000000000,"state":"active","ping":84},{"user_id":276,"name":"XxDragon4321xX","steam_id":76561198046705735,"connected_time":2996000000000,"state":"active","ping":102},{"user_id":314,"name":"Legit_Jaxer","steam_id":76561198172234053,"connected_time":112000000000,"state":"active","ping":106},{"user_id":315,"name":"FI LO","steam_id":76561198976530881,"connected_time":109000000000,"state":"active","ping":60},{"user_id":245,"name":"TheBrocklobster","steam_id":76561198039682984,"connected_time":4889000000000,"state":"active","ping":89},{"user_id":296,"name":"c0wmanglr","steam_id":76561198025342064,"connected_time":1310000000000,"state":"active","ping":65},{"user_id":316,"name":"Soviet Toaster","steam_id":76561198207577240,"connected_time":36000000000,"state":"active","ping":75},{"user_id":297,"name":"the zoo","steam_id":76561198013732450,"connected_time":1299000000000,"state":"active","ping":71},{"user_id":247,"name":"Gary Budussy","steam_id":76561197969793969,"connected_time":4836000000000,"state":"active","ping":55},{"user_id":280,"name":"ChillyJones","steam_id":76561198017658702,"connected_time":2942000000000,"state":"active","ping":109},{"user_id":223,"name":"THRONGLER","steam_id":76561198198563466,"connected_time":6696000000000,"state":"active","ping":42},{"user_id":301,"name":"RC","steam_id":76561198048127881,"connected_time":1072000000000,"state":"active","ping":62},{"user_id":311,"name":"Crusty","steam_id":76561198843376034,"connected_time":184000000000,"state":"active","ping":60},{"user_id":312,"name":"The_Changsta","steam_id":76561198042185053,"connected_time":167000000000,"state":"active","ping":75},{"user_id":269,"name":"CynForSin","steam_id":76561198094739849,"connected_time":3533000000000,"state":"active","ping":71}]},{"server_id":108,"name":"Uncletopia | Dallas | 2 | All Maps","name_short":"dal-2","host":"dal-1.us.uncletopia.com","port":27025,"enabled":true,"region":"us-central","cc":"us","latitude":32.779167,"longitude":-96.80889,"reserved":0,"last_update":"0001-01-01T00:00:00Z","name_a2s":"Uncletopia | Dallas | 2 | All Maps","protocol":17,"map":"pl_snowycoast","folder":"tf","game":"Team Fortress","app_id":440,"player_count":24,"max_players":24,"Bots":0,"server_type":"Dedicated","server_os":"Linux","password":true,"vac":true,"version":"7961495","steam_id":85568392924469988,"keywords":["nocrits","nodmgspread","payload","uncletopia"],"game_id":440,"stv_port":27026,"stv_name":"Uncletopia | Dallas | 2 | All Maps | STV","players":[{"user_id":531,"name":"Milica Jovanoviƒá","steam_id":76561198143152657,"connected_time":2430000000000,"state":"active","ping":118},{"user_id":546,"name":"Aglow","steam_id":76561199438754251,"connected_time":1460000000000,"state":"active","ping":75},{"user_id":513,"name":"zappygonzales","steam_id":76561198265218573,"connected_time":3914000000000,"state":"active","ping":69},{"user_id":561,"name":"dolphinscream7","steam_id":76561199483329356,"connected_time":464000000000,"state":"active","ping":67},{"user_id":566,"name":"celestia ludenberg","steam_id":76561199196437823,"connected_time":92000000000,"state":"active","ping":121},{"user_id":558,"name":"PTR","steam_id":76561198237253772,"connected_time":580000000000,"state":"active","ping":43},{"user_id":565,"name":"Quilfus Scrofel","steam_id":76561198160308375,"connected_time":191000000000,"state":"active","ping":75},{"user_id":499,"name":"roddy ricch - ballin","steam_id":76561198111290441,"connected_time":4805000000000,"state":"active","ping":67},{"user_id":487,"name":"reko","steam_id":76561198278020887,"connected_time":5895000000000,"state":"active","ping":58},{"user_id":545,"name":"mkl","steam_id":76561197986401685,"connected_time":1464000000000,"state":"active","ping":55},{"user_id":519,"name":"Dutchie","steam_id":76561198040969743,"connected_time":3128000000000,"state":"active","ping":74},{"user_id":550,"name":"GRONT","steam_id":76561198040464533,"connected_time":1193000000000,"state":"active","ping":69},{"user_id":563,"name":"soltuno","steam_id":76561198074430565,"connected_time":376000000000,"state":"active","ping":99},{"user_id":523,"name":"Dreysidel","steam_id":76561198056496183,"connected_time":3090000000000,"state":"active","ping":101},{"user_id":556,"name":"Luky","steam_id":76561198970778850,"connected_time":1011000000000,"state":"active","ping":75},{"user_id":560,"name":"AmICoolYet","steam_id":76561198276327369,"connected_time":487000000000,"state":"active","ping":89},{"user_id":559,"name":"bart world","steam_id":76561198070741436,"connected_time":550000000000,"state":"active","ping":59},{"user_id":538,"name":"corviraptor (bison sweep)","steam_id":76561198058284392,"connected_time":2276000000000,"state":"active","ping":58},{"user_id":552,"name":"MechanicalMenace14","steam_id":76561199063956054,"connected_time":1149000000000,"state":"active","ping":108},{"user_id":553,"name":"Artincendies","steam_id":76561198242373456,"connected_time":1146000000000,"state":"active","ping":83},{"user_id":527,"name":"MAN","steam_id":76561199030717991,"connected_time":2811000000000,"state":"active","ping":79},{"user_id":554,"name":"shakoiwa","steam_id":76561199059441773,"connected_time":1146000000000,"state":"active","ping":90},{"user_id":562,"name":"GEMINI HOME ENTERTAINMENT","steam_id":76561198110057765,"connected_time":452000000000,"state":"active","ping":79},{"user_id":564,"name":"kool_aids3","steam_id":76561198314435679,"connected_time":376000000000,"state":"active","ping":82}]},{"server_id":404,"name":"Uncletopia | Dallas | 3 | All Maps","name_short":"dal-3","host":"dal-1.us.uncletopia.com","port":27035,"enabled":true,"region":"us-central","cc":"us","latitude":32.779167,"longitude":-96.80889,"reserved":0,"last_update":"0001-01-01T00:00:00Z","name_a2s":"Uncletopia | Dallas | 3 | All Maps","protocol":17,"map":"pl_upward","folder":"tf","game":"Team Fortress","app_id":440,"player_count":9,"max_players":24,"Bots":0,"server_type":"Dedicated","server_os":"Linux","password":true,"vac":true,"version":"7961495","steam_id":85568392924515219,"keywords":["nocrits","nodmgspread","payload","uncletopia"],"game_id":440,"stv_port":27036,"stv_name":"Uncletopia | Dallas | 3 | All Maps | STV","players":[{"user_id":11,"name":"MrBananaKool","steam_id":76561199258500234,"connected_time":2255000000000,"state":"active","ping":54},{"user_id":15,"name":"Thugnificent77","steam_id":76561198004254199,"connected_time":2037000000000,"state":"active","ping":62},{"user_id":22,"name":"captengreen789","steam_id":76561199210416968,"connected_time":997000000000,"state":"active","ping":65},{"user_id":23,"name":"Poop Deck Joe","steam_id":76561198271397568,"connected_time":645000000000,"state":"active","ping":62},{"user_id":24,"name":"Konnor","steam_id":76561199136300254,"connected_time":586000000000,"state":"active","ping":74},{"user_id":25,"name":"Sup m8","steam_id":76561198081659121,"connected_time":528000000000,"state":"active","ping":32},{"user_id":26,"name":"Social_Credit_Investor","steam_id":76561198282283679,"connected_time":258000000000,"state":"active","ping":68},{"user_id":27,"name":"Thomas The Dank Engine","steam_id":76561198142738168,"connected_time":238000000000,"state":"active","ping":64},{"user_id":28,"name":"snuppy","steam_id":76561199157666657,"connected_time":58000000000,"state":"active","ping":42}]},{"server_id":405,"name":"Uncletopia | Dallas | 4 | Community","name_short":"dal-4","host":"dal-1.us.uncletopia.com","port":27045,"enabled":true,"region":"us-central","cc":"us","latitude":32.779167,"longitude":-96.80889,"reserved":0,"last_update":"0001-01-01T00:00:00Z","name_a2s":"Uncletopia | Dallas | 4 | Community","protocol":17,"map":"workshop/koth_bagel_rc6.ugc2514036946","folder":"tf","game":"Team Fortress","app_id":440,"player_count":0,"max_players":24,"Bots":0,"server_type":"Dedicated","server_os":"Linux","password":true,"vac":true,"version":"7961495","steam_id":85568392924515220,"keywords":["cp","nocrits","nodmgspread","uncletopia"],"game_id":440,"stv_port":27046,"stv_name":"Uncletopia | Dallas | 4 | Community | STV","players":null},{"server_id":5,"name":"Uncletopia | Frankfurt | 1 | All Maps","name_short":"frk-1","host":"frk-1.de.uncletopia.com","port":27015,"enabled":true,"region":"eu","cc":"de","latitude":50.110924,"longitude":8.682127,"reserved":0,"last_update":"0001-01-01T00:00:00Z","name_a2s":"Uncletopia | Frankfurt | 1 | All Maps","protocol":17,"map":"cp_process_final","folder":"tf","game":"Team Fortress","app_id":440,"player_count":24,"max_players":24,"Bots":0,"server_type":"Dedicated","server_os":"Linux","password":true,"vac":true,"version":"7961495","steam_id":85568392924469989,"keywords":["cp","nocrits","nodmgspread","uncletopia"],"game_id":440,"stv_port":27016,"stv_name":"Uncletopia | Frankfurt | 1 | All Maps | STV","players":[{"user_id":634,"name":"mush","steam_id":76561198310089797,"connected_time":870000000000,"state":"active","ping":163},{"user_id":527,"name":"Poggito","steam_id":76561198838001276,"connected_time":9062000000000,"state":"active","ping":47},{"user_id":623,"name":"Sippie","steam_id":76561198130393388,"connected_time":2072000000000,"state":"active","ping":69},{"user_id":635,"name":"Lucky Strike","steam_id":76561198355128010,"connected_time":868000000000,"state":"active","ping":74},{"user_id":637,"name":"MelonKing","steam_id":76561198356989722,"connected_time":840000000000,"state":"active","ping":59},{"user_id":615,"name":"Pinguino Russo","steam_id":76561198090081122,"connected_time":2303000000000,"state":"active","ping":62},{"user_id":616,"name":"„Ç¥„Ç¥Vibe Check„Ç¥„Ç¥","steam_id":76561198049096368,"connected_time":2294000000000,"state":"active","ping":59},{"user_id":590,"name":"speedy-heavy","steam_id":76561198124991468,"connected_time":5322000000000,"state":"active","ping":65},{"user_id":629,"name":"Registered Sex Defender","steam_id":76561198023609460,"connected_time":1718000000000,"state":"active","ping":84},{"user_id":646,"name":"pretty dick peso","steam_id":76561198798177799,"connected_time":80000000000,"state":"active","ping":64},{"user_id":618,"name":"‚ô°NoisyLynx","steam_id":76561198099415368,"connected_time":2288000000000,"state":"active","ping":67},{"user_id":644,"name":"Baba Sraka","steam_id":76561198128292318,"connected_time":504000000000,"state":"active","ping":118},{"user_id":642,"name":"snowycoast","steam_id":76561198346638308,"connected_time":615000000000,"state":"active","ping":63},{"user_id":627,"name":"Trupik","steam_id":76561198007559234,"connected_time":1769000000000,"state":"active","ping":77},{"user_id":581,"name":"Fidacha","steam_id":76561198003060881,"connected_time":5699000000000,"state":"active","ping":58},{"user_id":620,"name":"Yrj√∂ Koskinen Yrj√∂-Koskinen","steam_id":76561198368181145,"connected_time":2247000000000,"state":"active","ping":75},{"user_id":602,"name":"Aiiden360","steam_id":76561198153073387,"connected_time":3954000000000,"state":"active","ping":67},{"user_id":621,"name":"Coja","steam_id":76561198083974982,"connected_time":2224000000000,"state":"active","ping":78},{"user_id":595,"name":"Nag","steam_id":76561197970488206,"connected_time":5086000000000,"state":"active","ping":82},{"user_id":622,"name":"\u003e\u003c\u003e","steam_id":76561198152392309,"connected_time":2222000000000,"state":"active","ping":48},{"user_id":630,"name":"WrathNSpeed","steam_id":76561198390944504,"connected_time":1685000000000,"state":"active","ping":99},{"user_id":643,"name":"biohazard","steam_id":76561198162873354,"connected_time":595000000000,"state":"active","ping":95},{"user_id":611,"name":"bart simpson weed","steam_id":76561198014858762,"connected_time":2904000000000,"state":"active","ping":68},{"user_id":625,"name":"bot or not? (guess)","steam_id":76561199036865103,"connected_time":2012000000000,"state":"active","ping":90}]},{"server_id":110,"name":"Uncletopia | Frankfurt | 2 | All Maps","name_short":"frk-2","host":"frk-1.de.uncletopia.com","port":27025,"enabled":true,"region":"eu","cc":"de","latitude":50.110924,"longitude":8.682127,"reserved":0,"last_update":"0001-01-01T00:00:00Z","name_a2s":"Uncletopia | Frankfurt | 2 | All Maps","protocol":17,"map":"cp_gorge","folder":"tf","game":"Team Fortress","app_id":440,"player_count":0,"max_players":24,"Bots":0,"server_type":"Dedicated","server_os":"Linux","password":true,"vac":true,"version":"7961495","steam_id":85568392924469990,"keywords":["cp","nocrits","nodmgspread","uncletopia"],"game_id":440,"stv_port":27026,"stv_name":"Uncletopia | Frankfurt | 2 | All Maps | STV","players":null},{"server_id":308,"name":"Uncletopia | Frankfurt | 3 | All Maps","name_short":"frk-3","host":"frk-1.de.uncletopia.com","port":27035,"enabled":true,"region":"eu","cc":"de","latitude":50.110924,"longitude":8.682127,"reserved":0,"last_update":"0001-01-01T00:00:00Z","name_a2s":"Uncletopia | Frankfurt | 3 | All Maps","protocol":17,"map":"koth_cascade","folder":"tf","game":"Team Fortress","app_id":440,"player_count":0,"max_players":24,"Bots":0,"server_type":"Dedicated","server_os":"Linux","password":true,"vac":true,"version":"7961495","steam_id":85568392924504274,"keywords":["cp","nocrits","nodmgspread","uncletopia"],"game_id":440,"stv_port":27036,"stv_name":"Uncletopia | Frankfurt | 3 | All Maps | STV","players":null},{"server_id":309,"name":"Uncletopia | Frankfurt | 4 | All Maps","name_short":"frk-4","host":"frk-1.de.uncletopia.com","port":27045,"enabled":true,"region":"eu","cc":"de","latitude":50.110924,"longitude":8.682127,"reserved":0,"last_update":"0001-01-01T00:00:00Z","name_a2s":"Uncletopia | Frankfurt | 4 | All Maps","protocol":17,"map":"cp_gullywash_final1","folder":"tf","game":"Team Fortress","app_id":440,"player_count":24,"max_players":24,"Bots":0,"server_type":"Dedicated","server_os":"Linux","password":true,"vac":true,"version":"7961495","steam_id":85568392924504275,"keywords":["cp","nocrits","nodmgspread","uncletopia"],"game_id":440,"stv_port":27046,"stv_name":"Uncletopia | Frankfurt | 4 | All Maps | STV","players":[{"user_id":459,"name":"all snipers are edgy cowards","steam_id":76561198060200599,"connected_time":1396000000000,"state":"active","ping":104},{"user_id":458,"name":"Boxtrot","steam_id":76561198026321441,"connected_time":1787000000000,"state":"active","ping":63},{"user_id":460,"name":"Phalcon","steam_id":76561197987051394,"connected_time":1297000000000,"state":"active","ping":75},{"user_id":426,"name":"vi","steam_id":76561198303147966,"connected_time":5322000000000,"state":"active","ping":60},{"user_id":466,"name":"Nox Equites","steam_id":76561198115438449,"connected_time":1144000000000,"state":"active","ping":91},{"user_id":461,"name":"DarthMurloc_OW","steam_id":76561198075577711,"connected_time":1291000000000,"state":"active","ping":70},{"user_id":449,"name":"‚ù§Speedbump‚ù§","steam_id":76561198388690313,"connected_time":2767000000000,"state":"active","ping":57},{"user_id":467,"name":"Spongelica Slobblecoque","steam_id":76561198009072273,"connected_time":1053000000000,"state":"active","ping":58},{"user_id":438,"name":"alibi","steam_id":76561198079490000,"connected_time":3490000000000,"state":"active","ping":69},{"user_id":470,"name":"Woad Raider","steam_id":76561198215485788,"connected_time":683000000000,"state":"active","ping":79},{"user_id":469,"name":"JAZZ COMMANDO","steam_id":76561198031766068,"connected_time":933000000000,"state":"active","ping":52},{"user_id":471,"name":"tofu","steam_id":76561198136525279,"connected_time":628000000000,"state":"active","ping":60},{"user_id":429,"name":"Fr√∂gg-K√§t","steam_id":76561198263561004,"connected_time":4829000000000,"state":"active","ping":59},{"user_id":441,"name":"one pill bill","steam_id":76561198094652091,"connected_time":3434000000000,"state":"active","ping":96},{"user_id":421,"name":"CrashyPlay","steam_id":76561198106125298,"connected_time":5596000000000,"state":"active","ping":60},{"user_id":479,"name":"ouchie wouchies","steam_id":76561198105443986,"connected_time":95000000000,"state":"active","ping":89},{"user_id":464,"name":"XxSuperPenisxX","steam_id":76561199089532056,"connected_time":1181000000000,"state":"active","ping":53},{"user_id":455,"name":"Ajvej","steam_id":76561198857665836,"connected_time":2307000000000,"state":"active","ping":50},{"user_id":475,"name":"throbmunky","steam_id":76561198855709000,"connected_time":499000000000,"state":"active","ping":80},{"user_id":473,"name":"Whirlo","steam_id":76561198116130783,"connected_time":570000000000,"state":"active","ping":59},{"user_id":474,"name":"Micha≈Ç","steam_id":76561198320346362,"connected_time":514000000000,"state":"active","ping":63},{"user_id":476,"name":"sticks","steam_id":76561198127099299,"connected_time":486000000000,"state":"active","ping":55},{"user_id":477,"name":"Borger Dog (real)","steam_id":76561199232839385,"connected_time":430000000000,"state":"active","ping":96},{"user_id":478,"name":"Zanryiel","steam_id":76561198120723872,"connected_time":422000000000,"state":"active","ping":54}]},{"server_id":310,"name":"Uncletopia | Frankfurt | 5 | All Maps","name_short":"frk-5","host":"frk-1.de.uncletopia.com","port":27055,"enabled":true,"region":"eu","cc":"de","latitude":50.110924,"longitude":8.682127,"reserved":0,"last_update":"0001-01-01T00:00:00Z","name_a2s":"Uncletopia | Frankfurt | 5 | All Maps","protocol":17,"map":"cp_altitude","folder":"tf","game":"Team Fortress","app_id":440,"player_count":0,"max_players":24,"Bots":0,"server_type":"Dedicated","server_os":"Linux","password":true,"vac":true,"version":"7961495","steam_id":85568392924504277,"keywords":["cp","nocrits","nodmgspread","uncletopia"],"game_id":440,"stv_port":27056,"stv_name":"Uncletopia | Frankfurt | 5 | All Maps | STV","players":null},{"server_id":311,"name":"Uncletopia | Frankfurt | 6 | All Maps","name_short":"frk-6","host":"frk-1.de.uncletopia.com","port":27065,"enabled":true,"region":"eu","cc":"de","latitude":50.110924,"longitude":8.682127,"reserved":0,"last_update":"0001-01-01T00:00:00Z","name_a2s":"Uncletopia | Frankfurt | 6 | All Maps","protocol":17,"map":"plr_bananabay","folder":"tf","game":"Team Fortress","app_id":440,"player_count":0,"max_players":24,"Bots":0,"server_type":"Dedicated","server_os":"Linux","password":true,"vac":true,"version":"7961495","steam_id":85568392924504278,"keywords":["nocrits","nodmgspread","payload","uncletopia"],"game_id":440,"stv_port":27066,"stv_name":"Uncletopia | Frankfurt | 6 | All Maps | STV","players":null},{"server_id":23,"name":"Uncletopia | Frankfurt | 7 | Stopwatch","name_short":"frk-7","host":"frk-1.de.uncletopia.com","port":27075,"enabled":true,"region":"eu","cc":"de","latitude":50.110924,"longitude":8.682127,"reserved":0,"last_update":"0001-01-01T00:00:00Z","name_a2s":"Uncletopia | Frankfurt | 7 | Stopwatch","protocol":17,"map":"workshop/pl_barnblitz_pro7.ugc582280235","folder":"tf","game":"Team Fortress","app_id":440,"player_count":0,"max_players":24,"Bots":0,"server_type":"Dedicated","server_os":"Linux","password":true,"vac":true,"version":"7961495","steam_id":85568392924742827,"keywords":["nocrits","nodmgspread","payload","uncletopia"],"game_id":440,"stv_port":27076,"stv_name":"Uncletopia | Frankfurt | 7 | Stopwatch | STV","players":null},{"server_id":24,"name":"Uncletopia | Frankfurt | 8 | Community","name_short":"frk-8","host":"frk-1.de.uncletopia.com","port":27085,"enabled":true,"region":"eu","cc":"de","latitude":50.110924,"longitude":8.682127,"reserved":0,"last_update":"0001-01-01T00:00:00Z","name_a2s":"Uncletopia | Frankfurt | 8 | Community","protocol":17,"map":"workshop/koth_ramjam_rc1.ugc459778887","folder":"tf","game":"Team Fortress","app_id":440,"player_count":0,"max_players":24,"Bots":0,"server_type":"Dedicated","server_os":"Linux","password":true,"vac":true,"version":"7961495","steam_id":85568392924742828,"keywords":["cp","nocrits","nodmgspread","uncletopia"],"game_id":440,"stv_port":27086,"stv_name":"Uncletopia | Frankfurt | 8 | Community | STV","players":null},{"server_id":202,"name":"Uncletopia | Hong Kong | 1 | All Maps","name_short":"hgk-1","host":"hgk-1.hk.uncletopia.com","port":27015,"enabled":true,"region":"asia","cc":"hk","latitude":22.302711,"longitude":114.177216,"reserved":0,"last_update":"0001-01-01T00:00:00Z","name_a2s":"Uncletopia | Hong Kong | 1 | All Maps","protocol":17,"map":"pl_frontier_final","folder":"tf","game":"Team Fortress","app_id":440,"player_count":0,"max_players":24,"Bots":0,"server_type":"Dedicated","server_os":"Linux","password":true,"vac":true,"version":"7961495","steam_id":85568392924494504,"keywords":["nocrits","nodmgspread","payload","uncletopia"],"game_id":440,"stv_port":27016,"stv_name":"Uncletopia | Hong Kong | 1 | All Maps | STV","players":null},{"server_id":1,"name":"Uncletopia | Los Angeles | 1 | All Maps","name_short":"lax-1","host":"lax-1.us.uncletopia.com","port":27015,"enabled":true,"region":"us-west","cc":"us","latitude":33.94279,"longitude":-118.41004,"reserved":0,"last_update":"0001-01-01T00:00:00Z","name_a2s":"Uncletopia | Los Angeles | 1 | All Maps","protocol":17,"map":"koth_cascade","folder":"tf","game":"Team Fortress","app_id":440,"player_count":0,"max_players":24,"Bots":0,"server_type":"Dedicated","server_os":"Linux","password":true,"vac":true,"version":"7961495","steam_id":85568392924469991,"keywords":["cp","nocrits","nodmgspread","uncletopia"],"game_id":440,"stv_port":27016,"stv_name":"Uncletopia | Los Angeles | 1 | All Maps | STV","players":null},{"server_id":112,"name":"Uncletopia | Los Angeles | 2 | All Maps","name_short":"lax-2","host":"lax-1.us.uncletopia.com","port":27025,"enabled":true,"region":"us-west","cc":"us","latitude":33.94279,"longitude":-118.41004,"reserved":0,"last_update":"0001-01-01T00:00:00Z","name_a2s":"Uncletopia | Los Angeles | 2 | All Maps","protocol":17,"map":"cp_sunshine","folder":"tf","game":"Team Fortress","app_id":440,"player_count":24,"max_players":24,"Bots":0,"server_type":"Dedicated","server_os":"Linux","password":true,"vac":true,"version":"7961495","steam_id":85568392924469992,"keywords":["cp","nocrits","nodmgspread","uncletopia"],"game_id":440,"stv_port":27026,"stv_name":"Uncletopia | Los Angeles | 2 | All Maps | STV","players":[{"user_id":103,"name":"Username","steam_id":76561198198918781,"connected_time":1818000000000,"state":"active","ping":74},{"user_id":37,"name":"small meth pouch","steam_id":76561198130412963,"connected_time":4881000000000,"state":"active","ping":79},{"user_id":55,"name":"Do cOck","steam_id":76561198132755619,"connected_time":4289000000000,"state":"active","ping":43},{"user_id":98,"name":"Krustytoepaste","steam_id":76561198320265524,"connected_time":2079000000000,"state":"active","ping":59},{"user_id":105,"name":"Fluffy","steam_id":76561198115952540,"connected_time":1676000000000,"state":"active","ping":62},{"user_id":77,"name":"noceof","steam_id":76561198043656816,"connected_time":3316000000000,"state":"active","ping":169},{"user_id":101,"name":"A Shiny Meat Bicycle","steam_id":76561198358757709,"connected_time":1968000000000,"state":"active","ping":124},{"user_id":83,"name":"Jasonnator","steam_id":76561198308017082,"connected_time":2907000000000,"state":"active","ping":65},{"user_id":127,"name":"MechanizedContortion","steam_id":76561199146092247,"connected_time":113000000000,"state":"active","ping":58},{"user_id":87,"name":"SneekiCheekiQbone","steam_id":76561198045077980,"connected_time":2805000000000,"state":"active","ping":44},{"user_id":117,"name":"dippidy","steam_id":76561198044219900,"connected_time":1357000000000,"state":"active","ping":75},{"user_id":108,"name":"VoodooPapa","steam_id":76561199160439066,"connected_time":1565000000000,"state":"active","ping":59},{"user_id":106,"name":"Bostonstapler","steam_id":76561197996334971,"connected_time":1653000000000,"state":"active","ping":76},{"user_id":111,"name":"mobe","steam_id":76561198121633820,"connected_time":1490000000000,"state":"active","ping":65},{"user_id":128,"name":"Lock'd","steam_id":76561198170108230,"connected_time":113000000000,"state":"active","ping":46},{"user_id":51,"name":"Synergy","steam_id":76561198098630198,"connected_time":4369000000000,"state":"active","ping":60},{"user_id":82,"name":"Brigadier Brownie","steam_id":76561198040852898,"connected_time":2911000000000,"state":"active","ping":54},{"user_id":126,"name":"Silvermace","steam_id":76561198090696843,"connected_time":198000000000,"state":"active","ping":45},{"user_id":124,"name":"Zobozo","steam_id":76561198028954297,"connected_time":792000000000,"state":"active","ping":45},{"user_id":129,"name":"Beef Wellington","steam_id":76561197995635241,"connected_time":66000000000,"state":"active","ping":167},{"user_id":97,"name":"Jetstream Sam","steam_id":76561198878974709,"connected_time":2195000000000,"state":"active","ping":47},{"user_id":120,"name":"sobaka","steam_id":76561198116008934,"connected_time":1175000000000,"state":"active","ping":70},{"user_id":107,"name":"hoOmIN","steam_id":76561198334947079,"connected_time":1596000000000,"state":"active","ping":45},{"user_id":116,"name":"Reem0h","steam_id":76561198169848690,"connected_time":1391000000000,"state":"active","ping":112}]},{"server_id":324,"name":"Uncletopia | Los Angeles | 3 | All Maps","name_short":"lax-3","host":"lax-1.us.uncletopia.com","port":27035,"enabled":true,"region":"us-west","cc":"us","latitude":33.94279,"longitude":-118.41004,"reserved":0,"last_update":"0001-01-01T00:00:00Z","name_a2s":"Uncletopia | Los Angeles | 3 | All Maps","protocol":17,"map":"cp_sunshine","folder":"tf","game":"Team Fortress","app_id":440,"player_count":0,"max_players":24,"Bots":0,"server_type":"Dedicated","server_os":"Linux","password":true,"vac":true,"version":"7961495","steam_id":85568392924510198,"keywords":["cp","nocrits","nodmgspread","uncletopia"],"game_id":440,"stv_port":27036,"stv_name":"Uncletopia | Los Angeles | 3 | All Maps | STV","players":null},{"server_id":25,"name":"Uncletopia | Los Angeles | 4 | Stopwatch","name_short":"lax-4","host":"lax-1.us.uncletopia.com","port":27045,"enabled":true,"region":"us-west","cc":"us","latitude":33.94279,"longitude":-118.41004,"reserved":0,"last_update":"0001-01-01T00:00:00Z","name_a2s":"Uncletopia | Los Angeles | 4 | Stopwatch","protocol":17,"map":"pl_barnblitz","folder":"tf","game":"Team Fortress","app_id":440,"player_count":0,"max_players":24,"Bots":0,"server_type":"Dedicated","server_os":"Linux","password":true,"vac":true,"version":"7961495","steam_id":85568392924510199,"keywords":["nocrits","nodmgspread","payload","uncletopia"],"game_id":440,"stv_port":27046,"stv_name":"Uncletopia | Los Angeles | 4 | Stopwatch | STV","players":null},{"server_id":11,"name":"Uncletopia | London | 1 | All Maps","name_short":"lon-1","host":"lon-1.uk.uncletopia.com","port":27015,"enabled":true,"region":"eu","cc":"gb","latitude":51.509865,"longitude":-0.118092,"reserved":0,"last_update":"0001-01-01T00:00:00Z","name_a2s":"Uncletopia | London | 1 | All Maps","protocol":17,"map":"koth_harvest_final","folder":"tf","game":"Team Fortress","app_id":440,"player_count":23,"max_players":24,"Bots":0,"server_type":"Dedicated","server_os":"Linux","password":true,"vac":true,"version":"7961495","steam_id":85568392924367362,"keywords":["cp","nocrits","nodmgspread","uncletopia"],"game_id":440,"stv_port":27016,"stv_name":"Uncletopia | London | 1 | All Maps | STV","players":[{"user_id":697,"name":"MeleeMeta","steam_id":76561198237963558,"connected_time":2983000000000,"state":"active","ping":59},{"user_id":569,"name":"halow","steam_id":76561198061505163,"connected_time":13796000000000,"state":"active","ping":110},{"user_id":710,"name":"arsenicCatnip","steam_id":76561198322969864,"connected_time":1815000000000,"state":"active","ping":147},{"user_id":700,"name":"Mega","steam_id":76561197970389664,"connected_time":2304000000000,"state":"active","ping":47},{"user_id":603,"name":"shooer!","steam_id":76561198110531281,"connected_time":11007000000000,"state":"active","ping":73},{"user_id":693,"name":"Purps","steam_id":76561198053886680,"connected_time":3402000000000,"state":"active","ping":44},{"user_id":708,"name":"Dart Monkey's Dont Miss","steam_id":76561198359189256,"connected_time":2020000000000,"state":"active","ping":58},{"user_id":714,"name":"‚∏∏aura‚∏∏","steam_id":76561198066258544,"connected_time":588000000000,"state":"active","ping":58},{"user_id":666,"name":"Sinnamonsters","steam_id":76561198423422354,"connected_time":6614000000000,"state":"active","ping":139},{"user_id":685,"name":"sora","steam_id":76561198096547662,"connected_time":5072000000000,"state":"active","ping":49},{"user_id":706,"name":"crimson","steam_id":76561198208349835,"connected_time":2064000000000,"state":"active","ping":70},{"user_id":702,"name":"bowchika wowa #SlavaUkraine","steam_id":76561198159564550,"connected_time":2259000000000,"state":"active","ping":71},{"user_id":711,"name":"Weebo++","steam_id":76561198217760891,"connected_time":1177000000000,"state":"active","ping":87},{"user_id":673,"name":"Dan","steam_id":76561198289353288,"connected_time":5857000000000,"state":"active","ping":50},{"user_id":687,"name":"beebo","steam_id":76561199120277007,"connected_time":4708000000000,"state":"active","ping":48},{"user_id":713,"name":"badrobot","steam_id":76561198322878356,"connected_time":865000000000,"state":"active","ping":111},{"user_id":698,"name":"owo","steam_id":76561198158209651,"connected_time":2846000000000,"state":"active","ping":54},{"user_id":712,"name":"Minimi","steam_id":76561198873850443,"connected_time":1055000000000,"state":"active","ping":45},{"user_id":691,"name":"Kristianma","steam_id":76561198021772843,"connected_time":3542000000000,"state":"active","ping":67},{"user_id":716,"name":"Saken","steam_id":76561198049075295,"connected_time":116000000000,"state":"active","ping":60},{"user_id":699,"name":"Cabbch","steam_id":76561198045955679,"connected_time":2478000000000,"state":"active","ping":54},{"user_id":654,"name":"The Bugs Under Your Skin","steam_id":76561198064795519,"connected_time":7278000000000,"state":"active","ping":50},{"user_id":715,"name":"idenburg","steam_id":76561198063574956,"connected_time":514000000000,"state":"active","ping":54}]},{"server_id":114,"name":"Uncletopia | London | 2 | All Maps","name_short":"lon-2","host":"lon-1.uk.uncletopia.com","port":27025,"enabled":true,"region":"eu","cc":"gb","latitude":51.509865,"longitude":-0.118092,"reserved":0,"last_update":"0001-01-01T00:00:00Z","name_a2s":"Uncletopia | London | 2 | All Maps","protocol":17,"map":"pl_barnblitz","folder":"tf","game":"Team Fortress","app_id":440,"player_count":24,"max_players":24,"Bots":0,"server_type":"Dedicated","server_os":"Linux","password":true,"vac":true,"version":"7961495","steam_id":85568392924470941,"keywords":["nocrits","nodmgspread","payload","uncletopia"],"game_id":440,"stv_port":27026,"stv_name":"Uncletopia | London | 2 | All Maps | STV","players":[{"user_id":669,"name":"Gwuryn","steam_id":76561198181161671,"connected_time":995000000000,"state":"active","ping":55},{"user_id":661,"name":"Patchy","steam_id":76561198008112883,"connected_time":1506000000000,"state":"active","ping":131},{"user_id":654,"name":"literally vi from arcane","steam_id":76561198275609453,"connected_time":2129000000000,"state":"active","ping":69},{"user_id":679,"name":"Fallen_Scholar","steam_id":76561198055468709,"connected_time":352000000000,"state":"active","ping":60},{"user_id":680,"name":"Mourning","steam_id":76561198156343940,"connected_time":121000000000,"state":"active","ping":45},{"user_id":636,"name":"Harryke4","steam_id":76561198120494568,"connected_time":3662000000000,"state":"active","ping":51},{"user_id":662,"name":"neo the cracked protogen","steam_id":76561198874467825,"connected_time":1362000000000,"state":"active","ping":49},{"user_id":681,"name":"Lemmy","steam_id":76561199038870751,"connected_time":79000000000,"state":"active","ping":63},{"user_id":663,"name":"Vexu","steam_id":76561198113145846,"connected_time":1329000000000,"state":"active","ping":93},{"user_id":619,"name":"Fatmagic Mukbang ASMR","steam_id":76561198063492110,"connected_time":4941000000000,"state":"active","ping":80},{"user_id":671,"name":"–î–∂–µ–∫–µ—Ç","steam_id":76561198327897125,"connected_time":793000000000,"state":"active","ping":95},{"user_id":639,"name":"NotChloe","steam_id":76561198080658092,"connected_time":3589000000000,"state":"active","ping":59},{"user_id":672,"name":"CiVillain","steam_id":76561198059617732,"connected_time":789000000000,"state":"active","ping":61},{"user_id":657,"name":"Volcyy","steam_id":76561198063979124,"connected_time":1621000000000,"state":"active","ping":47},{"user_id":658,"name":"Conan","steam_id":76561198158321202,"connected_time":1601000000000,"state":"active","ping":66},{"user_id":677,"name":"Borg","steam_id":76561198081851067,"connected_time":632000000000,"state":"active","ping":82},{"user_id":651,"name":"Terra","steam_id":76561199105430663,"connected_time":2463000000000,"state":"active","ping":90},{"user_id":666,"name":"KarlRanzeier","steam_id":76561198066281337,"connected_time":1091000000000,"state":"active","ping":60},{"user_id":676,"name":"Level 1 Noob","steam_id":76561198088586340,"connected_time":666000000000,"state":"active","ping":64},{"user_id":585,"name":"xTheDarkLight","steam_id":76561198239128298,"connected_time":7417000000000,"state":"active","ping":63},{"user_id":673,"name":"cuddle","steam_id":76561198805181599,"connected_time":787000000000,"state":"active","ping":54},{"user_id":628,"name":"The Lady","steam_id":76561198029895809,"connected_time":4393000000000,"state":"active","ping":88},{"user_id":674,"name":"hichem","steam_id":76561198056197307,"connected_time":780000000000,"state":"active","ping":58},{"user_id":678,"name":"helps me helps me why7 yuo no h","steam_id":76561198190583242,"connected_time":590000000000,"state":"active","ping":82}]},{"server_id":320,"name":"Uncletopia | London | 3 | All Maps","name_short":"lon-3","host":"lon-1.uk.uncletopia.com","port":27035,"enabled":true,"region":"eu","cc":"gb","latitude":51.509865,"longitude":-0.118092,"reserved":0,"last_update":"0001-01-01T00:00:00Z","name_a2s":"Uncletopia | London | 3 | All Maps","protocol":17,"map":"pl_borneo","folder":"tf","game":"Team Fortress","app_id":440,"player_count":0,"max_players":24,"Bots":0,"server_type":"Dedicated","server_os":"Linux","password":true,"vac":true,"version":"7961495","steam_id":85568392924510192,"keywords":["nocrits","nodmgspread","payload","uncletopia"],"game_id":440,"stv_port":27036,"stv_name":"Uncletopia | London | 3 | All Maps | STV","players":null},{"server_id":321,"name":"Uncletopia | London | 4 | All Maps","name_short":"lon-4","host":"lon-1.uk.uncletopia.com","port":27045,"enabled":true,"region":"eu","cc":"gb","latitude":51.509865,"longitude":-0.118092,"reserved":0,"last_update":"0001-01-01T00:00:00Z","name_a2s":"Uncletopia | London | 4 | All Maps","protocol":17,"map":"pl_barnblitz","folder":"tf","game":"Team Fortress","app_id":440,"player_count":24,"max_players":24,"Bots":0,"server_type":"Dedicated","server_os":"Linux","password":true,"vac":true,"version":"7961495","steam_id":85568392924510193,"keywords":["nocrits","nodmgspread","payload","uncletopia"],"game_id":440,"stv_port":27046,"stv_name":"Uncletopia | London | 4 | All Maps | STV","players":[{"user_id":314,"name":"Wang of Wall St","steam_id":76561198047460598,"connected_time":1007000000000,"state":"active","ping":124},{"user_id":312,"name":"warpig","steam_id":76561199226313309,"connected_time":1064000000000,"state":"active","ping":120},{"user_id":301,"name":"Nottonyhawk","steam_id":76561198093254419,"connected_time":2065000000000,"state":"active","ping":161},{"user_id":313,"name":"Mike","steam_id":76561198228455736,"connected_time":1049000000000,"state":"active","ping":48},{"user_id":278,"name":"Plop_","steam_id":76561198112567921,"connected_time":4169000000000,"state":"active","ping":42},{"user_id":288,"name":"emily","steam_id":76561198049051160,"connected_time":3356000000000,"state":"active","ping":36},{"user_id":325,"name":"the brave little toaster","steam_id":76561199403298146,"connected_time":308000000000,"state":"active","ping":63},{"user_id":316,"name":"Shillagh","steam_id":76561197979530383,"connected_time":827000000000,"state":"active","ping":65},{"user_id":303,"name":"Kaikie","steam_id":76561198327199539,"connected_time":2033000000000,"state":"active","ping":56},{"user_id":327,"name":"Sky sub","steam_id":76561198114333535,"connected_time":247000000000,"state":"active","ping":60},{"user_id":292,"name":"skittle","steam_id":76561198303232638,"connected_time":3142000000000,"state":"active","ping":63},{"user_id":315,"name":"how use bazooka tf2","steam_id":76561198436817109,"connected_time":948000000000,"state":"active","ping":48},{"user_id":322,"name":"‚ÜØ","steam_id":76561198055389492,"connected_time":699000000000,"state":"active","ping":42},{"user_id":272,"name":"ZombieSlayer77","steam_id":76561199023974356,"connected_time":4553000000000,"state":"active","ping":158},{"user_id":248,"name":"spherewithahat","steam_id":76561199122192660,"connected_time":5974000000000,"state":"active","ping":118},{"user_id":305,"name":"Dgagov","steam_id":76561198083025144,"connected_time":1903000000000,"state":"active","ping":101},{"user_id":289,"name":"SynthBox3","steam_id":76561199094075745,"connected_time":3342000000000,"state":"active","ping":105},{"user_id":310,"name":"Erchius","steam_id":76561198256892300,"connected_time":1713000000000,"state":"active","ping":146},{"user_id":276,"name":"Spykiller42","steam_id":76561199027962230,"connected_time":4412000000000,"state":"active","ping":53},{"user_id":319,"name":"generic alias","steam_id":76561198271607226,"connected_time":717000000000,"state":"active","ping":83},{"user_id":320,"name":"jones","steam_id":76561198044434971,"connected_time":706000000000,"state":"active","ping":63},{"user_id":323,"name":"Maximilian1359","steam_id":76561198152439608,"connected_time":697000000000,"state":"active","ping":67},{"user_id":290,"name":"Enjoyer","steam_id":76561198147399855,"connected_time":3287000000000,"state":"active","ping":131},{"user_id":324,"name":"Anzu","steam_id":76561198043953503,"connected_time":679000000000,"state":"active","ping":86}]},{"server_id":21,"name":"Uncletopia | London | 5 | All Maps","name_short":"lon-5","host":"lon-1.uk.uncletopia.com","port":27055,"enabled":true,"region":"eu","cc":"gb","latitude":51.509865,"longitude":-0.118092,"reserved":0,"last_update":"0001-01-01T00:00:00Z","name_a2s":"Uncletopia | London | 5 | All Maps","protocol":17,"map":"pl_pier","folder":"tf","game":"Team Fortress","app_id":440,"player_count":23,"max_players":24,"Bots":0,"server_type":"Dedicated","server_os":"Linux","password":true,"vac":true,"version":"7961495","steam_id":85568392924742829,"keywords":["nocrits","nodmgspread","payload","uncletopia"],"game_id":440,"stv_port":27056,"stv_name":"Uncletopia | London | 5 | All Maps | STV","players":[{"user_id":266,"name":"Kasane Teto's Biggest Fan","steam_id":76561198397185713,"connected_time":1855000000000,"state":"active","ping":154},{"user_id":267,"name":"Glitchpower64","steam_id":76561198994710718,"connected_time":1851000000000,"state":"active","ping":62},{"user_id":228,"name":"yenai","steam_id":76561199497830604,"connected_time":4001000000000,"state":"active","ping":72},{"user_id":287,"name":"Q U E E N A L E X","steam_id":76561198186341157,"connected_time":16000000000,"state":"active","ping":158},{"user_id":213,"name":"tm`","steam_id":76561197993580412,"connected_time":5600000000000,"state":"active","ping":75},{"user_id":271,"name":"ScampSixteen","steam_id":76561198021771000,"connected_time":1546000000000,"state":"active","ping":66},{"user_id":276,"name":"Stoat","steam_id":76561199382596019,"connected_time":863000000000,"state":"active","ping":97},{"user_id":284,"name":"Peelord","steam_id":76561198004223546,"connected_time":284000000000,"state":"active","ping":60},{"user_id":279,"name":"sloppy transgirl toppy","steam_id":76561198057092208,"connected_time":779000000000,"state":"active","ping":75},{"user_id":261,"name":"pezza","steam_id":76561197995173247,"connected_time":2142000000000,"state":"active","ping":56},{"user_id":269,"name":"QuickJab","steam_id":76561198088891030,"connected_time":1842000000000,"state":"active","ping":146},{"user_id":214,"name":"Valen","steam_id":76561198049614521,"connected_time":5137000000000,"state":"active","ping":73},{"user_id":282,"name":"Mobster Tortoise","steam_id":76561199036837091,"connected_time":437000000000,"state":"active","ping":87},{"user_id":272,"name":"Coconuttii","steam_id":76561198006974800,"connected_time":1407000000000,"state":"active","ping":46},{"user_id":143,"name":"Caramel","steam_id":76561198021214844,"connected_time":9307000000000,"state":"active","ping":45},{"user_id":273,"name":"0PeKyN","steam_id":76561199027244825,"connected_time":1377000000000,"state":"active","ping":86},{"user_id":219,"name":"OutOfDucks","steam_id":76561198166376227,"connected_time":4906000000000,"state":"active","ping":64},{"user_id":264,"name":"Onbeheerde_Jongeheer","steam_id":76561198051685232,"connected_time":1976000000000,"state":"active","ping":45},{"user_id":286,"name":"Sweetch","steam_id":76561197993638492,"connected_time":119000000000,"state":"spawning","ping":121},{"user_id":275,"name":"King Goomba","steam_id":76561198146467813,"connected_time":1249000000000,"state":"active","ping":64},{"user_id":274,"name":"Zeno","steam_id":76561198015244089,"connected_time":1352000000000,"state":"active","ping":55},{"user_id":258,"name":"Luxotrics","steam_id":76561198053455161,"connected_time":2318000000000,"state":"active","ping":86},{"user_id":285,"name":"Donac Dum","steam_id":76561198064089294,"connected_time":189000000000,"state":"active","ping":54}]},{"server_id":22,"name":"Uncletopia | London | 6 | All Maps","name_short":"lon-6","host":"lon-1.uk.uncletopia.com","port":27065,"enabled":true,"region":"eu","cc":"gb","latitude":51.509865,"longitude":-0.118092,"reserved":0,"last_update":"0001-01-01T00:00:00Z","name_a2s":"Uncletopia | London | 6 | All Maps","protocol":17,"map":"pl_badwater","folder":"tf","game":"Team Fortress","app_id":440,"player_count":21,"max_players":24,"Bots":0,"server_type":"Dedicated","server_os":"Linux","password":true,"vac":true,"version":"7961495","steam_id":85568392924742830,"keywords":["nocrits","nodmgspread","payload","uncletopia"],"game_id":440,"stv_port":27066,"stv_name":"Uncletopia | London | 6 | All Maps | STV","players":[{"user_id":540,"name":"Aida","steam_id":76561198311044984,"connected_time":1142000000000,"state":"active","ping":73},{"user_id":551,"name":"bubbleTea 60hz","steam_id":76561199487938189,"connected_time":183000000000,"state":"active","ping":72},{"user_id":491,"name":"Bobirulez","steam_id":76561198009125458,"connected_time":4920000000000,"state":"active","ping":75},{"user_id":534,"name":"HATZxHOODZ","steam_id":76561198408675039,"connected_time":1439000000000,"state":"active","ping":57},{"user_id":544,"name":"Snowmotion","steam_id":76561198075022454,"connected_time":676000000000,"state":"active","ping":68},{"user_id":549,"name":"Bisque","steam_id":76561198327661850,"connected_time":274000000000,"state":"active","ping":171},{"user_id":535,"name":"flurtle","steam_id":76561197993199428,"connected_time":1387000000000,"state":"active","ping":50},{"user_id":552,"name":"paypig","steam_id":76561198035137115,"connected_time":95000000000,"state":"active","ping":55},{"user_id":507,"name":"Lucky Number 13","steam_id":76561198043951279,"connected_time":3864000000000,"state":"active","ping":88},{"user_id":531,"name":"randompixel","steam_id":76561198003941207,"connected_time":2312000000000,"state":"active","ping":56},{"user_id":536,"name":"Economic crisis","steam_id":76561198063562843,"connected_time":1340000000000,"state":"active","ping":75},{"user_id":516,"name":"Û†Ä°Û†Ä°","steam_id":76561198199523126,"connected_time":2866000000000,"state":"active","ping":71},{"user_id":548,"name":"n0usy","steam_id":76561198410060139,"connected_time":346000000000,"state":"active","ping":90},{"user_id":541,"name":"r√∂v","steam_id":76561198170330563,"connected_time":1104000000000,"state":"active","ping":100},{"user_id":527,"name":"Saucisse","steam_id":76561198119955969,"connected_time":2414000000000,"state":"active","ping":54},{"user_id":542,"name":"bl√•haj","steam_id":76561198094268619,"connected_time":1078000000000,"state":"active","ping":73},{"user_id":524,"name":"Jupajup","steam_id":76561198112456777,"connected_time":2495000000000,"state":"active","ping":75},{"user_id":525,"name":"Butcher My Jokes","steam_id":76561198112720511,"connected_time":2474000000000,"state":"active","ping":52},{"user_id":537,"name":"SadBambino","steam_id":76561198101989931,"connected_time":1247000000000,"state":"active","ping":50},{"user_id":543,"name":"Griffin","steam_id":76561198118247689,"connected_time":714000000000,"state":"active","ping":56},{"user_id":546,"name":"TMC","steam_id":76561198077956157,"connected_time":618000000000,"state":"active","ping":45}]},{"server_id":40,"name":"Uncletopia | London | 7 | Stopwatch","name_short":"lon-7","host":"lon-1.uk.uncletopia.com","port":27075,"enabled":true,"region":"eu","cc":"gb","latitude":51.509865,"longitude":-0.118092,"reserved":0,"last_update":"0001-01-01T00:00:00Z","name_a2s":"Uncletopia | London | 7 | Stopwatch","protocol":17,"map":"cp_gullywash_final1","folder":"tf","game":"Team Fortress","app_id":440,"player_count":0,"max_players":24,"Bots":0,"server_type":"Dedicated","server_os":"Linux","password":true,"vac":true,"version":"7961495","steam_id":85568392924964314,"keywords":["cp","nocrits","nodmgspread","uncletopia"],"game_id":440,"stv_port":27076,"stv_name":"Uncletopia | London | 7 | Stopwatch | STV","players":null},{"server_id":41,"name":"Uncletopia | London | 8 | Community","name_short":"lon-8","host":"lon-1.uk.uncletopia.com","port":27085,"enabled":true,"region":"eu","cc":"gb","latitude":51.509865,"longitude":-0.118092,"reserved":0,"last_update":"0001-01-01T00:00:00Z","name_a2s":"Uncletopia | London | 8 | Community","protocol":17,"map":"workshop/koth_ashville_final.ugc2130459942","folder":"tf","game":"Team Fortress","app_id":440,"player_count":2,"max_players":24,"Bots":0,"server_type":"Dedicated","server_os":"Linux","password":true,"vac":true,"version":"7961495","steam_id":85568392924964315,"keywords":["cp","nocrits","nodmgspread","uncletopia"],"game_id":440,"stv_port":27086,"stv_name":"Uncletopia | London | 8 | Community | STV","players":[{"user_id":52,"name":"Sniper from TF3","steam_id":76561199122440208,"connected_time":500000000000,"state":"active","ping":147},{"user_id":53,"name":"sniper from tf2","steam_id":76561199093395384,"connected_time":406000000000,"state":"active","ping":161}]},{"server_id":300,"name":"Uncletopia | Montr√©al | 1 | One Thousand Uncles","name_short":"mtl-1","host":"mtl-1.ca.uncletopia.com","port":27015,"enabled":true,"region":"us-east","cc":"ca","latitude":45.50889,"longitude":-73.56167,"reserved":0,"last_update":"0001-01-01T00:00:00Z","name_a2s":"","protocol":0,"map":"","folder":"","game":"","app_id":0,"player_count":12,"max_players":0,"Bots":0,"server_type":"","server_os":"","password":false,"vac":false,"version":"","steam_id":0,"keywords":null,"game_id":0,"stv_port":0,"stv_name":"","players":[{"user_id":288,"name":"penis atomizer 9000 üè≥Ô∏è?","steam_id":76561198864841966,"connected_time":1808000000000,"state":"active","ping":110},{"user_id":295,"name":"rat225","steam_id":76561198102787281,"connected_time":457000000000,"state":"active","ping":66},{"user_id":266,"name":"Why not Zoidberg?","steam_id":76561197982207556,"connected_time":2381000000000,"state":"active","ping":76},{"user_id":235,"name":"Duk","steam_id":76561198450692568,"connected_time":5307000000000,"state":"active","ping":82},{"user_id":296,"name":"Sankta","steam_id":76561198130479424,"connected_time":441000000000,"state":"active","ping":69},{"user_id":292,"name":"i eat glue","steam_id":76561198827026673,"connected_time":1033000000000,"state":"active","ping":49},{"user_id":293,"name":"Iron_Dave_Qc","steam_id":76561198159325213,"connected_time":948000000000,"state":"active","ping":34},{"user_id":294,"name":"e2_e8","steam_id":76561198025032556,"connected_time":923000000000,"state":"active","ping":46},{"user_id":297,"name":"–ù–µ–≥—Ä —é–∂–Ω–µ–µ –°–∞—Ö–∞—Ä\ufffd","steam_id":76561199296042270,"connected_time":363000000000,"state":"active","ping":173},{"user_id":298,"name":"neet","steam_id":76561197968115168,"connected_time":162000000000,"state":"active","ping":56},{"user_id":262,"name":"mountainkug","steam_id":76561199491802535,"connected_time":3235000000000,"state":"active","ping":75},{"user_id":299,"name":"shitty aimbot","steam_id":76561198393424793,"connected_time":65000000000,"state":"active","ping":63}]},{"server_id":301,"name":"Uncletopia | Montr√©al | 2 | One Thousand Uncles","name_short":"mtl-2","host":"mtl-1.ca.uncletopia.com","port":27025,"enabled":true,"region":"us-east","cc":"ca","latitude":45.50889,"longitude":-73.56167,"reserved":0,"last_update":"0001-01-01T00:00:00Z","name_a2s":"","protocol":0,"map":"","folder":"","game":"","app_id":0,"player_count":4,"max_players":0,"Bots":0,"server_type":"","server_os":"","password":false,"vac":false,"version":"","steam_id":0,"keywords":null,"game_id":0,"stv_port":0,"stv_name":"","players":[{"user_id":19,"name":"I like pasta","steam_id":76561199140303246,"connected_time":5814000000000,"state":"active","ping":109},{"user_id":20,"name":"oh shoot its another guy","steam_id":76561199376593582,"connected_time":5813000000000,"state":"active","ping":67},{"user_id":39,"name":"Rhutebeer","steam_id":76561198018302761,"connected_time":4867000000000,"state":"active","ping":94},{"user_id":42,"name":"shesmydisease","steam_id":76561197991036127,"connected_time":2048000000000,"state":"active","ping":66}]},{"server_id":302,"name":"Uncletopia | Montr√©al | 3 | One Thousand Uncles","name_short":"mtl-3","host":"mtl-1.ca.uncletopia.com","port":27035,"enabled":true,"region":"us-east","cc":"ca","latitude":45.50889,"longitude":-73.56167,"reserved":0,"last_update":"0001-01-01T00:00:00Z","name_a2s":"","protocol":0,"map":"","folder":"","game":"","app_id":0,"player_count":0,"max_players":0,"Bots":0,"server_type":"","server_os":"","password":false,"vac":false,"version":"","steam_id":0,"keywords":null,"game_id":0,"stv_port":0,"stv_name":"","players":null},{"server_id":13,"name":"Uncletopia | New York City | 1 | All Maps","name_short":"nyc-1","host":"nyc-1.us.uncletopia.com","port":27015,"enabled":true,"region":"us-east","cc":"us","latitude":40.73061,"longitude":-73.93524,"reserved":0,"last_update":"0001-01-01T00:00:00Z","name_a2s":"Uncletopia | New York City | 1 | All Maps","protocol":17,"map":"pl_frontier_final","folder":"tf","game":"Team Fortress","app_id":440,"player_count":24,"max_players":24,"Bots":0,"server_type":"Dedicated","server_os":"Linux","password":true,"vac":true,"version":"7961495","steam_id":85568392924469993,"keywords":["nocrits","nodmgspread","payload","uncletopia"],"game_id":440,"stv_port":27016,"stv_name":"Uncletopia | New York City | 1 | All Maps | STV","players":[{"user_id":314,"name":"Sergeant Joker #savetf2","steam_id":76561198854616604,"connected_time":563000000000,"state":"active","ping":50},{"user_id":315,"name":"Bulk","steam_id":76561199009814535,"connected_time":502000000000,"state":"active","ping":43},{"user_id":270,"name":"John Fortnite","steam_id":76561198076608253,"connected_time":3476000000000,"state":"active","ping":57},{"user_id":272,"name":"se√±ora","steam_id":76561199353185652,"connected_time":3381000000000,"state":"active","ping":117},{"user_id":316,"name":"Kira99","steam_id":76561199384105097,"connected_time":502000000000,"state":"active","ping":65},{"user_id":329,"name":"Glennithy","steam_id":76561198339332079,"connected_time":99000000000,"state":"active","ping":70},{"user_id":326,"name":"Operation_SeaLion","steam_id":76561198048726691,"connected_time":322000000000,"state":"active","ping":44},{"user_id":317,"name":"Antikythera","steam_id":76561198045923020,"connected_time":459000000000,"state":"active","ping":86},{"user_id":318,"name":"Ejaculation Zach","steam_id":76561198203765200,"connected_time":433000000000,"state":"active","ping":72},{"user_id":319,"name":"Rappy \u003c3","steam_id":76561198105613110,"connected_time":429000000000,"state":"active","ping":64},{"user_id":298,"name":"redzach","steam_id":76561198444094359,"connected_time":2040000000000,"state":"active","ping":71},{"user_id":277,"name":"The Big","steam_id":76561198078572184,"connected_time":2860000000000,"state":"active","ping":117},{"user_id":320,"name":"gIBBY","steam_id":76561198080099598,"connected_time":423000000000,"state":"active","ping":45},{"user_id":321,"name":"OKAY","steam_id":76561198091980659,"connected_time":418000000000,"state":"active","ping":62},{"user_id":309,"name":"fish","steam_id":76561198303575607,"connected_time":826000000000,"state":"active","ping":76},{"user_id":269,"name":"Keymaster","steam_id":76561198881514228,"connected_time":3514000000000,"state":"active","ping":58},{"user_id":279,"name":"randymarsh004","steam_id":76561199078097804,"connected_time":2772000000000,"state":"active","ping":58},{"user_id":284,"name":"c64guy","steam_id":76561198023022744,"connected_time":2708000000000,"state":"active","ping":83},{"user_id":322,"name":"Shame","steam_id":76561198100490994,"connected_time":393000000000,"state":"active","ping":71},{"user_id":294,"name":"Ursus Ludius","steam_id":76561198025470722,"connected_time":2287000000000,"state":"active","ping":69},{"user_id":328,"name":"Thog","steam_id":76561198093699060,"connected_time":271000000000,"state":"active","ping":44},{"user_id":261,"name":"dog","steam_id":76561198263873491,"connected_time":4316000000000,"state":"active","ping":64},{"user_id":306,"name":"Ditto","steam_id":76561199113694675,"connected_time":1068000000000,"state":"active","ping":46},{"user_id":301,"name":"Young-OG","steam_id":76561198058800479,"connected_time":1658000000000,"state":"active","ping":76}]},{"server_id":14,"name":"Uncletopia | New York City | 2 | All Maps","name_short":"nyc-2","host":"nyc-1.us.uncletopia.com","port":27025,"enabled":true,"region":"us-east","cc":"us","latitude":40.73061,"longitude":-73.93524,"reserved":0,"last_update":"0001-01-01T00:00:00Z","name_a2s":"Uncletopia | New York City | 2 | All Maps","protocol":17,"map":"pl_goldrush","folder":"tf","game":"Team Fortress","app_id":440,"player_count":24,"max_players":24,"Bots":0,"server_type":"Dedicated","server_os":"Linux","password":true,"vac":true,"version":"7961495","steam_id":85568392924469994,"keywords":["nocrits","nodmgspread","payload","uncletopia"],"game_id":440,"stv_port":27026,"stv_name":"Uncletopia | New York City | 2 | All Maps | STV","players":[{"user_id":309,"name":"MacAndCheese69","steam_id":76561199013464592,"connected_time":1387000000000,"state":"active","ping":57},{"user_id":268,"name":"CoffeeZombee","steam_id":76561198172708053,"connected_time":3389000000000,"state":"active","ping":70},{"user_id":270,"name":"Bdog1092","steam_id":76561199228923100,"connected_time":3261000000000,"state":"active","ping":77},{"user_id":322,"name":"Vibrantword3732","steam_id":76561198916638641,"connected_time":222000000000,"state":"active","ping":114},{"user_id":323,"name":"INFINITE","steam_id":76561197971285557,"connected_time":182000000000,"state":"active","ping":57},{"user_id":274,"name":"SpaceSanctum","steam_id":76561198805242305,"connected_time":2986000000000,"state":"active","ping":44},{"user_id":314,"name":"Nak","steam_id":76561198058151893,"connected_time":1117000000000,"state":"active","ping":64},{"user_id":295,"name":"point man","steam_id":76561199037528097,"connected_time":2304000000000,"state":"active","ping":61},{"user_id":281,"name":"Jamie","steam_id":76561198129983381,"connected_time":2751000000000,"state":"active","ping":90},{"user_id":279,"name":"Le Ruse Bird","steam_id":76561198044890333,"connected_time":2799000000000,"state":"active","ping":80},{"user_id":315,"name":"GoldSwordKiller","steam_id":76561199082279387,"connected_time":1116000000000,"state":"active","ping":97},{"user_id":308,"name":"Rated_C","steam_id":76561199226478414,"connected_time":1412000000000,"state":"active","ping":85},{"user_id":324,"name":"Arkh","steam_id":76561198862003669,"connected_time":177000000000,"state":"active","ping":63},{"user_id":325,"name":"Pipnirsian","steam_id":76561198380976416,"connected_time":172000000000,"state":"active","ping":87},{"user_id":239,"name":"VergeOfDeath","steam_id":76561198046922194,"connected_time":7161000000000,"state":"active","ping":72},{"user_id":285,"name":"Propaniac Gaming ‚òë","steam_id":76561198133963270,"connected_time":2647000000000,"state":"active","ping":59},{"user_id":307,"name":"HEY CAMPERS","steam_id":76561199275395141,"connected_time":1454000000000,"state":"active","ping":66},{"user_id":311,"name":"Pixeled","steam_id":76561198088917077,"connected_time":1382000000000,"state":"active","ping":82},{"user_id":317,"name":"guppy","steam_id":76561198041380190,"connected_time":1101000000000,"state":"active","ping":69},{"user_id":290,"name":"Menace to Sobriety","steam_id":76561198245103000,"connected_time":2579000000000,"state":"active","ping":56},{"user_id":291,"name":"Sigiferd","steam_id":76561198148788110,"connected_time":2578000000000,"state":"active","ping":135},{"user_id":321,"name":"xXMLGDOODXx","steam_id":76561198080758365,"connected_time":497000000000,"state":"active","ping":44},{"user_id":302,"name":"Imagine Wagons","steam_id":76561198241556846,"connected_time":1727000000000,"state":"active","ping":77},{"user_id":319,"name":"Glover Speedrunner","steam_id":76561198015154311,"connected_time":874000000000,"state":"active","ping":72}]},{"server_id":15,"name":"Uncletopia | New York City | 3 | Stopwatch","name_short":"nyc-3","host":"nyc-1.us.uncletopia.com","port":27035,"enabled":true,"region":"us-east","cc":"us","latitude":40.73061,"longitude":-73.93524,"reserved":0,"last_update":"0001-01-01T00:00:00Z","name_a2s":"Uncletopia | New York City | 3 | Stopwatch","protocol":17,"map":"workshop/koth_ramjam_rc1.ugc459778887","folder":"tf","game":"Team Fortress","app_id":440,"player_count":0,"max_players":24,"Bots":0,"server_type":"Dedicated","server_os":"Linux","password":true,"vac":true,"version":"7961495","steam_id":85568392924742820,"keywords":["cp","nocrits","nodmgspread","uncletopia"],"game_id":440,"stv_port":27036,"stv_name":"Uncletopia | New York City | 3 | Stopwatch | STV","players":null},{"server_id":16,"name":"Uncletopia | New York City | 4 | Community","name_short":"nyc-4","host":"nyc-1.us.uncletopia.com","port":27045,"enabled":true,"region":"us-east","cc":"us","latitude":40.73061,"longitude":-73.93524,"reserved":0,"last_update":"0001-01-01T00:00:00Z","name_a2s":"Uncletopia | New York City | 4 | Community","protocol":17,"map":"workshop/koth_trenchfoot_b1a.ugc731436616","folder":"tf","game":"Team Fortress","app_id":440,"player_count":0,"max_players":24,"Bots":0,"server_type":"Dedicated","server_os":"Linux","password":true,"vac":true,"version":"7961495","steam_id":85568392924742821,"keywords":["cp","nocrits","nodmgspread","uncletopia"],"game_id":440,"stv_port":27046,"stv_name":"Uncletopia | New York City | 4 | Community | STV","players":null},{"server_id":142,"name":"Uncletopia | S√£o Paulo | 1 | All Maps","name_short":"sao-1","host":"sao-1.br.uncletopia.com","port":27015,"enabled":true,"region":"sa","cc":"br","latitude":-23.533773,"longitude":-46.62529,"reserved":0,"last_update":"0001-01-01T00:00:00Z","name_a2s":"Uncletopia | S√£o Paulo | 1 | All Maps","protocol":17,"map":"pl_snowycoast","folder":"tf","game":"Team Fortress","app_id":440,"player_count":0,"max_players":24,"Bots":0,"server_type":"Dedicated","server_os":"Linux","password":true,"vac":true,"version":"7961495","steam_id":85568392924469996,"keywords":["nocrits","nodmgspread","payload","uncletopia"],"game_id":440,"stv_port":27016,"stv_name":"Uncletopia | S√£o Paulo | 1 | All Maps | STV","players":null},{"server_id":143,"name":"Uncletopia | S√£o Paulo | 2 | Community","name_short":"sao-2","host":"sao-2.br.uncletopia.com","port":27015,"enabled":true,"region":"sa","cc":"br","latitude":-23.533773,"longitude":-46.62529,"reserved":0,"last_update":"0001-01-01T00:00:00Z","name_a2s":"Uncletopia | S√£o Paulo | 2 | Community","protocol":17,"map":"workshop/cp_mannbase_rc2a.ugc1900737467","folder":"tf","game":"Team Fortress","app_id":440,"player_count":0,"max_players":24,"Bots":0,"server_type":"Dedicated","server_os":"Linux","password":true,"vac":true,"version":"7961495","steam_id":85568392924485349,"keywords":["cp","nocrits","nodmgspread","uncletopia"],"game_id":440,"stv_port":27016,"stv_name":"Uncletopia | S√£o Paulo | 2 | Community | STV","players":null},{"server_id":7,"name":"Uncletopia | Seattle | 1 | All Maps","name_short":"sea-1","host":"sea-1.us.uncletopia.com","port":27015,"enabled":true,"region":"us-west","cc":"us","latitude":47.608013,"longitude":-122.33517,"reserved":0,"last_update":"0001-01-01T00:00:00Z","name_a2s":"Uncletopia | Seattle | 1 | All Maps","protocol":17,"map":"pl_snowycoast","folder":"tf","game":"Team Fortress","app_id":440,"player_count":24,"max_players":24,"Bots":0,"server_type":"Dedicated","server_os":"Linux","password":true,"vac":true,"version":"7961495","steam_id":85568392924469997,"keywords":["nocrits","nodmgspread","payload","uncletopia"],"game_id":440,"stv_port":27016,"stv_name":"Uncletopia | Seattle | 1 | All Maps | STV","players":[{"user_id":339,"name":"Mitchell","steam_id":76561197972922328,"connected_time":1353000000000,"state":"active","ping":48},{"user_id":344,"name":"Elfy","steam_id":76561199166448617,"connected_time":390000000000,"state":"active","ping":49},{"user_id":232,"name":"UserLeft","steam_id":76561197998297379,"connected_time":10461000000000,"state":"active","ping":67},{"user_id":345,"name":"Selment","steam_id":76561198026489601,"connected_time":380000000000,"state":"active","ping":95},{"user_id":346,"name":"Retesaurus","steam_id":76561198045189319,"connected_time":264000000000,"state":"active","ping":76},{"user_id":334,"name":"VixianUwU","steam_id":76561198948815060,"connected_time":2067000000000,"state":"active","ping":86},{"user_id":269,"name":"toes","steam_id":76561198221151676,"connected_time":7997000000000,"state":"active","ping":57},{"user_id":348,"name":"Azary56","steam_id":76561198321404617,"connected_time":188000000000,"state":"active","ping":56},{"user_id":349,"name":"[TrC] Dackstrus","steam_id":76561197973518509,"connected_time":157000000000,"state":"active","ping":53},{"user_id":316,"name":"Juuichi11","steam_id":76561198141955085,"connected_time":4140000000000,"state":"active","ping":46},{"user_id":327,"name":"thunderous prophet","steam_id":76561198131166135,"connected_time":2859000000000,"state":"active","ping":37},{"user_id":350,"name":"bluntmasterflex","steam_id":76561199332203587,"connected_time":109000000000,"state":"active","ping":77},{"user_id":217,"name":"Level 99 Mudcrab","steam_id":76561198077452771,"connected_time":11518000000000,"state":"active","ping":85},{"user_id":342,"name":"wendigo","steam_id":76561197994528974,"connected_time":1074000000000,"state":"active","ping":77},{"user_id":318,"name":"redredgreengreen","steam_id":76561198035660801,"connected_time":4013000000000,"state":"active","ping":59},{"user_id":319,"name":"rad killl raccoon","steam_id":76561198980975595,"connected_time":3981000000000,"state":"active","ping":50},{"user_id":286,"name":"Jshoe","steam_id":76561198128252048,"connected_time":6757000000000,"state":"active","ping":67},{"user_id":343,"name":"Xain35","steam_id":76561198121834307,"connected_time":798000000000,"state":"active","ping":48},{"user_id":351,"name":"[TrC] Nosy","steam_id":76561197978859310,"connected_time":82000000000,"state":"active","ping":54},{"user_id":302,"name":"mega","steam_id":76561198089520959,"connected_time":5403000000000,"state":"active","ping":90},{"user_id":352,"name":"giveit5","steam_id":76561198030815437,"connected_time":65000000000,"state":"active","ping":88},{"user_id":353,"name":"Drapph","steam_id":76561199384213314,"connected_time":28000000000,"state":"active","ping":123},{"user_id":341,"name":"greens beans","steam_id":76561198153611491,"connected_time":1339000000000,"state":"active","ping":42},{"user_id":347,"name":"Jovo","steam_id":76561197993265970,"connected_time":262000000000,"state":"active","ping":39}]},{"server_id":119,"name":"Uncletopia | Seattle | 2 | All Maps","name_short":"sea-2","host":"sea-1.us.uncletopia.com","port":27025,"enabled":true,"region":"us-west","cc":"us","latitude":47.608013,"longitude":-122.33517,"reserved":0,"last_update":"0001-01-01T00:00:00Z","name_a2s":"Uncletopia | Seattle | 2 | All Maps","protocol":17,"map":"cp_process_final","folder":"tf","game":"Team Fortress","app_id":440,"player_count":24,"max_players":24,"Bots":0,"server_type":"Dedicated","server_os":"Linux","password":true,"vac":true,"version":"7961495","steam_id":85568392924469998,"keywords":["cp","nocrits","nodmgspread","uncletopia"],"game_id":440,"stv_port":27026,"stv_name":"Uncletopia | Seattle | 2 | All Maps | STV","players":[{"user_id":346,"name":"Gogurt","steam_id":76561198043892147,"connected_time":2681000000000,"state":"active","ping":57},{"user_id":380,"name":"armpit fetishist","steam_id":76561199008452637,"connected_time":231000000000,"state":"active","ping":30},{"user_id":359,"name":"Igrium","steam_id":76561198119549811,"connected_time":1621000000000,"state":"active","ping":66},{"user_id":320,"name":"Lili","steam_id":76561199488457138,"connected_time":4089000000000,"state":"active","ping":56},{"user_id":315,"name":"aksls2000","steam_id":76561198282082365,"connected_time":4871000000000,"state":"active","ping":74},{"user_id":364,"name":"waffle","steam_id":76561198077799844,"connected_time":1456000000000,"state":"active","ping":72},{"user_id":373,"name":"churchhill","steam_id":76561198207881077,"connected_time":990000000000,"state":"active","ping":90},{"user_id":372,"name":"Mathottma Ghandi","steam_id":76561198003315964,"connected_time":1064000000000,"state":"active","ping":73},{"user_id":381,"name":"Bardock (real)","steam_id":76561198837945532,"connected_time":14000000000,"state":"spawning","ping":219},{"user_id":377,"name":"WhiteRavenHein","steam_id":76561198177166535,"connected_time":528000000000,"state":"active","ping":69},{"user_id":371,"name":"Nostalgia Critic (doug walker)","steam_id":76561199059733640,"connected_time":1156000000000,"state":"active","ping":79},{"user_id":375,"name":"RockMuncher","steam_id":76561198269218386,"connected_time":742000000000,"state":"active","ping":54},{"user_id":376,"name":"O","steam_id":76561198450073779,"connected_time":591000000000,"state":"active","ping":45},{"user_id":366,"name":"Shirm","steam_id":76561198068455981,"connected_time":1411000000000,"state":"active","ping":77},{"user_id":356,"name":"vacachimuela","steam_id":76561198297332421,"connected_time":2212000000000,"state":"active","ping":82},{"user_id":378,"name":"Furry Femboy Hooters (CEO)","steam_id":76561198097745857,"connected_time":522000000000,"state":"active","ping":66},{"user_id":350,"name":"Mer","steam_id":76561198192171041,"connected_time":2588000000000,"state":"active","ping":137},{"user_id":357,"name":"Day Man","steam_id":76561198067154807,"connected_time":2211000000000,"state":"active","ping":47},{"user_id":370,"name":"BLANK3T [They/He femboy on THC]","steam_id":76561198028875624,"connected_time":1248000000000,"state":"active","ping":59},{"user_id":338,"name":"Patio","steam_id":76561197986082608,"connected_time":3320000000000,"state":"active","ping":45},{"user_id":368,"name":"EatSomeBEES","steam_id":76561198047334307,"connected_time":1398000000000,"state":"active","ping":80},{"user_id":325,"name":"AsexyCommie","steam_id":76561198096330354,"connected_time":3863000000000,"state":"active","ping":88},{"user_id":369,"name":"Danny Fentanyl","steam_id":76561197970791798,"connected_time":1378000000000,"state":"active","ping":40},{"user_id":342,"name":"tqman","steam_id":76561199031963925,"connected_time":3177000000000,"state":"active","ping":46}]},{"server_id":406,"name":"Uncletopia | Seattle | 3 | Stopwatch","name_short":"sea-3","host":"sea-1.us.uncletopia.com","port":27035,"enabled":true,"region":"us-west","cc":"us","latitude":47.608013,"longitude":-122.33517,"reserved":0,"last_update":"0001-01-01T00:00:00Z","name_a2s":"Uncletopia | Seattle | 3 | Stopwatch","protocol":17,"map":"workshop/koth_clearcut_b15.ugc2107050255","folder":"tf","game":"Team Fortress","app_id":440,"player_count":0,"max_players":24,"Bots":0,"server_type":"Dedicated","server_os":"Linux","password":true,"vac":true,"version":"7961495","steam_id":85568392924515217,"keywords":["cp","nocrits","nodmgspread","uncletopia"],"game_id":440,"stv_port":27036,"stv_name":"Uncletopia | Seattle | 3 | Stopwatch | STV","players":null},{"server_id":17,"name":"Uncletopia | San Francisco | 1 | All Maps","name_short":"sfo-1","host":"sfo-1.us.uncletopia.com","port":27015,"enabled":true,"region":"us-west","cc":"us","latitude":37.77397,"longitude":-122.4313,"reserved":0,"last_update":"0001-01-01T00:00:00Z","name_a2s":"Uncletopia | San Francisco | 1 | All Maps","protocol":17,"map":"pl_upward","folder":"tf","game":"Team Fortress","app_id":440,"player_count":0,"max_players":24,"Bots":0,"server_type":"Dedicated","server_os":"Linux","password":true,"vac":true,"version":"7961495","steam_id":85568392924469999,"keywords":["nocrits","nodmgspread","payload","uncletopia"],"game_id":440,"stv_port":27016,"stv_name":"Uncletopia | San Francisco | 1 | All Maps | STV","players":null},{"server_id":18,"name":"Uncletopia | San Francisco | 2 | All Maps","name_short":"sfo-2","host":"sfo-1.us.uncletopia.com","port":27025,"enabled":true,"region":"us-west","cc":"us","latitude":37.77397,"longitude":-122.4313,"reserved":0,"last_update":"0001-01-01T00:00:00Z","name_a2s":"Uncletopia | San Francisco | 2 | All Maps","protocol":17,"map":"pl_frontier_final","folder":"tf","game":"Team Fortress","app_id":440,"player_count":0,"max_players":24,"Bots":0,"server_type":"Dedicated","server_os":"Linux","password":true,"vac":true,"version":"7961495","steam_id":85568392924470000,"keywords":["nocrits","nodmgspread","payload","uncletopia"],"game_id":440,"stv_port":27026,"stv_name":"Uncletopia | San Francisco | 2 | All Maps | STV","players":null},{"server_id":19,"name":"Uncletopia | San Francisco | 3 | Stopwatch","name_short":"sfo-3","host":"sfo-1.us.uncletopia.com","port":27035,"enabled":true,"region":"us-west","cc":"us","latitude":37.77397,"longitude":-122.4313,"reserved":0,"last_update":"0001-01-01T00:00:00Z","name_a2s":"Uncletopia | San Francisco | 3 | Stopwatch","protocol":17,"map":"pl_pier","folder":"tf","game":"Team Fortress","app_id":440,"player_count":3,"max_players":24,"Bots":0,"server_type":"Dedicated","server_os":"Linux","password":true,"vac":true,"version":"7961495","steam_id":85568392924742824,"keywords":["nocrits","nodmgspread","payload","uncletopia"],"game_id":440,"stv_port":27036,"stv_name":"Uncletopia | San Francisco | 3 | Stopwatch | STV","players":[{"user_id":4,"name":"gaymen.com","steam_id":76561198308817394,"connected_time":1388000000000,"state":"active","ping":104},{"user_id":5,"name":"ManOfChicken","steam_id":76561198085705161,"connected_time":724000000000,"state":"active","ping":60},{"user_id":6,"name":"CCPodz","steam_id":76561199143506502,"connected_time":343000000000,"state":"active","ping":98}]},{"server_id":20,"name":"Uncletopia | San Francisco | 4 | Community","name_short":"sfo-4","host":"sfo-1.us.uncletopia.com","port":27045,"enabled":true,"region":"us-west","cc":"us","latitude":37.77397,"longitude":-122.4313,"reserved":0,"last_update":"0001-01-01T00:00:00Z","name_a2s":"Uncletopia | San Francisco | 4 | Community","protocol":17,"map":"pl_pier","folder":"tf","game":"Team Fortress","app_id":440,"player_count":0,"max_players":24,"Bots":0,"server_type":"Dedicated","server_os":"Linux","password":true,"vac":true,"version":"7961495","steam_id":85568392924742826,"keywords":["nocrits","nodmgspread","payload","uncletopia"],"game_id":440,"stv_port":27046,"stv_name":"Uncletopia | San Francisco | 4 | Community | STV","players":null},{"server_id":141,"name":"Uncletopia | Sydney | 1 | All Maps","name_short":"syd-1","host":"syd-1.au.uncletopia.com","port":27015,"enabled":true,"region":"au","cc":"au","latitude":-33.865143,"longitude":151.2099,"reserved":0,"last_update":"0001-01-01T00:00:00Z","name_a2s":"Uncletopia | Sydney | 1 | All Maps","protocol":17,"map":"pl_frontier_final","folder":"tf","game":"Team Fortress","app_id":440,"player_count":6,"max_players":24,"Bots":0,"server_type":"Dedicated","server_os":"Linux","password":true,"vac":true,"version":"7961495","steam_id":85568392924470001,"keywords":["nocrits","nodmgspread","payload","uncletopia"],"game_id":440,"stv_port":27016,"stv_name":"Uncletopia | Sydney | 1 | All Maps | STV","players":[{"user_id":20,"name":"High_On_Kool-Aid","steam_id":76561199234748051,"connected_time":286000000000,"state":"active","ping":300},{"user_id":8,"name":"Brain Smartn't","steam_id":76561198831233904,"connected_time":1963000000000,"state":"active","ping":261},{"user_id":21,"name":"Taskrabbits","steam_id":76561198366682546,"connected_time":104000000000,"state":"active","ping":350},{"user_id":9,"name":"C3ratops","steam_id":76561198847054264,"connected_time":1948000000000,"state":"active","ping":58},{"user_id":22,"name":"Caydens_world","steam_id":76561199217655212,"connected_time":56000000000,"state":"active","ping":92},{"user_id":16,"name":"carrot monster","steam_id":76561199056025092,"connected_time":1231000000000,"state":"active","ping":48}]},{"server_id":123,"name":"Uncletopia | Sydney | 2 | All Maps","name_short":"syd-2","host":"syd-1.au.uncletopia.com","port":27025,"enabled":true,"region":"au","cc":"au","latitude":-33.865143,"longitude":151.2099,"reserved":0,"last_update":"0001-01-01T00:00:00Z","name_a2s":"Uncletopia | Sydney | 2 | All Maps","protocol":17,"map":"koth_lakeside_final","folder":"tf","game":"Team Fortress","app_id":440,"player_count":0,"max_players":24,"Bots":0,"server_type":"Dedicated","server_os":"Linux","password":true,"vac":true,"version":"7961495","steam_id":85568392924470002,"keywords":["cp","nocrits","nodmgspread","uncletopia"],"game_id":440,"stv_port":27026,"stv_name":"Uncletopia | Sydney | 2 | All Maps | STV","players":null},{"server_id":395,"name":"Uncletopia | Sydney | 3 | All Maps","name_short":"syd-3","host":"syd-1.au.uncletopia.com","port":27035,"enabled":true,"region":"au","cc":"au","latitude":-33.865143,"longitude":151.2099,"reserved":0,"last_update":"0001-01-01T00:00:00Z","name_a2s":"Uncletopia | Sydney | 3 | All Maps","protocol":17,"map":"pl_frontier_final","folder":"tf","game":"Team Fortress","app_id":440,"player_count":0,"max_players":24,"Bots":0,"server_type":"Dedicated","server_os":"Linux","password":true,"vac":true,"version":"7961495","steam_id":85568392925194467,"keywords":["nocrits","nodmgspread","payload","uncletopia"],"game_id":440,"stv_port":27036,"stv_name":"Uncletopia | Sydney | 3 | All Maps | STV","players":null},{"server_id":396,"name":"Uncletopia | Sydney | 4 | All Maps","name_short":"syd-4","host":"syd-1.au.uncletopia.com","port":27045,"enabled":true,"region":"au","cc":"au","latitude":-33.865143,"longitude":151.2099,"reserved":0,"last_update":"0001-01-01T00:00:00Z","name_a2s":"Uncletopia | Sydney | 4 | All Maps","protocol":17,"map":"cp_process_final","folder":"tf","game":"Team Fortress","app_id":440,"player_count":0,"max_players":24,"Bots":0,"server_type":"Dedicated","server_os":"Linux","password":true,"vac":true,"version":"7961495","steam_id":85568392925397958,"keywords":["cp","nocrits","nodmgspread","uncletopia"],"game_id":440,"stv_port":27046,"stv_name":"Uncletopia | Sydney | 4 | All Maps | STV","players":null},{"server_id":58,"name":"Uncletopia | Sydney | 5 | Stopwatch","name_short":"syd-5","host":"syd-1.au.uncletopia.com","port":27055,"enabled":true,"region":"au","cc":"au","latitude":-33.865143,"longitude":151.2099,"reserved":0,"last_update":"0001-01-01T00:00:00Z","name_a2s":"Uncletopia | Sydney | 5 | Stopwatch","protocol":17,"map":"pl_frontier_final","folder":"tf","game":"Team Fortress","app_id":440,"player_count":0,"max_players":24,"Bots":0,"server_type":"Dedicated","server_os":"Linux","password":true,"vac":true,"version":"7961495","steam_id":85568392925397959,"keywords":["nocrits","nodmgspread","payload","uncletopia"],"game_id":440,"stv_port":27056,"stv_name":"Uncletopia | Sydney | 5 | Stopwatch | STV","players":null},{"server_id":59,"name":"Uncletopia | Sydney | 6 | Community","name_short":"syd-6","host":"syd-1.au.uncletopia.com","port":27065,"enabled":true,"region":"au","cc":"au","latitude":-33.865143,"longitude":151.2099,"reserved":0,"last_update":"0001-01-01T00:00:00Z","name_a2s":"Uncletopia | Sydney | 6 | Community","protocol":17,"map":"cp_sunshine","folder":"tf","game":"Team Fortress","app_id":440,"player_count":0,"max_players":24,"Bots":0,"server_type":"Dedicated","server_os":"Linux","password":true,"vac":true,"version":"7961495","steam_id":85568392925397960,"keywords":["cp","nocrits","nodmgspread","uncletopia"],"game_id":440,"stv_port":27066,"stv_name":"Uncletopia | Sydney | 6 | Community | STV","players":null},{"server_id":49,"name":"Uncletopia | Warsaw | 1 | One Thousand Uncles","name_short":"waw-1","host":"waw-1.pl.uncletopia.com","port":27015,"enabled":true,"region":"eu","cc":"pl","latitude":52.2297,"longitude":21.017532,"reserved":0,"last_update":"0001-01-01T00:00:00Z","name_a2s":"Uncletopia | Warsaw | 1 | One Thousand Uncles","protocol":17,"map":"pl_badwater","folder":"tf","game":"Team Fortress","app_id":440,"player_count":19,"max_players":32,"Bots":16,"server_type":"Dedicated","server_os":"Linux","password":true,"vac":true,"version":"7961495","steam_id":85568392925397850,"keywords":["alltalk","bots","danepve","increased_maxplayers","nocrits","norespawntime","payload","uncletopia"],"game_id":440,"stv_port":0,"stv_name":"","players":[{"user_id":528,"name":"Comorito","steam_id":76561198183143669,"connected_time":767000000000,"state":"active","ping":53},{"user_id":529,"name":"Plubu","steam_id":76561198082511092,"connected_time":151000000000,"state":"active","ping":121},{"user_id":508,"name":"blackman.vbhop.2004","steam_id":76561198268384872,"connected_time":3640000000000,"state":"active","ping":90}]},{"server_id":50,"name":"Uncletopia | Warsaw | 2 | One Thousand Uncles","name_short":"waw-2","host":"waw-1.pl.uncletopia.com","port":27025,"enabled":true,"region":"eu","cc":"pl","latitude":52.2297,"longitude":21.017532,"reserved":0,"last_update":"0001-01-01T00:00:00Z","name_a2s":"Uncletopia | Warsaw | 2 | One Thousand Uncles","protocol":17,"map":"cp_egypt_final","folder":"tf","game":"Team Fortress","app_id":440,"player_count":25,"max_players":32,"Bots":16,"server_type":"Dedicated","server_os":"Linux","password":true,"vac":true,"version":"7961495","steam_id":85568392925397851,"keywords":["alltalk","bots","cp","danepve","increased_maxplayers","nocrits","norespawntime","uncletopia"],"game_id":440,"stv_port":0,"stv_name":"","players":[{"user_id":670,"name":"just a person","steam_id":76561198340369454,"connected_time":6509000000000,"state":"active","ping":64},{"user_id":634,"name":"FilipeLuk","steam_id":76561198150675438,"connected_time":8475000000000,"state":"active","ping":80},{"user_id":703,"name":"ZharMeny","steam_id":76561199086841610,"connected_time":2462000000000,"state":"active","ping":95},{"user_id":718,"name":"LastStar ‚ó£‚Ä∏‚ó¢","steam_id":76561198131741966,"connected_time":340000000000,"state":"active","ping":60},{"user_id":708,"name":"deloreg (engineer gaming)","steam_id":76561199487318962,"connected_time":2114000000000,"state":"active","ping":39},{"user_id":711,"name":"Girl with 4k (pocket pls ‚ù§)","steam_id":76561198091512580,"connected_time":1355000000000,"state":"active","ping":87},{"user_id":712,"name":"ThinkOfAName","steam_id":76561199235591578,"connected_time":1136000000000,"state":"active","ping":130},{"user_id":652,"name":"meriones","steam_id":76561198034234373,"connected_time":6954000000000,"state":"active","ping":64},{"user_id":680,"name":"Meerkat","steam_id":76561199245435539,"connected_time":5090000000000,"state":"active","ping":226}]},{"server_id":51,"name":"Uncletopia | Warsaw | 3 | All Maps","name_short":"waw-3","host":"waw-1.pl.uncletopia.com","port":27035,"enabled":true,"region":"eu","cc":"pl","latitude":52.2297,"longitude":21.017532,"reserved":0,"last_update":"0001-01-01T00:00:00Z","name_a2s":"Uncletopia | Warsaw | 3 | All Maps","protocol":17,"map":"koth_cascade","folder":"tf","game":"Team Fortress","app_id":440,"player_count":0,"max_players":24,"Bots":0,"server_type":"Dedicated","server_os":"Linux","password":true,"vac":true,"version":"7961495","steam_id":85568392925397852,"keywords":["cp","nocrits","nodmgspread","uncletopia"],"game_id":440,"stv_port":27036,"stv_name":"Uncletopia | Warsaw | 3 | All Maps | STV","players":null},{"server_id":52,"name":"Uncletopia | Warsaw | 4 | All Maps","name_short":"waw-4","host":"waw-1.pl.uncletopia.com","port":27045,"enabled":true,"region":"eu","cc":"pl","latitude":52.2297,"longitude":21.017532,"reserved":0,"last_update":"0001-01-01T00:00:00Z","name_a2s":"Uncletopia | Warsaw | 4 | All Maps","protocol":17,"map":"pl_pier","folder":"tf","game":"Team Fortress","app_id":440,"player_count":0,"max_players":24,"Bots":0,"server_type":"Dedicated","server_os":"Linux","password":true,"vac":true,"version":"7961495","steam_id":85568392925397853,"keywords":["nocrits","nodmgspread","payload","uncletopia"],"game_id":440,"stv_port":27046,"stv_name":"Uncletopia | Warsaw | 4 | All Maps | STV","players":null},{"server_id":53,"name":"Uncletopia | Warsaw | 5 | Stopwatch","name_short":"waw-5","host":"waw-1.pl.uncletopia.com","port":27055,"enabled":true,"region":"eu","cc":"pl","latitude":52.2297,"longitude":21.017532,"reserved":0,"last_update":"0001-01-01T00:00:00Z","name_a2s":"Uncletopia | Warsaw | 5 | Stopwatch","protocol":17,"map":"workshop/cp_reckoner_rc6.ugc674719999","folder":"tf","game":"Team Fortress","app_id":440,"player_count":0,"max_players":24,"Bots":0,"server_type":"Dedicated","server_os":"Linux","password":true,"vac":true,"version":"7961495","steam_id":85568392925397854,"keywords":["cp","nocrits","nodmgspread","uncletopia"],"game_id":440,"stv_port":27056,"stv_name":"Uncletopia | Warsaw | 5 | Stopwatch | STV","players":null},{"server_id":54,"name":"Uncletopia | Warsaw | 6 | Community","name_short":"waw-6","host":"waw-1.pl.uncletopia.com","port":27065,"enabled":true,"region":"eu","cc":"pl","latitude":52.2297,"longitude":21.017532,"reserved":0,"last_update":"0001-01-01T00:00:00Z","name_a2s":"Uncletopia | Warsaw | 6 | Community","protocol":17,"map":"workshop/cp_indulge.ugc528106646","folder":"tf","game":"Team Fortress","app_id":440,"player_count":0,"max_players":24,"Bots":0,"server_type":"Dedicated","server_os":"Linux","password":true,"vac":true,"version":"7961495","steam_id":85568392925397856,"keywords":["cp","nocrits","nodmgspread","uncletopia"],"game_id":440,"stv_port":27066,"stv_name":"Uncletopia | Warsaw | 6 | Community | STV","players":null}]}