{"status":true,"message":"","result":[{"server_id":9,"name":"Uncletopia | Atlanta | 1 | All Maps","name_short":"atl-1","host":"atl-1.us.uncletopia.com","port":27015,"enabled":true,"region":"us-east","cc":"us","latitude":33.753746,"longitude":-84.38633,"reserved":0,"last_update":"0001-01-01T00:00:00Z","name_a2s":"Uncletopia | Atlanta | 1 | All Maps","protocol":17,"map":"cp_altitude","folder":"tf","game":"Team Fortress","app_id":440,"player_count":24,"max_players":24,"Bots":0,"server_type":"Dedicated","server_os":"Linux","password":true,"vac":true,"version":"7757534","steam_id":85568392924469982,"keywords":["cp","nocrits","nodmgspread","uncletopia"],"game_id":440,"stv_port":27016,"stv_name":"Uncletopia | Atlanta | 1 | All Maps | STV","players":[{"user_id":706,"name":"Snazzi","steam_id":76561198085208276,"connected_time":410000000000,"state":"active","ping":71},{"user_id":626,"name":"Ashes!","steam_id":76561197998475441,"connected_time":7289000000000,"state":"active","ping":92},{"user_id":664,"name":"DuckMann","steam_id":76561198197058638,"connected_time":3410000000000,"state":"active","ping":64},{"user_id":665,"name":"Ojen","steam_id":76561197998414482,"connected_time":3214000000000,"state":"active","ping":90},{"user_id":708,"name":"vid_","steam_id":76561198065159053,"connected_time":53000000000,"state":"active","ping":46},{"user_id":709,"name":"bengineer","steam_id":76561198171912174,"connected_time":20000000000,"state":"active","ping":128},{"user_id":697,"name":"drizzle","steam_id":76561198099412571,"connected_time":685000000000,"state":"active","ping":60},{"user_id":710,"name":"Hot Apple Cider","steam_id":76561198094641783,"connected_time":2000000000,"state":"spawning","ping":65},{"user_id":653,"name":"solaris","steam_id":76561198874885945,"connected_time":4640000000000,"state":"active","ping":76},{"user_id":618,"name":"⇌ StriKeR ⇋","steam_id":76561199389089862,"connected_time":7593000000000,"state":"active","ping":135},{"user_id":707,"name":"puppy","steam_id":76561197964635660,"connected_time":171000000000,"state":"active","ping":55},{"user_id":703,"name":"Viritidom","steam_id":76561198169197221,"connected_time":462000000000,"state":"active","ping":151},{"user_id":686,"name":"The person here","steam_id":76561198181729663,"connected_time":1303000000000,"state":"active","ping":68},{"user_id":688,"name":"Crystallixed","steam_id":76561198072263515,"connected_time":1130000000000,"state":"active","ping":61},{"user_id":683,"name":"Styx","steam_id":76561198104657428,"connected_time":1366000000000,"state":"active","ping":62},{"user_id":679,"name":"jandajanda","steam_id":76561198235722476,"connected_time":1589000000000,"state":"active","ping":53},{"user_id":347,"name":"800,000 rabid chihuahuas in Ohi","steam_id":76561198130772096,"connected_time":31504000000000,"state":"active","ping":40},{"user_id":668,"name":"Oddball","steam_id":76561198040440984,"connected_time":2779000000000,"state":"active","ping":80},{"user_id":694,"name":"Pourpel","steam_id":76561198059125470,"connected_time":825000000000,"state":"active","ping":62},{"user_id":639,"name":"Motreir","steam_id":76561198151717946,"connected_time":6357000000000,"state":"active","ping":80},{"user_id":617,"name":"RED1 | snoops","steam_id":76561197986760351,"connected_time":7598000000000,"state":"active","ping":76},{"user_id":670,"name":"火星 | Marsy","steam_id":76561198014979892,"connected_time":2205000000000,"state":"active","ping":72},{"user_id":704,"name":"cream soda enjoyer 29","steam_id":76561198222776116,"connected_time":460000000000,"state":"active","ping":70},{"user_id":705,"name":"Euphoria","steam_id":76561198187168787,"connected_time":459000000000,"state":"active","ping":126}]},{"server_id":400,"name":"Uncletopia | Atlanta | 3 | Community","name_short":"atl-3","host":"atl-1.us.uncletopia.com","port":27035,"enabled":true,"region":"us-east","cc":"us","latitude":33.753746,"longitude":-84.38633,"reserved":0,"last_update":"0001-01-01T00:00:00Z","name_a2s":"Uncletopia | Atlanta | 3 | Community","protocol":17,"map":"workshop/pl_vigil_rc9.ugc1266210012","folder":"tf","game":"Team Fortress","app_id":440,"player_count":24,"max_players":32,"Bots":0,"server_type":"Dedicated","server_os":"Linux","password":true,"vac":true,"version":"7757534","steam_id":85568392924515187,"keywords":["increased_maxplayers","nocrits","nodmgspread","payload","uncletopia"],"game_id":440,"stv_port":27036,"stv_name":"Uncletopia | Atlanta | 3 | Community | STV","players":[{"user_id":407,"name":"$200 Shirt","steam_id":76561197977329534,"connected_time":2120000000000,"state":"active","ping":76},{"user_id":452,"name":"BLU1 | Pango","steam_id":76561198069811545,"connected_time":393000000000,"state":"active","ping":47},{"user_id":293,"name":"oh god i'm gonna CHUM","steam_id":76561198019210187,"connected_time":5796000000000,"state":"active","ping":73},{"user_id":405,"name":"PLATYPUS","steam_id":76561198255796625,"connected_time":2274000000000,"state":"active","ping":121},{"user_id":326,"name":"AveraGeo","steam_id":76561198216949631,"connected_time":5112000000000,"state":"active","ping":104},{"user_id":424,"name":"The Builder","steam_id":76561198093432863,"connected_time":1214000000000,"state":"active","ping":74},{"user_id":145,"name":"ATLS1 | SparkStorm","steam_id":76561198095817025,"connected_time":8508000000000,"state":"active","ping":37},{"user_id":402,"name":"land0","steam_id":76561198321264704,"connected_time":2344000000000,"state":"active","ping":103},{"user_id":455,"name":"RED1 | Le4n!!!","steam_id":76561198045522596,"connected_time":317000000000,"state":"active","ping":74},{"user_id":425,"name":"Zelumie","steam_id":76561198147335801,"connected_time":1149000000000,"state":"active","ping":138},{"user_id":414,"name":"ATLS1 | Krissy","steam_id":76561197960848174,"connected_time":1836000000000,"state":"active","ping":64},{"user_id":418,"name":"anal fiend","steam_id":76561198026844952,"connected_time":1576000000000,"state":"active","ping":108},{"user_id":382,"name":"cass","steam_id":76561198074502046,"connected_time":3224000000000,"state":"active","ping":59},{"user_id":397,"name":"Majinken","steam_id":76561198285026879,"connected_time":2651000000000,"state":"active","ping":86},{"user_id":453,"name":"Slippery","steam_id":76561199469441947,"connected_time":372000000000,"state":"active","ping":74},{"user_id":416,"name":"Terrorist Sex Lord","steam_id":76561198024815130,"connected_time":1617000000000,"state":"active","ping":117},{"user_id":454,"name":"Vitzenhauzer","steam_id":76561198116449787,"connected_time":349000000000,"state":"active","ping":77},{"user_id":357,"name":"Decolour","steam_id":76561199045608372,"connected_time":4115000000000,"state":"active","ping":82},{"user_id":419,"name":"Tripp","steam_id":76561198033705006,"connected_time":1560000000000,"state":"active","ping":109},{"user_id":140,"name":"com lag","steam_id":76561198019019392,"connected_time":9003000000000,"state":"active","ping":62},{"user_id":98,"name":"RED1 | Avo","steam_id":76561197993340494,"connected_time":12675000000000,"state":"active","ping":62},{"user_id":404,"name":"RED1 | mayhem","steam_id":76561199246637881,"connected_time":2316000000000,"state":"active","ping":59},{"user_id":463,"name":"[GS] JoJo","steam_id":76561197964137559,"connected_time":4000000000,"state":"spawning","ping":47},{"user_id":427,"name":"The Epic Adventure of Ben Dover","steam_id":76561198087464899,"connected_time":1092000000000,"state":"active","ping":85}]},{"server_id":401,"name":"Uncletopia | Atlanta | 4 | No Payload","name_short":"atl-4","host":"atl-1.us.uncletopia.com","port":27045,"enabled":true,"region":"us-east","cc":"us","latitude":33.753746,"longitude":-84.38633,"reserved":0,"last_update":"0001-01-01T00:00:00Z","name_a2s":"","protocol":0,"map":"","folder":"","game":"","app_id":0,"player_count":0,"max_players":0,"Bots":0,"server_type":"","server_os":"","password":false,"vac":false,"version":"","steam_id":0,"keywords":null,"game_id":0,"stv_port":0,"stv_name":"","players":null},{"server_id":2,"name":"Uncletopia | Chicago | 1 | All Maps","name_short":"chi-1","host":"chi-1.us.uncletopia.com","port":27015,"enabled":true,"region":"us-central","cc":"us","latitude":41.881832,"longitude":-87.62318,"reserved":0,"last_update":"0001-01-01T00:00:00Z","name_a2s":"Uncletopia | Chicago | 1 | All Maps","protocol":17,"map":"cp_sunshine","folder":"tf","game":"Team Fortress","app_id":440,"player_count":24,"max_players":24,"Bots":0,"server_type":"Dedicated","server_os":"Linux","password":true,"vac":true,"version":"7757534","steam_id":85568392924469984,"keywords":["cp","nocrits","nodmgspread","uncletopia"],"game_id":440,"stv_port":27016,"stv_name":"Uncletopia | Chicago | 1 | All Maps | STV","players":[{"user_id":720,"name":"the deadliest pyroshark","steam_id":76561198374227766,"connected_time":12796000000000,"state":"active","ping":72},{"user_id":819,"name":"Big Phony","steam_id":76561199092395311,"connected_time":3029000000000,"state":"active","ping":63},{"user_id":771,"name":"LegendaryMister151","steam_id":76561198064890524,"connected_time":8600000000000,"state":"active","ping":87},{"user_id":808,"name":"tired monke","steam_id":76561199013246567,"connected_time":4288000000000,"state":"active","ping":72},{"user_id":841,"name":"Cleric","steam_id":76561198045887994,"connected_time":369000000000,"state":"active","ping":46},{"user_id":816,"name":"Benjamin G. Seagull","steam_id":76561198118320365,"connected_time":3444000000000,"state":"active","ping":101},{"user_id":773,"name":"blob","steam_id":76561198122375328,"connected_time":8334000000000,"state":"active","ping":66},{"user_id":817,"name":"Fuegan Ra","steam_id":76561198287923849,"connected_time":3435000000000,"state":"active","ping":49},{"user_id":742,"name":"no way","steam_id":76561198082496000,"connected_time":11401000000000,"state":"active","ping":83},{"user_id":834,"name":"JuanPonchoGringo™","steam_id":76561198038046899,"connected_time":1319000000000,"state":"active","ping":86},{"user_id":826,"name":"defs","steam_id":76561198134813102,"connected_time":1568000000000,"state":"active","ping":57},{"user_id":837,"name":"Lord Scrubling","steam_id":76561198263744445,"connected_time":1010000000000,"state":"active","ping":73},{"user_id":813,"name":"Protato","steam_id":76561198061182563,"connected_time":3462000000000,"state":"active","ping":71},{"user_id":833,"name":"KingEgamer_03","steam_id":76561199283258364,"connected_time":1338000000000,"state":"active","ping":66},{"user_id":827,"name":"ADrunkCaliburn","steam_id":76561198390889014,"connected_time":1566000000000,"state":"active","ping":66},{"user_id":800,"name":"Baka!⑨⑨⑨⑨","steam_id":76561198152948254,"connected_time":4815000000000,"state":"active","ping":72},{"user_id":842,"name":"pablo","steam_id":76561198395577807,"connected_time":250000000000,"state":"active","ping":55},{"user_id":832,"name":"Sage","steam_id":76561198143101697,"connected_time":1373000000000,"state":"active","ping":96},{"user_id":825,"name":"Bolty","steam_id":76561198084199165,"connected_time":1600000000000,"state":"active","ping":86},{"user_id":776,"name":"wiiblob","steam_id":76561198109106242,"connected_time":7900000000000,"state":"active","ping":146},{"user_id":840,"name":"The SUPER COOOOOOL Klonoa","steam_id":76561198258126130,"connected_time":652000000000,"state":"active","ping":89},{"user_id":814,"name":"violetcassette","steam_id":76561199028224555,"connected_time":3457000000000,"state":"active","ping":113},{"user_id":829,"name":"Critscare","steam_id":76561198087712508,"connected_time":1558000000000,"state":"active","ping":40},{"user_id":770,"name":"gps","steam_id":76561198067492304,"connected_time":8613000000000,"state":"active","ping":81}]},{"server_id":106,"name":"Uncletopia | Chicago | 2 | All Maps","name_short":"chi-2","host":"chi-1.us.uncletopia.com","port":27025,"enabled":true,"region":"us-central","cc":"us","latitude":41.881832,"longitude":-87.62318,"reserved":0,"last_update":"0001-01-01T00:00:00Z","name_a2s":"Uncletopia | Chicago | 2 | All Maps","protocol":17,"map":"pl_borneo","folder":"tf","game":"Team Fortress","app_id":440,"player_count":24,"max_players":24,"Bots":0,"server_type":"Dedicated","server_os":"Linux","password":true,"vac":true,"version":"7757534","steam_id":85568392924469985,"keywords":["nocrits","nodmgspread","payload","uncletopia"],"game_id":440,"stv_port":27026,"stv_name":"Uncletopia | Chicago | 2 | All Maps | STV","players":[{"user_id":587,"name":"goldenninja76","steam_id":76561198123341944,"connected_time":569000000000,"state":"active","ping":81},{"user_id":548,"name":"MagnumX","steam_id":76561198259103096,"connected_time":5294000000000,"state":"active","ping":54},{"user_id":574,"name":"deepmeta","steam_id":76561199053600691,"connected_time":2818000000000,"state":"active","ping":61},{"user_id":523,"name":"muzikelretifhbr","steam_id":76561198445169719,"connected_time":7349000000000,"state":"active","ping":109},{"user_id":584,"name":"brr skibidi dop dop dop","steam_id":76561198991982630,"connected_time":776000000000,"state":"active","ping":56},{"user_id":528,"name":"Skeleton Hotel","steam_id":76561198041704727,"connected_time":6888000000000,"state":"active","ping":55},{"user_id":536,"name":"e0e0","steam_id":76561198293839750,"connected_time":6747000000000,"state":"active","ping":66},{"user_id":585,"name":"Ros","steam_id":76561199055963822,"connected_time":766000000000,"state":"active","ping":78},{"user_id":522,"name":"PinkLemonade","steam_id":76561198799286228,"connected_time":7397000000000,"state":"active","ping":66},{"user_id":591,"name":"Chromatic Bliss","steam_id":76561198252604816,"connected_time":335000000000,"state":"active","ping":71},{"user_id":569,"name":"Bap","steam_id":76561198056717319,"connected_time":3164000000000,"state":"active","ping":54},{"user_id":586,"name":"Mexican Immigrant","steam_id":76561198387341089,"connected_time":760000000000,"state":"active","ping":115},{"user_id":494,"name":"❤ Ashley ❤","steam_id":76561198056428303,"connected_time":10020000000000,"state":"active","ping":102},{"user_id":572,"name":"basil","steam_id":76561198075758026,"connected_time":2864000000000,"state":"active","ping":96},{"user_id":508,"name":"Xavibite","steam_id":76561198209380493,"connected_time":9259000000000,"state":"active","ping":60},{"user_id":590,"name":"Gachalover","steam_id":76561199231552074,"connected_time":380000000000,"state":"active","ping":1147},{"user_id":541,"name":"chanoc","steam_id":76561198026734746,"connected_time":6076000000000,"state":"active","ping":104},{"user_id":589,"name":"Master Of Whales","steam_id":76561198349104889,"connected_time":407000000000,"state":"active","ping":111},{"user_id":580,"name":"Awildrock","steam_id":76561198040401086,"connected_time":1563000000000,"state":"active","ping":84},{"user_id":581,"name":"smores.gaming.2012","steam_id":76561198079416036,"connected_time":1302000000000,"state":"active","ping":45},{"user_id":567,"name":"Soundproof","steam_id":76561198133392504,"connected_time":3490000000000,"state":"active","ping":55},{"user_id":562,"name":"Green™","steam_id":76561198136522734,"connected_time":3801000000000,"state":"active","ping":61},{"user_id":524,"name":"ZombieSkeletor2","steam_id":76561198244937990,"connected_time":7157000000000,"state":"active","ping":111},{"user_id":570,"name":"sam!!! :)","steam_id":76561198217362968,"connected_time":2885000000000,"state":"active","ping":62}]},{"server_id":402,"name":"Uncletopia | Chicago | 3 | All Maps","name_short":"chi-3","host":"chi-1.us.uncletopia.com","port":27035,"enabled":true,"region":"us-central","cc":"us","latitude":41.881832,"longitude":-87.62318,"reserved":0,"last_update":"0001-01-01T00:00:00Z","name_a2s":"Uncletopia | Chicago | 3 | All Maps","protocol":17,"map":"pl_pier","folder":"tf","game":"Team Fortress","app_id":440,"player_count":24,"max_players":24,"Bots":0,"server_type":"Dedicated","server_os":"Linux","password":true,"vac":true,"version":"7757534","steam_id":85568392924515191,"keywords":["nocrits","nodmgspread","payload","uncletopia"],"game_id":440,"stv_port":27036,"stv_name":"Uncletopia | Chicago | 3 | All Maps | STV","players":[{"user_id":272,"name":"Funkadilla","steam_id":76561198420639264,"connected_time":2317000000000,"state":"active","ping":86},{"user_id":262,"name":"Zero","steam_id":76561199383267408,"connected_time":3195000000000,"state":"active","ping":70},{"user_id":276,"name":"boob","steam_id":76561198117256239,"connected_time":1921000000000,"state":"active","ping":47},{"user_id":300,"name":"DannyGamerXD","steam_id":76561198799224408,"connected_time":460000000000,"state":"active","ping":67},{"user_id":301,"name":"JetZ","steam_id":76561199122488957,"connected_time":446000000000,"state":"active","ping":62},{"user_id":126,"name":"you are loved","steam_id":76561198108524571,"connected_time":14047000000000,"state":"active","ping":70},{"user_id":297,"name":"math","steam_id":76561198056105936,"connected_time":632000000000,"state":"active","ping":69},{"user_id":128,"name":"kairOs.fk","steam_id":76561197972421260,"connected_time":13989000000000,"state":"active","ping":60},{"user_id":298,"name":"OneFestiveCorvid","steam_id":76561199012953221,"connected_time":616000000000,"state":"active","ping":82},{"user_id":267,"name":"DAS SCHNITZELSTIEN","steam_id":76561198051137159,"connected_time":2970000000000,"state":"active","ping":98},{"user_id":279,"name":"Captain Scoundrel","steam_id":76561198412322703,"connected_time":1902000000000,"state":"active","ping":79},{"user_id":285,"name":"healthy boundaries","steam_id":76561198025760608,"connected_time":1438000000000,"state":"active","ping":65},{"user_id":273,"name":"fallacy","steam_id":76561198057374871,"connected_time":2310000000000,"state":"active","ping":62},{"user_id":254,"name":"e doctor","steam_id":76561198081851446,"connected_time":3712000000000,"state":"active","ping":45},{"user_id":274,"name":"cooltool21","steam_id":76561197996817585,"connected_time":2202000000000,"state":"active","ping":81},{"user_id":271,"name":"Dirtbike rider","steam_id":76561198030457066,"connected_time":2857000000000,"state":"active","ping":86},{"user_id":255,"name":"Billy McChucks","steam_id":76561198062189578,"connected_time":3707000000000,"state":"active","ping":60},{"user_id":299,"name":"Skeech","steam_id":76561198119215388,"connected_time":589000000000,"state":"active","ping":94},{"user_id":265,"name":"Harold","steam_id":76561198057317770,"connected_time":3054000000000,"state":"active","ping":92},{"user_id":286,"name":"Yuhh","steam_id":76561199112894955,"connected_time":1356000000000,"state":"active","ping":75},{"user_id":219,"name":"GatorAIDS","steam_id":76561198043220092,"connected_time":6852000000000,"state":"active","ping":85},{"user_id":275,"name":"Red Shift","steam_id":76561198057517699,"connected_time":1952000000000,"state":"active","ping":124},{"user_id":289,"name":"nvm_","steam_id":76561198843128678,"connected_time":1108000000000,"state":"active","ping":45},{"user_id":295,"name":"sandvichgame","steam_id":76561199106118824,"connected_time":679000000000,"state":"active","ping":89}]},{"server_id":403,"name":"Uncletopia | Chicago | 4 | All Maps","name_short":"chi-4","host":"chi-1.us.uncletopia.com","port":27045,"enabled":true,"region":"us-central","cc":"us","latitude":41.881832,"longitude":-87.62318,"reserved":0,"last_update":"0001-01-01T00:00:00Z","name_a2s":"Uncletopia | Chicago | 4 | All Maps","protocol":17,"map":"pl_upward","folder":"tf","game":"Team Fortress","app_id":440,"player_count":22,"max_players":24,"Bots":0,"server_type":"Dedicated","server_os":"Linux","password":true,"vac":true,"version":"7757534","steam_id":85568392924515193,"keywords":["nocrits","nodmgspread","payload","uncletopia"],"game_id":440,"stv_port":27046,"stv_name":"Uncletopia | Chicago | 4 | All Maps | STV","players":[{"user_id":764,"name":"!Larry","steam_id":76561199091114207,"connected_time":185000000000,"state":"spawning","ping":109},{"user_id":700,"name":"dyce_\u003c33","steam_id":76561199273443432,"connected_time":4025000000000,"state":"spawning","ping":67},{"user_id":733,"name":"KevCraft","steam_id":76561199000622939,"connected_time":1911000000000,"state":"spawning","ping":86},{"user_id":726,"name":"cokersworld","steam_id":76561198039731344,"connected_time":2694000000000,"state":"spawning","ping":83},{"user_id":758,"name":"Nickel D","steam_id":76561197993588996,"connected_time":641000000000,"state":"spawning","ping":62},{"user_id":749,"name":"Viking Seagull","steam_id":76561198806994127,"connected_time":1477000000000,"state":"spawning","ping":69},{"user_id":763,"name":"Gandalf Gaming","steam_id":76561198368151490,"connected_time":303000000000,"state":"spawning","ping":61},{"user_id":736,"name":"noddlethenoodle","steam_id":76561198303850923,"connected_time":1737000000000,"state":"spawning","ping":40},{"user_id":754,"name":"SpockterWho","steam_id":76561198146653460,"connected_time":1346000000000,"state":"spawning","ping":94},{"user_id":742,"name":"Dan798","steam_id":76561198070218108,"connected_time":1548000000000,"state":"spawning","ping":119},{"user_id":745,"name":"The Hentai God","steam_id":76561198045809671,"connected_time":1532000000000,"state":"spawning","ping":107},{"user_id":760,"name":"Project Dusk","steam_id":76561198193521149,"connected_time":453000000000,"state":"spawning","ping":231},{"user_id":699,"name":"King Col","steam_id":76561198033384990,"connected_time":4140000000000,"state":"spawning","ping":57},{"user_id":743,"name":"E5895","steam_id":76561198061268921,"connected_time":1544000000000,"state":"spawning","ping":103},{"user_id":750,"name":"Mef","steam_id":76561198247400482,"connected_time":1463000000000,"state":"spawning","ping":51},{"user_id":755,"name":"Icy","steam_id":76561199209930492,"connected_time":1277000000000,"state":"spawning","ping":72},{"user_id":747,"name":"Vem","steam_id":76561198117273112,"connected_time":1518000000000,"state":"spawning","ping":63},{"user_id":768,"name":"_fish_","steam_id":76561199010436232,"connected_time":30000000000,"state":"spawning","ping":102},{"user_id":751,"name":"Spooky","steam_id":76561198018189270,"connected_time":1449000000000,"state":"spawning","ping":169},{"user_id":757,"name":"ConnectedUser","steam_id":76561199126217062,"connected_time":768000000000,"state":"spawning","ping":40},{"user_id":753,"name":"chiswola","steam_id":76561198046920142,"connected_time":1392000000000,"state":"spawning","ping":65},{"user_id":766,"name":"⛧","steam_id":76561198021308963,"connected_time":131000000000,"state":"active","ping":304}]},{"server_id":36,"name":"Uncletopia | Chicago | 5 | All Maps","name_short":"chi-5","host":"chi-2.us.uncletopia.com","port":27015,"enabled":true,"region":"us-central","cc":"us","latitude":41.881832,"longitude":-87.62318,"reserved":0,"last_update":"0001-01-01T00:00:00Z","name_a2s":"Uncletopia | Chicago | 5 | All Maps","protocol":17,"map":"koth_viaduct","folder":"tf","game":"Team Fortress","app_id":440,"player_count":24,"max_players":24,"Bots":0,"server_type":"Dedicated","server_os":"Linux","password":true,"vac":true,"version":"7757534","steam_id":85568392924866362,"keywords":["cp","nocrits","nodmgspread","uncletopia"],"game_id":440,"stv_port":27016,"stv_name":"Uncletopia | Chicago | 5 | All Maps | STV","players":[{"user_id":889,"name":"galunga","steam_id":76561198027184320,"connected_time":3681000000000,"state":"active","ping":56},{"user_id":921,"name":"squaggles!","steam_id":76561197994995011,"connected_time":1217000000000,"state":"active","ping":58},{"user_id":910,"name":"L'Jarius Sneed","steam_id":76561198059575962,"connected_time":2217000000000,"state":"active","ping":54},{"user_id":922,"name":"Blobulonn","steam_id":76561198247949502,"connected_time":1108000000000,"state":"active","ping":47},{"user_id":915,"name":"Chuck Finley","steam_id":76561198027411284,"connected_time":1570000000000,"state":"active","ping":70},{"user_id":931,"name":"Barney Calhoun Enjoyer","steam_id":76561198049419309,"connected_time":864000000000,"state":"active","ping":78},{"user_id":934,"name":"uzr","steam_id":76561198799343084,"connected_time":320000000000,"state":"active","ping":105},{"user_id":912,"name":"shephield","steam_id":76561197965111567,"connected_time":1664000000000,"state":"active","ping":74},{"user_id":932,"name":"Dr. Pleasant","steam_id":76561198111945101,"connected_time":671000000000,"state":"active","ping":71},{"user_id":916,"name":"Soju","steam_id":76561198044130442,"connected_time":1471000000000,"state":"active","ping":78},{"user_id":917,"name":"nelly modelo","steam_id":76561198044875206,"connected_time":1428000000000,"state":"active","ping":92},{"user_id":897,"name":"SaucySandwichKid","steam_id":76561199372590934,"connected_time":2768000000000,"state":"active","ping":78},{"user_id":935,"name":"rumes","steam_id":76561198349219467,"connected_time":193000000000,"state":"active","ping":90},{"user_id":920,"name":"TheIronFluff","steam_id":76561197961122533,"connected_time":1260000000000,"state":"active","ping":80},{"user_id":924,"name":"jolo","steam_id":76561198042831480,"connected_time":1066000000000,"state":"active","ping":69},{"user_id":925,"name":"Communist Killing Candy Cactus\ufffd","steam_id":76561198074980635,"connected_time":1054000000000,"state":"active","ping":135},{"user_id":937,"name":"BigDogStatus","steam_id":76561198393184741,"connected_time":73000000000,"state":"active","ping":89},{"user_id":936,"name":"Tusk","steam_id":76561199066977033,"connected_time":105000000000,"state":"active","ping":71},{"user_id":818,"name":"the","steam_id":76561198311446636,"connected_time":7759000000000,"state":"active","ping":62},{"user_id":900,"name":"joethefool","steam_id":76561199015436319,"connected_time":2712000000000,"state":"active","ping":71},{"user_id":883,"name":"Marc Antony","steam_id":76561198011366517,"connected_time":4125000000000,"state":"active","ping":59},{"user_id":819,"name":"cabbage enthusiast","steam_id":76561198049221816,"connected_time":7750000000000,"state":"active","ping":85},{"user_id":933,"name":"Slashes","steam_id":76561197968573499,"connected_time":633000000000,"state":"active","ping":59},{"user_id":903,"name":"ContinuedBear","steam_id":76561198265176919,"connected_time":2651000000000,"state":"active","ping":60}]},{"server_id":37,"name":"Uncletopia | Chicago | 6 | All Maps","name_short":"chi-6","host":"chi-2.us.uncletopia.com","port":27025,"enabled":true,"region":"us-central","cc":"us","latitude":41.881832,"longitude":-87.62318,"reserved":0,"last_update":"0001-01-01T00:00:00Z","name_a2s":"Uncletopia | Chicago | 6 | All Maps","protocol":17,"map":"koth_harvest_final","folder":"tf","game":"Team Fortress","app_id":440,"player_count":18,"max_players":24,"Bots":0,"server_type":"Dedicated","server_os":"Linux","password":true,"vac":true,"version":"7757534","steam_id":85568392924866363,"keywords":["cp","nocrits","nodmgspread","uncletopia"],"game_id":440,"stv_port":27026,"stv_name":"Uncletopia | Chicago | 6 | All Maps | STV","players":[{"user_id":346,"name":"\u003c3Elise\u003c3","steam_id":76561198146435005,"connected_time":458000000000,"state":"active","ping":75},{"user_id":347,"name":"Heppeh","steam_id":76561198068049507,"connected_time":98000000000,"state":"active","ping":75},{"user_id":293,"name":"The_Skull_boy","steam_id":76561198227692664,"connected_time":3885000000000,"state":"active","ping":113},{"user_id":348,"name":"Patisserie","steam_id":76561198239169752,"connected_time":78000000000,"state":"active","ping":44},{"user_id":255,"name":"pumby","steam_id":76561198273915351,"connected_time":6083000000000,"state":"active","ping":73},{"user_id":294,"name":"relay","steam_id":76561198314662811,"connected_time":3804000000000,"state":"active","ping":90},{"user_id":254,"name":"Tannenbaum Trotsky","steam_id":76561199101638460,"connected_time":6145000000000,"state":"active","ping":60},{"user_id":301,"name":"IItsPrimeTime","steam_id":76561199140401867,"connected_time":3685000000000,"state":"active","ping":171},{"user_id":350,"name":"Nen","steam_id":76561198893347370,"connected_time":41000000000,"state":"active","ping":116},{"user_id":324,"name":"Dispenser (Twan)","steam_id":76561197991064908,"connected_time":2320000000000,"state":"active","ping":60},{"user_id":260,"name":"magickxanadu","steam_id":76561199117360103,"connected_time":5894000000000,"state":"active","ping":105},{"user_id":316,"name":"--_Cook_--","steam_id":76561198080855748,"connected_time":2750000000000,"state":"active","ping":46},{"user_id":303,"name":"Brainrot","steam_id":76561198069185888,"connected_time":3425000000000,"state":"active","ping":71},{"user_id":331,"name":"Young-OG","steam_id":76561198058800479,"connected_time":1931000000000,"state":"active","ping":133},{"user_id":338,"name":"WhoIsFrosty","steam_id":76561198880588117,"connected_time":1080000000000,"state":"active","ping":88},{"user_id":345,"name":"MusicMishapsTTV","steam_id":76561198373095861,"connected_time":798000000000,"state":"active","ping":83},{"user_id":333,"name":"[PINGU™] Tiny Tuna","steam_id":76561198193611579,"connected_time":1918000000000,"state":"active","ping":81},{"user_id":343,"name":"Dog Deodorant","steam_id":76561199225832228,"connected_time":994000000000,"state":"active","ping":101}]},{"server_id":38,"name":"Uncletopia | Chicago | 7 | Stopwatch Beta","name_short":"chi-7","host":"chi-2.us.uncletopia.com","port":27035,"enabled":true,"region":"us-central","cc":"us","latitude":41.881832,"longitude":-87.62318,"reserved":0,"last_update":"0001-01-01T00:00:00Z","name_a2s":"Uncletopia | Chicago | 7 | Stopwatch Beta","protocol":17,"map":"pl_upward","folder":"tf","game":"Team Fortress","app_id":440,"player_count":0,"max_players":24,"Bots":0,"server_type":"Dedicated","server_os":"Linux","password":true,"vac":true,"version":"7757534","steam_id":85568392924866364,"keywords":["nocrits","nodmgspread","payload","uncletopia"],"game_id":440,"stv_port":27036,"stv_name":"Uncletopia | Chicago | 7 | Stopwatch Beta | STV","players":null},{"server_id":39,"name":"Uncletopia | Chicago | 8 | Community","name_short":"chi-8","host":"chi-2.us.uncletopia.com","port":27045,"enabled":true,"region":"us-central","cc":"us","latitude":41.881832,"longitude":-87.62318,"reserved":0,"last_update":"0001-01-01T00:00:00Z","name_a2s":"Uncletopia | Chicago | 8 | Community","protocol":17,"map":"workshop/cp_hazyfort_rc6.ugc1365963729","folder":"tf","game":"Team Fortress","app_id":440,"player_count":6,"max_players":24,"Bots":0,"server_type":"Dedicated","server_os":"Linux","password":true,"vac":true,"version":"7757534","steam_id":85568392924866365,"keywords":["cp","nocrits","nodmgspread","uncletopia"],"game_id":440,"stv_port":27046,"stv_name":"Uncletopia | Chicago | 8 | Community | STV","players":[{"user_id":567,"name":"PinguEnjoyer6","steam_id":76561199186723516,"connected_time":852000000000,"state":"spawning","ping":560},{"user_id":569,"name":"Bo the cat","steam_id":76561199101114950,"connected_time":577000000000,"state":"active","ping":79},{"user_id":576,"name":"gato","steam_id":76561198097588802,"connected_time":12000000000,"state":"spawning","ping":89},{"user_id":558,"name":"Juri Han","steam_id":76561198041678517,"connected_time":1728000000000,"state":"active","ping":91},{"user_id":574,"name":"therapist","steam_id":76561198985073952,"connected_time":191000000000,"state":"active","ping":67},{"user_id":575,"name":"Buster","steam_id":76561198877054240,"connected_time":143000000000,"state":"active","ping":56}]},{"server_id":8,"name":"Uncletopia | Dallas | 1 | All Maps","name_short":"dal-1","host":"dal-1.us.uncletopia.com","port":27015,"enabled":true,"region":"us-central","cc":"us","latitude":32.779167,"longitude":-96.80889,"reserved":0,"last_update":"0001-01-01T00:00:00Z","name_a2s":"Uncletopia | Dallas | 1 | All Maps","protocol":17,"map":"pl_upward","folder":"tf","game":"Team Fortress","app_id":440,"player_count":24,"max_players":24,"Bots":0,"server_type":"Dedicated","server_os":"Linux","password":true,"vac":true,"version":"7757534","steam_id":85568392924469986,"keywords":["nocrits","nodmgspread","payload","uncletopia"],"game_id":440,"stv_port":27016,"stv_name":"Uncletopia | Dallas | 1 | All Maps | STV","players":[{"user_id":510,"name":"super","steam_id":76561198800358844,"connected_time":3024000000000,"state":"active","ping":67},{"user_id":522,"name":"firestabber","steam_id":76561198057055577,"connected_time":2260000000000,"state":"active","ping":91},{"user_id":544,"name":"FearTheJynx","steam_id":76561198136487957,"connected_time":22000000000,"state":"active","ping":73},{"user_id":528,"name":"Rainy","steam_id":76561198079005286,"connected_time":1797000000000,"state":"active","ping":61},{"user_id":537,"name":"fernadosilverio12345","steam_id":76561198334839699,"connected_time":1236000000000,"state":"active","ping":104},{"user_id":452,"name":"Joe Swanson","steam_id":76561199089907740,"connected_time":7829000000000,"state":"active","ping":67},{"user_id":541,"name":"StarBrigade","steam_id":76561198150224428,"connected_time":783000000000,"state":"active","ping":90},{"user_id":493,"name":"SleepyTimes","steam_id":76561198883645873,"connected_time":4842000000000,"state":"active","ping":75},{"user_id":529,"name":"gasparmx","steam_id":76561197998611994,"connected_time":1794000000000,"state":"active","ping":85},{"user_id":494,"name":"Kioxik","steam_id":76561198240081498,"connected_time":4841000000000,"state":"active","ping":108},{"user_id":521,"name":"Justy","steam_id":76561198044014069,"connected_time":2340000000000,"state":"active","ping":60},{"user_id":513,"name":"Danny Zeta","steam_id":76561198071280648,"connected_time":3003000000000,"state":"active","ping":71},{"user_id":523,"name":"Spaghetti Cat","steam_id":76561198027168510,"connected_time":2060000000000,"state":"active","ping":98},{"user_id":530,"name":"Fargo","steam_id":76561198044703931,"connected_time":1780000000000,"state":"active","ping":68},{"user_id":527,"name":"Greg Boberton 2012","steam_id":76561198983566026,"connected_time":1819000000000,"state":"active","ping":87},{"user_id":476,"name":"Lane","steam_id":76561197965828506,"connected_time":5738000000000,"state":"active","ping":59},{"user_id":531,"name":"The Professor","steam_id":76561198113760863,"connected_time":1752000000000,"state":"active","ping":76},{"user_id":491,"name":"Lt. Birb","steam_id":76561199086146261,"connected_time":5035000000000,"state":"active","ping":74},{"user_id":470,"name":"Cricket Girl!","steam_id":76561198838054669,"connected_time":6579000000000,"state":"active","ping":90},{"user_id":480,"name":"Royal Birb","steam_id":76561198124184158,"connected_time":5681000000000,"state":"active","ping":93},{"user_id":532,"name":"Cobalt","steam_id":76561198008296766,"connected_time":1750000000000,"state":"active","ping":83},{"user_id":535,"name":"cup","steam_id":76561198121245586,"connected_time":1328000000000,"state":"active","ping":80},{"user_id":542,"name":"Matella","steam_id":76561198097427947,"connected_time":609000000000,"state":"active","ping":129},{"user_id":543,"name":"t2infect","steam_id":76561198338255484,"connected_time":594000000000,"state":"active","ping":68}]},{"server_id":108,"name":"Uncletopia | Dallas | 2 | All Maps","name_short":"dal-2","host":"dal-1.us.uncletopia.com","port":27025,"enabled":true,"region":"us-central","cc":"us","latitude":32.779167,"longitude":-96.80889,"reserved":0,"last_update":"0001-01-01T00:00:00Z","name_a2s":"Uncletopia | Dallas | 2 | All Maps","protocol":17,"map":"cp_process_final","folder":"tf","game":"Team Fortress","app_id":440,"player_count":24,"max_players":24,"Bots":0,"server_type":"Dedicated","server_os":"Linux","password":true,"vac":true,"version":"7757534","steam_id":85568392924469988,"keywords":["cp","nocrits","nodmgspread","uncletopia"],"game_id":440,"stv_port":27026,"stv_name":"Uncletopia | Dallas | 2 | All Maps | STV","players":[{"user_id":336,"name":"orange rind (eating bagels)","steam_id":76561198130242461,"connected_time":1758000000000,"state":"active","ping":53},{"user_id":288,"name":"ashamed owner of a thin epiglot","steam_id":76561198010019214,"connected_time":6975000000000,"state":"active","ping":59},{"user_id":348,"name":"IronHeaver","steam_id":76561198044557973,"connected_time":338000000000,"state":"active","ping":115},{"user_id":345,"name":"Scum Knight","steam_id":76561198282444763,"connected_time":452000000000,"state":"active","ping":86},{"user_id":349,"name":"Hifumi Togo","steam_id":76561198074930636,"connected_time":289000000000,"state":"active","ping":60},{"user_id":298,"name":"fettuccine sequence","steam_id":76561198000564263,"connected_time":4952000000000,"state":"active","ping":72},{"user_id":337,"name":"B/S/SuperBoof","steam_id":76561197992030936,"connected_time":1749000000000,"state":"active","ping":79},{"user_id":290,"name":"java","steam_id":76561198030276792,"connected_time":6395000000000,"state":"active","ping":66},{"user_id":350,"name":"Hashbrowncow","steam_id":76561198272021902,"connected_time":267000000000,"state":"active","ping":89},{"user_id":343,"name":"Loashes","steam_id":76561198119608299,"connected_time":473000000000,"state":"active","ping":51},{"user_id":271,"name":"lanoc","steam_id":76561198055415367,"connected_time":7879000000000,"state":"active","ping":59},{"user_id":342,"name":"totally not a pile of beans","steam_id":76561198119851931,"connected_time":577000000000,"state":"active","ping":97},{"user_id":292,"name":"Onyx","steam_id":76561198275349640,"connected_time":6188000000000,"state":"active","ping":59},{"user_id":324,"name":"sammy","steam_id":76561199001307670,"connected_time":2812000000000,"state":"active","ping":102},{"user_id":347,"name":"trash beast","steam_id":76561198015792736,"connected_time":430000000000,"state":"active","ping":82},{"user_id":331,"name":"1/11 cream gankplank","steam_id":76561198298645133,"connected_time":1791000000000,"state":"active","ping":92},{"user_id":335,"name":"AlecTheNefarious","steam_id":76561198035291230,"connected_time":1775000000000,"state":"active","ping":48},{"user_id":314,"name":"proud owner of a large tongue","steam_id":76561198106690989,"connected_time":3844000000000,"state":"active","ping":90},{"user_id":338,"name":"kyso","steam_id":76561199011185438,"connected_time":1366000000000,"state":"active","ping":63},{"user_id":351,"name":"MasterGeek.MX","steam_id":76561198063355220,"connected_time":241000000000,"state":"active","ping":94},{"user_id":332,"name":"e","steam_id":76561198057299364,"connected_time":1786000000000,"state":"active","ping":105},{"user_id":329,"name":"clownbadd","steam_id":76561198078365520,"connected_time":2754000000000,"state":"active","ping":65},{"user_id":330,"name":"ChineeDump","steam_id":76561198137454631,"connected_time":2740000000000,"state":"active","ping":90},{"user_id":334,"name":"yomommasabitch","steam_id":76561198323217150,"connected_time":1784000000000,"state":"active","ping":41}]},{"server_id":5,"name":"Uncletopia | Frankfurt | 1 | All Maps","name_short":"frk-1","host":"frk-1.de.uncletopia.com","port":27015,"enabled":true,"region":"eu","cc":"de","latitude":50.110924,"longitude":8.682127,"reserved":0,"last_update":"0001-01-01T00:00:00Z","name_a2s":"Uncletopia | Frankfurt | 1 | All Maps","protocol":17,"map":"pl_barnblitz","folder":"tf","game":"Team Fortress","app_id":440,"player_count":10,"max_players":24,"Bots":0,"server_type":"Dedicated","server_os":"Linux","password":true,"vac":true,"version":"7757534","steam_id":85568392924469989,"keywords":["nocrits","nodmgspread","payload","uncletopia"],"game_id":440,"stv_port":27016,"stv_name":"Uncletopia | Frankfurt | 1 | All Maps | STV","players":[{"user_id":744,"name":"Economic crisis","steam_id":76561198063562843,"connected_time":426000000000,"state":"active","ping":46},{"user_id":745,"name":"K.V. #RemoveRandomCrits","steam_id":76561197994832993,"connected_time":166000000000,"state":"active","ping":66},{"user_id":746,"name":"ssukuleiber","steam_id":76561199332410546,"connected_time":101000000000,"state":"active","ping":161},{"user_id":681,"name":"Enigmus","steam_id":76561197994063627,"connected_time":6843000000000,"state":"active","ping":88},{"user_id":702,"name":"John Fortress","steam_id":76561198043743881,"connected_time":5183000000000,"state":"active","ping":45},{"user_id":732,"name":"Almond devourer","steam_id":76561198194866089,"connected_time":1908000000000,"state":"active","ping":76},{"user_id":733,"name":"engie?","steam_id":76561198331852832,"connected_time":1856000000000,"state":"active","ping":60},{"user_id":741,"name":"IlluminatedPixels","steam_id":76561198377590926,"connected_time":749000000000,"state":"active","ping":198},{"user_id":743,"name":"generic alias","steam_id":76561198052878585,"connected_time":512000000000,"state":"active","ping":129},{"user_id":716,"name":"Backup","steam_id":76561197999557567,"connected_time":3669000000000,"state":"active","ping":53}]},{"server_id":110,"name":"Uncletopia | Frankfurt | 2 | All Maps","name_short":"frk-2","host":"frk-1.de.uncletopia.com","port":27025,"enabled":true,"region":"eu","cc":"de","latitude":50.110924,"longitude":8.682127,"reserved":0,"last_update":"0001-01-01T00:00:00Z","name_a2s":"Uncletopia | Frankfurt | 2 | All Maps","protocol":17,"map":"pl_upward","folder":"tf","game":"Team Fortress","app_id":440,"player_count":0,"max_players":24,"Bots":0,"server_type":"Dedicated","server_os":"Linux","password":true,"vac":true,"version":"7757534","steam_id":85568392924469990,"keywords":["nocrits","nodmgspread","payload","uncletopia"],"game_id":440,"stv_port":27026,"stv_name":"Uncletopia | Frankfurt | 2 | All Maps | STV","players":null},{"server_id":308,"name":"Uncletopia | Frankfurt | 3 | All Maps","name_short":"frk-3","host":"frk-1.de.uncletopia.com","port":27035,"enabled":true,"region":"eu","cc":"de","latitude":50.110924,"longitude":8.682127,"reserved":0,"last_update":"0001-01-01T00:00:00Z","name_a2s":"Uncletopia | Frankfurt | 3 | All Maps","protocol":17,"map":"pl_pier","folder":"tf","game":"Team Fortress","app_id":440,"player_count":0,"max_players":24,"Bots":0,"server_type":"Dedicated","server_os":"Linux","password":true,"vac":true,"version":"7757534","steam_id":85568392924504274,"keywords":["nocrits","nodmgspread","payload","uncletopia"],"game_id":440,"stv_port":27036,"stv_name":"Uncletopia | Frankfurt | 3 | All Maps | STV","players":null},{"server_id":309,"name":"Uncletopia | Frankfurt | 4 | All Maps","name_short":"frk-4","host":"frk-1.de.uncletopia.com","port":27045,"enabled":true,"region":"eu","cc":"de","latitude":50.110924,"longitude":8.682127,"reserved":0,"last_update":"0001-01-01T00:00:00Z","name_a2s":"Uncletopia | Frankfurt | 4 | All Maps","protocol":17,"map":"koth_highpass","folder":"tf","game":"Team Fortress","app_id":440,"player_count":0,"max_players":24,"Bots":0,"server_type":"Dedicated","server_os":"Linux","password":true,"vac":true,"version":"7757534","steam_id":85568392924504275,"keywords":["cp","nocrits","nodmgspread","uncletopia"],"game_id":440,"stv_port":27046,"stv_name":"Uncletopia | Frankfurt | 4 | All Maps | STV","players":null},{"server_id":310,"name":"Uncletopia | Frankfurt | 5 | All Maps","name_short":"frk-5","host":"frk-1.de.uncletopia.com","port":27055,"enabled":true,"region":"eu","cc":"de","latitude":50.110924,"longitude":8.682127,"reserved":0,"last_update":"0001-01-01T00:00:00Z","name_a2s":"Uncletopia | Frankfurt | 5 | All Maps","protocol":17,"map":"pl_borneo","folder":"tf","game":"Team Fortress","app_id":440,"player_count":0,"max_players":24,"Bots":0,"server_type":"Dedicated","server_os":"Linux","password":true,"vac":true,"version":"7757534","steam_id":85568392924504277,"keywords":["nocrits","nodmgspread","payload","uncletopia"],"game_id":440,"stv_port":27056,"stv_name":"Uncletopia | Frankfurt | 5 | All Maps | STV","players":null},{"server_id":311,"name":"Uncletopia | Frankfurt | 6 | All Maps","name_short":"frk-6","host":"frk-1.de.uncletopia.com","port":27065,"enabled":true,"region":"eu","cc":"de","latitude":50.110924,"longitude":8.682127,"reserved":0,"last_update":"0001-01-01T00:00:00Z","name_a2s":"Uncletopia | Frankfurt | 6 | All Maps","protocol":17,"map":"koth_highpass","folder":"tf","game":"Team Fortress","app_id":440,"player_count":0,"max_players":24,"Bots":0,"server_type":"Dedicated","server_os":"Linux","password":true,"vac":true,"version":"7757534","steam_id":85568392924504278,"keywords":["cp","nocrits","nodmgspread","uncletopia"],"game_id":440,"stv_port":27066,"stv_name":"Uncletopia | Frankfurt | 6 | All Maps | STV","players":null},{"server_id":23,"name":"Uncletopia | Frankfurt | 7 | Stopwatch Beta","name_short":"frk-7","host":"frk-1.de.uncletopia.com","port":27075,"enabled":true,"region":"eu","cc":"de","latitude":50.110924,"longitude":8.682127,"reserved":0,"last_update":"0001-01-01T00:00:00Z","name_a2s":"Uncletopia | Frankfurt | 7 | Stopwatch Beta","protocol":17,"map":"pl_upward","folder":"tf","game":"Team Fortress","app_id":440,"player_count":0,"max_players":24,"Bots":0,"server_type":"Dedicated","server_os":"Linux","password":true,"vac":true,"version":"7757534","steam_id":85568392924742827,"keywords":["nocrits","nodmgspread","payload","uncletopia"],"game_id":440,"stv_port":27076,"stv_name":"Uncletopia | Frankfurt | 7 | Stopwatch Beta | STV","players":null},{"server_id":24,"name":"Uncletopia | Frankfurt | 8 | Community","name_short":"frk-8","host":"frk-1.de.uncletopia.com","port":27085,"enabled":true,"region":"eu","cc":"de","latitude":50.110924,"longitude":8.682127,"reserved":0,"last_update":"0001-01-01T00:00:00Z","name_a2s":"Uncletopia | Frankfurt | 8 | Community","protocol":17,"map":"workshop/koth_slaughter_rc1.ugc1712845210","folder":"tf","game":"Team Fortress","app_id":440,"player_count":0,"max_players":24,"Bots":0,"server_type":"Dedicated","server_os":"Linux","password":true,"vac":true,"version":"7757534","steam_id":85568392924742828,"keywords":["cp","nocrits","nodmgspread","uncletopia"],"game_id":440,"stv_port":27086,"stv_name":"Uncletopia | Frankfurt | 8 | Community | STV","players":null},{"server_id":202,"name":"Uncletopia | Hong Kong | 1 | All Maps","name_short":"hgk-1","host":"hgk-1.hk.uncletopia.com","port":27015,"enabled":true,"region":"asia","cc":"hk","latitude":22.302711,"longitude":114.177216,"reserved":0,"last_update":"0001-01-01T00:00:00Z","name_a2s":"Uncletopia | Hong Kong | 1 | All Maps","protocol":17,"map":"ctf_2fort","folder":"tf","game":"Team Fortress","app_id":440,"player_count":20,"max_players":24,"Bots":0,"server_type":"Dedicated","server_os":"Linux","password":true,"vac":true,"version":"7757534","steam_id":85568392924494504,"keywords":["ctf","nocrits","nodmgspread","uncletopia"],"game_id":440,"stv_port":27016,"stv_name":"Uncletopia | Hong Kong | 1 | All Maps | STV","players":[{"user_id":83,"name":"Mega 00F","steam_id":76561198962485791,"connected_time":1094000000000,"state":"active","ping":126},{"user_id":85,"name":"Corn_Archer","steam_id":76561199185044554,"connected_time":985000000000,"state":"active","ping":72},{"user_id":86,"name":"mongolian boy","steam_id":76561199443930358,"connected_time":944000000000,"state":"active","ping":102},{"user_id":49,"name":"screaming sniper","steam_id":76561199085568674,"connected_time":3837000000000,"state":"active","ping":71},{"user_id":95,"name":"some dumbass","steam_id":76561199407286736,"connected_time":178000000000,"state":"active","ping":163},{"user_id":22,"name":"killman47","steam_id":76561198348487408,"connected_time":5732000000000,"state":"active","ping":40},{"user_id":74,"name":"Wx","steam_id":76561199217780897,"connected_time":2401000000000,"state":"active","ping":120},{"user_id":55,"name":"sauceyert","steam_id":76561199085409122,"connected_time":3449000000000,"state":"active","ping":61},{"user_id":78,"name":"Kek","steam_id":76561199004616229,"connected_time":1786000000000,"state":"active","ping":101},{"user_id":87,"name":"jgjk05226","steam_id":76561199470278126,"connected_time":791000000000,"state":"active","ping":118},{"user_id":79,"name":"煙海 | Enkai","steam_id":76561198050460825,"connected_time":1709000000000,"state":"active","ping":71},{"user_id":57,"name":"ZeniaPY (Playing on Wacom)","steam_id":76561198404352831,"connected_time":3266000000000,"state":"active","ping":73},{"user_id":96,"name":"Tuco Ramírez","steam_id":76561198421773697,"connected_time":144000000000,"state":"active","ping":75},{"user_id":66,"name":"Miku831","steam_id":76561198162232044,"connected_time":2863000000000,"state":"active","ping":52},{"user_id":88,"name":"red_dyedegg","steam_id":76561199468346618,"connected_time":768000000000,"state":"active","ping":61},{"user_id":97,"name":"Ice Crack, Dude","steam_id":76561199445694770,"connected_time":101000000000,"state":"active","ping":137},{"user_id":91,"name":"Xenics Strom","steam_id":76561198086854877,"connected_time":705000000000,"state":"active","ping":90},{"user_id":93,"name":"Pizzas was eaten","steam_id":76561199387462436,"connected_time":665000000000,"state":"active","ping":61},{"user_id":98,"name":"donchezdonta","steam_id":76561198835851582,"connected_time":37000000000,"state":"active","ping":68},{"user_id":99,"name":"David Keithson","steam_id":76561199279393636,"connected_time":19000000000,"state":"spawning","ping":57}]},{"server_id":1,"name":"Uncletopia | Los Angeles | 1 | All Maps","name_short":"lax-1","host":"lax-1.us.uncletopia.com","port":27015,"enabled":true,"region":"us-west","cc":"us","latitude":33.94279,"longitude":-118.41004,"reserved":0,"last_update":"0001-01-01T00:00:00Z","name_a2s":"Uncletopia | Los Angeles | 1 | All Maps","protocol":17,"map":"cp_dustbowl","folder":"tf","game":"Team Fortress","app_id":440,"player_count":24,"max_players":24,"Bots":0,"server_type":"Dedicated","server_os":"Linux","password":true,"vac":true,"version":"7757534","steam_id":85568392924469991,"keywords":["cp","nocrits","nodmgspread","uncletopia"],"game_id":440,"stv_port":27016,"stv_name":"Uncletopia | Los Angeles | 1 | All Maps | STV","players":[{"user_id":390,"name":"c953","steam_id":76561198798981682,"connected_time":4662000000000,"state":"active","ping":115},{"user_id":421,"name":"cirno","steam_id":76561198166081596,"connected_time":2208000000000,"state":"active","ping":73},{"user_id":439,"name":"Nugakku","steam_id":76561198082346219,"connected_time":239000000000,"state":"active","ping":59},{"user_id":394,"name":"Veritox","steam_id":76561198075778026,"connected_time":4386000000000,"state":"active","ping":70},{"user_id":369,"name":"MoopStoop","steam_id":76561198140936620,"connected_time":5155000000000,"state":"active","ping":75},{"user_id":364,"name":"็็็็็","steam_id":76561198118859752,"connected_time":5369000000000,"state":"active","ping":45},{"user_id":425,"name":"Mom","steam_id":76561198207936000,"connected_time":1996000000000,"state":"active","ping":69},{"user_id":430,"name":"Lune","steam_id":76561198124572077,"connected_time":1467000000000,"state":"active","ping":96},{"user_id":431,"name":"Buswolley","steam_id":76561197995205571,"connected_time":1397000000000,"state":"active","ping":54},{"user_id":409,"name":"hoOmIN","steam_id":76561198334947079,"connected_time":2954000000000,"state":"active","ping":44},{"user_id":371,"name":"Sham Cow","steam_id":76561198064556977,"connected_time":5142000000000,"state":"active","ping":94},{"user_id":418,"name":"hotdog every meal","steam_id":76561198392514273,"connected_time":2409000000000,"state":"active","ping":79},{"user_id":410,"name":"Gimmick","steam_id":76561198065873462,"connected_time":2902000000000,"state":"active","ping":47},{"user_id":395,"name":"squid","steam_id":76561198070236972,"connected_time":4109000000000,"state":"active","ping":61},{"user_id":408,"name":"SpringIvan","steam_id":76561199133179509,"connected_time":3130000000000,"state":"active","ping":59},{"user_id":400,"name":"Resident Thrussy Lender","steam_id":76561198071790583,"connected_time":3520000000000,"state":"active","ping":118},{"user_id":438,"name":"NagitoTheLucky","steam_id":76561198065096327,"connected_time":324000000000,"state":"active","ping":60},{"user_id":436,"name":"Ash!❤","steam_id":76561198070398840,"connected_time":1076000000000,"state":"active","ping":74},{"user_id":401,"name":"Bada Bingus","steam_id":76561198046743307,"connected_time":3507000000000,"state":"active","ping":127},{"user_id":416,"name":"Quaker Oats","steam_id":76561197992800293,"connected_time":2509000000000,"state":"active","ping":120},{"user_id":435,"name":"spent 7 bucks for boba","steam_id":76561198319442494,"connected_time":1234000000000,"state":"active","ping":57},{"user_id":404,"name":"kaede","steam_id":76561198345528370,"connected_time":3446000000000,"state":"active","ping":55},{"user_id":437,"name":"Snaggletooth","steam_id":76561198043784995,"connected_time":736000000000,"state":"active","ping":68},{"user_id":406,"name":"bimbofication","steam_id":76561198290315229,"connected_time":3402000000000,"state":"active","ping":60}]},{"server_id":112,"name":"Uncletopia | Los Angeles | 2 | All Maps","name_short":"lax-2","host":"lax-1.us.uncletopia.com","port":27025,"enabled":true,"region":"us-west","cc":"us","latitude":33.94279,"longitude":-118.41004,"reserved":0,"last_update":"0001-01-01T00:00:00Z","name_a2s":"Uncletopia | Los Angeles | 2 | All Maps","protocol":17,"map":"pl_barnblitz","folder":"tf","game":"Team Fortress","app_id":440,"player_count":24,"max_players":24,"Bots":0,"server_type":"Dedicated","server_os":"Linux","password":true,"vac":true,"version":"7757534","steam_id":85568392924469992,"keywords":["nocrits","nodmgspread","payload","uncletopia"],"game_id":440,"stv_port":27026,"stv_name":"Uncletopia | Los Angeles | 2 | All Maps | STV","players":[{"user_id":399,"name":"topsilk420 Trade.tf","steam_id":76561198308903387,"connected_time":574000000000,"state":"active","ping":57},{"user_id":413,"name":"Lil' Urban Achiever","steam_id":76561197970450546,"connected_time":113000000000,"state":"active","ping":89},{"user_id":394,"name":"Wenlost","steam_id":76561198292026612,"connected_time":834000000000,"state":"active","ping":45},{"user_id":408,"name":"sara, boylady","steam_id":76561198283462369,"connected_time":399000000000,"state":"active","ping":45},{"user_id":407,"name":"oil","steam_id":76561198099980149,"connected_time":413000000000,"state":"active","ping":51},{"user_id":375,"name":"Measured Moth","steam_id":76561198043220089,"connected_time":2507000000000,"state":"active","ping":51},{"user_id":391,"name":"Dragonsalt","steam_id":76561198141927559,"connected_time":1026000000000,"state":"active","ping":78},{"user_id":355,"name":"Type Three Dabeetus","steam_id":76561198062710038,"connected_time":3358000000000,"state":"active","ping":60},{"user_id":414,"name":"FALRayne","steam_id":76561198113348816,"connected_time":108000000000,"state":"active","ping":78},{"user_id":397,"name":"jrd101721","steam_id":76561198154812975,"connected_time":646000000000,"state":"active","ping":60},{"user_id":359,"name":"Wiltshire","steam_id":76561198234176784,"connected_time":3224000000000,"state":"active","ping":75},{"user_id":412,"name":"the pest","steam_id":76561198097721532,"connected_time":135000000000,"state":"active","ping":45},{"user_id":381,"name":"Soap Man","steam_id":76561198000490235,"connected_time":2147000000000,"state":"active","ping":105},{"user_id":373,"name":"nothowon","steam_id":76561198937601452,"connected_time":2611000000000,"state":"active","ping":109},{"user_id":404,"name":"GreenApples","steam_id":76561198120559543,"connected_time":493000000000,"state":"active","ping":60},{"user_id":385,"name":"MrVegasAguitar","steam_id":76561198084466946,"connected_time":2007000000000,"state":"active","ping":118},{"user_id":367,"name":"kentuckyfriedsocks","steam_id":76561198311122883,"connected_time":2975000000000,"state":"active","ping":120},{"user_id":405,"name":"Dullahan","steam_id":76561198119668908,"connected_time":480000000000,"state":"active","ping":58},{"user_id":416,"name":"jrmadmallard","steam_id":76561198275994616,"connected_time":73000000000,"state":"active","ping":110},{"user_id":392,"name":"mao zedong","steam_id":76561199060687332,"connected_time":970000000000,"state":"active","ping":46},{"user_id":372,"name":"Sydney","steam_id":76561198797603297,"connected_time":2619000000000,"state":"active","ping":73},{"user_id":411,"name":"hakken","steam_id":76561199102391736,"connected_time":245000000000,"state":"active","ping":48},{"user_id":365,"name":"Cyberbreeze","steam_id":76561198148654069,"connected_time":3034000000000,"state":"active","ping":73},{"user_id":417,"name":"cyro","steam_id":76561198146241989,"connected_time":73000000000,"state":"spawning","ping":89}]},{"server_id":324,"name":"Uncletopia | Los Angeles | 3 | All Maps","name_short":"lax-3","host":"lax-1.us.uncletopia.com","port":27035,"enabled":true,"region":"us-west","cc":"us","latitude":33.94279,"longitude":-118.41004,"reserved":0,"last_update":"0001-01-01T00:00:00Z","name_a2s":"Uncletopia | Los Angeles | 3 | All Maps","protocol":17,"map":"pl_thundermountain","folder":"tf","game":"Team Fortress","app_id":440,"player_count":24,"max_players":24,"Bots":0,"server_type":"Dedicated","server_os":"Linux","password":true,"vac":true,"version":"7757534","steam_id":85568392924510198,"keywords":["nocrits","nodmgspread","payload","uncletopia"],"game_id":440,"stv_port":27036,"stv_name":"Uncletopia | Los Angeles | 3 | All Maps | STV","players":[{"user_id":369,"name":"Tintin's Hair","steam_id":76561198049006007,"connected_time":1169000000000,"state":"active","ping":61},{"user_id":348,"name":"Joshzu","steam_id":76561198200521137,"connected_time":2372000000000,"state":"active","ping":76},{"user_id":364,"name":"Phlog Roach","steam_id":76561198111154662,"connected_time":1786000000000,"state":"active","ping":83},{"user_id":260,"name":"Feel the bern","steam_id":76561198078824519,"connected_time":8227000000000,"state":"active","ping":82},{"user_id":367,"name":"Maid 'n' China","steam_id":76561198423392976,"connected_time":1241000000000,"state":"active","ping":62},{"user_id":351,"name":"Don Cheadle Lover","steam_id":76561198803762229,"connected_time":2269000000000,"state":"active","ping":111},{"user_id":358,"name":"Rubby","steam_id":76561198967446392,"connected_time":1960000000000,"state":"active","ping":52},{"user_id":320,"name":"Not A Rapper","steam_id":76561198077523537,"connected_time":4202000000000,"state":"active","ping":104},{"user_id":366,"name":"......","steam_id":76561198067612741,"connected_time":1343000000000,"state":"active","ping":71},{"user_id":333,"name":"Chalupa Jones","steam_id":76561198335855588,"connected_time":3404000000000,"state":"active","ping":48},{"user_id":352,"name":"Knooper","steam_id":76561198096149824,"connected_time":2247000000000,"state":"active","ping":73},{"user_id":334,"name":"My Pet Polar Bear","steam_id":76561198052902058,"connected_time":3224000000000,"state":"active","ping":46},{"user_id":338,"name":"mechanicvirus","steam_id":76561198038161480,"connected_time":2727000000000,"state":"active","ping":67},{"user_id":365,"name":"Otto","steam_id":76561198167371080,"connected_time":1692000000000,"state":"active","ping":126},{"user_id":372,"name":"big ol' buford","steam_id":76561198290675957,"connected_time":675000000000,"state":"active","ping":69},{"user_id":341,"name":"Frazzer","steam_id":76561198088679707,"connected_time":2568000000000,"state":"active","ping":47},{"user_id":375,"name":"Annual Raffle Nemesis \"Squiggle","steam_id":76561199375501871,"connected_time":494000000000,"state":"active","ping":57},{"user_id":343,"name":"Delimeat","steam_id":76561198043824595,"connected_time":2558000000000,"state":"active","ping":48},{"user_id":377,"name":"Hydroxianchaos","steam_id":76561198043786828,"connected_time":113000000000,"state":"active","ping":105},{"user_id":345,"name":"CitrusFizz","steam_id":76561198071157189,"connected_time":2552000000000,"state":"active","ping":79},{"user_id":353,"name":"Frank Accardi","steam_id":76561198017275707,"connected_time":2143000000000,"state":"active","ping":61},{"user_id":371,"name":"shoe","steam_id":76561198451476220,"connected_time":730000000000,"state":"active","ping":76},{"user_id":370,"name":"Speedy","steam_id":76561198080761661,"connected_time":1109000000000,"state":"active","ping":128},{"user_id":363,"name":"Adam Levine (Real)","steam_id":76561199199257149,"connected_time":1841000000000,"state":"active","ping":66}]},{"server_id":25,"name":"Uncletopia | Los Angeles | 4 | Stopwatch Beta","name_short":"lax-4","host":"lax-1.us.uncletopia.com","port":27045,"enabled":true,"region":"us-west","cc":"us","latitude":33.94279,"longitude":-118.41004,"reserved":0,"last_update":"0001-01-01T00:00:00Z","name_a2s":"Uncletopia | Los Angeles | 4 | Stopwatch Beta","protocol":17,"map":"pl_frontier_final","folder":"tf","game":"Team Fortress","app_id":440,"player_count":0,"max_players":24,"Bots":0,"server_type":"Dedicated","server_os":"Linux","password":true,"vac":true,"version":"7757534","steam_id":85568392924510199,"keywords":["nocrits","nodmgspread","payload","uncletopia"],"game_id":440,"stv_port":27046,"stv_name":"Uncletopia | Los Angeles | 4 | Stopwatch Beta | STV","players":null},{"server_id":11,"name":"Uncletopia | London | 1 | All Maps","name_short":"lon-1","host":"lon-1.uk.uncletopia.com","port":27015,"enabled":true,"region":"eu","cc":"gb","latitude":51.509865,"longitude":-0.118092,"reserved":0,"last_update":"0001-01-01T00:00:00Z","name_a2s":"Uncletopia | London | 1 | All Maps","protocol":17,"map":"koth_viaduct","folder":"tf","game":"Team Fortress","app_id":440,"player_count":0,"max_players":24,"Bots":0,"server_type":"Dedicated","server_os":"Linux","password":true,"vac":true,"version":"7757534","steam_id":85568392924367362,"keywords":["cp","nocrits","nodmgspread","uncletopia"],"game_id":440,"stv_port":27016,"stv_name":"Uncletopia | London | 1 | All Maps | STV","players":null},{"server_id":114,"name":"Uncletopia | London | 2 | All Maps","name_short":"lon-2","host":"lon-1.uk.uncletopia.com","port":27025,"enabled":true,"region":"eu","cc":"gb","latitude":51.509865,"longitude":-0.118092,"reserved":0,"last_update":"0001-01-01T00:00:00Z","name_a2s":"Uncletopia | London | 2 | All Maps","protocol":17,"map":"koth_lakeside_final","folder":"tf","game":"Team Fortress","app_id":440,"player_count":0,"max_players":24,"Bots":0,"server_type":"Dedicated","server_os":"Linux","password":true,"vac":true,"version":"7757534","steam_id":85568392924470941,"keywords":["cp","nocrits","nodmgspread","uncletopia"],"game_id":440,"stv_port":27026,"stv_name":"Uncletopia | London | 2 | All Maps | STV","players":null},{"server_id":320,"name":"Uncletopia | London | 3 | All Maps","name_short":"lon-3","host":"lon-1.uk.uncletopia.com","port":27035,"enabled":true,"region":"eu","cc":"gb","latitude":51.509865,"longitude":-0.118092,"reserved":0,"last_update":"0001-01-01T00:00:00Z","name_a2s":"Uncletopia | London | 3 | All Maps","protocol":17,"map":"koth_king","folder":"tf","game":"Team Fortress","app_id":440,"player_count":0,"max_players":24,"Bots":0,"server_type":"Dedicated","server_os":"Linux","password":true,"vac":true,"version":"7757534","steam_id":85568392924510192,"keywords":["cp","nocrits","nodmgspread","uncletopia"],"game_id":440,"stv_port":27036,"stv_name":"Uncletopia | London | 3 | All Maps | STV","players":null},{"server_id":321,"name":"Uncletopia | London | 4 | All Maps","name_short":"lon-4","host":"lon-1.uk.uncletopia.com","port":27045,"enabled":true,"region":"eu","cc":"gb","latitude":51.509865,"longitude":-0.118092,"reserved":0,"last_update":"0001-01-01T00:00:00Z","name_a2s":"Uncletopia | London | 4 | All Maps","protocol":17,"map":"koth_lakeside_final","folder":"tf","game":"Team Fortress","app_id":440,"player_count":0,"max_players":24,"Bots":0,"server_type":"Dedicated","server_os":"Linux","password":true,"vac":true,"version":"7757534","steam_id":85568392924510193,"keywords":["cp","nocrits","nodmgspread","uncletopia"],"game_id":440,"stv_port":27046,"stv_name":"Uncletopia | London | 4 | All Maps | STV","players":null},{"server_id":21,"name":"Uncletopia | London | 5 | All Maps","name_short":"lon-5","host":"lon-1.uk.uncletopia.com","port":27055,"enabled":true,"region":"eu","cc":"gb","latitude":51.509865,"longitude":-0.118092,"reserved":0,"last_update":"0001-01-01T00:00:00Z","name_a2s":"Uncletopia | London | 5 | All Maps","protocol":17,"map":"pl_barnblitz","folder":"tf","game":"Team Fortress","app_id":440,"player_count":0,"max_players":24,"Bots":0,"server_type":"Dedicated","server_os":"Linux","password":true,"vac":true,"version":"7757534","steam_id":85568392924742829,"keywords":["nocrits","nodmgspread","payload","uncletopia"],"game_id":440,"stv_port":27056,"stv_name":"Uncletopia | London | 5 | All Maps | STV","players":null},{"server_id":22,"name":"Uncletopia | London | 6 | All Maps","name_short":"lon-6","host":"lon-1.uk.uncletopia.com","port":27065,"enabled":true,"region":"eu","cc":"gb","latitude":51.509865,"longitude":-0.118092,"reserved":0,"last_update":"0001-01-01T00:00:00Z","name_a2s":"Uncletopia | London | 6 | All Maps","protocol":17,"map":"koth_viaduct","folder":"tf","game":"Team Fortress","app_id":440,"player_count":0,"max_players":24,"Bots":0,"server_type":"Dedicated","server_os":"Linux","password":true,"vac":true,"version":"7757534","steam_id":85568392924742830,"keywords":["cp","nocrits","nodmgspread","uncletopia"],"game_id":440,"stv_port":27066,"stv_name":"Uncletopia | London | 6 | All Maps | STV","players":null},{"server_id":40,"name":"Uncletopia | London | 7 | No Payload","name_short":"lon-7","host":"lon-1.uk.uncletopia.com","port":27075,"enabled":true,"region":"eu","cc":"gb","latitude":51.509865,"longitude":-0.118092,"reserved":0,"last_update":"0001-01-01T00:00:00Z","name_a2s":"Uncletopia | London | 7 | No Payload","protocol":17,"map":"ctf_turbine","folder":"tf","game":"Team Fortress","app_id":440,"player_count":0,"max_players":24,"Bots":0,"server_type":"Dedicated","server_os":"Linux","password":true,"vac":true,"version":"7757534","steam_id":85568392924964314,"keywords":["ctf","nocrits","nodmgspread","uncletopia"],"game_id":440,"stv_port":27076,"stv_name":"Uncletopia | London | 7 | No Payload | STV","players":null},{"server_id":41,"name":"Uncletopia | London | 8 | Community","name_short":"lon-8","host":"lon-1.uk.uncletopia.com","port":27085,"enabled":true,"region":"eu","cc":"gb","latitude":51.509865,"longitude":-0.118092,"reserved":0,"last_update":"0001-01-01T00:00:00Z","name_a2s":"Uncletopia | London | 8 | Community","protocol":17,"map":"workshop/koth_ashville_final.ugc2130459942","folder":"tf","game":"Team Fortress","app_id":440,"player_count":0,"max_players":24,"Bots":0,"server_type":"Dedicated","server_os":"Linux","password":true,"vac":true,"version":"7757534","steam_id":85568392924964315,"keywords":["cp","nocrits","nodmgspread","uncletopia"],"game_id":440,"stv_port":27086,"stv_name":"Uncletopia | London | 8 | Community | STV","players":null},{"server_id":300,"name":"Uncletopia | Montréal | 1 | All Maps","name_short":"mtl-1","host":"mtl-1.ca.uncletopia.com","port":27015,"enabled":true,"region":"us-east","cc":"ca","latitude":45.50889,"longitude":-73.56167,"reserved":0,"last_update":"0001-01-01T00:00:00Z","name_a2s":"Uncletopia | Montréal | 1 | All Maps","protocol":17,"map":"koth_lakeside_final","folder":"tf","game":"Team Fortress","app_id":440,"player_count":0,"max_players":24,"Bots":0,"server_type":"Dedicated","server_os":"Linux","password":true,"vac":true,"version":"7757534","steam_id":85568392924500087,"keywords":["cp","nocrits","nodmgspread","uncletopia"],"game_id":440,"stv_port":27016,"stv_name":"Uncletopia | Montréal | 1 | All Maps | STV","players":null},{"server_id":301,"name":"Uncletopia | Montréal | 2 | All Maps","name_short":"mtl-2","host":"mtl-1.ca.uncletopia.com","port":27025,"enabled":true,"region":"us-east","cc":"ca","latitude":45.50889,"longitude":-73.56167,"reserved":0,"last_update":"0001-01-01T00:00:00Z","name_a2s":"Uncletopia | Montréal | 2 | All Maps","protocol":17,"map":"koth_cascade","folder":"tf","game":"Team Fortress","app_id":440,"player_count":0,"max_players":24,"Bots":0,"server_type":"Dedicated","server_os":"Linux","password":true,"vac":true,"version":"7757534","steam_id":85568392924500088,"keywords":["cp","nocrits","nodmgspread","uncletopia"],"game_id":440,"stv_port":27026,"stv_name":"Uncletopia | Montréal | 2 | All Maps | STV","players":null},{"server_id":302,"name":"Uncletopia | Montréal | 3 | All Maps","name_short":"mtl-3","host":"mtl-1.ca.uncletopia.com","port":27035,"enabled":true,"region":"us-east","cc":"ca","latitude":45.50889,"longitude":-73.56167,"reserved":0,"last_update":"0001-01-01T00:00:00Z","name_a2s":"Uncletopia | Montréal | 3 | All Maps","protocol":17,"map":"ctf_turbine","folder":"tf","game":"Team Fortress","app_id":440,"player_count":21,"max_players":24,"Bots":0,"server_type":"Dedicated","server_os":"Linux","password":true,"vac":true,"version":"7757534","steam_id":85568392924500089,"keywords":["ctf","nocrits","nodmgspread","uncletopia"],"game_id":440,"stv_port":27036,"stv_name":"Uncletopia | Montréal | 3 | All Maps | STV","players":[{"user_id":166,"name":"really annoying spy player","steam_id":76561198178650483,"connected_time":1671000000000,"state":"active","ping":104},{"user_id":187,"name":"EatSomeBEES","steam_id":76561198047334307,"connected_time":247000000000,"state":"active","ping":137},{"user_id":113,"name":"uVeins","steam_id":76561198067445528,"connected_time":4823000000000,"state":"active","ping":44},{"user_id":167,"name":"Scoobert","steam_id":76561198255705632,"connected_time":1642000000000,"state":"active","ping":51},{"user_id":176,"name":"TheConchinator","steam_id":76561199388149092,"connected_time":1018000000000,"state":"active","ping":73},{"user_id":169,"name":"Pepsiman","steam_id":76561198436946165,"connected_time":1550000000000,"state":"active","ping":67},{"user_id":188,"name":"Outer","steam_id":76561199121781498,"connected_time":243000000000,"state":"active","ping":131},{"user_id":192,"name":"implyDoods","steam_id":76561198856320759,"connected_time":196000000000,"state":"active","ping":127},{"user_id":191,"name":"guyinatophat51","steam_id":76561198180230694,"connected_time":204000000000,"state":"active","ping":56},{"user_id":162,"name":"Clean Lines","steam_id":76561197960691518,"connected_time":1816000000000,"state":"active","ping":44},{"user_id":185,"name":"Medic","steam_id":76561198023443251,"connected_time":712000000000,"state":"active","ping":86},{"user_id":193,"name":"BigDogStatus","steam_id":76561198393184741,"connected_time":144000000000,"state":"connecting","ping":0},{"user_id":186,"name":"faxxy","steam_id":76561198079621240,"connected_time":662000000000,"state":"active","ping":59},{"user_id":194,"name":"AnonTron","steam_id":76561199031895493,"connected_time":82000000000,"state":"active","ping":311},{"user_id":195,"name":"Sire Salty","steam_id":76561198079639072,"connected_time":46000000000,"state":"spawning","ping":61},{"user_id":178,"name":"Six","steam_id":76561198052472822,"connected_time":989000000000,"state":"active","ping":64},{"user_id":196,"name":"heimdall","steam_id":76561198069380992,"connected_time":37000000000,"state":"active","ping":102},{"user_id":197,"name":"Anhkrehg","steam_id":76561197963201684,"connected_time":9000000000,"state":"spawning","ping":65},{"user_id":111,"name":"Huskenator","steam_id":76561198272907401,"connected_time":5253000000000,"state":"active","ping":56},{"user_id":129,"name":"Vivi","steam_id":76561198132698345,"connected_time":4067000000000,"state":"active","ping":45},{"user_id":184,"name":"Katzenwerfer","steam_id":76561198345464748,"connected_time":790000000000,"state":"active","ping":115}]},{"server_id":303,"name":"Uncletopia | Montréal | 4 | No Payload","name_short":"mtl-4","host":"mtl-1.ca.uncletopia.com","port":27045,"enabled":true,"region":"us-east","cc":"ca","latitude":45.50889,"longitude":-73.56167,"reserved":0,"last_update":"0001-01-01T00:00:00Z","name_a2s":"Uncletopia | Montréal | 4 | No Payload","protocol":17,"map":"koth_viaduct","folder":"tf","game":"Team Fortress","app_id":440,"player_count":0,"max_players":24,"Bots":0,"server_type":"Dedicated","server_os":"Linux","password":true,"vac":true,"version":"7757534","steam_id":85568392924500090,"keywords":["cp","nocrits","nodmgspread","uncletopia"],"game_id":440,"stv_port":27046,"stv_name":"Uncletopia | Montréal | 4 | No Payload | STV","players":null},{"server_id":13,"name":"Uncletopia | New York City | 1 | All Maps","name_short":"nyc-1","host":"nyc-1.us.uncletopia.com","port":27015,"enabled":true,"region":"us-east","cc":"us","latitude":40.73061,"longitude":-73.93524,"reserved":0,"last_update":"0001-01-01T00:00:00Z","name_a2s":"Uncletopia | New York City | 1 | All Maps","protocol":17,"map":"plr_pipeline","folder":"tf","game":"Team Fortress","app_id":440,"player_count":23,"max_players":24,"Bots":0,"server_type":"Dedicated","server_os":"Linux","password":true,"vac":true,"version":"7757534","steam_id":85568392924469993,"keywords":["nocrits","nodmgspread","payload","uncletopia"],"game_id":440,"stv_port":27016,"stv_name":"Uncletopia | New York City | 1 | All Maps | STV","players":[{"user_id":597,"name":"kritik","steam_id":76561198075216115,"connected_time":4336000000000,"state":"active","ping":156},{"user_id":640,"name":"Cigmax","steam_id":76561198023188465,"connected_time":241000000000,"state":"active","ping":79},{"user_id":570,"name":"Strange Festive Femboy","steam_id":76561198050385093,"connected_time":5996000000000,"state":"active","ping":62},{"user_id":637,"name":"AGuyNamedSteve","steam_id":76561198254309951,"connected_time":286000000000,"state":"active","ping":59},{"user_id":639,"name":"Frajer","steam_id":76561198059129680,"connected_time":249000000000,"state":"active","ping":70},{"user_id":643,"name":"Yuzu","steam_id":76561198417913035,"connected_time":213000000000,"state":"active","ping":66},{"user_id":610,"name":"Socialism Enjoyer","steam_id":76561197991817974,"connected_time":3387000000000,"state":"active","ping":127},{"user_id":642,"name":"CreeperCatBengal","steam_id":76561198213193221,"connected_time":227000000000,"state":"active","ping":61},{"user_id":611,"name":"catgirl giantess in heat","steam_id":76561198439042583,"connected_time":3325000000000,"state":"active","ping":88},{"user_id":634,"name":"Cash","steam_id":76561198066362201,"connected_time":529000000000,"state":"active","ping":70},{"user_id":612,"name":"Wilhelmktx","steam_id":76561198158102295,"connected_time":3323000000000,"state":"active","ping":75},{"user_id":632,"name":"Goldbug","steam_id":76561198025221202,"connected_time":784000000000,"state":"active","ping":121},{"user_id":626,"name":"boo_thefeared","steam_id":76561198127967685,"connected_time":1537000000000,"state":"active","ping":120},{"user_id":623,"name":"Mooop","steam_id":76561199091800420,"connected_time":2123000000000,"state":"active","ping":64},{"user_id":645,"name":"nalapl3","steam_id":76561198197607383,"connected_time":171000000000,"state":"active","ping":137},{"user_id":630,"name":"cart simpson","steam_id":76561198047689205,"connected_time":1051000000000,"state":"active","ping":45},{"user_id":635,"name":"Sexy Corpses in Your Area!","steam_id":76561197983081411,"connected_time":318000000000,"state":"active","ping":89},{"user_id":613,"name":"moodi catgirl","steam_id":76561198124028045,"connected_time":3094000000000,"state":"active","ping":56},{"user_id":644,"name":"ADHDking","steam_id":76561198116099017,"connected_time":199000000000,"state":"active","ping":45},{"user_id":628,"name":"The Drunk Rat Bastard","steam_id":76561198994667208,"connected_time":1501000000000,"state":"active","ping":76},{"user_id":601,"name":"Uncle Majic the Hip Hop Magicia","steam_id":76561198107924303,"connected_time":3936000000000,"state":"active","ping":30},{"user_id":572,"name":"Rockguy21","steam_id":76561198121303359,"connected_time":5948000000000,"state":"active","ping":69},{"user_id":624,"name":"Give Life Back to Music","steam_id":76561199059257565,"connected_time":1955000000000,"state":"active","ping":108}]},{"server_id":14,"name":"Uncletopia | New York City | 2 | All Maps","name_short":"nyc-2","host":"nyc-1.us.uncletopia.com","port":27025,"enabled":true,"region":"us-east","cc":"us","latitude":40.73061,"longitude":-73.93524,"reserved":0,"last_update":"0001-01-01T00:00:00Z","name_a2s":"Uncletopia | New York City | 2 | All Maps","protocol":17,"map":"pl_borneo","folder":"tf","game":"Team Fortress","app_id":440,"player_count":24,"max_players":24,"Bots":0,"server_type":"Dedicated","server_os":"Linux","password":true,"vac":true,"version":"7757534","steam_id":85568392924469994,"keywords":["nocrits","nodmgspread","payload","uncletopia"],"game_id":440,"stv_port":27026,"stv_name":"Uncletopia | New York City | 2 | All Maps | STV","players":[{"user_id":449,"name":"requischerrysmack115","steam_id":76561199453841197,"connected_time":1872000000000,"state":"active","ping":82},{"user_id":487,"name":"DazzlingMaggot","steam_id":76561197972716928,"connected_time":311000000000,"state":"active","ping":68},{"user_id":444,"name":"goodheartchris","steam_id":76561198045836210,"connected_time":2253000000000,"state":"active","ping":79},{"user_id":481,"name":"Kepi","steam_id":76561198795923860,"connected_time":780000000000,"state":"active","ping":54},{"user_id":450,"name":"Sapphireblitz","steam_id":76561198272635379,"connected_time":1867000000000,"state":"active","ping":60},{"user_id":390,"name":"Sir Quacksalot","steam_id":76561198048942777,"connected_time":6873000000000,"state":"active","ping":99},{"user_id":475,"name":"Bother","steam_id":76561198336750909,"connected_time":1047000000000,"state":"active","ping":40},{"user_id":398,"name":"the real babytron","steam_id":76561197989627918,"connected_time":5684000000000,"state":"active","ping":71},{"user_id":453,"name":"Dundee","steam_id":76561198079713343,"connected_time":1786000000000,"state":"active","ping":98},{"user_id":489,"name":"big boyardee","steam_id":76561198073269122,"connected_time":128000000000,"state":"active","ping":45},{"user_id":473,"name":"Landjrin","steam_id":76561198415410003,"connected_time":1076000000000,"state":"active","ping":119},{"user_id":474,"name":"LordGooch","steam_id":76561198968335919,"connected_time":1073000000000,"state":"active","ping":113},{"user_id":466,"name":"fast","steam_id":76561198311704368,"connected_time":1381000000000,"state":"active","ping":59},{"user_id":456,"name":"Momma_Milky123","steam_id":76561199149697526,"connected_time":1674000000000,"state":"active","ping":124},{"user_id":457,"name":"Best_Garbage","steam_id":76561199070436446,"connected_time":1658000000000,"state":"active","ping":70},{"user_id":427,"name":"Pozyomka","steam_id":76561198086331015,"connected_time":3174000000000,"state":"active","ping":33},{"user_id":389,"name":"Braamklauw","steam_id":76561198283287697,"connected_time":7175000000000,"state":"active","ping":137},{"user_id":468,"name":"Ripley","steam_id":76561198080766916,"connected_time":1361000000000,"state":"active","ping":67},{"user_id":459,"name":"JHorse","steam_id":76561198106418032,"connected_time":1636000000000,"state":"active","ping":89},{"user_id":464,"name":"Snugboo","steam_id":76561198147970327,"connected_time":1408000000000,"state":"active","ping":39},{"user_id":477,"name":"DiscoTraveler","steam_id":76561199240168088,"connected_time":956000000000,"state":"active","ping":35},{"user_id":462,"name":"WitheringLeo","steam_id":76561198046722918,"connected_time":1543000000000,"state":"active","ping":58},{"user_id":488,"name":"Jaggi Meister","steam_id":76561198074923157,"connected_time":297000000000,"state":"active","ping":113},{"user_id":485,"name":"Sprinklingmydoughnut","steam_id":76561198168009092,"connected_time":515000000000,"state":"active","ping":69}]},{"server_id":15,"name":"Uncletopia | New York City | 3 | Stopwatch Beta","name_short":"nyc-3","host":"nyc-1.us.uncletopia.com","port":27035,"enabled":true,"region":"us-east","cc":"us","latitude":40.73061,"longitude":-73.93524,"reserved":0,"last_update":"0001-01-01T00:00:00Z","name_a2s":"Uncletopia | New York City | 3 | Stopwatch Beta","protocol":17,"map":"workshop/koth_ramjam_rc1.ugc459778887","folder":"tf","game":"Team Fortress","app_id":440,"player_count":0,"max_players":24,"Bots":0,"server_type":"Dedicated","server_os":"Linux","password":true,"vac":true,"version":"7757534","steam_id":85568392924742820,"keywords":["cp","nocrits","nodmgspread","uncletopia"],"game_id":440,"stv_port":27036,"stv_name":"Uncletopia | New York City | 3 | Stopwatch Beta | STV","players":null},{"server_id":16,"name":"Uncletopia | New York City | 4 | Community","name_short":"nyc-4","host":"nyc-1.us.uncletopia.com","port":27045,"enabled":true,"region":"us-east","cc":"us","latitude":40.73061,"longitude":-73.93524,"reserved":0,"last_update":"0001-01-01T00:00:00Z","name_a2s":"Uncletopia | New York City | 4 | Community","protocol":17,"map":"workshop/pl_badwater_pro_v12.ugc2142942074","folder":"tf","game":"Team Fortress","app_id":440,"player_count":0,"max_players":24,"Bots":0,"server_type":"Dedicated","server_os":"Linux","password":true,"vac":true,"version":"7757534","steam_id":85568392924742821,"keywords":["nocrits","nodmgspread","payload","uncletopia"],"game_id":440,"stv_port":27046,"stv_name":"Uncletopia | New York City | 4 | Community | STV","players":null},{"server_id":142,"name":"Uncletopia | São Paulo | 1 | All Maps","name_short":"sao-1","host":"sao-1.br.uncletopia.com","port":27015,"enabled":true,"region":"sa","cc":"br","latitude":-23.533773,"longitude":-46.62529,"reserved":0,"last_update":"0001-01-01T00:00:00Z","name_a2s":"Uncletopia | São Paulo | 1 | All Maps","protocol":17,"map":"koth_viaduct","folder":"tf","game":"Team Fortress","app_id":440,"player_count":0,"max_players":24,"Bots":0,"server_type":"Dedicated","server_os":"Linux","password":true,"vac":true,"version":"7757534","steam_id":85568392924469996,"keywords":["cp","nocrits","nodmgspread","uncletopia"],"game_id":440,"stv_port":27016,"stv_name":"Uncletopia | São Paulo | 1 | All Maps | STV","players":null},{"server_id":143,"name":"Uncletopia | São Paulo | 2 | All Maps","name_short":"sao-2","host":"sao-2.br.uncletopia.com","port":27015,"enabled":true,"region":"sa","cc":"br","latitude":-23.533773,"longitude":-46.62529,"reserved":0,"last_update":"0001-01-01T00:00:00Z","name_a2s":"Uncletopia | São Paulo | 2 | All Maps","protocol":17,"map":"koth_lakeside_final","folder":"tf","game":"Team Fortress","app_id":440,"player_count":0,"max_players":24,"Bots":0,"server_type":"Dedicated","server_os":"Linux","password":true,"vac":true,"version":"7757534","steam_id":85568392924485349,"keywords":["cp","nocrits","nodmgspread","uncletopia"],"game_id":440,"stv_port":27016,"stv_name":"Uncletopia | São Paulo | 2 | All Maps | STV","players":null},{"server_id":7,"name":"Uncletopia | Seattle | 1 | All Maps","name_short":"sea-1","host":"sea-1.us.uncletopia.com","port":27015,"enabled":true,"region":"us-west","cc":"us","latitude":47.608013,"longitude":-122.33517,"reserved":0,"last_update":"0001-01-01T00:00:00Z","name_a2s":"Uncletopia | Seattle | 1 | All Maps","protocol":17,"map":"pl_barnblitz","folder":"tf","game":"Team Fortress","app_id":440,"player_count":25,"max_players":24,"Bots":0,"server_type":"Dedicated","server_os":"Linux","password":true,"vac":true,"version":"7757534","steam_id":85568392924469997,"keywords":["nocrits","nodmgspread","payload","uncletopia"],"game_id":440,"stv_port":27016,"stv_name":"Uncletopia | Seattle | 1 | All Maps | STV","players":[{"user_id":590,"name":"[GUT] RiDiK®","steam_id":76561197969756446,"connected_time":5805000000000,"state":"active","ping":89},{"user_id":614,"name":"Pneumo.","steam_id":76561197987911883,"connected_time":1314000000000,"state":"active","ping":70},{"user_id":613,"name":"keithykeithers (mirror hands)","steam_id":76561197995552615,"connected_time":1315000000000,"state":"active","ping":48},{"user_id":576,"name":"HaphazardHazel","steam_id":76561198316812693,"connected_time":7097000000000,"state":"active","ping":135},{"user_id":606,"name":"blinkerton city","steam_id":76561198054270410,"connected_time":2649000000000,"state":"active","ping":58},{"user_id":612,"name":"Banzailizard","steam_id":76561197986785469,"connected_time":2099000000000,"state":"active","ping":81},{"user_id":599,"name":"NEBULA","steam_id":76561198086878595,"connected_time":4783000000000,"state":"active","ping":73},{"user_id":581,"name":"Mignyanne :3","steam_id":76561198048754056,"connected_time":5989000000000,"state":"active","ping":63},{"user_id":602,"name":"soup","steam_id":76561198043209046,"connected_time":3913000000000,"state":"active","ping":84},{"user_id":501,"name":"Lord Hater","steam_id":76561199158148782,"connected_time":12613000000000,"state":"active","ping":54},{"user_id":634,"name":"shane","steam_id":76561198060491451,"connected_time":872000000000,"state":"active","ping":116},{"user_id":582,"name":"TROY","steam_id":76561197983852176,"connected_time":5921000000000,"state":"active","ping":77},{"user_id":593,"name":"amoeba","steam_id":76561198970261784,"connected_time":5242000000000,"state":"active","ping":52},{"user_id":564,"name":"Tom Skirrett","steam_id":76561198014600788,"connected_time":8236000000000,"state":"active","ping":74},{"user_id":605,"name":"ShredMaan","steam_id":76561198429982138,"connected_time":2803000000000,"state":"active","ping":89},{"user_id":574,"name":"jacix3 [gay wolfgirl]{she/it}","steam_id":76561198205004165,"connected_time":7373000000000,"state":"active","ping":67},{"user_id":609,"name":"bbbbb","steam_id":76561198095480838,"connected_time":2563000000000,"state":"active","ping":45},{"user_id":591,"name":"jungus","steam_id":76561198129862008,"connected_time":5494000000000,"state":"active","ping":78},{"user_id":685,"name":"p9 dilf","steam_id":76561199041179985,"connected_time":330000000000,"state":"active","ping":71},{"user_id":572,"name":"Archimedes!","steam_id":76561199446023933,"connected_time":7660000000000,"state":"active","ping":86},{"user_id":598,"name":"Admiral Crumbs","steam_id":76561198108791583,"connected_time":4786000000000,"state":"active","ping":57},{"user_id":683,"name":"〣dust〣 -she/her-","steam_id":76561198045218909,"connected_time":511000000000,"state":"active","ping":42},{"user_id":616,"name":"Sam","steam_id":76561198146472900,"connected_time":1242000000000,"state":"active","ping":70},{"user_id":601,"name":"der","steam_id":76561198060762287,"connected_time":4184000000000,"state":"active","ping":52},{"user_id":586,"name":"lavender","steam_id":76561199069518286,"connected_time":5883000000000,"state":"active","ping":78}]},{"server_id":119,"name":"Uncletopia | Seattle | 2 | All Maps","name_short":"sea-2","host":"sea-1.us.uncletopia.com","port":27025,"enabled":true,"region":"us-west","cc":"us","latitude":47.608013,"longitude":-122.33517,"reserved":0,"last_update":"0001-01-01T00:00:00Z","name_a2s":"Uncletopia | Seattle | 2 | All Maps","protocol":17,"map":"koth_sawmill","folder":"tf","game":"Team Fortress","app_id":440,"player_count":24,"max_players":24,"Bots":0,"server_type":"Dedicated","server_os":"Linux","password":true,"vac":true,"version":"7757534","steam_id":85568392924469998,"keywords":["cp","nocrits","nodmgspread","uncletopia"],"game_id":440,"stv_port":27026,"stv_name":"Uncletopia | Seattle | 2 | All Maps | STV","players":[{"user_id":562,"name":"Riske","steam_id":76561198115840568,"connected_time":47000000000,"state":"active","ping":117},{"user_id":548,"name":"strong and healthy gamer","steam_id":76561198049489349,"connected_time":1645000000000,"state":"active","ping":59},{"user_id":563,"name":"The Population of Sweden","steam_id":76561198202201644,"connected_time":46000000000,"state":"active","ping":39},{"user_id":459,"name":"m1","steam_id":76561198004133638,"connected_time":8882000000000,"state":"active","ping":122},{"user_id":566,"name":"DrD","steam_id":76561198067266383,"connected_time":22000000000,"state":"active","ping":37},{"user_id":560,"name":"mub","steam_id":76561197961943948,"connected_time":489000000000,"state":"active","ping":42},{"user_id":511,"name":"Grant","steam_id":76561198059313367,"connected_time":4008000000000,"state":"active","ping":41},{"user_id":536,"name":"goldhed","steam_id":76561198051751133,"connected_time":2791000000000,"state":"active","ping":62},{"user_id":552,"name":"DK360","steam_id":76561198796783094,"connected_time":1225000000000,"state":"active","ping":58},{"user_id":543,"name":"❤♡･ﾟBubbles･ﾟ♡❤","steam_id":76561198041057042,"connected_time":1885000000000,"state":"active","ping":90},{"user_id":528,"name":"[DATS➡] Sugar Meowth","steam_id":76561197995251793,"connected_time":3529000000000,"state":"active","ping":36},{"user_id":561,"name":"Gary, 40, soul sucking 9-5","steam_id":76561198073812888,"connected_time":57000000000,"state":"active","ping":46},{"user_id":557,"name":"Moth","steam_id":76561198170253694,"connected_time":737000000000,"state":"active","ping":64},{"user_id":564,"name":"Milk","steam_id":76561198796215640,"connected_time":46000000000,"state":"active","ping":54},{"user_id":565,"name":"Major Rabbit","steam_id":76561198086047613,"connected_time":43000000000,"state":"spawning","ping":135},{"user_id":550,"name":"Dealer","steam_id":76561198801450794,"connected_time":1609000000000,"state":"active","ping":95},{"user_id":553,"name":"Indefiable","steam_id":76561198219238953,"connected_time":954000000000,"state":"active","ping":46},{"user_id":480,"name":"bash -lc ./asshat.sh","steam_id":76561198004584315,"connected_time":7588000000000,"state":"active","ping":90},{"user_id":551,"name":"Google","steam_id":76561198857237473,"connected_time":1514000000000,"state":"active","ping":45},{"user_id":487,"name":"The Best Healer","steam_id":76561198079452621,"connected_time":6524000000000,"state":"active","ping":55},{"user_id":506,"name":"O","steam_id":76561198450073779,"connected_time":4900000000000,"state":"active","ping":42},{"user_id":529,"name":"Chalks","steam_id":76561198045978275,"connected_time":3521000000000,"state":"active","ping":77},{"user_id":542,"name":"mmmBoyo","steam_id":76561198821360261,"connected_time":2046000000000,"state":"active","ping":49},{"user_id":558,"name":"Goat","steam_id":76561198130683707,"connected_time":736000000000,"state":"active","ping":75}]},{"server_id":406,"name":"Uncletopia | Seattle | 3 | Stopwatch Beta","name_short":"sea-3","host":"sea-1.us.uncletopia.com","port":27035,"enabled":true,"region":"us-west","cc":"us","latitude":47.608013,"longitude":-122.33517,"reserved":0,"last_update":"0001-01-01T00:00:00Z","name_a2s":"Uncletopia | Seattle | 3 | Stopwatch Beta","protocol":17,"map":"pl_borneo","folder":"tf","game":"Team Fortress","app_id":440,"player_count":0,"max_players":24,"Bots":0,"server_type":"Dedicated","server_os":"Linux","password":true,"vac":true,"version":"7757534","steam_id":85568392924515217,"keywords":["nocrits","nodmgspread","payload","uncletopia"],"game_id":440,"stv_port":27036,"stv_name":"Uncletopia | Seattle | 3 | Stopwatch Beta | STV","players":null},{"server_id":17,"name":"Uncletopia | San Francisco | 1 | All Maps","name_short":"sfo-1","host":"sfo-1.us.uncletopia.com","port":27015,"enabled":true,"region":"us-west","cc":"us","latitude":37.77397,"longitude":-122.4313,"reserved":0,"last_update":"0001-01-01T00:00:00Z","name_a2s":"Uncletopia | San Francisco | 1 | All Maps","protocol":17,"map":"pl_borneo","folder":"tf","game":"Team Fortress","app_id":440,"player_count":24,"max_players":24,"Bots":0,"server_type":"Dedicated","server_os":"Linux","password":true,"vac":true,"version":"7757534","steam_id":85568392924469999,"keywords":["nocrits","nodmgspread","payload","uncletopia"],"game_id":440,"stv_port":27016,"stv_name":"Uncletopia | San Francisco | 1 | All Maps | STV","players":[{"user_id":346,"name":"buggy schlap","steam_id":76561198978665598,"connected_time":4360000000000,"state":"active","ping":30},{"user_id":188,"name":"Kraftlos","steam_id":76561198074350350,"connected_time":16719000000000,"state":"active","ping":120},{"user_id":388,"name":"Colonel Chikara","steam_id":76561198010021087,"connected_time":973000000000,"state":"active","ping":53},{"user_id":395,"name":"FOOL","steam_id":76561198370866973,"connected_time":312000000000,"state":"active","ping":76},{"user_id":373,"name":"Aurifex","steam_id":76561198151843849,"connected_time":2378000000000,"state":"active","ping":48},{"user_id":396,"name":"lana_del_Rei.com","steam_id":76561198172447621,"connected_time":280000000000,"state":"active","ping":53},{"user_id":390,"name":"dubba (•̀_•́ )","steam_id":76561199428471192,"connected_time":611000000000,"state":"active","ping":76},{"user_id":367,"name":"SvicidalBug","steam_id":76561198221390504,"connected_time":3143000000000,"state":"active","ping":81},{"user_id":375,"name":"helloyes_123","steam_id":76561198184669555,"connected_time":2312000000000,"state":"active","ping":55},{"user_id":397,"name":"big man","steam_id":76561198338622737,"connected_time":268000000000,"state":"active","ping":149},{"user_id":385,"name":"Swag5","steam_id":76561198065311356,"connected_time":1123000000000,"state":"active","ping":49},{"user_id":387,"name":"Swag6","steam_id":76561198064110837,"connected_time":1075000000000,"state":"active","ping":47},{"user_id":377,"name":"TeriyakiDynamite","steam_id":76561198050049346,"connected_time":2305000000000,"state":"active","ping":67},{"user_id":384,"name":"3neutral","steam_id":76561198196919359,"connected_time":1185000000000,"state":"active","ping":73},{"user_id":67,"name":"Uncle Feathers McGraw","steam_id":76561198046442707,"connected_time":24867000000000,"state":"active","ping":61},{"user_id":398,"name":"Blades_87","steam_id":76561198150870338,"connected_time":254000000000,"state":"active","ping":109},{"user_id":371,"name":"Kylar","steam_id":76561198196979431,"connected_time":2993000000000,"state":"active","ping":78},{"user_id":389,"name":"Gabe","steam_id":76561198081153719,"connected_time":876000000000,"state":"active","ping":59},{"user_id":386,"name":"Eadguy","steam_id":76561198029852831,"connected_time":1108000000000,"state":"active","ping":83},{"user_id":368,"name":"Mysteryred12","steam_id":76561199206772814,"connected_time":3091000000000,"state":"active","ping":73},{"user_id":391,"name":"WalkinMan","steam_id":76561198047941142,"connected_time":592000000000,"state":"active","ping":38},{"user_id":344,"name":"Livin' Like Larry","steam_id":76561198313360974,"connected_time":4562000000000,"state":"active","ping":41},{"user_id":358,"name":"Burgie","steam_id":76561198066425198,"connected_time":3986000000000,"state":"active","ping":72},{"user_id":366,"name":"Invisorum","steam_id":76561198051902115,"connected_time":3162000000000,"state":"active","ping":144}]},{"server_id":18,"name":"Uncletopia | San Francisco | 2 | All Maps","name_short":"sfo-2","host":"sfo-1.us.uncletopia.com","port":27025,"enabled":true,"region":"us-west","cc":"us","latitude":37.77397,"longitude":-122.4313,"reserved":0,"last_update":"0001-01-01T00:00:00Z","name_a2s":"Uncletopia | San Francisco | 2 | All Maps","protocol":17,"map":"cp_process_final","folder":"tf","game":"Team Fortress","app_id":440,"player_count":0,"max_players":24,"Bots":0,"server_type":"Dedicated","server_os":"Linux","password":true,"vac":true,"version":"7757534","steam_id":85568392924470000,"keywords":["cp","nocrits","nodmgspread","uncletopia"],"game_id":440,"stv_port":27026,"stv_name":"Uncletopia | San Francisco | 2 | All Maps | STV","players":null},{"server_id":19,"name":"Uncletopia | San Francisco | 3 | Stopwatch Beta","name_short":"sfo-3","host":"sfo-1.us.uncletopia.com","port":27035,"enabled":true,"region":"us-west","cc":"us","latitude":37.77397,"longitude":-122.4313,"reserved":0,"last_update":"0001-01-01T00:00:00Z","name_a2s":"Uncletopia | San Francisco | 3 | Stopwatch Beta","protocol":17,"map":"pl_borneo","folder":"tf","game":"Team Fortress","app_id":440,"player_count":0,"max_players":24,"Bots":0,"server_type":"Dedicated","server_os":"Linux","password":true,"vac":true,"version":"7757534","steam_id":85568392924742824,"keywords":["nocrits","nodmgspread","payload","uncletopia"],"game_id":440,"stv_port":27036,"stv_name":"Uncletopia | San Francisco | 3 | Stopwatch Beta | STV","players":null},{"server_id":20,"name":"Uncletopia | San Francisco | 4 | Community","name_short":"sfo-4","host":"sfo-1.us.uncletopia.com","port":27045,"enabled":true,"region":"us-west","cc":"us","latitude":37.77397,"longitude":-122.4313,"reserved":0,"last_update":"0001-01-01T00:00:00Z","name_a2s":"Uncletopia | San Francisco | 4 | Community","protocol":17,"map":"workshop/cp_croissant_final.ugc458840209","folder":"tf","game":"Team Fortress","app_id":440,"player_count":0,"max_players":24,"Bots":0,"server_type":"Dedicated","server_os":"Linux","password":true,"vac":true,"version":"7757534","steam_id":85568392924742826,"keywords":["cp","nocrits","nodmgspread","uncletopia"],"game_id":440,"stv_port":27046,"stv_name":"Uncletopia | San Francisco | 4 | Community | STV","players":null},{"server_id":141,"name":"Uncletopia | Sydney | 1 | All Maps","name_short":"syd-1","host":"syd-1.au.uncletopia.com","port":27015,"enabled":true,"region":"au","cc":"au","latitude":-33.865143,"longitude":151.2099,"reserved":0,"last_update":"0001-01-01T00:00:00Z","name_a2s":"Uncletopia | Sydney | 1 | All Maps","protocol":17,"map":"pl_upward","folder":"tf","game":"Team Fortress","app_id":440,"player_count":22,"max_players":24,"Bots":0,"server_type":"Dedicated","server_os":"Linux","password":true,"vac":true,"version":"7757534","steam_id":85568392924470001,"keywords":["nocrits","nodmgspread","payload","uncletopia"],"game_id":440,"stv_port":27016,"stv_name":"Uncletopia | Sydney | 1 | All Maps | STV","players":[{"user_id":233,"name":"Halla875","steam_id":76561198371206561,"connected_time":841000000000,"state":"active","ping":64},{"user_id":234,"name":"The Human Spider","steam_id":76561198061201028,"connected_time":791000000000,"state":"active","ping":48},{"user_id":229,"name":"Asl:3x","steam_id":76561198972095766,"connected_time":1035000000000,"state":"active","ping":43},{"user_id":218,"name":"Rykers","steam_id":76561198177952507,"connected_time":1477000000000,"state":"active","ping":45},{"user_id":219,"name":"wombraider","steam_id":76561199375834537,"connected_time":1463000000000,"state":"active","ping":129},{"user_id":205,"name":"Bin","steam_id":76561199117653318,"connected_time":2217000000000,"state":"active","ping":65},{"user_id":245,"name":"Cya in Lumby","steam_id":76561198062693631,"connected_time":32000000000,"state":"active","ping":42},{"user_id":243,"name":"MrMuffin16","steam_id":76561198257303774,"connected_time":80000000000,"state":"active","ping":64},{"user_id":244,"name":"snooty123","steam_id":76561199055258276,"connected_time":65000000000,"state":"active","ping":47},{"user_id":236,"name":"( ͡° ͜ʖ ͡°)","steam_id":76561199262196710,"connected_time":632000000000,"state":"active","ping":53},{"user_id":211,"name":"bowser","steam_id":76561198271462646,"connected_time":2015000000000,"state":"active","ping":46},{"user_id":240,"name":"Oysenberry","steam_id":76561198125443335,"connected_time":403000000000,"state":"active","ping":46},{"user_id":238,"name":"The Feared","steam_id":76561198380825547,"connected_time":525000000000,"state":"active","ping":92},{"user_id":221,"name":"LittleAucky","steam_id":76561198040678996,"connected_time":1430000000000,"state":"active","ping":89},{"user_id":239,"name":"whiteshaq","steam_id":76561198131988811,"connected_time":524000000000,"state":"active","ping":76},{"user_id":237,"name":"Sover blw.tf","steam_id":76561198136347837,"connected_time":621000000000,"state":"active","ping":122},{"user_id":222,"name":"Nylk","steam_id":76561198033625169,"connected_time":1366000000000,"state":"active","ping":31},{"user_id":226,"name":"Bigrichard","steam_id":76561198032092945,"connected_time":1180000000000,"state":"active","ping":75},{"user_id":193,"name":"*ironic and funny name*","steam_id":76561199082481089,"connected_time":3004000000000,"state":"active","ping":172},{"user_id":232,"name":"uncle nephew junior","steam_id":76561198930683342,"connected_time":926000000000,"state":"active","ping":56},{"user_id":91,"name":"itsjustmarvin77","steam_id":76561199375656301,"connected_time":11970000000000,"state":"active","ping":74},{"user_id":176,"name":"HellfirePhoenix","steam_id":76561198035554989,"connected_time":4487000000000,"state":"active","ping":64}]},{"server_id":123,"name":"Uncletopia | Sydney | 2 | All Maps","name_short":"syd-2","host":"syd-1.au.uncletopia.com","port":27025,"enabled":true,"region":"au","cc":"au","latitude":-33.865143,"longitude":151.2099,"reserved":0,"last_update":"0001-01-01T00:00:00Z","name_a2s":"Uncletopia | Sydney | 2 | All Maps","protocol":17,"map":"koth_viaduct","folder":"tf","game":"Team Fortress","app_id":440,"player_count":1,"max_players":24,"Bots":0,"server_type":"Dedicated","server_os":"Linux","password":true,"vac":true,"version":"7757534","steam_id":85568392924470002,"keywords":["cp","nocrits","nodmgspread","uncletopia"],"game_id":440,"stv_port":27026,"stv_name":"Uncletopia | Sydney | 2 | All Maps | STV","players":[{"user_id":7,"name":"Aubrey","steam_id":76561198177748597,"connected_time":51000000000,"state":"active","ping":48}]},{"server_id":395,"name":"Uncletopia | Sydney | 3 | All Maps","name_short":"syd-3","host":"syd-1.au.uncletopia.com","port":27035,"enabled":true,"region":"au","cc":"au","latitude":-33.865143,"longitude":151.2099,"reserved":0,"last_update":"0001-01-01T00:00:00Z","name_a2s":"Uncletopia | Sydney | 3 | All Maps","protocol":17,"map":"koth_viaduct","folder":"tf","game":"Team Fortress","app_id":440,"player_count":0,"max_players":24,"Bots":0,"server_type":"Dedicated","server_os":"Linux","password":true,"vac":true,"version":"7757534","steam_id":85568392925194467,"keywords":["cp","nocrits","nodmgspread","uncletopia"],"game_id":440,"stv_port":27036,"stv_name":"Uncletopia | Sydney | 3 | All Maps | STV","players":null},{"server_id":396,"name":"Uncletopia | Sydney | 4 | All Maps","name_short":"syd-4","host":"syd-1.au.uncletopia.com","port":27045,"enabled":true,"region":"au","cc":"au","latitude":-33.865143,"longitude":151.2099,"reserved":0,"last_update":"0001-01-01T00:00:00Z","name_a2s":"Uncletopia | Sydney | 4 | All Maps","protocol":17,"map":"koth_lakeside_final","folder":"tf","game":"Team Fortress","app_id":440,"player_count":3,"max_players":24,"Bots":0,"server_type":"Dedicated","server_os":"Linux","password":true,"vac":true,"version":"7757534","steam_id":85568392925397958,"keywords":["cp","nocrits","nodmgspread","uncletopia"],"game_id":440,"stv_port":27046,"stv_name":"Uncletopia | Sydney | 4 | All Maps | STV","players":[{"user_id":62,"name":"KillerBlow","steam_id":76561198930232832,"connected_time":179000000000,"state":"active","ping":80},{"user_id":61,"name":"nave","steam_id":76561198398976238,"connected_time":474000000000,"state":"active","ping":60},{"user_id":58,"name":"Dotss","steam_id":76561198868958592,"connected_time":825000000000,"state":"active","ping":253}]},{"server_id":58,"name":"Uncletopia | Sydney | 5 | Stopwatch Beta","name_short":"syd-5","host":"syd-1.au.uncletopia.com","port":27055,"enabled":true,"region":"au","cc":"au","latitude":-33.865143,"longitude":151.2099,"reserved":0,"last_update":"0001-01-01T00:00:00Z","name_a2s":"Uncletopia | Sydney | 5 | Stopwatch Beta","protocol":17,"map":"workshop/pl_summercoast_rc8e.ugc1761528829","folder":"tf","game":"Team Fortress","app_id":440,"player_count":0,"max_players":24,"Bots":0,"server_type":"Dedicated","server_os":"Linux","password":true,"vac":true,"version":"7757534","steam_id":85568392925397959,"keywords":["nocrits","nodmgspread","payload","uncletopia"],"game_id":440,"stv_port":27056,"stv_name":"Uncletopia | Sydney | 5 | Stopwatch Beta | STV","players":null},{"server_id":59,"name":"Uncletopia | Sydney | 6 | Community","name_short":"syd-6","host":"syd-1.au.uncletopia.com","port":27065,"enabled":true,"region":"au","cc":"au","latitude":-33.865143,"longitude":151.2099,"reserved":0,"last_update":"0001-01-01T00:00:00Z","name_a2s":"Uncletopia | Sydney | 6 | Community","protocol":17,"map":"cp_sunshine","folder":"tf","game":"Team Fortress","app_id":440,"player_count":0,"max_players":24,"Bots":0,"server_type":"Dedicated","server_os":"Linux","password":true,"vac":true,"version":"7757534","steam_id":85568392925397960,"keywords":["cp","nocrits","nodmgspread","uncletopia"],"game_id":440,"stv_port":27066,"stv_name":"Uncletopia | Sydney | 6 | Community | STV","players":null},{"server_id":49,"name":"Uncletopia | Warsaw | 1 | All Maps","name_short":"waw-1","host":"waw-1.pl.uncletopia.com","port":27015,"enabled":true,"region":"eu","cc":"pl","latitude":52.2297,"longitude":21.017532,"reserved":0,"last_update":"0001-01-01T00:00:00Z","name_a2s":"","protocol":0,"map":"","folder":"","game":"","app_id":0,"player_count":0,"max_players":0,"Bots":0,"server_type":"","server_os":"","password":false,"vac":false,"version":"","steam_id":0,"keywords":null,"game_id":0,"stv_port":0,"stv_name":"","players":null},{"server_id":50,"name":"Uncletopia | Warsaw | 2 | All Maps","name_short":"waw-2","host":"waw-1.pl.uncletopia.com","port":27025,"enabled":true,"region":"eu","cc":"pl","latitude":52.2297,"longitude":21.017532,"reserved":0,"last_update":"0001-01-01T00:00:00Z","name_a2s":"Uncletopia | Warsaw | 2 | All Maps","protocol":17,"map":"koth_cascade","folder":"tf","game":"Team Fortress","app_id":440,"player_count":0,"max_players":24,"Bots":0,"server_type":"Dedicated","server_os":"Linux","password":true,"vac":true,"version":"7757534","steam_id":85568392925397851,"keywords":["cp","nocrits","nodmgspread","uncletopia"],"game_id":440,"stv_port":27026,"stv_name":"Uncletopia | Warsaw | 2 | All Maps | STV","players":null},{"server_id":51,"name":"Uncletopia | Warsaw | 3 | All Maps","name_short":"waw-3","host":"waw-1.pl.uncletopia.com","port":27035,"enabled":true,"region":"eu","cc":"pl","latitude":52.2297,"longitude":21.017532,"reserved":0,"last_update":"0001-01-01T00:00:00Z","name_a2s":"Uncletopia | Warsaw | 3 | All Maps","protocol":17,"map":"pl_upward","folder":"tf","game":"Team Fortress","app_id":440,"player_count":0,"max_players":24,"Bots":0,"server_type":"Dedicated","server_os":"Linux","password":true,"vac":true,"version":"7757534","steam_id":85568392925397852,"keywords":["nocrits","nodmgspread","payload","uncletopia"],"game_id":440,"stv_port":27036,"stv_name":"Uncletopia | Warsaw | 3 | All Maps | STV","players":null},{"server_id":52,"name":"Uncletopia | Warsaw | 4 | All Maps","name_short":"waw-4","host":"waw-1.pl.uncletopia.com","port":27045,"enabled":true,"region":"eu","cc":"pl","latitude":52.2297,"longitude":21.017532,"reserved":0,"last_update":"0001-01-01T00:00:00Z","name_a2s":"Uncletopia | Warsaw | 4 | All Maps","protocol":17,"map":"pl_borneo","folder":"tf","game":"Team Fortress","app_id":440,"player_count":0,"max_players":24,"Bots":0,"server_type":"Dedicated","server_os":"Linux","password":true,"vac":true,"version":"7757534","steam_id":85568392925397853,"keywords":["nocrits","nodmgspread","payload","uncletopia"],"game_id":440,"stv_port":27046,"stv_name":"Uncletopia | Warsaw | 4 | All Maps | STV","players":null},{"server_id":53,"name":"Uncletopia | Warsaw | 5 | Stopwatch Beta","name_short":"waw-5","host":"waw-1.pl.uncletopia.com","port":27055,"enabled":true,"region":"eu","cc":"pl","latitude":52.2297,"longitude":21.017532,"reserved":0,"last_update":"0001-01-01T00:00:00Z","name_a2s":"Uncletopia | Warsaw | 5 | Stopwatch Beta","protocol":17,"map":"pl_barnblitz","folder":"tf","game":"Team Fortress","app_id":440,"player_count":0,"max_players":24,"Bots":0,"server_type":"Dedicated","server_os":"Linux","password":true,"vac":true,"version":"7757534","steam_id":85568392925397854,"keywords":["nocrits","nodmgspread","payload","uncletopia"],"game_id":440,"stv_port":27056,"stv_name":"Uncletopia | Warsaw | 5 | Stopwatch Beta | STV","players":null},{"server_id":54,"name":"Uncletopia | Warsaw | 6 | Community","name_short":"waw-6","host":"waw-1.pl.uncletopia.com","port":27065,"enabled":true,"region":"eu","cc":"pl","latitude":52.2297,"longitude":21.017532,"reserved":0,"last_update":"0001-01-01T00:00:00Z","name_a2s":"Uncletopia | Warsaw | 6 | Community","protocol":17,"map":"workshop/koth_ashville_final.ugc2130459942","folder":"tf","game":"Team Fortress","app_id":440,"player_count":0,"max_players":24,"Bots":0,"server_type":"Dedicated","server_os":"Linux","password":true,"vac":true,"version":"7757534","steam_id":85568392925397856,"keywords":["cp","nocrits","nodmgspread","uncletopia"],"game_id":440,"stv_port":27066,"stv_name":"Uncletopia | Warsaw | 6 | Community | STV","players":null}]}