{"status":true,"message":"","result":[{"server_id":9,"name":"Uncletopia | Atlanta | 1 | All Maps","name_short":"atl-1","host":"atl-1.us.uncletopia.com","port":27015,"enabled":true,"region":"us-east","cc":"us","latitude":33.753746,"longitude":-84.38633,"reserved":0,"last_update":"0001-01-01T00:00:00Z","name_a2s":"Uncletopia | Atlanta | 1 | All Maps","protocol":17,"map":"pl_pier","folder":"tf","game":"Team Fortress","app_id":440,"player_count":24,"max_players":24,"Bots":0,"server_type":"Dedicated","server_os":"Linux","password":true,"vac":true,"version":"7882260","steam_id":85568392924469982,"keywords":["nocrits","nodmgspread","payload","uncletopia"],"game_id":440,"stv_port":27016,"stv_name":"Uncletopia | Atlanta | 1 | All Maps | STV","players":[{"user_id":131,"name":"chubbbo","steam_id":76561198943598378,"connected_time":5051000000000,"state":"active","ping":32},{"user_id":180,"name":"FHC | Nyle","steam_id":76561198045652639,"connected_time":1449000000000,"state":"active","ping":113},{"user_id":132,"name":"ATL1 | on my hunting trip","steam_id":76561198315341646,"connected_time":5050000000000,"state":"active","ping":75},{"user_id":191,"name":"Im High","steam_id":76561198049954886,"connected_time":116000000000,"state":"active","ping":65},{"user_id":194,"name":"Skinny pete","steam_id":76561198801608576,"connected_time":13000000000,"state":"active","ping":85},{"user_id":181,"name":"CroutonCriminal","steam_id":76561198252145166,"connected_time":1193000000000,"state":"active","ping":86},{"user_id":54,"name":"Jesse","steam_id":76561198157305426,"connected_time":11667000000000,"state":"active","ping":47},{"user_id":184,"name":"atl1 | Lavender they/them","steam_id":76561198825997674,"connected_time":881000000000,"state":"active","ping":46},{"user_id":188,"name":"troutsupply.net punks","steam_id":76561199140940650,"connected_time":362000000000,"state":"active","ping":44},{"user_id":187,"name":"ma0re","steam_id":76561199231971506,"connected_time":399000000000,"state":"active","ping":61},{"user_id":153,"name":"ringer","steam_id":76561198073103529,"connected_time":3778000000000,"state":"active","ping":66},{"user_id":119,"name":"Le4n!!!","steam_id":76561198045522596,"connected_time":6873000000000,"state":"active","ping":65},{"user_id":192,"name":"Epifiny","steam_id":76561198027958086,"connected_time":110000000000,"state":"active","ping":90},{"user_id":162,"name":"SeaBass","steam_id":76561197982949108,"connected_time":2863000000000,"state":"active","ping":52},{"user_id":182,"name":"Goofball","steam_id":76561198061211537,"connected_time":1022000000000,"state":"active","ping":75},{"user_id":139,"name":"Sophie","steam_id":76561198170408057,"connected_time":4780000000000,"state":"active","ping":57},{"user_id":41,"name":"AlcoholicDad454","steam_id":76561198157414556,"connected_time":12292000000000,"state":"active","ping":68},{"user_id":134,"name":"Inkmix(donkey kong enjoyer)","steam_id":76561198854070384,"connected_time":5031000000000,"state":"active","ping":113},{"user_id":174,"name":"chikin.sauce","steam_id":76561198042464635,"connected_time":1862000000000,"state":"active","ping":95},{"user_id":177,"name":"luxin","steam_id":76561198399383047,"connected_time":1630000000000,"state":"active","ping":55},{"user_id":43,"name":"That70sDog","steam_id":76561198119396142,"connected_time":12269000000000,"state":"active","ping":77},{"user_id":164,"name":"Rango","steam_id":76561198067275912,"connected_time":2837000000000,"state":"active","ping":123},{"user_id":165,"name":"Hope","steam_id":76561199201900779,"connected_time":2820000000000,"state":"active","ping":75},{"user_id":186,"name":"ZooWeeMama","steam_id":76561198353593569,"connected_time":434000000000,"state":"active","ping":45}]},{"server_id":104,"name":"Uncletopia | Atlanta | 2 | All Maps","name_short":"atl-2","host":"atl-1.us.uncletopia.com","port":27025,"enabled":true,"region":"us-east","cc":"us","latitude":33.753746,"longitude":-84.38633,"reserved":0,"last_update":"0001-01-01T00:00:00Z","name_a2s":"Uncletopia | Atlanta | 2 | All Maps","protocol":17,"map":"koth_highpass","folder":"tf","game":"Team Fortress","app_id":440,"player_count":0,"max_players":24,"Bots":0,"server_type":"Dedicated","server_os":"Linux","password":true,"vac":true,"version":"7882260","steam_id":85568392924469983,"keywords":["cp","nocrits","nodmgspread","uncletopia"],"game_id":440,"stv_port":27026,"stv_name":"Uncletopia | Atlanta | 2 | All Maps | STV","players":null},{"server_id":400,"name":"Uncletopia | Atlanta | 3 | Community","name_short":"atl-3","host":"atl-1.us.uncletopia.com","port":27035,"enabled":true,"region":"us-east","cc":"us","latitude":33.753746,"longitude":-84.38633,"reserved":0,"last_update":"0001-01-01T00:00:00Z","name_a2s":"Uncletopia | Atlanta | 3 | Community","protocol":17,"map":"workshop/koth_ramjam_rc1.ugc459778887","folder":"tf","game":"Team Fortress","app_id":440,"player_count":17,"max_players":24,"Bots":0,"server_type":"Dedicated","server_os":"Linux","password":true,"vac":true,"version":"7882260","steam_id":85568392924515187,"keywords":["cp","nocrits","nodmgspread","uncletopia"],"game_id":440,"stv_port":27036,"stv_name":"Uncletopia | Atlanta | 3 | Community | STV","players":[{"user_id":329,"name":"Corzap","steam_id":76561198086030373,"connected_time":3161000000000,"state":"active","ping":110},{"user_id":350,"name":"Kyle H. McCloud","steam_id":76561198025050432,"connected_time":1734000000000,"state":"active","ping":101},{"user_id":364,"name":"-|Kappin'|- ExplosiveDiahrea","steam_id":76561198017045020,"connected_time":78000000000,"state":"active","ping":83},{"user_id":308,"name":"asbestos","steam_id":76561198079178866,"connected_time":4053000000000,"state":"active","ping":64},{"user_id":365,"name":"-|Kappin'|- Kilbo Fraggins‚Ñ¢","steam_id":76561197994725498,"connected_time":63000000000,"state":"active","ping":78},{"user_id":352,"name":"Chad the Sex Haver","steam_id":76561198058236528,"connected_time":1722000000000,"state":"active","ping":103},{"user_id":340,"name":"E4Estrogen","steam_id":76561198085813708,"connected_time":2523000000000,"state":"active","ping":52},{"user_id":349,"name":"Career","steam_id":76561198028542212,"connected_time":1758000000000,"state":"active","ping":49},{"user_id":362,"name":"Autumn Clover","steam_id":76561198012295314,"connected_time":179000000000,"state":"active","ping":66},{"user_id":363,"name":"Pixel","steam_id":76561198096221632,"connected_time":154000000000,"state":"active","ping":43},{"user_id":343,"name":"Huggernaut","steam_id":76561198043998084,"connected_time":2271000000000,"state":"active","ping":85},{"user_id":316,"name":"potatotomato","steam_id":76561199092769902,"connected_time":3848000000000,"state":"active","ping":78},{"user_id":366,"name":"Hautboi","steam_id":76561199012329221,"connected_time":57000000000,"state":"active","ping":62},{"user_id":360,"name":"LukeLeal","steam_id":76561198049822995,"connected_time":752000000000,"state":"active","ping":163},{"user_id":367,"name":"Skyblade64","steam_id":76561198042177790,"connected_time":43000000000,"state":"active","ping":87},{"user_id":288,"name":"Loaf E¬≤r","steam_id":76561198174967027,"connected_time":5342000000000,"state":"active","ping":46},{"user_id":291,"name":"Daz","steam_id":76561198041431938,"connected_time":5140000000000,"state":"active","ping":104}]},{"server_id":401,"name":"Uncletopia | Atlanta | 4 | No Payload","name_short":"atl-4","host":"atl-1.us.uncletopia.com","port":27045,"enabled":true,"region":"us-east","cc":"us","latitude":33.753746,"longitude":-84.38633,"reserved":0,"last_update":"0001-01-01T00:00:00Z","name_a2s":"","protocol":0,"map":"","folder":"","game":"","app_id":0,"player_count":0,"max_players":0,"Bots":0,"server_type":"","server_os":"","password":false,"vac":false,"version":"","steam_id":0,"keywords":null,"game_id":0,"stv_port":0,"stv_name":"","players":null},{"server_id":2,"name":"Uncletopia | Chicago | 1 | All Maps","name_short":"chi-1","host":"chi-1.us.uncletopia.com","port":27015,"enabled":true,"region":"us-central","cc":"us","latitude":41.881832,"longitude":-87.62318,"reserved":0,"last_update":"0001-01-01T00:00:00Z","name_a2s":"Uncletopia | Chicago | 1 | All Maps","protocol":17,"map":"pl_badwater","folder":"tf","game":"Team Fortress","app_id":440,"player_count":24,"max_players":24,"Bots":0,"server_type":"Dedicated","server_os":"Linux","password":true,"vac":true,"version":"7882260","steam_id":85568392924469984,"keywords":["nocrits","nodmgspread","payload","uncletopia"],"game_id":440,"stv_port":27016,"stv_name":"Uncletopia | Chicago | 1 | All Maps | STV","players":[{"user_id":404,"name":"doglover39","steam_id":76561198869058885,"connected_time":1648000000000,"state":"active","ping":59},{"user_id":405,"name":"Influrrno","steam_id":76561198398893302,"connected_time":1646000000000,"state":"active","ping":72},{"user_id":407,"name":"kasp","steam_id":76561198263271697,"connected_time":1614000000000,"state":"active","ping":37},{"user_id":427,"name":"Uncle Done","steam_id":76561198218558897,"connected_time":43000000000,"state":"active","ping":157},{"user_id":406,"name":"Gnarly Shark Bite","steam_id":76561198004058342,"connected_time":1629000000000,"state":"active","ping":76},{"user_id":388,"name":"SanitysEdge","steam_id":76561198130732813,"connected_time":2751000000000,"state":"active","ping":100},{"user_id":425,"name":"ScaryTree","steam_id":76561199384362833,"connected_time":219000000000,"state":"active","ping":142},{"user_id":408,"name":"Sleepy","steam_id":76561198273471153,"connected_time":1592000000000,"state":"active","ping":81},{"user_id":423,"name":"Occi","steam_id":76561198260889895,"connected_time":359000000000,"state":"active","ping":70},{"user_id":398,"name":"Blade","steam_id":76561198153163098,"connected_time":2331000000000,"state":"active","ping":76},{"user_id":416,"name":"Spoons","steam_id":76561198042006848,"connected_time":1189000000000,"state":"active","ping":42},{"user_id":387,"name":"josh R\u0026M.TF","steam_id":76561198111565081,"connected_time":2773000000000,"state":"active","ping":107},{"user_id":385,"name":"-W3E- grim10465","steam_id":76561198045698581,"connected_time":2924000000000,"state":"active","ping":46},{"user_id":409,"name":"Ringo x Seiran","steam_id":76561198357437908,"connected_time":1539000000000,"state":"active","ping":62},{"user_id":372,"name":"üé≠","steam_id":76561199486702999,"connected_time":3396000000000,"state":"active","ping":85},{"user_id":424,"name":"Your Local Queer Librarian","steam_id":76561198013077080,"connected_time":253000000000,"state":"active","ping":61},{"user_id":410,"name":"alfredodan #RunThatBack","steam_id":76561198025011044,"connected_time":1513000000000,"state":"active","ping":81},{"user_id":414,"name":"CuSO4","steam_id":76561199278147589,"connected_time":1236000000000,"state":"active","ping":71},{"user_id":417,"name":"Trotsky Gaming","steam_id":76561199101638460,"connected_time":555000000000,"state":"active","ping":75},{"user_id":412,"name":"hppd","steam_id":76561199001918194,"connected_time":1501000000000,"state":"active","ping":116},{"user_id":426,"name":"Metaman","steam_id":76561198149543644,"connected_time":186000000000,"state":"active","ping":69},{"user_id":420,"name":"[ŸäŸáŸàÿØŸä] Bill Clinton [◊ê◊ú","steam_id":76561198163291190,"connected_time":529000000000,"state":"active","ping":86},{"user_id":358,"name":"daddyshreklover69suckafart","steam_id":76561198041643833,"connected_time":4380000000000,"state":"active","ping":85},{"user_id":401,"name":"Whilthis","steam_id":76561198079227153,"connected_time":2235000000000,"state":"active","ping":78}]},{"server_id":106,"name":"Uncletopia | Chicago | 2 | All Maps","name_short":"chi-2","host":"chi-1.us.uncletopia.com","port":27025,"enabled":true,"region":"us-central","cc":"us","latitude":41.881832,"longitude":-87.62318,"reserved":0,"last_update":"0001-01-01T00:00:00Z","name_a2s":"Uncletopia | Chicago | 2 | All Maps","protocol":17,"map":"koth_suijin","folder":"tf","game":"Team Fortress","app_id":440,"player_count":23,"max_players":24,"Bots":0,"server_type":"Dedicated","server_os":"Linux","password":true,"vac":true,"version":"7882260","steam_id":85568392924469985,"keywords":["cp","nocrits","nodmgspread","uncletopia"],"game_id":440,"stv_port":27026,"stv_name":"Uncletopia | Chicago | 2 | All Maps | STV","players":[{"user_id":8,"name":"Triples_","steam_id":76561198094249561,"connected_time":13058000000000,"state":"active","ping":53},{"user_id":150,"name":"notatrip(mommymoding)","steam_id":76561198046109327,"connected_time":777000000000,"state":"active","ping":55},{"user_id":167,"name":"monkeyeat028","steam_id":76561198124765834,"connected_time":449000000000,"state":"active","ping":88},{"user_id":172,"name":"Ry58","steam_id":76561199083841480,"connected_time":168000000000,"state":"active","ping":75},{"user_id":159,"name":"Snow‚òÜ","steam_id":76561198031290573,"connected_time":598000000000,"state":"active","ping":59},{"user_id":171,"name":"Bear of the Polar Variety","steam_id":76561198370330710,"connected_time":210000000000,"state":"active","ping":51},{"user_id":173,"name":"mdharsy","steam_id":76561198065831053,"connected_time":158000000000,"state":"active","ping":72},{"user_id":133,"name":"Magik","steam_id":76561198115443354,"connected_time":2342000000000,"state":"active","ping":52},{"user_id":152,"name":"Mr. Sandman","steam_id":76561198065870487,"connected_time":734000000000,"state":"active","ping":55},{"user_id":134,"name":"Spyro the wagon","steam_id":76561198059485070,"connected_time":2337000000000,"state":"active","ping":104},{"user_id":135,"name":"ExtraChromosome 47","steam_id":76561198287822675,"connected_time":2334000000000,"state":"active","ping":84},{"user_id":169,"name":"Fobby #Savetf2","steam_id":76561198047681469,"connected_time":348000000000,"state":"active","ping":81},{"user_id":170,"name":"Cooki","steam_id":76561198051705314,"connected_time":331000000000,"state":"active","ping":67},{"user_id":146,"name":"Cy4nideCutie","steam_id":76561198126686695,"connected_time":1936000000000,"state":"active","ping":57},{"user_id":157,"name":"NguyenThe","steam_id":76561198208416793,"connected_time":655000000000,"state":"active","ping":121},{"user_id":117,"name":"A Puppy","steam_id":76561198828184456,"connected_time":4917000000000,"state":"active","ping":57},{"user_id":105,"name":"Pheonix","steam_id":76561199470538309,"connected_time":6467000000000,"state":"active","ping":52},{"user_id":164,"name":"wyld968","steam_id":76561198880483144,"connected_time":509000000000,"state":"active","ping":96},{"user_id":141,"name":"joemoe84g","steam_id":76561199141651280,"connected_time":2269000000000,"state":"active","ping":87},{"user_id":123,"name":"Marlboro Man","steam_id":76561198117279677,"connected_time":4294000000000,"state":"active","ping":93},{"user_id":165,"name":"maS","steam_id":76561198033846407,"connected_time":505000000000,"state":"active","ping":54},{"user_id":155,"name":"Sunfly","steam_id":76561198034307439,"connected_time":688000000000,"state":"active","ping":41},{"user_id":174,"name":"TechLegion","steam_id":76561198951606276,"connected_time":113000000000,"state":"spawning","ping":61}]},{"server_id":402,"name":"Uncletopia | Chicago | 3 | All Maps","name_short":"chi-3","host":"chi-1.us.uncletopia.com","port":27035,"enabled":true,"region":"us-central","cc":"us","latitude":41.881832,"longitude":-87.62318,"reserved":0,"last_update":"0001-01-01T00:00:00Z","name_a2s":"Uncletopia | Chicago | 3 | All Maps","protocol":17,"map":"pl_swiftwater_final1","folder":"tf","game":"Team Fortress","app_id":440,"player_count":22,"max_players":24,"Bots":0,"server_type":"Dedicated","server_os":"Linux","password":true,"vac":true,"version":"7882260","steam_id":85568392924515191,"keywords":["nocrits","nodmgspread","payload","uncletopia"],"game_id":440,"stv_port":27036,"stv_name":"Uncletopia | Chicago | 3 | All Maps | STV","players":[{"user_id":121,"name":"A Trigger Happy Chipmunk","steam_id":76561198013608736,"connected_time":32000000000,"state":"active","ping":39},{"user_id":98,"name":"Nephs","steam_id":76561198136763403,"connected_time":1946000000000,"state":"active","ping":80},{"user_id":99,"name":"Scooter O'Boyl","steam_id":76561197971687069,"connected_time":1865000000000,"state":"active","ping":70},{"user_id":93,"name":"milo","steam_id":76561199061380038,"connected_time":2290000000000,"state":"active","ping":61},{"user_id":108,"name":"Salty","steam_id":76561198019195732,"connected_time":760000000000,"state":"active","ping":64},{"user_id":27,"name":"INVEST IN SKYNET::œÑRU œÑAO","steam_id":76561198144436132,"connected_time":6640000000000,"state":"active","ping":80},{"user_id":83,"name":"richarven","steam_id":76561198189429665,"connected_time":2966000000000,"state":"active","ping":64},{"user_id":86,"name":"AstroVulpes","steam_id":76561198384277161,"connected_time":2655000000000,"state":"active","ping":157},{"user_id":117,"name":"Defiant | ohsnapdds","steam_id":76561197966566507,"connected_time":137000000000,"state":"active","ping":44},{"user_id":105,"name":"1-800-GHOST-DANCE","steam_id":76561198835430429,"connected_time":1085000000000,"state":"active","ping":76},{"user_id":116,"name":"JerkinInTheCold","steam_id":76561198044690899,"connected_time":184000000000,"state":"active","ping":64},{"user_id":107,"name":"Baen","steam_id":76561198154176702,"connected_time":983000000000,"state":"active","ping":73},{"user_id":119,"name":"Decs","steam_id":76561198825197974,"connected_time":82000000000,"state":"active","ping":125},{"user_id":85,"name":"bape","steam_id":76561198253731826,"connected_time":2800000000000,"state":"active","ping":53},{"user_id":113,"name":"just a gamer","steam_id":76561199208833695,"connected_time":423000000000,"state":"active","ping":84},{"user_id":53,"name":"Gaskranx","steam_id":76561198020269547,"connected_time":5658000000000,"state":"active","ping":71},{"user_id":72,"name":"hopeless","steam_id":76561198305056374,"connected_time":4175000000000,"state":"active","ping":78},{"user_id":50,"name":"meth ape","steam_id":76561199110579692,"connected_time":6100000000000,"state":"active","ping":81},{"user_id":81,"name":"Horsecat","steam_id":76561198061653283,"connected_time":3749000000000,"state":"active","ping":137},{"user_id":120,"name":"Flwrs","steam_id":76561198083518879,"connected_time":55000000000,"state":"active","ping":74},{"user_id":84,"name":"anonion","steam_id":76561198056477584,"connected_time":2891000000000,"state":"active","ping":80},{"user_id":61,"name":"souljaboytellem.com","steam_id":76561198111975583,"connected_time":5345000000000,"state":"active","ping":76}]},{"server_id":403,"name":"Uncletopia | Chicago | 4 | All Maps","name_short":"chi-4","host":"chi-1.us.uncletopia.com","port":27045,"enabled":true,"region":"us-central","cc":"us","latitude":41.881832,"longitude":-87.62318,"reserved":0,"last_update":"0001-01-01T00:00:00Z","name_a2s":"Uncletopia | Chicago | 4 | All Maps","protocol":17,"map":"pl_upward","folder":"tf","game":"Team Fortress","app_id":440,"player_count":0,"max_players":24,"Bots":0,"server_type":"Dedicated","server_os":"Linux","password":true,"vac":true,"version":"7882260","steam_id":85568392924515193,"keywords":["nocrits","nodmgspread","payload","uncletopia"],"game_id":440,"stv_port":27046,"stv_name":"Uncletopia | Chicago | 4 | All Maps | STV","players":null},{"server_id":36,"name":"Uncletopia | Chicago | 5 | All Maps","name_short":"chi-5","host":"chi-2.us.uncletopia.com","port":27015,"enabled":true,"region":"us-central","cc":"us","latitude":41.881832,"longitude":-87.62318,"reserved":0,"last_update":"0001-01-01T00:00:00Z","name_a2s":"Uncletopia | Chicago | 5 | All Maps","protocol":17,"map":"koth_viaduct","folder":"tf","game":"Team Fortress","app_id":440,"player_count":0,"max_players":24,"Bots":0,"server_type":"Dedicated","server_os":"Linux","password":true,"vac":true,"version":"7882260","steam_id":85568392924866362,"keywords":["cp","nocrits","nodmgspread","uncletopia"],"game_id":440,"stv_port":27016,"stv_name":"Uncletopia | Chicago | 5 | All Maps | STV","players":null},{"server_id":37,"name":"Uncletopia | Chicago | 6 | All Maps","name_short":"chi-6","host":"chi-2.us.uncletopia.com","port":27025,"enabled":true,"region":"us-central","cc":"us","latitude":41.881832,"longitude":-87.62318,"reserved":0,"last_update":"0001-01-01T00:00:00Z","name_a2s":"Uncletopia | Chicago | 6 | All Maps","protocol":17,"map":"cp_altitude","folder":"tf","game":"Team Fortress","app_id":440,"player_count":0,"max_players":24,"Bots":0,"server_type":"Dedicated","server_os":"Linux","password":true,"vac":true,"version":"7882260","steam_id":85568392924866363,"keywords":["cp","nocrits","nodmgspread","uncletopia"],"game_id":440,"stv_port":27026,"stv_name":"Uncletopia | Chicago | 6 | All Maps | STV","players":null},{"server_id":38,"name":"Uncletopia | Chicago | 7 | Stopwatch Beta","name_short":"chi-7","host":"chi-2.us.uncletopia.com","port":27035,"enabled":true,"region":"us-central","cc":"us","latitude":41.881832,"longitude":-87.62318,"reserved":0,"last_update":"0001-01-01T00:00:00Z","name_a2s":"Uncletopia | Chicago | 7 | Stopwatch Beta","protocol":17,"map":"pl_upward","folder":"tf","game":"Team Fortress","app_id":440,"player_count":0,"max_players":24,"Bots":0,"server_type":"Dedicated","server_os":"Linux","password":true,"vac":true,"version":"7882260","steam_id":85568392924866364,"keywords":["nocrits","nodmgspread","payload","uncletopia"],"game_id":440,"stv_port":27036,"stv_name":"Uncletopia | Chicago | 7 | Stopwatch Beta | STV","players":null},{"server_id":39,"name":"Uncletopia | Chicago | 8 | Community","name_short":"chi-8","host":"chi-2.us.uncletopia.com","port":27045,"enabled":true,"region":"us-central","cc":"us","latitude":41.881832,"longitude":-87.62318,"reserved":0,"last_update":"0001-01-01T00:00:00Z","name_a2s":"Uncletopia | Chicago | 8 | Community","protocol":17,"map":"pl_badwater","folder":"tf","game":"Team Fortress","app_id":440,"player_count":1,"max_players":24,"Bots":0,"server_type":"Dedicated","server_os":"Linux","password":true,"vac":true,"version":"7882260","steam_id":85568392924866365,"keywords":["nocrits","nodmgspread","payload","uncletopia"],"game_id":440,"stv_port":27046,"stv_name":"Uncletopia | Chicago | 8 | Community | STV","players":[{"user_id":5,"name":"justNO11","steam_id":76561198915411375,"connected_time":434000000000,"state":"active","ping":70}]},{"server_id":8,"name":"Uncletopia | Dallas | 1 | All Maps","name_short":"dal-1","host":"dal-1.us.uncletopia.com","port":27015,"enabled":true,"region":"us-central","cc":"us","latitude":32.779167,"longitude":-96.80889,"reserved":0,"last_update":"0001-01-01T00:00:00Z","name_a2s":"Uncletopia | Dallas | 1 | All Maps","protocol":17,"map":"pl_badwater","folder":"tf","game":"Team Fortress","app_id":440,"player_count":20,"max_players":24,"Bots":0,"server_type":"Dedicated","server_os":"Linux","password":true,"vac":true,"version":"7882260","steam_id":85568392924469986,"keywords":["nocrits","nodmgspread","payload","uncletopia"],"game_id":440,"stv_port":27016,"stv_name":"Uncletopia | Dallas | 1 | All Maps | STV","players":[{"user_id":135,"name":"The Black Ghost of Chip Skylark","steam_id":76561199486430601,"connected_time":735000000000,"state":"active","ping":64},{"user_id":111,"name":"bicth","steam_id":76561198086314381,"connected_time":1944000000000,"state":"active","ping":65},{"user_id":143,"name":"top 10 thug shakes","steam_id":76561199100342013,"connected_time":81000000000,"state":"active","ping":77},{"user_id":133,"name":"GLaDOS Simp","steam_id":76561198084849541,"connected_time":974000000000,"state":"active","ping":45},{"user_id":130,"name":"kaleb","steam_id":76561198064509964,"connected_time":1175000000000,"state":"active","ping":48},{"user_id":110,"name":"Yummy Kabobz","steam_id":76561198067661705,"connected_time":1959000000000,"state":"active","ping":75},{"user_id":65,"name":"LooneyMonkey","steam_id":76561198414675183,"connected_time":4737000000000,"state":"active","ping":63},{"user_id":134,"name":"bing","steam_id":76561198005160560,"connected_time":956000000000,"state":"active","ping":94},{"user_id":144,"name":"TimTam","steam_id":76561198080434949,"connected_time":69000000000,"state":"active","ping":88},{"user_id":138,"name":"dad vibes","steam_id":76561197990714447,"connected_time":300000000000,"state":"active","ping":51},{"user_id":129,"name":"Satori Komeiji","steam_id":76561198158211423,"connected_time":1210000000000,"state":"active","ping":75},{"user_id":139,"name":"Funke Monke","steam_id":76561198079440976,"connected_time":230000000000,"state":"active","ping":72},{"user_id":126,"name":"„Åµ„Çè„Åµ„ÇèÊØõÂ∏É","steam_id":76561198088403016,"connected_time":1274000000000,"state":"active","ping":178},{"user_id":137,"name":"GrimCyan","steam_id":76561198362214046,"connected_time":517000000000,"state":"active","ping":74},{"user_id":145,"name":"BlancaLamb","steam_id":76561198025646073,"connected_time":35000000000,"state":"active","ping":77},{"user_id":141,"name":"Punished \"Venom\" Snick","steam_id":76561198066566813,"connected_time":103000000000,"state":"active","ping":110},{"user_id":76,"name":"El Bondin","steam_id":76561198820792434,"connected_time":4208000000000,"state":"active","ping":103},{"user_id":117,"name":"Ice Bear Loves You","steam_id":76561199190456886,"connected_time":1836000000000,"state":"active","ping":113},{"user_id":136,"name":"g00bur","steam_id":76561197993622520,"connected_time":713000000000,"state":"active","ping":82},{"user_id":90,"name":"MINILEGOLAS","steam_id":76561198859362058,"connected_time":3535000000000,"state":"active","ping":81}]},{"server_id":108,"name":"Uncletopia | Dallas | 2 | All Maps","name_short":"dal-2","host":"dal-1.us.uncletopia.com","port":27025,"enabled":true,"region":"us-central","cc":"us","latitude":32.779167,"longitude":-96.80889,"reserved":0,"last_update":"0001-01-01T00:00:00Z","name_a2s":"Uncletopia | Dallas | 2 | All Maps","protocol":17,"map":"koth_suijin","folder":"tf","game":"Team Fortress","app_id":440,"player_count":24,"max_players":24,"Bots":0,"server_type":"Dedicated","server_os":"Linux","password":true,"vac":true,"version":"7882260","steam_id":85568392924469988,"keywords":["cp","nocrits","nodmgspread","uncletopia"],"game_id":440,"stv_port":27026,"stv_name":"Uncletopia | Dallas | 2 | All Maps | STV","players":[{"user_id":7,"name":"Goomba","steam_id":76561198211815183,"connected_time":5266000000000,"state":"active","ping":75},{"user_id":37,"name":"Benis Gonzalez","steam_id":76561198799391259,"connected_time":1272000000000,"state":"active","ping":93},{"user_id":57,"name":"MellowBoy-2354","steam_id":76561199080630632,"connected_time":410000000000,"state":"active","ping":86},{"user_id":56,"name":"cactusjuice","steam_id":76561198839808731,"connected_time":469000000000,"state":"active","ping":85},{"user_id":12,"name":"CreativeCoffeeCake","steam_id":76561198323542875,"connected_time":3352000000000,"state":"active","ping":73},{"user_id":19,"name":"Holp","steam_id":76561199019186848,"connected_time":2226000000000,"state":"active","ping":98},{"user_id":20,"name":"ApplesMate","steam_id":76561198832763278,"connected_time":2029000000000,"state":"active","ping":62},{"user_id":58,"name":"BisKit","steam_id":76561198140624153,"connected_time":320000000000,"state":"active","ping":97},{"user_id":38,"name":"orneps489","steam_id":76561199124755916,"connected_time":1228000000000,"state":"active","ping":97},{"user_id":50,"name":"Marvelzombie","steam_id":76561198129951058,"connected_time":793000000000,"state":"active","ping":96},{"user_id":61,"name":"kermeeee","steam_id":76561198106278670,"connected_time":209000000000,"state":"active","ping":64},{"user_id":25,"name":"Derply","steam_id":76561198871211642,"connected_time":1777000000000,"state":"active","ping":76},{"user_id":39,"name":"Slice of Meat [415fam,NERD]","steam_id":76561198004553723,"connected_time":1196000000000,"state":"active","ping":75},{"user_id":47,"name":"Whapper","steam_id":76561198044029606,"connected_time":1082000000000,"state":"active","ping":95},{"user_id":48,"name":"Boomer Gaming","steam_id":76561198037803087,"connected_time":932000000000,"state":"active","ping":64},{"user_id":30,"name":"Shattered Glass","steam_id":76561198116835391,"connected_time":1640000000000,"state":"active","ping":88},{"user_id":31,"name":"croissantcrusader","steam_id":76561198813533235,"connected_time":1626000000000,"state":"active","ping":74},{"user_id":42,"name":"Benwyatt88","steam_id":76561198823755174,"connected_time":1137000000000,"state":"active","ping":70},{"user_id":33,"name":"Zeora","steam_id":76561198799145251,"connected_time":1604000000000,"state":"active","ping":77},{"user_id":34,"name":"canakblasteran","steam_id":76561199472518822,"connected_time":1555000000000,"state":"active","ping":88},{"user_id":35,"name":"Zach Reeee","steam_id":76561198096698210,"connected_time":1535000000000,"state":"active","ping":57},{"user_id":43,"name":"Sartupial","steam_id":76561198443169940,"connected_time":1127000000000,"state":"active","ping":46},{"user_id":60,"name":"Unspoken Rizz","steam_id":76561199019647814,"connected_time":214000000000,"state":"active","ping":52},{"user_id":62,"name":"Noaboa","steam_id":76561199232340071,"connected_time":172000000000,"state":"active","ping":84}]},{"server_id":5,"name":"Uncletopia | Frankfurt | 1 | All Maps","name_short":"frk-1","host":"frk-1.de.uncletopia.com","port":27015,"enabled":true,"region":"eu","cc":"de","latitude":50.110924,"longitude":8.682127,"reserved":0,"last_update":"0001-01-01T00:00:00Z","name_a2s":"Uncletopia | Frankfurt | 1 | All Maps","protocol":17,"map":"pl_upward","folder":"tf","game":"Team Fortress","app_id":440,"player_count":24,"max_players":24,"Bots":0,"server_type":"Dedicated","server_os":"Linux","password":true,"vac":true,"version":"7882260","steam_id":85568392924469989,"keywords":["nocrits","nodmgspread","payload","uncletopia"],"game_id":440,"stv_port":27016,"stv_name":"Uncletopia | Frankfurt | 1 | All Maps | STV","players":[{"user_id":444,"name":"damn, that bussy can squirt","steam_id":76561198050214002,"connected_time":2518000000000,"state":"active","ping":60},{"user_id":445,"name":"Norbert Hallelujah","steam_id":76561198137876982,"connected_time":2516000000000,"state":"active","ping":63},{"user_id":473,"name":"‡πñ€£€úSir Robbiewolf","steam_id":76561198001357988,"connected_time":161000000000,"state":"active","ping":70},{"user_id":462,"name":"Ratatatatatatouille","steam_id":76561198182267098,"connected_time":1300000000000,"state":"active","ping":90},{"user_id":418,"name":"OPUR \u003e:(","steam_id":76561197993123284,"connected_time":3703000000000,"state":"active","ping":71},{"user_id":426,"name":"Dope","steam_id":76561198318858892,"connected_time":3378000000000,"state":"active","ping":67},{"user_id":457,"name":"john stick","steam_id":76561198165998678,"connected_time":1443000000000,"state":"active","ping":68},{"user_id":465,"name":"TrashnDrugs","steam_id":76561198059610391,"connected_time":838000000000,"state":"active","ping":102},{"user_id":416,"name":"–ë–∞—Ä—Ö–∞—Ç–Ω—ã–µ —Ç—è–≥–∏, –ö","steam_id":76561198214926087,"connected_time":3873000000000,"state":"active","ping":91},{"user_id":471,"name":"modavak","steam_id":76561198946290908,"connected_time":666000000000,"state":"active","ping":105},{"user_id":466,"name":"FoOzTV","steam_id":76561197998636728,"connected_time":832000000000,"state":"active","ping":73},{"user_id":467,"name":"darkwater","steam_id":76561197986978738,"connected_time":830000000000,"state":"active","ping":60},{"user_id":420,"name":"Mental","steam_id":76561198057117092,"connected_time":3642000000000,"state":"active","ping":51},{"user_id":451,"name":"ODanial","steam_id":76561198034854402,"connected_time":2015000000000,"state":"active","ping":87},{"user_id":468,"name":"–¥–∂–∏–º–º–∏ —Ö–∞—á–∞","steam_id":76561198302999850,"connected_time":801000000000,"state":"active","ping":89},{"user_id":421,"name":"BoBunny McGlitter","steam_id":76561198057403817,"connected_time":3636000000000,"state":"active","ping":64},{"user_id":453,"name":"Willithemilli","steam_id":76561199130382152,"connected_time":2001000000000,"state":"active","ping":91},{"user_id":469,"name":"Gordon","steam_id":76561198303652059,"connected_time":791000000000,"state":"active","ping":72},{"user_id":407,"name":"Katealyst","steam_id":76561198331215039,"connected_time":5027000000000,"state":"active","ping":69},{"user_id":392,"name":"Dope70000000000","steam_id":76561199123161420,"connected_time":6144000000000,"state":"active","ping":60},{"user_id":391,"name":"szmen","steam_id":76561198072569764,"connected_time":6361000000000,"state":"active","ping":71},{"user_id":464,"name":"Beni ü¶ßüçå","steam_id":76561198011340227,"connected_time":1108000000000,"state":"active","ping":70},{"user_id":474,"name":"Tovarish_Maxim","steam_id":76561198411501873,"connected_time":57000000000,"state":"active","ping":55},{"user_id":441,"name":"bart","steam_id":76561198317737261,"connected_time":2906000000000,"state":"active","ping":64}]},{"server_id":110,"name":"Uncletopia | Frankfurt | 2 | All Maps","name_short":"frk-2","host":"frk-1.de.uncletopia.com","port":27025,"enabled":true,"region":"eu","cc":"de","latitude":50.110924,"longitude":8.682127,"reserved":0,"last_update":"0001-01-01T00:00:00Z","name_a2s":"Uncletopia | Frankfurt | 2 | All Maps","protocol":17,"map":"pl_pier","folder":"tf","game":"Team Fortress","app_id":440,"player_count":0,"max_players":24,"Bots":0,"server_type":"Dedicated","server_os":"Linux","password":true,"vac":true,"version":"7882260","steam_id":85568392924469990,"keywords":["nocrits","nodmgspread","payload","uncletopia"],"game_id":440,"stv_port":27026,"stv_name":"Uncletopia | Frankfurt | 2 | All Maps | STV","players":null},{"server_id":308,"name":"Uncletopia | Frankfurt | 3 | All Maps","name_short":"frk-3","host":"frk-1.de.uncletopia.com","port":27035,"enabled":true,"region":"eu","cc":"de","latitude":50.110924,"longitude":8.682127,"reserved":0,"last_update":"0001-01-01T00:00:00Z","name_a2s":"Uncletopia | Frankfurt | 3 | All Maps","protocol":17,"map":"pl_pier","folder":"tf","game":"Team Fortress","app_id":440,"player_count":24,"max_players":24,"Bots":0,"server_type":"Dedicated","server_os":"Linux","password":true,"vac":true,"version":"7882260","steam_id":85568392924504274,"keywords":["nocrits","nodmgspread","payload","uncletopia"],"game_id":440,"stv_port":27036,"stv_name":"Uncletopia | Frankfurt | 3 | All Maps | STV","players":[{"user_id":271,"name":"Swift","steam_id":76561197998799889,"connected_time":841000000000,"state":"active","ping":60},{"user_id":279,"name":"Texas Red","steam_id":76561198974730691,"connected_time":425000000000,"state":"active","ping":80},{"user_id":270,"name":"Piox","steam_id":76561198125689157,"connected_time":876000000000,"state":"active","ping":76},{"user_id":255,"name":"Doobloon","steam_id":76561199354240457,"connected_time":1499000000000,"state":"active","ping":62},{"user_id":277,"name":"John Noob","steam_id":76561197999170026,"connected_time":434000000000,"state":"active","ping":85},{"user_id":240,"name":"Schiever","steam_id":76561198052136026,"connected_time":2619000000000,"state":"active","ping":60},{"user_id":241,"name":"Stigurna","steam_id":76561198063906822,"connected_time":2593000000000,"state":"active","ping":92},{"user_id":282,"name":"|||||||||||||||||||","steam_id":76561198139995810,"connected_time":347000000000,"state":"active","ping":78},{"user_id":267,"name":"Axter","steam_id":76561198118747192,"connected_time":998000000000,"state":"active","ping":81},{"user_id":280,"name":"Carney","steam_id":76561198064078751,"connected_time":423000000000,"state":"active","ping":82},{"user_id":284,"name":"Pepsi Man","steam_id":76561198061835461,"connected_time":330000000000,"state":"active","ping":57},{"user_id":287,"name":"Creamy","steam_id":76561198063907478,"connected_time":236000000000,"state":"active","ping":78},{"user_id":266,"name":"berkay","steam_id":76561199112328384,"connected_time":1024000000000,"state":"active","ping":76},{"user_id":269,"name":"Family guy try not to laugh","steam_id":76561198031455800,"connected_time":928000000000,"state":"active","ping":77},{"user_id":260,"name":"peanut butter jelly time!!!!!!!","steam_id":76561198034955422,"connected_time":1462000000000,"state":"active","ping":77},{"user_id":239,"name":"wieto","steam_id":76561198050626427,"connected_time":2675000000000,"state":"active","ping":59},{"user_id":288,"name":"Filleman","steam_id":76561198159386946,"connected_time":230000000000,"state":"active","ping":59},{"user_id":275,"name":"Komorebi","steam_id":76561198207157679,"connected_time":553000000000,"state":"active","ping":61},{"user_id":273,"name":"Carrot","steam_id":76561198119340863,"connected_time":765000000000,"state":"active","ping":49},{"user_id":286,"name":"Claw","steam_id":76561198060985181,"connected_time":252000000000,"state":"active","ping":73},{"user_id":254,"name":"Squirrel Enthusiast","steam_id":76561198048759212,"connected_time":1574000000000,"state":"active","ping":66},{"user_id":261,"name":"Ozzie","steam_id":76561197992915315,"connected_time":1460000000000,"state":"active","ping":75},{"user_id":289,"name":"xiiski","steam_id":76561198152387747,"connected_time":100000000000,"state":"active","ping":102},{"user_id":246,"name":"Carrot (woman)","steam_id":76561198139404261,"connected_time":2395000000000,"state":"active","ping":62}]},{"server_id":309,"name":"Uncletopia | Frankfurt | 4 | All Maps","name_short":"frk-4","host":"frk-1.de.uncletopia.com","port":27045,"enabled":true,"region":"eu","cc":"de","latitude":50.110924,"longitude":8.682127,"reserved":0,"last_update":"0001-01-01T00:00:00Z","name_a2s":"Uncletopia | Frankfurt | 4 | All Maps","protocol":17,"map":"pl_swiftwater_final1","folder":"tf","game":"Team Fortress","app_id":440,"player_count":23,"max_players":24,"Bots":0,"server_type":"Dedicated","server_os":"Linux","password":true,"vac":true,"version":"7882260","steam_id":85568392924504275,"keywords":["nocrits","nodmgspread","payload","uncletopia"],"game_id":440,"stv_port":27046,"stv_name":"Uncletopia | Frankfurt | 4 | All Maps | STV","players":[{"user_id":404,"name":"ksg","steam_id":76561198042894236,"connected_time":2271000000000,"state":"active","ping":67},{"user_id":427,"name":"Carrot Arc","steam_id":76561198164957006,"connected_time":750000000000,"state":"active","ping":85},{"user_id":442,"name":"Egg","steam_id":76561199360189459,"connected_time":40000000000,"state":"active","ping":73},{"user_id":413,"name":"wgbubl","steam_id":76561199133004884,"connected_time":1689000000000,"state":"active","ping":99},{"user_id":430,"name":"M/S Jeeztonia","steam_id":76561198123592400,"connected_time":727000000000,"state":"active","ping":266},{"user_id":431,"name":"powej","steam_id":76561198056381418,"connected_time":680000000000,"state":"active","ping":46},{"user_id":416,"name":"Spoofr","steam_id":76561199267825043,"connected_time":1540000000000,"state":"active","ping":61},{"user_id":429,"name":"\u003e:3","steam_id":76561198368312026,"connected_time":736000000000,"state":"active","ping":84},{"user_id":346,"name":"Myrmodion","steam_id":76561198054746247,"connected_time":6335000000000,"state":"active","ping":62},{"user_id":432,"name":"big carrot field. growing well","steam_id":76561198069649097,"connected_time":675000000000,"state":"active","ping":76},{"user_id":433,"name":"Rai","steam_id":76561199408923294,"connected_time":668000000000,"state":"active","ping":87},{"user_id":369,"name":"sunshine (he/him)","steam_id":76561198084597975,"connected_time":4717000000000,"state":"active","ping":63},{"user_id":412,"name":"Turk Scout","steam_id":76561198975267711,"connected_time":1845000000000,"state":"active","ping":102},{"user_id":425,"name":"A Slavic Troglodyte","steam_id":76561198278446600,"connected_time":827000000000,"state":"active","ping":70},{"user_id":403,"name":"Tegnerud","steam_id":76561198214185612,"connected_time":2472000000000,"state":"active","ping":73},{"user_id":439,"name":"Milk","steam_id":76561198219146857,"connected_time":599000000000,"state":"active","ping":88},{"user_id":382,"name":"[UB]Destiny","steam_id":76561198023243402,"connected_time":4262000000000,"state":"active","ping":72},{"user_id":440,"name":"ThatTFguy","steam_id":76561198056794321,"connected_time":540000000000,"state":"active","ping":70},{"user_id":397,"name":"StingyLettuce","steam_id":76561199010337406,"connected_time":2932000000000,"state":"active","ping":113},{"user_id":441,"name":"hwyad","steam_id":76561199129942647,"connected_time":278000000000,"state":"active","ping":71},{"user_id":426,"name":"aavikkorotta420","steam_id":76561199429407130,"connected_time":797000000000,"state":"active","ping":88},{"user_id":436,"name":"Utkunator","steam_id":76561198967463151,"connected_time":655000000000,"state":"active","ping":90},{"user_id":438,"name":"robbie","steam_id":76561198798195287,"connected_time":647000000000,"state":"active","ping":60}]},{"server_id":310,"name":"Uncletopia | Frankfurt | 5 | All Maps","name_short":"frk-5","host":"frk-1.de.uncletopia.com","port":27055,"enabled":true,"region":"eu","cc":"de","latitude":50.110924,"longitude":8.682127,"reserved":0,"last_update":"0001-01-01T00:00:00Z","name_a2s":"Uncletopia | Frankfurt | 5 | All Maps","protocol":17,"map":"pl_badwater","folder":"tf","game":"Team Fortress","app_id":440,"player_count":22,"max_players":24,"Bots":0,"server_type":"Dedicated","server_os":"Linux","password":true,"vac":true,"version":"7882260","steam_id":85568392924504277,"keywords":["nocrits","nodmgspread","payload","uncletopia"],"game_id":440,"stv_port":27056,"stv_name":"Uncletopia | Frankfurt | 5 | All Maps | STV","players":[{"user_id":380,"name":"–ö–æ–Ω–Ω–æ—Ä","steam_id":76561198020304242,"connected_time":213000000000,"state":"active","ping":68},{"user_id":356,"name":"Jugg","steam_id":76561198384417257,"connected_time":1685000000000,"state":"active","ping":67},{"user_id":365,"name":"Endi","steam_id":76561198914938199,"connected_time":1435000000000,"state":"active","ping":95},{"user_id":357,"name":"Buddy","steam_id":76561198050185582,"connected_time":1663000000000,"state":"active","ping":67},{"user_id":339,"name":"zee","steam_id":76561197994492154,"connected_time":2679000000000,"state":"active","ping":60},{"user_id":318,"name":"Dog ?","steam_id":76561198347020945,"connected_time":3986000000000,"state":"active","ping":77},{"user_id":372,"name":"chocolate flavoured femboy","steam_id":76561198819353867,"connected_time":1108000000000,"state":"active","ping":58},{"user_id":373,"name":"Vasil The Healer","steam_id":76561198144573141,"connected_time":1103000000000,"state":"active","ping":82},{"user_id":322,"name":"SONIC THE GOD","steam_id":76561199185147093,"connected_time":3414000000000,"state":"active","ping":83},{"user_id":264,"name":"Caliban","steam_id":76561197999696839,"connected_time":6739000000000,"state":"active","ping":113},{"user_id":326,"name":"Timpanojnoj","steam_id":76561197970334448,"connected_time":3282000000000,"state":"active","ping":62},{"user_id":384,"name":"Burpman","steam_id":76561198022897937,"connected_time":56000000000,"state":"active","ping":64},{"user_id":344,"name":"hungry burger","steam_id":76561198064342804,"connected_time":2627000000000,"state":"active","ping":71},{"user_id":378,"name":"‚òÜtwyn[BRK]65","steam_id":76561197993439750,"connected_time":916000000000,"state":"active","ping":48},{"user_id":364,"name":"idc","steam_id":76561198208349835,"connected_time":1487000000000,"state":"active","ping":75},{"user_id":352,"name":"JackButNotBlack","steam_id":76561198199196931,"connected_time":2088000000000,"state":"active","ping":71},{"user_id":306,"name":"Adib al-asfar","steam_id":76561198095691592,"connected_time":4559000000000,"state":"active","ping":61},{"user_id":370,"name":"Lyell","steam_id":76561198350329389,"connected_time":1131000000000,"state":"active","ping":85},{"user_id":369,"name":"?","steam_id":76561198111134021,"connected_time":1165000000000,"state":"active","ping":81},{"user_id":350,"name":"Steve_b4lls","steam_id":76561199212273303,"connected_time":2338000000000,"state":"active","ping":81},{"user_id":351,"name":"murmeldjur","steam_id":76561198166065637,"connected_time":2301000000000,"state":"active","ping":83},{"user_id":382,"name":"ÊÇ™","steam_id":76561198095879087,"connected_time":164000000000,"state":"active","ping":71}]},{"server_id":311,"name":"Uncletopia | Frankfurt | 6 | All Maps","name_short":"frk-6","host":"frk-1.de.uncletopia.com","port":27065,"enabled":true,"region":"eu","cc":"de","latitude":50.110924,"longitude":8.682127,"reserved":0,"last_update":"0001-01-01T00:00:00Z","name_a2s":"Uncletopia | Frankfurt | 6 | All Maps","protocol":17,"map":"cp_foundry","folder":"tf","game":"Team Fortress","app_id":440,"player_count":24,"max_players":24,"Bots":0,"server_type":"Dedicated","server_os":"Linux","password":true,"vac":true,"version":"7882260","steam_id":85568392924504278,"keywords":["cp","nocrits","nodmgspread","uncletopia"],"game_id":440,"stv_port":27066,"stv_name":"Uncletopia | Frankfurt | 6 | All Maps | STV","players":[{"user_id":173,"name":"Mussolini","steam_id":76561198218384865,"connected_time":229000000000,"state":"active","ping":95},{"user_id":138,"name":"hananamanna","steam_id":76561198006570285,"connected_time":2642000000000,"state":"active","ping":109},{"user_id":164,"name":"paguro","steam_id":76561198119560871,"connected_time":505000000000,"state":"active","ping":72},{"user_id":160,"name":"FlameTheGame","steam_id":76561198841108519,"connected_time":551000000000,"state":"active","ping":84},{"user_id":163,"name":"Musicano","steam_id":76561198114541088,"connected_time":521000000000,"state":"active","ping":95},{"user_id":156,"name":"Noob_Extreme","steam_id":76561198353507507,"connected_time":925000000000,"state":"active","ping":64},{"user_id":117,"name":"Merc","steam_id":76561199012274799,"connected_time":3772000000000,"state":"active","ping":55},{"user_id":153,"name":"Wail","steam_id":76561199083647054,"connected_time":1501000000000,"state":"active","ping":62},{"user_id":149,"name":"vdl","steam_id":76561198044583116,"connected_time":1973000000000,"state":"active","ping":91},{"user_id":174,"name":"amdon.art","steam_id":76561198066251000,"connected_time":149000000000,"state":"active","ping":46},{"user_id":135,"name":"Adopted?","steam_id":76561198118667043,"connected_time":3171000000000,"state":"active","ping":50},{"user_id":161,"name":"joachym","steam_id":76561198428579761,"connected_time":543000000000,"state":"active","ping":66},{"user_id":175,"name":"Mr.Happy","steam_id":76561198009646650,"connected_time":132000000000,"state":"active","ping":69},{"user_id":165,"name":"RedFog","steam_id":76561198284713081,"connected_time":495000000000,"state":"active","ping":42},{"user_id":143,"name":"IONYCH","steam_id":76561198378350040,"connected_time":2387000000000,"state":"active","ping":84},{"user_id":150,"name":"finbar","steam_id":76561198056812396,"connected_time":1609000000000,"state":"active","ping":77},{"user_id":148,"name":"The Deadly Doughnut","steam_id":76561198079049349,"connected_time":2029000000000,"state":"active","ping":69},{"user_id":176,"name":"Ecin","steam_id":76561198816655769,"connected_time":114000000000,"state":"active","ping":53},{"user_id":171,"name":"Purple toaster yt","steam_id":76561199071229316,"connected_time":380000000000,"state":"active","ping":69},{"user_id":172,"name":"hallu","steam_id":76561198198581079,"connected_time":324000000000,"state":"active","ping":79},{"user_id":71,"name":"Freddy Fazbear Gaming","steam_id":76561198299179114,"connected_time":7061000000000,"state":"active","ping":80},{"user_id":166,"name":"ALL BALLS NO SHAFT","steam_id":76561198028701695,"connected_time":469000000000,"state":"active","ping":59},{"user_id":109,"name":"Lyncurion","steam_id":76561199260022725,"connected_time":4241000000000,"state":"active","ping":80},{"user_id":167,"name":"Charged","steam_id":76561199127215130,"connected_time":466000000000,"state":"active","ping":88}]},{"server_id":23,"name":"Uncletopia | Frankfurt | 7 | Stopwatch Beta","name_short":"frk-7","host":"frk-1.de.uncletopia.com","port":27075,"enabled":true,"region":"eu","cc":"de","latitude":50.110924,"longitude":8.682127,"reserved":0,"last_update":"0001-01-01T00:00:00Z","name_a2s":"Uncletopia | Frankfurt | 7 | Stopwatch Beta","protocol":17,"map":"koth_lakeside_final","folder":"tf","game":"Team Fortress","app_id":440,"player_count":0,"max_players":24,"Bots":0,"server_type":"Dedicated","server_os":"Linux","password":true,"vac":true,"version":"7882260","steam_id":85568392924742827,"keywords":["cp","nocrits","nodmgspread","uncletopia"],"game_id":440,"stv_port":27076,"stv_name":"Uncletopia | Frankfurt | 7 | Stopwatch Beta | STV","players":null},{"server_id":24,"name":"Uncletopia | Frankfurt | 8 | Community","name_short":"frk-8","host":"frk-1.de.uncletopia.com","port":27085,"enabled":true,"region":"eu","cc":"de","latitude":50.110924,"longitude":8.682127,"reserved":0,"last_update":"0001-01-01T00:00:00Z","name_a2s":"Uncletopia | Frankfurt | 8 | Community","protocol":17,"map":"workshop/koth_product_final.ugc454272353","folder":"tf","game":"Team Fortress","app_id":440,"player_count":0,"max_players":24,"Bots":0,"server_type":"Dedicated","server_os":"Linux","password":true,"vac":true,"version":"7882260","steam_id":85568392924742828,"keywords":["cp","nocrits","nodmgspread","uncletopia"],"game_id":440,"stv_port":27086,"stv_name":"Uncletopia | Frankfurt | 8 | Community | STV","players":null},{"server_id":202,"name":"Uncletopia | Hong Kong | 1 | All Maps","name_short":"hgk-1","host":"hgk-1.hk.uncletopia.com","port":27015,"enabled":true,"region":"asia","cc":"hk","latitude":22.302711,"longitude":114.177216,"reserved":0,"last_update":"0001-01-01T00:00:00Z","name_a2s":"Uncletopia | Hong Kong | 1 | All Maps","protocol":17,"map":"koth_cascade","folder":"tf","game":"Team Fortress","app_id":440,"player_count":0,"max_players":24,"Bots":0,"server_type":"Dedicated","server_os":"Linux","password":true,"vac":true,"version":"7882260","steam_id":85568392924494504,"keywords":["cp","nocrits","nodmgspread","uncletopia"],"game_id":440,"stv_port":27016,"stv_name":"Uncletopia | Hong Kong | 1 | All Maps | STV","players":null},{"server_id":1,"name":"Uncletopia | Los Angeles | 1 | All Maps","name_short":"lax-1","host":"lax-1.us.uncletopia.com","port":27015,"enabled":true,"region":"us-west","cc":"us","latitude":33.94279,"longitude":-118.41004,"reserved":0,"last_update":"0001-01-01T00:00:00Z","name_a2s":"Uncletopia | Los Angeles | 1 | All Maps","protocol":17,"map":"pl_upward","folder":"tf","game":"Team Fortress","app_id":440,"player_count":0,"max_players":24,"Bots":0,"server_type":"Dedicated","server_os":"Linux","password":true,"vac":true,"version":"7882260","steam_id":85568392924469991,"keywords":["nocrits","nodmgspread","payload","uncletopia"],"game_id":440,"stv_port":27016,"stv_name":"Uncletopia | Los Angeles | 1 | All Maps | STV","players":null},{"server_id":112,"name":"Uncletopia | Los Angeles | 2 | All Maps","name_short":"lax-2","host":"lax-1.us.uncletopia.com","port":27025,"enabled":true,"region":"us-west","cc":"us","latitude":33.94279,"longitude":-118.41004,"reserved":0,"last_update":"0001-01-01T00:00:00Z","name_a2s":"Uncletopia | Los Angeles | 2 | All Maps","protocol":17,"map":"cp_sunshine","folder":"tf","game":"Team Fortress","app_id":440,"player_count":0,"max_players":24,"Bots":0,"server_type":"Dedicated","server_os":"Linux","password":true,"vac":true,"version":"7882260","steam_id":85568392924469992,"keywords":["cp","nocrits","nodmgspread","uncletopia"],"game_id":440,"stv_port":27026,"stv_name":"Uncletopia | Los Angeles | 2 | All Maps | STV","players":null},{"server_id":324,"name":"Uncletopia | Los Angeles | 3 | All Maps","name_short":"lax-3","host":"lax-1.us.uncletopia.com","port":27035,"enabled":true,"region":"us-west","cc":"us","latitude":33.94279,"longitude":-118.41004,"reserved":0,"last_update":"0001-01-01T00:00:00Z","name_a2s":"Uncletopia | Los Angeles | 3 | All Maps","protocol":17,"map":"cp_altitude","folder":"tf","game":"Team Fortress","app_id":440,"player_count":0,"max_players":24,"Bots":0,"server_type":"Dedicated","server_os":"Linux","password":true,"vac":true,"version":"7882260","steam_id":85568392924510198,"keywords":["cp","nocrits","nodmgspread","uncletopia"],"game_id":440,"stv_port":27036,"stv_name":"Uncletopia | Los Angeles | 3 | All Maps | STV","players":null},{"server_id":25,"name":"Uncletopia | Los Angeles | 4 | Stopwatch Beta","name_short":"lax-4","host":"lax-1.us.uncletopia.com","port":27045,"enabled":true,"region":"us-west","cc":"us","latitude":33.94279,"longitude":-118.41004,"reserved":0,"last_update":"0001-01-01T00:00:00Z","name_a2s":"Uncletopia | Los Angeles | 4 | Stopwatch Beta","protocol":17,"map":"koth_viaduct","folder":"tf","game":"Team Fortress","app_id":440,"player_count":0,"max_players":24,"Bots":0,"server_type":"Dedicated","server_os":"Linux","password":true,"vac":true,"version":"7882260","steam_id":85568392924510199,"keywords":["cp","nocrits","nodmgspread","uncletopia"],"game_id":440,"stv_port":27046,"stv_name":"Uncletopia | Los Angeles | 4 | Stopwatch Beta | STV","players":null},{"server_id":11,"name":"Uncletopia | London | 1 | All Maps","name_short":"lon-1","host":"lon-1.uk.uncletopia.com","port":27015,"enabled":true,"region":"eu","cc":"gb","latitude":51.509865,"longitude":-0.118092,"reserved":0,"last_update":"0001-01-01T00:00:00Z","name_a2s":"Uncletopia | London | 1 | All Maps","protocol":17,"map":"pl_upward","folder":"tf","game":"Team Fortress","app_id":440,"player_count":24,"max_players":24,"Bots":0,"server_type":"Dedicated","server_os":"Linux","password":true,"vac":true,"version":"7882260","steam_id":85568392924367362,"keywords":["nocrits","nodmgspread","payload","uncletopia"],"game_id":440,"stv_port":27016,"stv_name":"Uncletopia | London | 1 | All Maps | STV","players":[{"user_id":1293,"name":"Kamakazie trade.tf","steam_id":76561198142323649,"connected_time":148000000000,"state":"active","ping":171},{"user_id":1291,"name":"Sandshee","steam_id":76561198088574666,"connected_time":199000000000,"state":"active","ping":42},{"user_id":1261,"name":"dools18","steam_id":76561198880768062,"connected_time":3657000000000,"state":"active","ping":59},{"user_id":1160,"name":"e9","steam_id":76561198890193313,"connected_time":10850000000000,"state":"active","ping":58},{"user_id":1228,"name":"Mr. Heavy LFT Premiership","steam_id":76561198080912087,"connected_time":6076000000000,"state":"active","ping":65},{"user_id":1275,"name":"Dehydrated #ArrowMe","steam_id":76561198970587989,"connected_time":2104000000000,"state":"active","ping":104},{"user_id":1219,"name":"oh my science","steam_id":76561198190583242,"connected_time":6937000000000,"state":"active","ping":96},{"user_id":1222,"name":"Lyra","steam_id":76561198043601838,"connected_time":6765000000000,"state":"active","ping":60},{"user_id":1286,"name":"Mads","steam_id":76561198089261782,"connected_time":860000000000,"state":"active","ping":60},{"user_id":1274,"name":"UltimateAura","steam_id":76561198338361324,"connected_time":2518000000000,"state":"active","ping":43},{"user_id":1273,"name":"Chilly Snipples","steam_id":76561198203326293,"connected_time":2545000000000,"state":"active","ping":74},{"user_id":1279,"name":"Fish 'n' Chips","steam_id":76561198033476886,"connected_time":2052000000000,"state":"active","ping":49},{"user_id":1289,"name":"Egor Pomidor","steam_id":76561199175688390,"connected_time":501000000000,"state":"active","ping":86},{"user_id":1288,"name":"ilimori","steam_id":76561197961231625,"connected_time":695000000000,"state":"active","ping":45},{"user_id":1292,"name":"Subterranean","steam_id":76561198106684566,"connected_time":162000000000,"state":"active","ping":77},{"user_id":1265,"name":"slifer the executive producer","steam_id":76561198322087870,"connected_time":3359000000000,"state":"active","ping":118},{"user_id":1294,"name":"quickfast","steam_id":76561199438900919,"connected_time":98000000000,"state":"active","ping":47},{"user_id":1256,"name":"Healix","steam_id":76561198130270161,"connected_time":4293000000000,"state":"active","ping":61},{"user_id":1295,"name":"poy","steam_id":76561198114063534,"connected_time":94000000000,"state":"active","ping":60},{"user_id":1195,"name":"Tomate Cerise","steam_id":76561198242665582,"connected_time":8880000000000,"state":"active","ping":61},{"user_id":1287,"name":"something","steam_id":76561198198581615,"connected_time":805000000000,"state":"active","ping":59},{"user_id":1237,"name":"Plep","steam_id":76561198840259819,"connected_time":5478000000000,"state":"active","ping":60},{"user_id":1189,"name":"ksndr","steam_id":76561198051084840,"connected_time":9102000000000,"state":"active","ping":54},{"user_id":1282,"name":"lanzer","steam_id":76561198049983016,"connected_time":1936000000000,"state":"active","ping":95}]},{"server_id":114,"name":"Uncletopia | London | 2 | All Maps","name_short":"lon-2","host":"lon-1.uk.uncletopia.com","port":27025,"enabled":true,"region":"eu","cc":"gb","latitude":51.509865,"longitude":-0.118092,"reserved":0,"last_update":"0001-01-01T00:00:00Z","name_a2s":"Uncletopia | London | 2 | All Maps","protocol":17,"map":"pl_badwater","folder":"tf","game":"Team Fortress","app_id":440,"player_count":24,"max_players":24,"Bots":0,"server_type":"Dedicated","server_os":"Linux","password":true,"vac":true,"version":"7882260","steam_id":85568392924470941,"keywords":["nocrits","nodmgspread","payload","uncletopia"],"game_id":440,"stv_port":27026,"stv_name":"Uncletopia | London | 2 | All Maps | STV","players":[{"user_id":505,"name":"Average meme enjoyer","steam_id":76561199087566663,"connected_time":3344000000000,"state":"active","ping":96},{"user_id":506,"name":"engineer drip","steam_id":76561198991032570,"connected_time":3332000000000,"state":"active","ping":86},{"user_id":545,"name":"-gunripp0r^be / Obelix^","steam_id":76561197999306879,"connected_time":1735000000000,"state":"active","ping":66},{"user_id":557,"name":"Voks_","steam_id":76561198159687785,"connected_time":843000000000,"state":"active","ping":75},{"user_id":530,"name":"beurgeur","steam_id":76561198872426314,"connected_time":2268000000000,"state":"active","ping":44},{"user_id":497,"name":"i'm a movement player lois","steam_id":76561198112681438,"connected_time":4313000000000,"state":"active","ping":95},{"user_id":538,"name":"W","steam_id":76561199357934976,"connected_time":2019000000000,"state":"active","ping":78},{"user_id":554,"name":"air arrow legacy","steam_id":76561198180361759,"connected_time":1092000000000,"state":"active","ping":40},{"user_id":549,"name":"sam-","steam_id":76561198013770973,"connected_time":1271000000000,"state":"active","ping":67},{"user_id":524,"name":"TeaAndPancakes","steam_id":76561199039103507,"connected_time":2681000000000,"state":"active","ping":83},{"user_id":550,"name":"Borat","steam_id":76561198122226417,"connected_time":1257000000000,"state":"active","ping":45},{"user_id":528,"name":"Circular","steam_id":76561198001536710,"connected_time":2353000000000,"state":"active","ping":46},{"user_id":523,"name":"Snowmotion","steam_id":76561198075022454,"connected_time":2838000000000,"state":"active","ping":71},{"user_id":544,"name":"microwavedelights","steam_id":76561199260959455,"connected_time":1771000000000,"state":"active","ping":121},{"user_id":559,"name":"call of duty","steam_id":76561198235814492,"connected_time":14000000000,"state":"spawning","ping":99},{"user_id":490,"name":"qiulongtao","steam_id":76561198977558717,"connected_time":4946000000000,"state":"active","ping":147},{"user_id":515,"name":"XiaBit","steam_id":76561199204102465,"connected_time":3075000000000,"state":"active","ping":82},{"user_id":555,"name":"hedon/","steam_id":76561198249832770,"connected_time":1012000000000,"state":"active","ping":45},{"user_id":552,"name":"I Don't Know","steam_id":76561198841011430,"connected_time":1227000000000,"state":"active","ping":74},{"user_id":482,"name":"Spurt","steam_id":76561198078523852,"connected_time":5270000000000,"state":"active","ping":47},{"user_id":558,"name":"generic alias","steam_id":76561198271607226,"connected_time":402000000000,"state":"active","ping":97},{"user_id":556,"name":"SuperBob103","steam_id":76561199175360012,"connected_time":885000000000,"state":"active","ping":66},{"user_id":519,"name":"Birds Aren't Real","steam_id":76561199380849468,"connected_time":3049000000000,"state":"active","ping":63},{"user_id":491,"name":"Repa24","steam_id":76561198033016390,"connected_time":4936000000000,"state":"active","ping":91}]},{"server_id":320,"name":"Uncletopia | London | 3 | All Maps","name_short":"lon-3","host":"lon-1.uk.uncletopia.com","port":27035,"enabled":true,"region":"eu","cc":"gb","latitude":51.509865,"longitude":-0.118092,"reserved":0,"last_update":"0001-01-01T00:00:00Z","name_a2s":"Uncletopia | London | 3 | All Maps","protocol":17,"map":"cp_dustbowl","folder":"tf","game":"Team Fortress","app_id":440,"player_count":15,"max_players":24,"Bots":0,"server_type":"Dedicated","server_os":"Linux","password":true,"vac":true,"version":"7882260","steam_id":85568392924510192,"keywords":["cp","nocrits","nodmgspread","uncletopia"],"game_id":440,"stv_port":27036,"stv_name":"Uncletopia | London | 3 | All Maps | STV","players":[{"user_id":636,"name":"Mabert","steam_id":76561198436058407,"connected_time":136000000000,"state":"active","ping":75},{"user_id":631,"name":"silicon based life form","steam_id":76561199127121346,"connected_time":414000000000,"state":"active","ping":58},{"user_id":634,"name":"Lubrsi","steam_id":76561198040208195,"connected_time":341000000000,"state":"active","ping":53},{"user_id":607,"name":"Arcader","steam_id":76561198109860110,"connected_time":2947000000000,"state":"active","ping":65},{"user_id":637,"name":"saturn505","steam_id":76561198143921841,"connected_time":73000000000,"state":"active","ping":91},{"user_id":599,"name":"Nugget","steam_id":76561198338916407,"connected_time":3535000000000,"state":"active","ping":73},{"user_id":638,"name":"CarrierPigeon","steam_id":76561198143126135,"connected_time":1000000000,"state":"spawning","ping":33},{"user_id":628,"name":"Shamrock","steam_id":76561199013951917,"connected_time":674000000000,"state":"active","ping":53},{"user_id":561,"name":"TheGrayGamer","steam_id":76561198862727465,"connected_time":5189000000000,"state":"active","ping":53},{"user_id":616,"name":"gajo","steam_id":76561199172260370,"connected_time":2182000000000,"state":"active","ping":69},{"user_id":620,"name":"Doctor Marijuana","steam_id":76561198288289879,"connected_time":2103000000000,"state":"active","ping":48},{"user_id":629,"name":"meatsoupcube","steam_id":76561198276802249,"connected_time":526000000000,"state":"active","ping":106},{"user_id":621,"name":"Neklausk","steam_id":76561198174895762,"connected_time":1999000000000,"state":"active","ping":82},{"user_id":618,"name":"Sakari","steam_id":76561197997811299,"connected_time":2149000000000,"state":"active","ping":60},{"user_id":619,"name":"ThisGuy","steam_id":76561198152296391,"connected_time":2128000000000,"state":"active","ping":124}]},{"server_id":321,"name":"Uncletopia | London | 4 | All Maps","name_short":"lon-4","host":"lon-1.uk.uncletopia.com","port":27045,"enabled":true,"region":"eu","cc":"gb","latitude":51.509865,"longitude":-0.118092,"reserved":0,"last_update":"0001-01-01T00:00:00Z","name_a2s":"Uncletopia | London | 4 | All Maps","protocol":17,"map":"pl_rumford_event","folder":"tf","game":"Team Fortress","app_id":440,"player_count":24,"max_players":24,"Bots":0,"server_type":"Dedicated","server_os":"Linux","password":true,"vac":true,"version":"7882260","steam_id":85568392924510193,"keywords":["nocrits","nodmgspread","payload","uncletopia"],"game_id":440,"stv_port":27046,"stv_name":"Uncletopia | London | 4 | All Maps | STV","players":[{"user_id":252,"name":"SKFBoge","steam_id":76561198269038278,"connected_time":2306000000000,"state":"active","ping":83},{"user_id":280,"name":"Flying skyhigh","steam_id":76561198372971096,"connected_time":200000000000,"state":"active","ping":67},{"user_id":221,"name":"Xydran","steam_id":76561198042397402,"connected_time":3923000000000,"state":"active","ping":65},{"user_id":222,"name":"Fluffy","steam_id":76561198084447725,"connected_time":3916000000000,"state":"active","ping":50},{"user_id":273,"name":"Medieval Doktor","steam_id":76561198075373362,"connected_time":656000000000,"state":"active","ping":39},{"user_id":237,"name":"Bayoyo","steam_id":76561199069591774,"connected_time":3222000000000,"state":"active","ping":87},{"user_id":250,"name":"Themadnessman","steam_id":76561198079732032,"connected_time":2355000000000,"state":"active","ping":85},{"user_id":279,"name":"Kleiner Engel","steam_id":76561198009922500,"connected_time":331000000000,"state":"active","ping":69},{"user_id":275,"name":"and i'm javert!","steam_id":76561198117033273,"connected_time":583000000000,"state":"active","ping":52},{"user_id":265,"name":"iokoieon","steam_id":76561198065009070,"connected_time":1757000000000,"state":"active","ping":87},{"user_id":184,"name":"gothmoth","steam_id":76561198386910896,"connected_time":6442000000000,"state":"active","ping":112},{"user_id":253,"name":"prolog","steam_id":76561198356421550,"connected_time":2289000000000,"state":"active","ping":102},{"user_id":272,"name":"Lekke","steam_id":76561197994951062,"connected_time":669000000000,"state":"active","ping":89},{"user_id":277,"name":"Some Guy","steam_id":76561198137335527,"connected_time":509000000000,"state":"active","ping":60},{"user_id":260,"name":"clean carp","steam_id":76561198127053294,"connected_time":1948000000000,"state":"active","ping":76},{"user_id":270,"name":"Munibe","steam_id":76561198107967904,"connected_time":784000000000,"state":"active","ping":70},{"user_id":282,"name":"Tenebris Triangulum","steam_id":76561198828618721,"connected_time":24000000000,"state":"spawning","ping":91},{"user_id":267,"name":"Itai","steam_id":76561198804555329,"connected_time":993000000000,"state":"active","ping":108},{"user_id":271,"name":"The Cadean Lucius","steam_id":76561198183880529,"connected_time":743000000000,"state":"active","ping":66},{"user_id":266,"name":"Furry Injector","steam_id":76561198846296185,"connected_time":1718000000000,"state":"active","ping":86},{"user_id":283,"name":"Spotmonkey","steam_id":76561198003994092,"connected_time":20000000000,"state":"active","ping":58},{"user_id":256,"name":"Tink","steam_id":76561198118235443,"connected_time":2162000000000,"state":"active","ping":58},{"user_id":259,"name":"[SHDT] (‚òûÔæü„ÉÆÔæü)‚òû PH0NKe","steam_id":76561198294417765,"connected_time":2072000000000,"state":"active","ping":120},{"user_id":263,"name":"Hattmannen","steam_id":76561198340884902,"connected_time":1878000000000,"state":"active","ping":76}]},{"server_id":21,"name":"Uncletopia | London | 5 | All Maps","name_short":"lon-5","host":"lon-1.uk.uncletopia.com","port":27055,"enabled":true,"region":"eu","cc":"gb","latitude":51.509865,"longitude":-0.118092,"reserved":0,"last_update":"0001-01-01T00:00:00Z","name_a2s":"Uncletopia | London | 5 | All Maps","protocol":17,"map":"cp_process_final","folder":"tf","game":"Team Fortress","app_id":440,"player_count":24,"max_players":24,"Bots":0,"server_type":"Dedicated","server_os":"Linux","password":true,"vac":true,"version":"7882260","steam_id":85568392924742829,"keywords":["cp","nocrits","nodmgspread","uncletopia"],"game_id":440,"stv_port":27056,"stv_name":"Uncletopia | London | 5 | All Maps | STV","players":[{"user_id":262,"name":"___U_w_U___","steam_id":76561198246939740,"connected_time":1321000000000,"state":"active","ping":75},{"user_id":253,"name":"goblinninja110","steam_id":76561198269159354,"connected_time":1942000000000,"state":"active","ping":56},{"user_id":265,"name":"Udinese Dion","steam_id":76561198067931573,"connected_time":545000000000,"state":"active","ping":62},{"user_id":244,"name":"cherry‚ù§","steam_id":76561198346851670,"connected_time":2718000000000,"state":"active","ping":71},{"user_id":257,"name":"fshfkr","steam_id":76561198095979282,"connected_time":1786000000000,"state":"active","ping":31},{"user_id":264,"name":"Omyskull","steam_id":76561198131711758,"connected_time":827000000000,"state":"active","ping":68},{"user_id":260,"name":"Metal","steam_id":76561199013364336,"connected_time":1465000000000,"state":"active","ping":60},{"user_id":266,"name":"Wockhardt Enthusiast","steam_id":76561199084631030,"connected_time":282000000000,"state":"active","ping":163},{"user_id":246,"name":"British Disapproval","steam_id":76561198001375260,"connected_time":2654000000000,"state":"active","ping":58},{"user_id":259,"name":"Locke","steam_id":76561198339408300,"connected_time":1530000000000,"state":"active","ping":62},{"user_id":201,"name":"zoinks!","steam_id":76561198068645362,"connected_time":5442000000000,"state":"active","ping":42},{"user_id":219,"name":"Providence","steam_id":76561198003920270,"connected_time":4490000000000,"state":"active","ping":76},{"user_id":267,"name":"frosty","steam_id":76561198094560834,"connected_time":271000000000,"state":"active","ping":55},{"user_id":254,"name":"Wuffington","steam_id":76561198033762881,"connected_time":1930000000000,"state":"active","ping":46},{"user_id":258,"name":"Ciria‚Åß‚Åß k","steam_id":76561198084111951,"connected_time":1592000000000,"state":"active","ping":80},{"user_id":268,"name":"Shoko of Hellwound","steam_id":76561198095277549,"connected_time":269000000000,"state":"active","ping":69},{"user_id":269,"name":"mumbler","steam_id":76561197970641239,"connected_time":247000000000,"state":"active","ping":57},{"user_id":270,"name":"Well, off to hang myself","steam_id":76561198053374944,"connected_time":218000000000,"state":"active","ping":69},{"user_id":271,"name":"Yuzu","steam_id":76561198121694613,"connected_time":208000000000,"state":"active","ping":49},{"user_id":249,"name":"[DAH] this a bocket Der good","steam_id":76561198085461681,"connected_time":2591000000000,"state":"active","ping":75},{"user_id":250,"name":"D0kai","steam_id":76561198389271720,"connected_time":2568000000000,"state":"active","ping":48},{"user_id":237,"name":"SeeYouSpaceRobot","steam_id":76561198454018197,"connected_time":3391000000000,"state":"active","ping":57},{"user_id":272,"name":"S E X P R E S I D E N T","steam_id":76561198139714370,"connected_time":5000000000,"state":"spawning","ping":67},{"user_id":206,"name":"cat","steam_id":76561198832231975,"connected_time":5309000000000,"state":"active","ping":98}]},{"server_id":22,"name":"Uncletopia | London | 6 | All Maps","name_short":"lon-6","host":"lon-1.uk.uncletopia.com","port":27065,"enabled":true,"region":"eu","cc":"gb","latitude":51.509865,"longitude":-0.118092,"reserved":0,"last_update":"0001-01-01T00:00:00Z","name_a2s":"Uncletopia | London | 6 | All Maps","protocol":17,"map":"cp_altitude","folder":"tf","game":"Team Fortress","app_id":440,"player_count":8,"max_players":24,"Bots":0,"server_type":"Dedicated","server_os":"Linux","password":true,"vac":true,"version":"7882260","steam_id":85568392924742830,"keywords":["cp","nocrits","nodmgspread","uncletopia"],"game_id":440,"stv_port":27066,"stv_name":"Uncletopia | London | 6 | All Maps | STV","players":[{"user_id":12,"name":"nemelex","steam_id":76561198958005865,"connected_time":2192000000000,"state":"active","ping":60},{"user_id":28,"name":"King Of Kings","steam_id":76561199224534493,"connected_time":818000000000,"state":"active","ping":140},{"user_id":35,"name":"Soaya","steam_id":76561199101510855,"connected_time":165000000000,"state":"active","ping":45},{"user_id":38,"name":"Thellsec","steam_id":76561198144608611,"connected_time":55000000000,"state":"active","ping":146},{"user_id":39,"name":"‚òÜMiNTERRRRR‚òÜ","steam_id":76561198799866156,"connected_time":33000000000,"state":"active","ping":111},{"user_id":37,"name":"ƒêesmond","steam_id":76561198097676225,"connected_time":136000000000,"state":"active","ping":61},{"user_id":33,"name":"Envy","steam_id":76561198132723219,"connected_time":406000000000,"state":"active","ping":105},{"user_id":22,"name":"faze girldick","steam_id":76561199044306780,"connected_time":983000000000,"state":"active","ping":94}]},{"server_id":40,"name":"Uncletopia | London | 7 | No Payload","name_short":"lon-7","host":"lon-1.uk.uncletopia.com","port":27075,"enabled":true,"region":"eu","cc":"gb","latitude":51.509865,"longitude":-0.118092,"reserved":0,"last_update":"0001-01-01T00:00:00Z","name_a2s":"Uncletopia | London | 7 | No Payload","protocol":17,"map":"koth_king","folder":"tf","game":"Team Fortress","app_id":440,"player_count":24,"max_players":24,"Bots":0,"server_type":"Dedicated","server_os":"Linux","password":true,"vac":true,"version":"7882260","steam_id":85568392924964314,"keywords":["cp","nocrits","nodmgspread","uncletopia"],"game_id":440,"stv_port":27076,"stv_name":"Uncletopia | London | 7 | No Payload | STV","players":[{"user_id":107,"name":"Nithle","steam_id":76561198025372740,"connected_time":121000000000,"state":"active","ping":37},{"user_id":99,"name":"BLACKBIRD CLOSE [she/her]","steam_id":76561198262910410,"connected_time":651000000000,"state":"active","ping":105},{"user_id":27,"name":"aughhh","steam_id":76561199000081676,"connected_time":4247000000000,"state":"active","ping":45},{"user_id":98,"name":"aphextwinsucks","steam_id":76561198132185926,"connected_time":693000000000,"state":"active","ping":74},{"user_id":101,"name":"Holofightz Nene","steam_id":76561198226788392,"connected_time":383000000000,"state":"active","ping":57},{"user_id":103,"name":"Dr.Nefario","steam_id":76561198874586020,"connected_time":323000000000,"state":"active","ping":73},{"user_id":88,"name":"skith","steam_id":76561198192190569,"connected_time":1136000000000,"state":"active","ping":74},{"user_id":108,"name":"kat\u003c3","steam_id":76561198159722251,"connected_time":117000000000,"state":"active","ping":60},{"user_id":89,"name":"Cypher","steam_id":76561197996967254,"connected_time":1124000000000,"state":"active","ping":66},{"user_id":77,"name":"Scobra [FR]","steam_id":76561198000734400,"connected_time":2279000000000,"state":"active","ping":111},{"user_id":87,"name":"sandvich demolisher","steam_id":76561198192343263,"connected_time":1163000000000,"state":"active","ping":42},{"user_id":104,"name":"gooseloose64","steam_id":76561199410265902,"connected_time":271000000000,"state":"active","ping":97},{"user_id":90,"name":"TylowStar","steam_id":76561198357107806,"connected_time":1106000000000,"state":"active","ping":60},{"user_id":91,"name":"The Daniella","steam_id":76561198023075547,"connected_time":1103000000000,"state":"active","ping":61},{"user_id":83,"name":"Explosive Poptart","steam_id":76561198023918830,"connected_time":1408000000000,"state":"active","ping":41},{"user_id":84,"name":"2fort's silliest soldier","steam_id":76561198128613675,"connected_time":1368000000000,"state":"active","ping":96},{"user_id":105,"name":"mitical uknown","steam_id":76561198844852761,"connected_time":241000000000,"state":"active","ping":72},{"user_id":96,"name":"eva.","steam_id":76561198054474684,"connected_time":753000000000,"state":"active","ping":87},{"user_id":41,"name":"Salty dodo","steam_id":76561198992829873,"connected_time":3947000000000,"state":"active","ping":75},{"user_id":42,"name":"Cultist","steam_id":76561198000620771,"connected_time":3931000000000,"state":"active","ping":96},{"user_id":43,"name":"Avoo","steam_id":76561198186954897,"connected_time":3930000000000,"state":"active","ping":73},{"user_id":106,"name":"SUSman","steam_id":76561199193589170,"connected_time":227000000000,"state":"active","ping":97},{"user_id":53,"name":"Lana Ev√∏l √Öttog","steam_id":76561198066287297,"connected_time":3521000000000,"state":"active","ping":59},{"user_id":50,"name":"Carol Olston","steam_id":76561198080257273,"connected_time":3625000000000,"state":"active","ping":45}]},{"server_id":41,"name":"Uncletopia | London | 8 | Community","name_short":"lon-8","host":"lon-1.uk.uncletopia.com","port":27085,"enabled":true,"region":"eu","cc":"gb","latitude":51.509865,"longitude":-0.118092,"reserved":0,"last_update":"0001-01-01T00:00:00Z","name_a2s":"Uncletopia | London | 8 | Community","protocol":17,"map":"workshop/koth_bagel_rc6.ugc2514036946","folder":"tf","game":"Team Fortress","app_id":440,"player_count":0,"max_players":24,"Bots":0,"server_type":"Dedicated","server_os":"Linux","password":true,"vac":true,"version":"7882260","steam_id":85568392924964315,"keywords":["cp","nocrits","nodmgspread","uncletopia"],"game_id":440,"stv_port":27086,"stv_name":"Uncletopia | London | 8 | Community | STV","players":null},{"server_id":300,"name":"Uncletopia | Montr√©al | 1 | All Maps","name_short":"mtl-1","host":"mtl-1.ca.uncletopia.com","port":27015,"enabled":true,"region":"us-east","cc":"ca","latitude":45.50889,"longitude":-73.56167,"reserved":0,"last_update":"0001-01-01T00:00:00Z","name_a2s":"Uncletopia | Montr√©al | 1 | All Maps","protocol":17,"map":"koth_cascade","folder":"tf","game":"Team Fortress","app_id":440,"player_count":0,"max_players":24,"Bots":0,"server_type":"Dedicated","server_os":"Linux","password":true,"vac":true,"version":"7882260","steam_id":85568392924500087,"keywords":["cp","nocrits","nodmgspread","uncletopia"],"game_id":440,"stv_port":27016,"stv_name":"Uncletopia | Montr√©al | 1 | All Maps | STV","players":null},{"server_id":301,"name":"Uncletopia | Montr√©al | 2 | All Maps","name_short":"mtl-2","host":"mtl-1.ca.uncletopia.com","port":27025,"enabled":true,"region":"us-east","cc":"ca","latitude":45.50889,"longitude":-73.56167,"reserved":0,"last_update":"0001-01-01T00:00:00Z","name_a2s":"Uncletopia | Montr√©al | 2 | All Maps","protocol":17,"map":"pl_swiftwater_final1","folder":"tf","game":"Team Fortress","app_id":440,"player_count":0,"max_players":24,"Bots":0,"server_type":"Dedicated","server_os":"Linux","password":true,"vac":true,"version":"7882260","steam_id":85568392924500088,"keywords":["nocrits","nodmgspread","payload","uncletopia"],"game_id":440,"stv_port":27026,"stv_name":"Uncletopia | Montr√©al | 2 | All Maps | STV","players":null},{"server_id":302,"name":"Uncletopia | Montr√©al | 3 | All Maps","name_short":"mtl-3","host":"mtl-1.ca.uncletopia.com","port":27035,"enabled":true,"region":"us-east","cc":"ca","latitude":45.50889,"longitude":-73.56167,"reserved":0,"last_update":"0001-01-01T00:00:00Z","name_a2s":"Uncletopia | Montr√©al | 3 | All Maps","protocol":17,"map":"koth_highpass","folder":"tf","game":"Team Fortress","app_id":440,"player_count":0,"max_players":24,"Bots":0,"server_type":"Dedicated","server_os":"Linux","password":true,"vac":true,"version":"7882260","steam_id":85568392924500089,"keywords":["cp","nocrits","nodmgspread","uncletopia"],"game_id":440,"stv_port":27036,"stv_name":"Uncletopia | Montr√©al | 3 | All Maps | STV","players":null},{"server_id":303,"name":"Uncletopia | Montr√©al | 4 | No Payload","name_short":"mtl-4","host":"mtl-1.ca.uncletopia.com","port":27045,"enabled":true,"region":"us-east","cc":"ca","latitude":45.50889,"longitude":-73.56167,"reserved":0,"last_update":"0001-01-01T00:00:00Z","name_a2s":"Uncletopia | Montr√©al | 4 | No Payload","protocol":17,"map":"koth_highpass","folder":"tf","game":"Team Fortress","app_id":440,"player_count":0,"max_players":24,"Bots":0,"server_type":"Dedicated","server_os":"Linux","password":true,"vac":true,"version":"7882260","steam_id":85568392924500090,"keywords":["cp","nocrits","nodmgspread","uncletopia"],"game_id":440,"stv_port":27046,"stv_name":"Uncletopia | Montr√©al | 4 | No Payload | STV","players":null},{"server_id":13,"name":"Uncletopia | New York City | 1 | All Maps","name_short":"nyc-1","host":"nyc-1.us.uncletopia.com","port":27015,"enabled":true,"region":"us-east","cc":"us","latitude":40.73061,"longitude":-73.93524,"reserved":0,"last_update":"0001-01-01T00:00:00Z","name_a2s":"Uncletopia | New York City | 1 | All Maps","protocol":17,"map":"pl_borneo","folder":"tf","game":"Team Fortress","app_id":440,"player_count":24,"max_players":24,"Bots":0,"server_type":"Dedicated","server_os":"Linux","password":true,"vac":true,"version":"7882260","steam_id":85568392924469993,"keywords":["nocrits","nodmgspread","payload","uncletopia"],"game_id":440,"stv_port":27016,"stv_name":"Uncletopia | New York City | 1 | All Maps | STV","players":[{"user_id":188,"name":"Lieutenant Lazybones","steam_id":76561198317647978,"connected_time":3400000000000,"state":"active","ping":55},{"user_id":213,"name":"Sprinklingmydoughnut","steam_id":76561198168009092,"connected_time":1215000000000,"state":"active","ping":63},{"user_id":206,"name":"Brown_Dream","steam_id":76561198975766145,"connected_time":2034000000000,"state":"active","ping":73},{"user_id":219,"name":"TheHiddenBlade","steam_id":76561199129787866,"connected_time":780000000000,"state":"active","ping":86},{"user_id":215,"name":"Professional HotDog","steam_id":76561199250225639,"connected_time":1103000000000,"state":"active","ping":64},{"user_id":216,"name":"Frajer","steam_id":76561198059129680,"connected_time":898000000000,"state":"active","ping":66},{"user_id":158,"name":"Constellar Nova","steam_id":76561198868215392,"connected_time":5005000000000,"state":"active","ping":58},{"user_id":162,"name":"Bee_Pirate","steam_id":76561199000599111,"connected_time":4900000000000,"state":"active","ping":66},{"user_id":187,"name":"Blackbird","steam_id":76561198127818333,"connected_time":3461000000000,"state":"active","ping":70},{"user_id":101,"name":"Fan Girl","steam_id":76561198253710690,"connected_time":9505000000000,"state":"active","ping":85},{"user_id":211,"name":"McDonald Dipped Cone","steam_id":76561198167974713,"connected_time":1353000000000,"state":"active","ping":66},{"user_id":220,"name":"SKINGRAPH","steam_id":76561198082933650,"connected_time":755000000000,"state":"active","ping":101},{"user_id":204,"name":"chiswola","steam_id":76561198046920142,"connected_time":2492000000000,"state":"active","ping":95},{"user_id":169,"name":"turd ferguson","steam_id":76561198071620782,"connected_time":4569000000000,"state":"active","ping":61},{"user_id":202,"name":"Tea Enthusiast","steam_id":76561198185583925,"connected_time":2541000000000,"state":"active","ping":34},{"user_id":193,"name":"Marcel","steam_id":76561199079200901,"connected_time":2856000000000,"state":"active","ping":98},{"user_id":207,"name":"SentiuntReus","steam_id":76561198208788677,"connected_time":1612000000000,"state":"active","ping":55},{"user_id":183,"name":"Dusken","steam_id":76561198020696265,"connected_time":3737000000000,"state":"active","ping":68},{"user_id":197,"name":"Wan Shi Tong","steam_id":76561198076441225,"connected_time":2767000000000,"state":"active","ping":51},{"user_id":199,"name":"Der Krieger105","steam_id":76561197978384609,"connected_time":2685000000000,"state":"active","ping":71},{"user_id":200,"name":"‚ô°Alyx‚ô°","steam_id":76561198024303978,"connected_time":2676000000000,"state":"active","ping":48},{"user_id":218,"name":"echo","steam_id":76561199411724732,"connected_time":795000000000,"state":"active","ping":41},{"user_id":201,"name":"yeyoi","steam_id":76561198069821885,"connected_time":2658000000000,"state":"active","ping":50},{"user_id":194,"name":"Unlock The Shock (She/They)","steam_id":76561198823616667,"connected_time":2840000000000,"state":"active","ping":96}]},{"server_id":14,"name":"Uncletopia | New York City | 2 | All Maps","name_short":"nyc-2","host":"nyc-1.us.uncletopia.com","port":27025,"enabled":true,"region":"us-east","cc":"us","latitude":40.73061,"longitude":-73.93524,"reserved":0,"last_update":"0001-01-01T00:00:00Z","name_a2s":"Uncletopia | New York City | 2 | All Maps","protocol":17,"map":"pl_upward","folder":"tf","game":"Team Fortress","app_id":440,"player_count":24,"max_players":24,"Bots":0,"server_type":"Dedicated","server_os":"Linux","password":true,"vac":true,"version":"7882260","steam_id":85568392924469994,"keywords":["nocrits","nodmgspread","payload","uncletopia"],"game_id":440,"stv_port":27026,"stv_name":"Uncletopia | New York City | 2 | All Maps | STV","players":[{"user_id":15,"name":"t.tv/stabslive","steam_id":76561198293116584,"connected_time":4816000000000,"state":"active","ping":65},{"user_id":16,"name":"Goat","steam_id":76561198109415404,"connected_time":4808000000000,"state":"active","ping":136},{"user_id":51,"name":"[CTC] kooldan","steam_id":76561198136593625,"connected_time":2719000000000,"state":"active","ping":89},{"user_id":77,"name":"dirty dank","steam_id":76561198360904432,"connected_time":1226000000000,"state":"active","ping":54},{"user_id":49,"name":"TafferBlaster","steam_id":76561198135665290,"connected_time":2786000000000,"state":"active","ping":68},{"user_id":69,"name":"Duende Enthusiast","steam_id":76561198354359094,"connected_time":1469000000000,"state":"active","ping":62},{"user_id":81,"name":"Void","steam_id":76561199186496740,"connected_time":853000000000,"state":"active","ping":87},{"user_id":80,"name":"wahooka","steam_id":76561197981211922,"connected_time":1010000000000,"state":"active","ping":65},{"user_id":73,"name":"Franklin M. Hooverville","steam_id":76561198245109084,"connected_time":1326000000000,"state":"active","ping":66},{"user_id":29,"name":"Deja Vu","steam_id":76561198062090620,"connected_time":3562000000000,"state":"active","ping":129},{"user_id":79,"name":"totally nuts","steam_id":76561198072856511,"connected_time":1159000000000,"state":"active","ping":65},{"user_id":70,"name":"Frank the Tank","steam_id":76561198014574925,"connected_time":1458000000000,"state":"active","ping":72},{"user_id":65,"name":"who is gavin?","steam_id":76561198069415057,"connected_time":1700000000000,"state":"active","ping":47},{"user_id":45,"name":"kefkja","steam_id":76561198283963218,"connected_time":2894000000000,"state":"active","ping":49},{"user_id":71,"name":"EddyQTooReal","steam_id":76561198088480679,"connected_time":1453000000000,"state":"active","ping":65},{"user_id":39,"name":"Ian","steam_id":76561199078852180,"connected_time":3118000000000,"state":"active","ping":60},{"user_id":40,"name":"Thelonious Prime, King of Jazz","steam_id":76561198077785482,"connected_time":3097000000000,"state":"active","ping":72},{"user_id":46,"name":"justwhothehelldoyouthinkiam","steam_id":76561198013064750,"connected_time":2866000000000,"state":"active","ping":169},{"user_id":55,"name":"Minion Fartly","steam_id":76561197987805095,"connected_time":2481000000000,"state":"active","ping":105},{"user_id":50,"name":"Ghworg","steam_id":76561198324891401,"connected_time":2782000000000,"state":"active","ping":61},{"user_id":72,"name":"Âç©‰∏®‰πô‰πôÂçÇ‚Ñó","steam_id":76561198127445422,"connected_time":1421000000000,"state":"active","ping":45},{"user_id":53,"name":"ObscurePixel","steam_id":76561198393520301,"connected_time":2693000000000,"state":"active","ping":72},{"user_id":54,"name":"Tony hawks pro skater 2 dlc","steam_id":76561198243387974,"connected_time":2627000000000,"state":"active","ping":50},{"user_id":76,"name":"flr","steam_id":76561198249327786,"connected_time":1302000000000,"state":"active","ping":132}]},{"server_id":15,"name":"Uncletopia | New York City | 3 | Stopwatch Beta","name_short":"nyc-3","host":"nyc-1.us.uncletopia.com","port":27035,"enabled":true,"region":"us-east","cc":"us","latitude":40.73061,"longitude":-73.93524,"reserved":0,"last_update":"0001-01-01T00:00:00Z","name_a2s":"Uncletopia | New York City | 3 | Stopwatch Beta","protocol":17,"map":"pl_borneo","folder":"tf","game":"Team Fortress","app_id":440,"player_count":0,"max_players":24,"Bots":0,"server_type":"Dedicated","server_os":"Linux","password":true,"vac":true,"version":"7882260","steam_id":85568392924742820,"keywords":["nocrits","nodmgspread","payload","uncletopia"],"game_id":440,"stv_port":27036,"stv_name":"Uncletopia | New York City | 3 | Stopwatch Beta | STV","players":null},{"server_id":16,"name":"Uncletopia | New York City | 4 | Community","name_short":"nyc-4","host":"nyc-1.us.uncletopia.com","port":27045,"enabled":true,"region":"us-east","cc":"us","latitude":40.73061,"longitude":-73.93524,"reserved":0,"last_update":"0001-01-01T00:00:00Z","name_a2s":"Uncletopia | New York City | 4 | Community","protocol":17,"map":"workshop/cp_mannbase_rc2a.ugc1900737467","folder":"tf","game":"Team Fortress","app_id":440,"player_count":0,"max_players":24,"Bots":0,"server_type":"Dedicated","server_os":"Linux","password":true,"vac":true,"version":"7882260","steam_id":85568392924742821,"keywords":["cp","nocrits","nodmgspread","uncletopia"],"game_id":440,"stv_port":27046,"stv_name":"Uncletopia | New York City | 4 | Community | STV","players":null},{"server_id":142,"name":"Uncletopia | S√£o Paulo | 1 | All Maps","name_short":"sao-1","host":"sao-1.br.uncletopia.com","port":27015,"enabled":true,"region":"sa","cc":"br","latitude":-23.533773,"longitude":-46.62529,"reserved":0,"last_update":"0001-01-01T00:00:00Z","name_a2s":"Uncletopia | S√£o Paulo | 1 | All Maps","protocol":17,"map":"koth_viaduct","folder":"tf","game":"Team Fortress","app_id":440,"player_count":6,"max_players":24,"Bots":0,"server_type":"Dedicated","server_os":"Linux","password":true,"vac":true,"version":"7882260","steam_id":85568392924469996,"keywords":["cp","nocrits","nodmgspread","uncletopia"],"game_id":440,"stv_port":27016,"stv_name":"Uncletopia | S√£o Paulo | 1 | All Maps | STV","players":[{"user_id":18,"name":"Heavy's sandwicheria","steam_id":76561199434489438,"connected_time":785000000000,"state":"active","ping":80},{"user_id":11,"name":"papeldelija","steam_id":76561199167066182,"connected_time":1578000000000,"state":"active","ping":65},{"user_id":16,"name":"xva","steam_id":76561198302571041,"connected_time":1399000000000,"state":"active","ping":74},{"user_id":13,"name":"jean_bagda","steam_id":76561198204036061,"connected_time":1526000000000,"state":"active","ping":48},{"user_id":19,"name":"serafinfratesi","steam_id":76561199277708848,"connected_time":687000000000,"state":"active","ping":89},{"user_id":17,"name":"Gustavo Serpati","steam_id":76561199043923415,"connected_time":1397000000000,"state":"active","ping":75}]},{"server_id":143,"name":"Uncletopia | S√£o Paulo | 2 | All Maps","name_short":"sao-2","host":"sao-2.br.uncletopia.com","port":27015,"enabled":true,"region":"sa","cc":"br","latitude":-23.533773,"longitude":-46.62529,"reserved":0,"last_update":"0001-01-01T00:00:00Z","name_a2s":"Uncletopia | S√£o Paulo | 2 | All Maps","protocol":17,"map":"koth_king","folder":"tf","game":"Team Fortress","app_id":440,"player_count":0,"max_players":24,"Bots":0,"server_type":"Dedicated","server_os":"Linux","password":true,"vac":true,"version":"7882260","steam_id":85568392924485349,"keywords":["cp","nocrits","nodmgspread","uncletopia"],"game_id":440,"stv_port":27016,"stv_name":"Uncletopia | S√£o Paulo | 2 | All Maps | STV","players":null},{"server_id":7,"name":"Uncletopia | Seattle | 1 | All Maps","name_short":"sea-1","host":"sea-1.us.uncletopia.com","port":27015,"enabled":true,"region":"us-west","cc":"us","latitude":47.608013,"longitude":-122.33517,"reserved":0,"last_update":"0001-01-01T00:00:00Z","name_a2s":"Uncletopia | Seattle | 1 | All Maps","protocol":17,"map":"koth_highpass","folder":"tf","game":"Team Fortress","app_id":440,"player_count":9,"max_players":24,"Bots":0,"server_type":"Dedicated","server_os":"Linux","password":true,"vac":true,"version":"7882260","steam_id":85568392924469997,"keywords":["cp","nocrits","nodmgspread","uncletopia"],"game_id":440,"stv_port":27016,"stv_name":"Uncletopia | Seattle | 1 | All Maps | STV","players":[{"user_id":318,"name":"Doge Vandire","steam_id":76561198067508276,"connected_time":1247000000000,"state":"active","ping":121},{"user_id":320,"name":"asm_ghost","steam_id":76561199205363547,"connected_time":1040000000000,"state":"active","ping":85},{"user_id":332,"name":"nori_420 (mute)","steam_id":76561199117134203,"connected_time":142000000000,"state":"active","ping":82},{"user_id":326,"name":"forg","steam_id":76561199160422863,"connected_time":560000000000,"state":"active","ping":171},{"user_id":333,"name":"Legendary Fro","steam_id":76561198099981980,"connected_time":65000000000,"state":"active","ping":83},{"user_id":328,"name":"Squirrel","steam_id":76561198026605788,"connected_time":393000000000,"state":"active","ping":33},{"user_id":329,"name":"Keyboardbreaker","steam_id":76561198372836132,"connected_time":364000000000,"state":"active","ping":71},{"user_id":316,"name":"Drewey","steam_id":76561199258609863,"connected_time":1478000000000,"state":"active","ping":106},{"user_id":330,"name":"Pudsla","steam_id":76561198258974036,"connected_time":357000000000,"state":"active","ping":59}]},{"server_id":119,"name":"Uncletopia | Seattle | 2 | All Maps","name_short":"sea-2","host":"sea-1.us.uncletopia.com","port":27025,"enabled":true,"region":"us-west","cc":"us","latitude":47.608013,"longitude":-122.33517,"reserved":0,"last_update":"0001-01-01T00:00:00Z","name_a2s":"Uncletopia | Seattle | 2 | All Maps","protocol":17,"map":"cp_steel","folder":"tf","game":"Team Fortress","app_id":440,"player_count":24,"max_players":24,"Bots":0,"server_type":"Dedicated","server_os":"Linux","password":true,"vac":true,"version":"7882260","steam_id":85568392924469998,"keywords":["cp","nocrits","nodmgspread","uncletopia"],"game_id":440,"stv_port":27026,"stv_name":"Uncletopia | Seattle | 2 | All Maps | STV","players":[{"user_id":134,"name":"Jones","steam_id":76561198046037216,"connected_time":13000000000,"state":"spawning","ping":97},{"user_id":112,"name":"Strikerbolt","steam_id":76561199095622897,"connected_time":1176000000000,"state":"active","ping":74},{"user_id":128,"name":"Rosfell","steam_id":76561198126506967,"connected_time":481000000000,"state":"active","ping":163},{"user_id":132,"name":"Taylor Swift","steam_id":76561198078130694,"connected_time":312000000000,"state":"active","ping":82},{"user_id":77,"name":"Fiddle","steam_id":76561199114446250,"connected_time":3666000000000,"state":"active","ping":93},{"user_id":114,"name":"SolarusD","steam_id":76561198029279861,"connected_time":1068000000000,"state":"active","ping":61},{"user_id":115,"name":"Honeybunch","steam_id":76561198014850580,"connected_time":1062000000000,"state":"active","ping":37},{"user_id":111,"name":"Keamy","steam_id":76561199471434875,"connected_time":1193000000000,"state":"active","ping":40},{"user_id":116,"name":"D(b) Hell","steam_id":76561198067869016,"connected_time":1056000000000,"state":"active","ping":74},{"user_id":130,"name":"PURPLE","steam_id":76561199140133516,"connected_time":457000000000,"state":"active","ping":73},{"user_id":105,"name":"the killer","steam_id":76561198300167622,"connected_time":1725000000000,"state":"active","ping":73},{"user_id":127,"name":"WaffleWithNoToppings","steam_id":76561199088280111,"connected_time":740000000000,"state":"active","ping":45},{"user_id":35,"name":"dweaver","steam_id":76561198119610135,"connected_time":5451000000000,"state":"active","ping":80},{"user_id":108,"name":"TheRiGuy21","steam_id":76561199466243640,"connected_time":1304000000000,"state":"active","ping":90},{"user_id":131,"name":"Potato57","steam_id":76561198144282089,"connected_time":446000000000,"state":"active","ping":132},{"user_id":125,"name":"RagecozRTX","steam_id":76561199258646551,"connected_time":909000000000,"state":"active","ping":130},{"user_id":120,"name":"Saint Laurent Don","steam_id":76561198116820706,"connected_time":996000000000,"state":"active","ping":72},{"user_id":79,"name":"Noxitril_Enjoyer","steam_id":76561198870649125,"connected_time":3603000000000,"state":"active","ping":76},{"user_id":126,"name":"TTV_ToryStream","steam_id":76561198421203977,"connected_time":899000000000,"state":"active","ping":129},{"user_id":122,"name":"Chocc","steam_id":76561198068070211,"connected_time":975000000000,"state":"active","ping":83},{"user_id":133,"name":"OH NO","steam_id":76561198006900990,"connected_time":49000000000,"state":"active","ping":77},{"user_id":124,"name":"jorts","steam_id":76561199041179985,"connected_time":939000000000,"state":"active","ping":66},{"user_id":110,"name":"aggressive headpatter","steam_id":76561198042913843,"connected_time":1203000000000,"state":"active","ping":60},{"user_id":71,"name":"soapboxracer360","steam_id":76561198316394688,"connected_time":4094000000000,"state":"active","ping":88}]},{"server_id":406,"name":"Uncletopia | Seattle | 3 | Stopwatch Beta","name_short":"sea-3","host":"sea-1.us.uncletopia.com","port":27035,"enabled":true,"region":"us-west","cc":"us","latitude":47.608013,"longitude":-122.33517,"reserved":0,"last_update":"0001-01-01T00:00:00Z","name_a2s":"Uncletopia | Seattle | 3 | Stopwatch Beta","protocol":17,"map":"koth_viaduct","folder":"tf","game":"Team Fortress","app_id":440,"player_count":0,"max_players":24,"Bots":0,"server_type":"Dedicated","server_os":"Linux","password":true,"vac":true,"version":"7882260","steam_id":85568392924515217,"keywords":["cp","nocrits","nodmgspread","uncletopia"],"game_id":440,"stv_port":27036,"stv_name":"Uncletopia | Seattle | 3 | Stopwatch Beta | STV","players":null},{"server_id":17,"name":"Uncletopia | San Francisco | 1 | All Maps","name_short":"sfo-1","host":"sfo-1.us.uncletopia.com","port":27015,"enabled":true,"region":"us-west","cc":"us","latitude":37.77397,"longitude":-122.4313,"reserved":0,"last_update":"0001-01-01T00:00:00Z","name_a2s":"Uncletopia | San Francisco | 1 | All Maps","protocol":17,"map":"pl_upward","folder":"tf","game":"Team Fortress","app_id":440,"player_count":22,"max_players":24,"Bots":0,"server_type":"Dedicated","server_os":"Linux","password":true,"vac":true,"version":"7882260","steam_id":85568392924469999,"keywords":["nocrits","nodmgspread","payload","uncletopia"],"game_id":440,"stv_port":27016,"stv_name":"Uncletopia | San Francisco | 1 | All Maps | STV","players":[{"user_id":245,"name":"chicken","steam_id":76561198196998007,"connected_time":256000000000,"state":"active","ping":53},{"user_id":206,"name":"mycoolcucumber","steam_id":76561198177586211,"connected_time":2444000000000,"state":"active","ping":116},{"user_id":243,"name":"wolfspider","steam_id":76561199073738227,"connected_time":602000000000,"state":"active","ping":72},{"user_id":197,"name":"DiscoTraveler","steam_id":76561199240168088,"connected_time":3129000000000,"state":"active","ping":103},{"user_id":246,"name":"El Duderino","steam_id":76561198084404539,"connected_time":238000000000,"state":"active","ping":142},{"user_id":247,"name":"SneekiCheekiQbone","steam_id":76561198045077980,"connected_time":211000000000,"state":"active","ping":53},{"user_id":236,"name":"Duh Slug God","steam_id":76561198347280079,"connected_time":836000000000,"state":"active","ping":44},{"user_id":200,"name":"PheebsyDeebsy","steam_id":76561198101509436,"connected_time":2863000000000,"state":"active","ping":59},{"user_id":239,"name":"BrightOrangeMango","steam_id":76561198023144607,"connected_time":773000000000,"state":"active","ping":71},{"user_id":209,"name":"MegaBitmap","steam_id":76561198086027059,"connected_time":2409000000000,"state":"active","ping":66},{"user_id":211,"name":"oppai","steam_id":76561198347660282,"connected_time":2369000000000,"state":"active","ping":95},{"user_id":248,"name":"ü§®","steam_id":76561199365672047,"connected_time":130000000000,"state":"active","ping":145},{"user_id":249,"name":"Shark","steam_id":76561198219031981,"connected_time":87000000000,"state":"active","ping":116},{"user_id":237,"name":"Mutzy‚Ñ¢","steam_id":76561198085858203,"connected_time":832000000000,"state":"active","ping":110},{"user_id":233,"name":"SAD MOSCOVIA","steam_id":76561198101081520,"connected_time":1113000000000,"state":"active","ping":82},{"user_id":196,"name":"BurdBrain","steam_id":76561197962097737,"connected_time":3135000000000,"state":"active","ping":63},{"user_id":240,"name":"PaC","steam_id":76561198081053203,"connected_time":755000000000,"state":"active","ping":79},{"user_id":238,"name":"Alice in Rubberland","steam_id":76561198087328346,"connected_time":827000000000,"state":"active","ping":107},{"user_id":241,"name":"VampWolfDoll (She/Her)","steam_id":76561198102301491,"connected_time":745000000000,"state":"active","ping":117},{"user_id":217,"name":"CareFree Brie","steam_id":76561198868697407,"connected_time":2033000000000,"state":"active","ping":49},{"user_id":231,"name":"wugmup","steam_id":76561199096287734,"connected_time":1193000000000,"state":"active","ping":83}]},{"server_id":18,"name":"Uncletopia | San Francisco | 2 | All Maps","name_short":"sfo-2","host":"sfo-1.us.uncletopia.com","port":27025,"enabled":true,"region":"us-west","cc":"us","latitude":37.77397,"longitude":-122.4313,"reserved":0,"last_update":"0001-01-01T00:00:00Z","name_a2s":"Uncletopia | San Francisco | 2 | All Maps","protocol":17,"map":"pl_snowycoast","folder":"tf","game":"Team Fortress","app_id":440,"player_count":0,"max_players":24,"Bots":0,"server_type":"Dedicated","server_os":"Linux","password":true,"vac":true,"version":"7882260","steam_id":85568392924470000,"keywords":["nocrits","nodmgspread","payload","uncletopia"],"game_id":440,"stv_port":27026,"stv_name":"Uncletopia | San Francisco | 2 | All Maps | STV","players":null},{"server_id":19,"name":"Uncletopia | San Francisco | 3 | Stopwatch Beta","name_short":"sfo-3","host":"sfo-1.us.uncletopia.com","port":27035,"enabled":true,"region":"us-west","cc":"us","latitude":37.77397,"longitude":-122.4313,"reserved":0,"last_update":"0001-01-01T00:00:00Z","name_a2s":"Uncletopia | San Francisco | 3 | Stopwatch Beta","protocol":17,"map":"pl_snowycoast","folder":"tf","game":"Team Fortress","app_id":440,"player_count":0,"max_players":24,"Bots":0,"server_type":"Dedicated","server_os":"Linux","password":true,"vac":true,"version":"7882260","steam_id":85568392924742824,"keywords":["nocrits","nodmgspread","payload","uncletopia"],"game_id":440,"stv_port":27036,"stv_name":"Uncletopia | San Francisco | 3 | Stopwatch Beta | STV","players":null},{"server_id":20,"name":"Uncletopia | San Francisco | 4 | Community","name_short":"sfo-4","host":"sfo-1.us.uncletopia.com","port":27045,"enabled":true,"region":"us-west","cc":"us","latitude":37.77397,"longitude":-122.4313,"reserved":0,"last_update":"0001-01-01T00:00:00Z","name_a2s":"Uncletopia | San Francisco | 4 | Community","protocol":17,"map":"pl_swiftwater_final1","folder":"tf","game":"Team Fortress","app_id":440,"player_count":0,"max_players":24,"Bots":0,"server_type":"Dedicated","server_os":"Linux","password":true,"vac":true,"version":"7882260","steam_id":85568392924742826,"keywords":["nocrits","nodmgspread","payload","uncletopia"],"game_id":440,"stv_port":27046,"stv_name":"Uncletopia | San Francisco | 4 | Community | STV","players":null},{"server_id":141,"name":"Uncletopia | Sydney | 1 | All Maps","name_short":"syd-1","host":"syd-1.au.uncletopia.com","port":27015,"enabled":true,"region":"au","cc":"au","latitude":-33.865143,"longitude":151.2099,"reserved":0,"last_update":"0001-01-01T00:00:00Z","name_a2s":"Uncletopia | Sydney | 1 | All Maps","protocol":17,"map":"cp_altitude","folder":"tf","game":"Team Fortress","app_id":440,"player_count":0,"max_players":24,"Bots":0,"server_type":"Dedicated","server_os":"Linux","password":true,"vac":true,"version":"7882260","steam_id":85568392924470001,"keywords":["cp","nocrits","nodmgspread","uncletopia"],"game_id":440,"stv_port":27016,"stv_name":"Uncletopia | Sydney | 1 | All Maps | STV","players":null},{"server_id":123,"name":"Uncletopia | Sydney | 2 | All Maps","name_short":"syd-2","host":"syd-1.au.uncletopia.com","port":27025,"enabled":true,"region":"au","cc":"au","latitude":-33.865143,"longitude":151.2099,"reserved":0,"last_update":"0001-01-01T00:00:00Z","name_a2s":"Uncletopia | Sydney | 2 | All Maps","protocol":17,"map":"cp_snakewater_final1","folder":"tf","game":"Team Fortress","app_id":440,"player_count":0,"max_players":24,"Bots":0,"server_type":"Dedicated","server_os":"Linux","password":true,"vac":true,"version":"7882260","steam_id":85568392924470002,"keywords":["cp","nocrits","nodmgspread","uncletopia"],"game_id":440,"stv_port":27026,"stv_name":"Uncletopia | Sydney | 2 | All Maps | STV","players":null},{"server_id":395,"name":"Uncletopia | Sydney | 3 | All Maps","name_short":"syd-3","host":"syd-1.au.uncletopia.com","port":27035,"enabled":true,"region":"au","cc":"au","latitude":-33.865143,"longitude":151.2099,"reserved":0,"last_update":"0001-01-01T00:00:00Z","name_a2s":"Uncletopia | Sydney | 3 | All Maps","protocol":17,"map":"pl_badwater","folder":"tf","game":"Team Fortress","app_id":440,"player_count":0,"max_players":24,"Bots":0,"server_type":"Dedicated","server_os":"Linux","password":true,"vac":true,"version":"7882260","steam_id":85568392925194467,"keywords":["nocrits","nodmgspread","payload","uncletopia"],"game_id":440,"stv_port":27036,"stv_name":"Uncletopia | Sydney | 3 | All Maps | STV","players":null},{"server_id":396,"name":"Uncletopia | Sydney | 4 | All Maps","name_short":"syd-4","host":"syd-1.au.uncletopia.com","port":27045,"enabled":true,"region":"au","cc":"au","latitude":-33.865143,"longitude":151.2099,"reserved":0,"last_update":"0001-01-01T00:00:00Z","name_a2s":"Uncletopia | Sydney | 4 | All Maps","protocol":17,"map":"cp_altitude","folder":"tf","game":"Team Fortress","app_id":440,"player_count":0,"max_players":24,"Bots":0,"server_type":"Dedicated","server_os":"Linux","password":true,"vac":true,"version":"7882260","steam_id":85568392925397958,"keywords":["cp","nocrits","nodmgspread","uncletopia"],"game_id":440,"stv_port":27046,"stv_name":"Uncletopia | Sydney | 4 | All Maps | STV","players":null},{"server_id":58,"name":"Uncletopia | Sydney | 5 | Stopwatch Beta","name_short":"syd-5","host":"syd-1.au.uncletopia.com","port":27055,"enabled":true,"region":"au","cc":"au","latitude":-33.865143,"longitude":151.2099,"reserved":0,"last_update":"0001-01-01T00:00:00Z","name_a2s":"Uncletopia | Sydney | 5 | Stopwatch Beta","protocol":17,"map":"koth_viaduct","folder":"tf","game":"Team Fortress","app_id":440,"player_count":0,"max_players":24,"Bots":0,"server_type":"Dedicated","server_os":"Linux","password":true,"vac":true,"version":"7882260","steam_id":85568392925397959,"keywords":["cp","nocrits","nodmgspread","uncletopia"],"game_id":440,"stv_port":27056,"stv_name":"Uncletopia | Sydney | 5 | Stopwatch Beta | STV","players":null},{"server_id":59,"name":"Uncletopia | Sydney | 6 | Community","name_short":"syd-6","host":"syd-1.au.uncletopia.com","port":27065,"enabled":true,"region":"au","cc":"au","latitude":-33.865143,"longitude":151.2099,"reserved":0,"last_update":"0001-01-01T00:00:00Z","name_a2s":"Uncletopia | Sydney | 6 | Community","protocol":17,"map":"pl_upward","folder":"tf","game":"Team Fortress","app_id":440,"player_count":0,"max_players":24,"Bots":0,"server_type":"Dedicated","server_os":"Linux","password":true,"vac":true,"version":"7882260","steam_id":85568392925397960,"keywords":["nocrits","nodmgspread","payload","uncletopia"],"game_id":440,"stv_port":27066,"stv_name":"Uncletopia | Sydney | 6 | Community | STV","players":null},{"server_id":49,"name":"Uncletopia | Warsaw | 1 | All Maps","name_short":"waw-1","host":"waw-1.pl.uncletopia.com","port":27015,"enabled":true,"region":"eu","cc":"pl","latitude":52.2297,"longitude":21.017532,"reserved":0,"last_update":"0001-01-01T00:00:00Z","name_a2s":"","protocol":0,"map":"","folder":"","game":"","app_id":0,"player_count":0,"max_players":0,"Bots":0,"server_type":"","server_os":"","password":false,"vac":false,"version":"","steam_id":0,"keywords":null,"game_id":0,"stv_port":0,"stv_name":"","players":null},{"server_id":50,"name":"Uncletopia | Warsaw | 2 | All Maps","name_short":"waw-2","host":"waw-1.pl.uncletopia.com","port":27025,"enabled":true,"region":"eu","cc":"pl","latitude":52.2297,"longitude":21.017532,"reserved":0,"last_update":"0001-01-01T00:00:00Z","name_a2s":"Uncletopia | Warsaw | 2 | All Maps","protocol":17,"map":"koth_viaduct","folder":"tf","game":"Team Fortress","app_id":440,"player_count":0,"max_players":24,"Bots":0,"server_type":"Dedicated","server_os":"Linux","password":true,"vac":true,"version":"7882260","steam_id":85568392925397851,"keywords":["cp","nocrits","nodmgspread","uncletopia"],"game_id":440,"stv_port":27026,"stv_name":"Uncletopia | Warsaw | 2 | All Maps | STV","players":null},{"server_id":51,"name":"Uncletopia | Warsaw | 3 | All Maps","name_short":"waw-3","host":"waw-1.pl.uncletopia.com","port":27035,"enabled":true,"region":"eu","cc":"pl","latitude":52.2297,"longitude":21.017532,"reserved":0,"last_update":"0001-01-01T00:00:00Z","name_a2s":"Uncletopia | Warsaw | 3 | All Maps","protocol":17,"map":"cp_process_final","folder":"tf","game":"Team Fortress","app_id":440,"player_count":0,"max_players":24,"Bots":0,"server_type":"Dedicated","server_os":"Linux","password":true,"vac":true,"version":"7882260","steam_id":85568392925397852,"keywords":["cp","nocrits","nodmgspread","uncletopia"],"game_id":440,"stv_port":27036,"stv_name":"Uncletopia | Warsaw | 3 | All Maps | STV","players":null},{"server_id":52,"name":"Uncletopia | Warsaw | 4 | All Maps","name_short":"waw-4","host":"waw-1.pl.uncletopia.com","port":27045,"enabled":true,"region":"eu","cc":"pl","latitude":52.2297,"longitude":21.017532,"reserved":0,"last_update":"0001-01-01T00:00:00Z","name_a2s":"Uncletopia | Warsaw | 4 | All Maps","protocol":17,"map":"koth_cascade","folder":"tf","game":"Team Fortress","app_id":440,"player_count":0,"max_players":24,"Bots":0,"server_type":"Dedicated","server_os":"Linux","password":true,"vac":true,"version":"7882260","steam_id":85568392925397853,"keywords":["cp","nocrits","nodmgspread","uncletopia"],"game_id":440,"stv_port":27046,"stv_name":"Uncletopia | Warsaw | 4 | All Maps | STV","players":null},{"server_id":53,"name":"Uncletopia | Warsaw | 5 | Stopwatch Beta","name_short":"waw-5","host":"waw-1.pl.uncletopia.com","port":27055,"enabled":true,"region":"eu","cc":"pl","latitude":52.2297,"longitude":21.017532,"reserved":0,"last_update":"0001-01-01T00:00:00Z","name_a2s":"Uncletopia | Warsaw | 5 | Stopwatch Beta","protocol":17,"map":"cp_granary","folder":"tf","game":"Team Fortress","app_id":440,"player_count":0,"max_players":24,"Bots":0,"server_type":"Dedicated","server_os":"Linux","password":true,"vac":true,"version":"7882260","steam_id":85568392925397854,"keywords":["cp","nocrits","nodmgspread","uncletopia"],"game_id":440,"stv_port":27056,"stv_name":"Uncletopia | Warsaw | 5 | Stopwatch Beta | STV","players":null},{"server_id":54,"name":"Uncletopia | Warsaw | 6 | Community","name_short":"waw-6","host":"waw-1.pl.uncletopia.com","port":27065,"enabled":true,"region":"eu","cc":"pl","latitude":52.2297,"longitude":21.017532,"reserved":0,"last_update":"0001-01-01T00:00:00Z","name_a2s":"Uncletopia | Warsaw | 6 | Community","protocol":17,"map":"workshop/koth_bagel_rc6.ugc2514036946","folder":"tf","game":"Team Fortress","app_id":440,"player_count":0,"max_players":24,"Bots":0,"server_type":"Dedicated","server_os":"Linux","password":true,"vac":true,"version":"7882260","steam_id":85568392925397856,"keywords":["cp","nocrits","nodmgspread","uncletopia"],"game_id":440,"stv_port":27066,"stv_name":"Uncletopia | Warsaw | 6 | Community | STV","players":null}]}