{"status":true,"message":"","result":[{"server_id":9,"name":"Uncletopia | Atlanta | 1 | All Maps","name_short":"atl-1","host":"atl-1.us.uncletopia.com","port":27015,"enabled":true,"region":"us-east","cc":"us","latitude":33.753746,"longitude":-84.38633,"reserved":0,"last_update":"0001-01-01T00:00:00Z","name_a2s":"Uncletopia | Atlanta | 1 | All Maps","protocol":17,"map":"pl_badwater","folder":"tf","game":"Team Fortress","app_id":440,"player_count":20,"max_players":24,"Bots":0,"server_type":"Dedicated","server_os":"Linux","password":true,"vac":true,"version":"7961495","steam_id":85568392924469982,"keywords":["nocrits","nodmgspread","payload","uncletopia"],"game_id":440,"stv_port":27016,"stv_name":"Uncletopia | Atlanta | 1 | All Maps | STV","players":null},{"server_id":104,"name":"Uncletopia | Atlanta | 2 | All Maps","name_short":"atl-2","host":"atl-1.us.uncletopia.com","port":27025,"enabled":true,"region":"us-east","cc":"us","latitude":33.753746,"longitude":-84.38633,"reserved":0,"last_update":"0001-01-01T00:00:00Z","name_a2s":"Uncletopia | Atlanta | 2 | All Maps","protocol":17,"map":"cp_snakewater_final1","folder":"tf","game":"Team Fortress","app_id":440,"player_count":0,"max_players":24,"Bots":0,"server_type":"Dedicated","server_os":"Linux","password":true,"vac":true,"version":"7961495","steam_id":85568392924469983,"keywords":["cp","nocrits","nodmgspread","uncletopia"],"game_id":440,"stv_port":27026,"stv_name":"Uncletopia | Atlanta | 2 | All Maps | STV","players":null},{"server_id":400,"name":"Uncletopia | Atlanta | 3 | Stopwatch","name_short":"atl-3","host":"atl-1.us.uncletopia.com","port":27035,"enabled":true,"region":"us-east","cc":"us","latitude":33.753746,"longitude":-84.38633,"reserved":0,"last_update":"0001-01-01T00:00:00Z","name_a2s":"Uncletopia | Atlanta | 3 | Stopwatch","protocol":17,"map":"koth_clearcut_b15","folder":"tf","game":"Team Fortress","app_id":440,"player_count":0,"max_players":24,"Bots":0,"server_type":"Dedicated","server_os":"Linux","password":true,"vac":true,"version":"7961495","steam_id":85568392924515187,"keywords":["cp","nocrits","nodmgspread","uncletopia"],"game_id":440,"stv_port":27036,"stv_name":"Uncletopia | Atlanta | 3 | Stopwatch | STV","players":null},{"server_id":401,"name":"Uncletopia | Atlanta | 4 | Community","name_short":"atl-4","host":"atl-1.us.uncletopia.com","port":27045,"enabled":true,"region":"us-east","cc":"us","latitude":33.753746,"longitude":-84.38633,"reserved":0,"last_update":"0001-01-01T00:00:00Z","name_a2s":"Uncletopia | Atlanta | 4 | Community","protocol":17,"map":"koth_bagel_rc6","folder":"tf","game":"Team Fortress","app_id":440,"player_count":0,"max_players":24,"Bots":0,"server_type":"Dedicated","server_os":"Linux","password":true,"vac":true,"version":"7961495","steam_id":85568392924515188,"keywords":["cp","nocrits","nodmgspread","uncletopia"],"game_id":440,"stv_port":27046,"stv_name":"Uncletopia | Atlanta | 4 | Community | STV","players":null},{"server_id":2,"name":"Uncletopia | Chicago | 1 | All Maps","name_short":"chi-1","host":"chi-1.us.uncletopia.com","port":27015,"enabled":true,"region":"us-central","cc":"us","latitude":41.881832,"longitude":-87.62318,"reserved":0,"last_update":"0001-01-01T00:00:00Z","name_a2s":"Uncletopia | Chicago | 1 | All Maps","protocol":17,"map":"pl_pier","folder":"tf","game":"Team Fortress","app_id":440,"player_count":24,"max_players":24,"Bots":0,"server_type":"Dedicated","server_os":"Linux","password":true,"vac":true,"version":"7961495","steam_id":85568392924469984,"keywords":["nocrits","nodmgspread","payload","uncletopia"],"game_id":440,"stv_port":27016,"stv_name":"Uncletopia | Chicago | 1 | All Maps | STV","players":[{"user_id":771,"name":"thecal","steam_id":76561198307893384,"connected_time":2191000000000,"state":"active","ping":52},{"user_id":783,"name":"KGB Bunny","steam_id":76561197991131919,"connected_time":1717000000000,"state":"active","ping":67},{"user_id":796,"name":"dipp","steam_id":76561198395577807,"connected_time":410000000000,"state":"active","ping":77},{"user_id":773,"name":"QuakAtack","steam_id":76561198870770157,"connected_time":2143000000000,"state":"active","ping":67},{"user_id":798,"name":"Drapph","steam_id":76561199384213314,"connected_time":166000000000,"state":"active","ping":59},{"user_id":767,"name":"ƒ†1 ‚ô¶ Synth","steam_id":76561198058660228,"connected_time":2495000000000,"state":"active","ping":78},{"user_id":774,"name":"Notsocreative","steam_id":76561198236372202,"connected_time":2133000000000,"state":"active","ping":99},{"user_id":761,"name":"AppleTruffle","steam_id":76561198031299571,"connected_time":3019000000000,"state":"active","ping":61},{"user_id":760,"name":"KURO DCCLIV","steam_id":76561198871991922,"connected_time":3132000000000,"state":"active","ping":106},{"user_id":775,"name":"BL√òRG","steam_id":76561198036126673,"connected_time":1961000000000,"state":"active","ping":76},{"user_id":794,"name":"ur pretty","steam_id":76561198096347625,"connected_time":484000000000,"state":"active","ping":89},{"user_id":797,"name":"LVL","steam_id":76561198334403617,"connected_time":249000000000,"state":"active","ping":55},{"user_id":762,"name":"Milkmur","steam_id":76561198210043821,"connected_time":2924000000000,"state":"active","ping":66},{"user_id":789,"name":"Meerkat","steam_id":76561199245435539,"connected_time":1331000000000,"state":"active","ping":120},{"user_id":791,"name":"Big Boy Beni","steam_id":76561197995469460,"connected_time":862000000000,"state":"active","ping":90},{"user_id":640,"name":"loser","steam_id":76561198259380127,"connected_time":13133000000000,"state":"active","ping":53},{"user_id":784,"name":"cixcin","steam_id":76561199215821942,"connected_time":1636000000000,"state":"active","ping":73},{"user_id":778,"name":"Ducter","steam_id":76561198085369908,"connected_time":1880000000000,"state":"active","ping":66},{"user_id":780,"name":"Axelonemillion15","steam_id":76561198421342282,"connected_time":1867000000000,"state":"active","ping":114},{"user_id":718,"name":"Fennec Gaming","steam_id":76561198069037820,"connected_time":5616000000000,"state":"active","ping":45},{"user_id":787,"name":"momlovie","steam_id":76561198843933742,"connected_time":1463000000000,"state":"active","ping":65},{"user_id":785,"name":"Calico Jolteon","steam_id":76561198283758322,"connected_time":1580000000000,"state":"active","ping":129},{"user_id":795,"name":"xFactr","steam_id":76561198129007422,"connected_time":451000000000,"state":"active","ping":58},{"user_id":786,"name":"Veir≈´ Viseris","steam_id":76561197989857176,"connected_time":1580000000000,"state":"active","ping":165}]},{"server_id":106,"name":"Uncletopia | Chicago | 2 | All Maps","name_short":"chi-2","host":"chi-1.us.uncletopia.com","port":27025,"enabled":true,"region":"us-central","cc":"us","latitude":41.881832,"longitude":-87.62318,"reserved":0,"last_update":"0001-01-01T00:00:00Z","name_a2s":"Uncletopia | Chicago | 2 | All Maps","protocol":17,"map":"pl_thundermountain","folder":"tf","game":"Team Fortress","app_id":440,"player_count":24,"max_players":24,"Bots":0,"server_type":"Dedicated","server_os":"Linux","password":true,"vac":true,"version":"7961495","steam_id":85568392924469985,"keywords":["nocrits","nodmgspread","payload","uncletopia"],"game_id":440,"stv_port":27026,"stv_name":"Uncletopia | Chicago | 2 | All Maps | STV","players":[{"user_id":758,"name":"Headshotsnake","steam_id":76561198067130248,"connected_time":703000000000,"state":"active","ping":58},{"user_id":776,"name":"king of bogers","steam_id":76561198045731295,"connected_time":106000000000,"state":"active","ping":60},{"user_id":682,"name":"Pride_","steam_id":76561198046446797,"connected_time":6652000000000,"state":"active","ping":59},{"user_id":779,"name":"Whatsapp Spy","steam_id":76561198085410969,"connected_time":77000000000,"state":"active","ping":50},{"user_id":757,"name":"Yarman53","steam_id":76561198099889202,"connected_time":813000000000,"state":"active","ping":32},{"user_id":759,"name":"Argo","steam_id":76561198353725622,"connected_time":687000000000,"state":"active","ping":84},{"user_id":773,"name":"Pharthus","steam_id":76561198093866050,"connected_time":310000000000,"state":"active","ping":88},{"user_id":780,"name":"Dark Souls","steam_id":76561198131174016,"connected_time":58000000000,"state":"active","ping":86},{"user_id":781,"name":"Sunkisses_","steam_id":76561198046476671,"connected_time":55000000000,"state":"active","ping":55},{"user_id":692,"name":"William Fontaine Dauterive","steam_id":76561198057468108,"connected_time":6332000000000,"state":"active","ping":96},{"user_id":761,"name":"dicksnip","steam_id":76561198356515396,"connected_time":643000000000,"state":"active","ping":85},{"user_id":688,"name":"Ferioth","steam_id":76561197997993090,"connected_time":6483000000000,"state":"active","ping":68},{"user_id":762,"name":"KYLE KYLESON","steam_id":76561198021920887,"connected_time":641000000000,"state":"active","ping":45},{"user_id":763,"name":"üçíbutaüçí","steam_id":76561198135538212,"connected_time":615000000000,"state":"active","ping":50},{"user_id":782,"name":"TheWorst","steam_id":76561198151241267,"connected_time":52000000000,"state":"active","ping":117},{"user_id":783,"name":"clue","steam_id":76561198299379768,"connected_time":36000000000,"state":"active","ping":91},{"user_id":689,"name":"Divio","steam_id":76561197995200088,"connected_time":6476000000000,"state":"active","ping":68},{"user_id":690,"name":"Rental","steam_id":76561198027786602,"connected_time":6456000000000,"state":"active","ping":98},{"user_id":766,"name":"Lost","steam_id":76561198025933206,"connected_time":555000000000,"state":"active","ping":59},{"user_id":784,"name":"Ketchup Fiasco","steam_id":76561198117593532,"connected_time":31000000000,"state":"spawning","ping":73},{"user_id":768,"name":"Fermenting Kiwi","steam_id":76561198253303497,"connected_time":481000000000,"state":"active","ping":75},{"user_id":785,"name":"Female Gamer","steam_id":76561199366482682,"connected_time":26000000000,"state":"active","ping":102},{"user_id":772,"name":"Wilma","steam_id":76561198138420251,"connected_time":344000000000,"state":"active","ping":60},{"user_id":774,"name":"Allotrope","steam_id":76561197998450103,"connected_time":240000000000,"state":"active","ping":44}]},{"server_id":402,"name":"Uncletopia | Chicago | 3 | All Maps","name_short":"chi-3","host":"chi-1.us.uncletopia.com","port":27035,"enabled":true,"region":"us-central","cc":"us","latitude":41.881832,"longitude":-87.62318,"reserved":0,"last_update":"0001-01-01T00:00:00Z","name_a2s":"Uncletopia | Chicago | 3 | All Maps","protocol":17,"map":"pl_swiftwater_final1","folder":"tf","game":"Team Fortress","app_id":440,"player_count":13,"max_players":24,"Bots":0,"server_type":"Dedicated","server_os":"Linux","password":true,"vac":true,"version":"7961495","steam_id":85568392924515191,"keywords":["nocrits","nodmgspread","payload","uncletopia"],"game_id":440,"stv_port":27036,"stv_name":"Uncletopia | Chicago | 3 | All Maps | STV","players":[{"user_id":905,"name":"Person","steam_id":76561198093244204,"connected_time":148000000000,"state":"active","ping":73},{"user_id":900,"name":"Dwaggy","steam_id":76561198027369555,"connected_time":862000000000,"state":"active","ping":63},{"user_id":754,"name":"Cogsmon","steam_id":76561198044977767,"connected_time":10601000000000,"state":"active","ping":80},{"user_id":901,"name":"Dzhoshua","steam_id":76561198071915251,"connected_time":668000000000,"state":"active","ping":57},{"user_id":910,"name":"American Dad","steam_id":76561198059711448,"connected_time":99000000000,"state":"active","ping":63},{"user_id":827,"name":"Gwendolyn","steam_id":76561198170458145,"connected_time":5717000000000,"state":"active","ping":108},{"user_id":903,"name":"Crisp","steam_id":76561198132644084,"connected_time":247000000000,"state":"active","ping":66},{"user_id":908,"name":"JohhnyFromCali :7","steam_id":76561198044015725,"connected_time":108000000000,"state":"active","ping":75},{"user_id":911,"name":"self sufficient kitten","steam_id":76561197960592612,"connected_time":92000000000,"state":"active","ping":89},{"user_id":871,"name":"stiGGy","steam_id":76561198049311931,"connected_time":4182000000000,"state":"active","ping":75},{"user_id":888,"name":"TANK DAVIS","steam_id":76561198015327889,"connected_time":2588000000000,"state":"active","ping":113},{"user_id":879,"name":"winning","steam_id":76561198003206947,"connected_time":3455000000000,"state":"active","ping":65},{"user_id":882,"name":"Nazrin","steam_id":76561198246701796,"connected_time":3409000000000,"state":"active","ping":79}]},{"server_id":403,"name":"Uncletopia | Chicago | 4 | All Maps","name_short":"chi-4","host":"chi-1.us.uncletopia.com","port":27045,"enabled":true,"region":"us-central","cc":"us","latitude":41.881832,"longitude":-87.62318,"reserved":0,"last_update":"0001-01-01T00:00:00Z","name_a2s":"Uncletopia | Chicago | 4 | All Maps","protocol":17,"map":"pl_snowycoast","folder":"tf","game":"Team Fortress","app_id":440,"player_count":24,"max_players":24,"Bots":0,"server_type":"Dedicated","server_os":"Linux","password":true,"vac":true,"version":"7961495","steam_id":85568392924515193,"keywords":["nocrits","nodmgspread","payload","uncletopia"],"game_id":440,"stv_port":27046,"stv_name":"Uncletopia | Chicago | 4 | All Maps | STV","players":[{"user_id":440,"name":"MarshalMike","steam_id":76561198321757506,"connected_time":649000000000,"state":"active","ping":162},{"user_id":426,"name":"scooterre","steam_id":76561198055068182,"connected_time":1717000000000,"state":"active","ping":49},{"user_id":427,"name":"bob_2_","steam_id":76561198103511119,"connected_time":1298000000000,"state":"active","ping":61},{"user_id":441,"name":"aqua","steam_id":76561199407709552,"connected_time":490000000000,"state":"active","ping":58},{"user_id":444,"name":"breathing meat donut","steam_id":76561198123566649,"connected_time":203000000000,"state":"active","ping":77},{"user_id":445,"name":"Vordt","steam_id":76561198040942866,"connected_time":202000000000,"state":"active","ping":59},{"user_id":429,"name":"schmoopis","steam_id":76561198321873723,"connected_time":1187000000000,"state":"active","ping":69},{"user_id":439,"name":"Milf lover","steam_id":76561198384339268,"connected_time":660000000000,"state":"active","ping":83},{"user_id":446,"name":"King","steam_id":76561198123927752,"connected_time":108000000000,"state":"active","ping":49},{"user_id":430,"name":"the ya ha ha genius","steam_id":76561198240764504,"connected_time":1155000000000,"state":"active","ping":91},{"user_id":431,"name":"Randy \"the Man\" Johnson","steam_id":76561198039124445,"connected_time":1153000000000,"state":"active","ping":130},{"user_id":447,"name":"Serene Salamander","steam_id":76561198001094770,"connected_time":100000000000,"state":"active","ping":122},{"user_id":443,"name":"cofi","steam_id":76561198077504898,"connected_time":228000000000,"state":"active","ping":67},{"user_id":448,"name":"Zesty Zucchini Ziti","steam_id":76561198092494136,"connected_time":96000000000,"state":"active","ping":65},{"user_id":449,"name":"Shrebbie","steam_id":76561198875230824,"connected_time":87000000000,"state":"active","ping":59},{"user_id":450,"name":"JoeMamaBigison","steam_id":76561198095124071,"connected_time":86000000000,"state":"active","ping":102},{"user_id":434,"name":"Scarf","steam_id":76561198008144519,"connected_time":1087000000000,"state":"active","ping":60},{"user_id":451,"name":"0","steam_id":76561198982415497,"connected_time":79000000000,"state":"active","ping":97},{"user_id":452,"name":"Bread","steam_id":76561198370887618,"connected_time":79000000000,"state":"active","ping":99},{"user_id":437,"name":"Broden622","steam_id":76561198256017495,"connected_time":962000000000,"state":"active","ping":63},{"user_id":453,"name":"playguy carter","steam_id":76561198080679337,"connected_time":67000000000,"state":"active","ping":53},{"user_id":454,"name":"the pest","steam_id":76561198826298849,"connected_time":55000000000,"state":"active","ping":108},{"user_id":455,"name":"marty","steam_id":76561198032782746,"connected_time":52000000000,"state":"active","ping":90},{"user_id":438,"name":"Volkan, Pervert Extraordinaire","steam_id":76561198004569575,"connected_time":949000000000,"state":"active","ping":75}]},{"server_id":36,"name":"Uncletopia | Chicago | 5 | All Maps","name_short":"chi-5","host":"chi-2.us.uncletopia.com","port":27015,"enabled":true,"region":"us-central","cc":"us","latitude":41.881832,"longitude":-87.62318,"reserved":0,"last_update":"0001-01-01T00:00:00Z","name_a2s":"Uncletopia | Chicago | 5 | All Maps","protocol":17,"map":"koth_highpass","folder":"tf","game":"Team Fortress","app_id":440,"player_count":0,"max_players":24,"Bots":0,"server_type":"Dedicated","server_os":"Linux","password":true,"vac":true,"version":"7961495","steam_id":85568392924866362,"keywords":["cp","nocrits","nodmgspread","uncletopia"],"game_id":440,"stv_port":27016,"stv_name":"Uncletopia | Chicago | 5 | All Maps | STV","players":null},{"server_id":37,"name":"Uncletopia | Chicago | 6 | All Maps","name_short":"chi-6","host":"chi-2.us.uncletopia.com","port":27025,"enabled":true,"region":"us-central","cc":"us","latitude":41.881832,"longitude":-87.62318,"reserved":0,"last_update":"0001-01-01T00:00:00Z","name_a2s":"Uncletopia | Chicago | 6 | All Maps","protocol":17,"map":"plr_bananabay","folder":"tf","game":"Team Fortress","app_id":440,"player_count":0,"max_players":24,"Bots":0,"server_type":"Dedicated","server_os":"Linux","password":true,"vac":true,"version":"7961495","steam_id":85568392924866363,"keywords":["nocrits","nodmgspread","payload","uncletopia"],"game_id":440,"stv_port":27026,"stv_name":"Uncletopia | Chicago | 6 | All Maps | STV","players":null},{"server_id":38,"name":"Uncletopia | Chicago | 7 | Stopwatch","name_short":"chi-7","host":"chi-2.us.uncletopia.com","port":27035,"enabled":true,"region":"us-central","cc":"us","latitude":41.881832,"longitude":-87.62318,"reserved":0,"last_update":"0001-01-01T00:00:00Z","name_a2s":"Uncletopia | Chicago | 7 | Stopwatch","protocol":17,"map":"workshop/koth_ramjam_rc1.ugc459778887","folder":"tf","game":"Team Fortress","app_id":440,"player_count":0,"max_players":24,"Bots":0,"server_type":"Dedicated","server_os":"Linux","password":true,"vac":true,"version":"7961495","steam_id":85568392924866364,"keywords":["cp","nocrits","nodmgspread","uncletopia"],"game_id":440,"stv_port":27036,"stv_name":"Uncletopia | Chicago | 7 | Stopwatch | STV","players":null},{"server_id":39,"name":"Uncletopia | Chicago | 8 | Community","name_short":"chi-8","host":"chi-2.us.uncletopia.com","port":27045,"enabled":true,"region":"us-central","cc":"us","latitude":41.881832,"longitude":-87.62318,"reserved":0,"last_update":"0001-01-01T00:00:00Z","name_a2s":"Uncletopia | Chicago | 8 | Community","protocol":17,"map":"workshop/koth_trenchfoot_b1a.ugc731436616","folder":"tf","game":"Team Fortress","app_id":440,"player_count":0,"max_players":24,"Bots":0,"server_type":"Dedicated","server_os":"Linux","password":true,"vac":true,"version":"7961495","steam_id":85568392924866365,"keywords":["cp","nocrits","nodmgspread","uncletopia"],"game_id":440,"stv_port":27046,"stv_name":"Uncletopia | Chicago | 8 | Community | STV","players":null},{"server_id":8,"name":"Uncletopia | Dallas | 1 | All Maps","name_short":"dal-1","host":"dal-1.us.uncletopia.com","port":27015,"enabled":true,"region":"us-central","cc":"us","latitude":32.779167,"longitude":-96.80889,"reserved":0,"last_update":"0001-01-01T00:00:00Z","name_a2s":"Uncletopia | Dallas | 1 | All Maps","protocol":17,"map":"pl_upward","folder":"tf","game":"Team Fortress","app_id":440,"player_count":6,"max_players":24,"Bots":0,"server_type":"Dedicated","server_os":"Linux","password":true,"vac":true,"version":"7961495","steam_id":85568392924469986,"keywords":["nocrits","nodmgspread","payload","uncletopia"],"game_id":440,"stv_port":27016,"stv_name":"Uncletopia | Dallas | 1 | All Maps | STV","players":[{"user_id":645,"name":"hi ping","steam_id":76561198383636396,"connected_time":1553000000000,"state":"active","ping":132},{"user_id":649,"name":"Kirbothebrony","steam_id":76561198971911330,"connected_time":290000000000,"state":"active","ping":55},{"user_id":646,"name":"tardis_946","steam_id":76561199090388860,"connected_time":1546000000000,"state":"active","ping":75},{"user_id":639,"name":"K-2","steam_id":76561198322606535,"connected_time":2114000000000,"state":"active","ping":93},{"user_id":617,"name":"LargerThanAverageDragon","steam_id":76561198152036300,"connected_time":3589000000000,"state":"active","ping":32},{"user_id":619,"name":"FancyBattlePants","steam_id":76561198197130311,"connected_time":3290000000000,"state":"active","ping":98}]},{"server_id":108,"name":"Uncletopia | Dallas | 2 | All Maps","name_short":"dal-2","host":"dal-1.us.uncletopia.com","port":27025,"enabled":true,"region":"us-central","cc":"us","latitude":32.779167,"longitude":-96.80889,"reserved":0,"last_update":"0001-01-01T00:00:00Z","name_a2s":"Uncletopia | Dallas | 2 | All Maps","protocol":17,"map":"pl_swiftwater_final1","folder":"tf","game":"Team Fortress","app_id":440,"player_count":24,"max_players":24,"Bots":0,"server_type":"Dedicated","server_os":"Linux","password":true,"vac":true,"version":"7961495","steam_id":85568392924469988,"keywords":["nocrits","nodmgspread","payload","uncletopia"],"game_id":440,"stv_port":27026,"stv_name":"Uncletopia | Dallas | 2 | All Maps | STV","players":[{"user_id":544,"name":"mbell1199","steam_id":76561198827517736,"connected_time":4286000000000,"state":"active","ping":55},{"user_id":577,"name":"Kdash","steam_id":76561198043829155,"connected_time":1795000000000,"state":"active","ping":58},{"user_id":578,"name":"ieatboogersAGAGAGAGAGAGA","steam_id":76561198096737300,"connected_time":1532000000000,"state":"active","ping":98},{"user_id":583,"name":"ksg","steam_id":76561198042894236,"connected_time":773000000000,"state":"active","ping":160},{"user_id":582,"name":"O(n)","steam_id":76561198104675984,"connected_time":801000000000,"state":"active","ping":97},{"user_id":545,"name":"LaChancla","steam_id":76561198971528917,"connected_time":4226000000000,"state":"active","ping":56},{"user_id":584,"name":"pigswill","steam_id":76561197999081865,"connected_time":769000000000,"state":"active","ping":91},{"user_id":496,"name":"Kenny[RICH]","steam_id":76561199005805984,"connected_time":6766000000000,"state":"active","ping":45},{"user_id":563,"name":"YORCHspartan117","steam_id":76561198272955205,"connected_time":3399000000000,"state":"active","ping":65},{"user_id":570,"name":"bad spy player","steam_id":76561198873699671,"connected_time":2735000000000,"state":"active","ping":114},{"user_id":525,"name":"skellymabob with a knife","steam_id":76561198015526166,"connected_time":5549000000000,"state":"active","ping":90},{"user_id":579,"name":"Burny Sanders","steam_id":76561197961879048,"connected_time":1370000000000,"state":"active","ping":45},{"user_id":548,"name":"chud smoker","steam_id":76561198120973162,"connected_time":4123000000000,"state":"active","ping":91},{"user_id":565,"name":"Headshots Se7en","steam_id":76561198020464802,"connected_time":3248000000000,"state":"active","ping":86},{"user_id":540,"name":"lucy","steam_id":76561199091260805,"connected_time":4497000000000,"state":"active","ping":95},{"user_id":557,"name":"chud packer","steam_id":76561198051310816,"connected_time":3706000000000,"state":"active","ping":47},{"user_id":581,"name":"Callahan","steam_id":76561198849981151,"connected_time":887000000000,"state":"active","ping":59},{"user_id":586,"name":"itchy pretzel","steam_id":76561198090412935,"connected_time":652000000000,"state":"active","ping":60},{"user_id":559,"name":"augs","steam_id":76561199120607417,"connected_time":3611000000000,"state":"active","ping":94},{"user_id":550,"name":"Anonymoose","steam_id":76561198862312405,"connected_time":3951000000000,"state":"active","ping":73},{"user_id":562,"name":"non_ai","steam_id":76561198270951938,"connected_time":3405000000000,"state":"active","ping":84},{"user_id":585,"name":"Mint Jelly","steam_id":76561197991286751,"connected_time":747000000000,"state":"active","ping":64},{"user_id":575,"name":"Average Cow Mangler Enjoyer","steam_id":76561198115695203,"connected_time":2420000000000,"state":"active","ping":61},{"user_id":561,"name":"kaputon","steam_id":76561198146299782,"connected_time":3560000000000,"state":"active","ping":76}]},{"server_id":404,"name":"Uncletopia | Dallas | 3 | All Maps","name_short":"dal-3","host":"dal-1.us.uncletopia.com","port":27035,"enabled":true,"region":"us-central","cc":"us","latitude":32.779167,"longitude":-96.80889,"reserved":0,"last_update":"0001-01-01T00:00:00Z","name_a2s":"Uncletopia | Dallas | 3 | All Maps","protocol":17,"map":"pl_snowycoast","folder":"tf","game":"Team Fortress","app_id":440,"player_count":24,"max_players":24,"Bots":0,"server_type":"Dedicated","server_os":"Linux","password":true,"vac":true,"version":"7961495","steam_id":85568392924515219,"keywords":["nocrits","nodmgspread","payload","uncletopia"],"game_id":440,"stv_port":27036,"stv_name":"Uncletopia | Dallas | 3 | All Maps | STV","players":[{"user_id":462,"name":"I Rob Midgets","steam_id":76561199073621650,"connected_time":1796000000000,"state":"active","ping":88},{"user_id":472,"name":"Luigiman626","steam_id":76561198349032234,"connected_time":1307000000000,"state":"active","ping":114},{"user_id":449,"name":"mrthugpug1732","steam_id":76561198881200768,"connected_time":2831000000000,"state":"active","ping":91},{"user_id":466,"name":"Corporal Cannabis","steam_id":76561199002920166,"connected_time":1749000000000,"state":"active","ping":103},{"user_id":411,"name":"Acorn","steam_id":76561198108400951,"connected_time":5323000000000,"state":"active","ping":88},{"user_id":467,"name":"cozy","steam_id":76561199044037628,"connected_time":1699000000000,"state":"active","ping":90},{"user_id":482,"name":"Missing Minus","steam_id":76561198120822928,"connected_time":574000000000,"state":"active","ping":60},{"user_id":458,"name":"CACTUS","steam_id":76561198327863229,"connected_time":2083000000000,"state":"active","ping":89},{"user_id":463,"name":"sergeant Adderall","steam_id":76561199010296481,"connected_time":1793000000000,"state":"active","ping":99},{"user_id":460,"name":"sora","steam_id":76561198094256973,"connected_time":2021000000000,"state":"active","ping":98},{"user_id":439,"name":"Proud Swift City Resident","steam_id":76561198036283992,"connected_time":3163000000000,"state":"active","ping":89},{"user_id":473,"name":"adapt","steam_id":76561198156181017,"connected_time":1166000000000,"state":"active","ping":93},{"user_id":441,"name":"muri","steam_id":76561198036167494,"connected_time":3150000000000,"state":"active","ping":49},{"user_id":481,"name":"New Reno","steam_id":76561198156522866,"connected_time":633000000000,"state":"active","ping":68},{"user_id":468,"name":"crankshaft","steam_id":76561197992798282,"connected_time":1626000000000,"state":"active","ping":75},{"user_id":361,"name":"Snoopy","steam_id":76561198273735974,"connected_time":9603000000000,"state":"active","ping":74},{"user_id":483,"name":"Wey","steam_id":76561198273704783,"connected_time":422000000000,"state":"active","ping":66},{"user_id":471,"name":"Tea","steam_id":76561199074512495,"connected_time":1441000000000,"state":"active","ping":193},{"user_id":475,"name":"DV","steam_id":76561198295570806,"connected_time":1031000000000,"state":"active","ping":93},{"user_id":476,"name":"‚ô• bibi ‚ô•","steam_id":76561198354864687,"connected_time":1010000000000,"state":"active","ping":116},{"user_id":477,"name":"Riske","steam_id":76561198115840568,"connected_time":988000000000,"state":"active","ping":98},{"user_id":478,"name":"Mr Wishy Fish","steam_id":76561198154702399,"connected_time":933000000000,"state":"active","ping":117},{"user_id":479,"name":"A Shiny Meat Bicycle","steam_id":76561198358757709,"connected_time":916000000000,"state":"active","ping":99},{"user_id":480,"name":"97 Toyota Corolla Owner's Manua","steam_id":76561198047296781,"connected_time":897000000000,"state":"active","ping":69}]},{"server_id":405,"name":"Uncletopia | Dallas | 4 | Community","name_short":"dal-4","host":"dal-1.us.uncletopia.com","port":27045,"enabled":true,"region":"us-central","cc":"us","latitude":32.779167,"longitude":-96.80889,"reserved":0,"last_update":"0001-01-01T00:00:00Z","name_a2s":"Uncletopia | Dallas | 4 | Community","protocol":17,"map":"workshop/cp_snowbase_b18.ugc2081770490","folder":"tf","game":"Team Fortress","app_id":440,"player_count":0,"max_players":24,"Bots":0,"server_type":"Dedicated","server_os":"Linux","password":true,"vac":true,"version":"7961495","steam_id":85568392924515220,"keywords":["cp","nocrits","nodmgspread","uncletopia"],"game_id":440,"stv_port":27046,"stv_name":"Uncletopia | Dallas | 4 | Community | STV","players":null},{"server_id":5,"name":"Uncletopia | Frankfurt | 1 | All Maps","name_short":"frk-1","host":"frk-1.de.uncletopia.com","port":27015,"enabled":true,"region":"eu","cc":"de","latitude":50.110924,"longitude":8.682127,"reserved":0,"last_update":"0001-01-01T00:00:00Z","name_a2s":"Uncletopia | Frankfurt | 1 | All Maps","protocol":17,"map":"koth_highpass","folder":"tf","game":"Team Fortress","app_id":440,"player_count":0,"max_players":24,"Bots":0,"server_type":"Dedicated","server_os":"Linux","password":true,"vac":true,"version":"7961495","steam_id":85568392924469989,"keywords":["cp","nocrits","nodmgspread","uncletopia"],"game_id":440,"stv_port":27016,"stv_name":"Uncletopia | Frankfurt | 1 | All Maps | STV","players":null},{"server_id":110,"name":"Uncletopia | Frankfurt | 2 | All Maps","name_short":"frk-2","host":"frk-1.de.uncletopia.com","port":27025,"enabled":true,"region":"eu","cc":"de","latitude":50.110924,"longitude":8.682127,"reserved":0,"last_update":"0001-01-01T00:00:00Z","name_a2s":"Uncletopia | Frankfurt | 2 | All Maps","protocol":17,"map":"cp_dustbowl","folder":"tf","game":"Team Fortress","app_id":440,"player_count":0,"max_players":24,"Bots":0,"server_type":"Dedicated","server_os":"Linux","password":true,"vac":true,"version":"7961495","steam_id":85568392924469990,"keywords":["cp","nocrits","nodmgspread","uncletopia"],"game_id":440,"stv_port":27026,"stv_name":"Uncletopia | Frankfurt | 2 | All Maps | STV","players":null},{"server_id":308,"name":"Uncletopia | Frankfurt | 3 | All Maps","name_short":"frk-3","host":"frk-1.de.uncletopia.com","port":27035,"enabled":true,"region":"eu","cc":"de","latitude":50.110924,"longitude":8.682127,"reserved":0,"last_update":"0001-01-01T00:00:00Z","name_a2s":"Uncletopia | Frankfurt | 3 | All Maps","protocol":17,"map":"pl_borneo","folder":"tf","game":"Team Fortress","app_id":440,"player_count":0,"max_players":24,"Bots":0,"server_type":"Dedicated","server_os":"Linux","password":true,"vac":true,"version":"7961495","steam_id":85568392924504274,"keywords":["nocrits","nodmgspread","payload","uncletopia"],"game_id":440,"stv_port":27036,"stv_name":"Uncletopia | Frankfurt | 3 | All Maps | STV","players":null},{"server_id":309,"name":"Uncletopia | Frankfurt | 4 | All Maps","name_short":"frk-4","host":"frk-1.de.uncletopia.com","port":27045,"enabled":true,"region":"eu","cc":"de","latitude":50.110924,"longitude":8.682127,"reserved":0,"last_update":"0001-01-01T00:00:00Z","name_a2s":"Uncletopia | Frankfurt | 4 | All Maps","protocol":17,"map":"koth_highpass","folder":"tf","game":"Team Fortress","app_id":440,"player_count":0,"max_players":24,"Bots":0,"server_type":"Dedicated","server_os":"Linux","password":true,"vac":true,"version":"7961495","steam_id":85568392924504275,"keywords":["cp","nocrits","nodmgspread","uncletopia"],"game_id":440,"stv_port":27046,"stv_name":"Uncletopia | Frankfurt | 4 | All Maps | STV","players":null},{"server_id":310,"name":"Uncletopia | Frankfurt | 5 | All Maps","name_short":"frk-5","host":"frk-1.de.uncletopia.com","port":27055,"enabled":true,"region":"eu","cc":"de","latitude":50.110924,"longitude":8.682127,"reserved":0,"last_update":"0001-01-01T00:00:00Z","name_a2s":"Uncletopia | Frankfurt | 5 | All Maps","protocol":17,"map":"pl_badwater","folder":"tf","game":"Team Fortress","app_id":440,"player_count":0,"max_players":24,"Bots":0,"server_type":"Dedicated","server_os":"Linux","password":true,"vac":true,"version":"7961495","steam_id":85568392924504277,"keywords":["nocrits","nodmgspread","payload","uncletopia"],"game_id":440,"stv_port":27056,"stv_name":"Uncletopia | Frankfurt | 5 | All Maps | STV","players":null},{"server_id":311,"name":"Uncletopia | Frankfurt | 6 | All Maps","name_short":"frk-6","host":"frk-1.de.uncletopia.com","port":27065,"enabled":true,"region":"eu","cc":"de","latitude":50.110924,"longitude":8.682127,"reserved":0,"last_update":"0001-01-01T00:00:00Z","name_a2s":"Uncletopia | Frankfurt | 6 | All Maps","protocol":17,"map":"cp_altitude","folder":"tf","game":"Team Fortress","app_id":440,"player_count":0,"max_players":24,"Bots":0,"server_type":"Dedicated","server_os":"Linux","password":true,"vac":true,"version":"7961495","steam_id":85568392924504278,"keywords":["cp","nocrits","nodmgspread","uncletopia"],"game_id":440,"stv_port":27066,"stv_name":"Uncletopia | Frankfurt | 6 | All Maps | STV","players":null},{"server_id":23,"name":"Uncletopia | Frankfurt | 7 | Stopwatch","name_short":"frk-7","host":"frk-1.de.uncletopia.com","port":27075,"enabled":true,"region":"eu","cc":"de","latitude":50.110924,"longitude":8.682127,"reserved":0,"last_update":"0001-01-01T00:00:00Z","name_a2s":"Uncletopia | Frankfurt | 7 | Stopwatch","protocol":17,"map":"pl_frontier_final","folder":"tf","game":"Team Fortress","app_id":440,"player_count":0,"max_players":24,"Bots":0,"server_type":"Dedicated","server_os":"Linux","password":true,"vac":true,"version":"7961495","steam_id":85568392924742827,"keywords":["nocrits","nodmgspread","payload","uncletopia"],"game_id":440,"stv_port":27076,"stv_name":"Uncletopia | Frankfurt | 7 | Stopwatch | STV","players":null},{"server_id":24,"name":"Uncletopia | Frankfurt | 8 | Community","name_short":"frk-8","host":"frk-1.de.uncletopia.com","port":27085,"enabled":true,"region":"eu","cc":"de","latitude":50.110924,"longitude":8.682127,"reserved":0,"last_update":"0001-01-01T00:00:00Z","name_a2s":"Uncletopia | Frankfurt | 8 | Community","protocol":17,"map":"workshop/pl_shoreleave_rc2.ugc1238849347","folder":"tf","game":"Team Fortress","app_id":440,"player_count":6,"max_players":24,"Bots":0,"server_type":"Dedicated","server_os":"Linux","password":true,"vac":true,"version":"7961495","steam_id":85568392924742828,"keywords":["nocrits","nodmgspread","payload","uncletopia"],"game_id":440,"stv_port":27086,"stv_name":"Uncletopia | Frankfurt | 8 | Community | STV","players":[{"user_id":21,"name":"–î–∂–µ–∫–µ—Ç","steam_id":76561198327897125,"connected_time":1028000000000,"state":"active","ping":96},{"user_id":24,"name":"Bahador","steam_id":76561198897378461,"connected_time":606000000000,"state":"active","ping":72},{"user_id":26,"name":"Phloggers","steam_id":76561198213268633,"connected_time":496000000000,"state":"active","ping":54},{"user_id":7,"name":"Û†Ä°Û†Ä°","steam_id":76561198399390201,"connected_time":3112000000000,"state":"active","ping":75},{"user_id":28,"name":"Meguu","steam_id":76561198068761972,"connected_time":348000000000,"state":"active","ping":100},{"user_id":12,"name":"Noam","steam_id":76561198057789807,"connected_time":2091000000000,"state":"active","ping":75}]},{"server_id":202,"name":"Uncletopia | Hong Kong | 1 | All Maps","name_short":"hgk-1","host":"hgk-1.hk.uncletopia.com","port":27015,"enabled":true,"region":"asia","cc":"hk","latitude":22.302711,"longitude":114.177216,"reserved":0,"last_update":"0001-01-01T00:00:00Z","name_a2s":"Uncletopia | Hong Kong | 1 | All Maps","protocol":17,"map":"koth_suijin","folder":"tf","game":"Team Fortress","app_id":440,"player_count":24,"max_players":24,"Bots":0,"server_type":"Dedicated","server_os":"Linux","password":true,"vac":true,"version":"7961495","steam_id":85568392924494504,"keywords":["cp","nocrits","nodmgspread","uncletopia"],"game_id":440,"stv_port":27016,"stv_name":"Uncletopia | Hong Kong | 1 | All Maps | STV","players":[{"user_id":47,"name":"Compressed","steam_id":76561199230196794,"connected_time":6479000000000,"state":"active","ping":119},{"user_id":129,"name":"ObscuroLucem","steam_id":76561198875037943,"connected_time":393000000000,"state":"active","ping":87},{"user_id":128,"name":"Prussian","steam_id":76561198974248745,"connected_time":416000000000,"state":"active","ping":58},{"user_id":92,"name":"True Wish","steam_id":76561198206718084,"connected_time":2610000000000,"state":"active","ping":77},{"user_id":55,"name":"MEDIC!","steam_id":76561198149344029,"connected_time":5320000000000,"state":"active","ping":86},{"user_id":116,"name":"yveth","steam_id":76561198320532821,"connected_time":1043000000000,"state":"active","ping":57},{"user_id":123,"name":"Kage","steam_id":76561199248933724,"connected_time":719000000000,"state":"active","ping":67},{"user_id":62,"name":"3wfFbdrjEze5d2G","steam_id":76561198435900451,"connected_time":4437000000000,"state":"active","ping":123},{"user_id":120,"name":"NathellaBoi","steam_id":76561198093299560,"connected_time":848000000000,"state":"active","ping":113},{"user_id":104,"name":"2746","steam_id":76561199390507975,"connected_time":1715000000000,"state":"active","ping":54},{"user_id":130,"name":"Wx","steam_id":76561199217780897,"connected_time":283000000000,"state":"active","ping":118},{"user_id":131,"name":"coakDeLera","steam_id":76561199262817512,"connected_time":182000000000,"state":"active","ping":85},{"user_id":105,"name":"Beef Wellington","steam_id":76561197995635241,"connected_time":1656000000000,"state":"active","ping":119},{"user_id":106,"name":"yo!","steam_id":76561198388935921,"connected_time":1651000000000,"state":"active","ping":62},{"user_id":74,"name":"candypopplaysminecraft","steam_id":76561199245342308,"connected_time":3670000000000,"state":"active","ping":148},{"user_id":107,"name":"The Return of Alex Mercer","steam_id":76561198328694270,"connected_time":1641000000000,"state":"active","ping":88},{"user_id":97,"name":"Stupid Player","steam_id":76561198813103989,"connected_time":2279000000000,"state":"active","ping":77},{"user_id":117,"name":"Drutzhfer","steam_id":76561198299948446,"connected_time":984000000000,"state":"active","ping":111},{"user_id":126,"name":"Professional Racist","steam_id":76561198415063845,"connected_time":568000000000,"state":"active","ping":81},{"user_id":108,"name":"Male Detected!","steam_id":76561199082459598,"connected_time":1578000000000,"state":"active","ping":72},{"user_id":109,"name":"NOPE","steam_id":76561199244543572,"connected_time":1577000000000,"state":"active","ping":59},{"user_id":125,"name":"bhuy8698","steam_id":76561199367301967,"connected_time":684000000000,"state":"active","ping":71},{"user_id":127,"name":"water tastes good","steam_id":76561199375947670,"connected_time":459000000000,"state":"active","ping":69},{"user_id":112,"name":"pyroman51","steam_id":76561198074339034,"connected_time":1545000000000,"state":"active","ping":75}]},{"server_id":1,"name":"Uncletopia | Los Angeles | 1 | All Maps","name_short":"lax-1","host":"lax-1.us.uncletopia.com","port":27015,"enabled":true,"region":"us-west","cc":"us","latitude":33.94279,"longitude":-118.41004,"reserved":0,"last_update":"0001-01-01T00:00:00Z","name_a2s":"Uncletopia | Los Angeles | 1 | All Maps","protocol":17,"map":"cp_coldfront","folder":"tf","game":"Team Fortress","app_id":440,"player_count":24,"max_players":24,"Bots":0,"server_type":"Dedicated","server_os":"Linux","password":true,"vac":true,"version":"7961495","steam_id":85568392924469991,"keywords":["cp","nocrits","nodmgspread","uncletopia"],"game_id":440,"stv_port":27016,"stv_name":"Uncletopia | Los Angeles | 1 | All Maps | STV","players":[{"user_id":488,"name":"Kng","steam_id":76561198993248203,"connected_time":4641000000000,"state":"active","ping":107},{"user_id":544,"name":"Ralph Kramden (Slim Charles)","steam_id":76561197981687895,"connected_time":573000000000,"state":"active","ping":59},{"user_id":545,"name":"hhhhhorsehhh","steam_id":76561198035695376,"connected_time":545000000000,"state":"active","ping":89},{"user_id":517,"name":"Cursed 7/11","steam_id":76561198282017726,"connected_time":2290000000000,"state":"active","ping":74},{"user_id":543,"name":"Happytoe","steam_id":76561198001295503,"connected_time":623000000000,"state":"active","ping":69},{"user_id":546,"name":"FaZeskrillexpromaster1904","steam_id":76561198362803835,"connected_time":445000000000,"state":"active","ping":70},{"user_id":515,"name":"Vitae Kakon","steam_id":76561198307440313,"connected_time":2398000000000,"state":"active","ping":51},{"user_id":520,"name":"A Commodore 64¬Æ","steam_id":76561198156203733,"connected_time":2186000000000,"state":"active","ping":85},{"user_id":549,"name":"2girls1diymo","steam_id":76561198017600790,"connected_time":320000000000,"state":"active","ping":59},{"user_id":491,"name":"Mr Baseball","steam_id":76561198960521363,"connected_time":4447000000000,"state":"active","ping":76},{"user_id":548,"name":"The Don","steam_id":76561198322125657,"connected_time":373000000000,"state":"active","ping":92},{"user_id":525,"name":"dougrocks421","steam_id":76561198165063918,"connected_time":1968000000000,"state":"active","ping":82},{"user_id":521,"name":"transbian disaster","steam_id":76561198407600762,"connected_time":2186000000000,"state":"active","ping":75},{"user_id":550,"name":"Board","steam_id":76561198134326473,"connected_time":291000000000,"state":"active","ping":75},{"user_id":522,"name":"Pickles","steam_id":76561198019957205,"connected_time":2148000000000,"state":"active","ping":79},{"user_id":532,"name":"Scern","steam_id":76561198362201517,"connected_time":1858000000000,"state":"active","ping":59},{"user_id":526,"name":"Dad","steam_id":76561198083941413,"connected_time":1964000000000,"state":"active","ping":95},{"user_id":551,"name":"puffer","steam_id":76561199049164456,"connected_time":284000000000,"state":"active","ping":75},{"user_id":531,"name":"Gojira19","steam_id":76561198206384351,"connected_time":1898000000000,"state":"active","ping":124},{"user_id":552,"name":"nat","steam_id":76561198179923093,"connected_time":262000000000,"state":"active","ping":60},{"user_id":553,"name":"GtownMenace","steam_id":76561198079359870,"connected_time":259000000000,"state":"active","ping":123},{"user_id":557,"name":"Eggs","steam_id":76561199099416355,"connected_time":77000000000,"state":"active","ping":76},{"user_id":555,"name":"HeroOfTime","steam_id":76561199096218001,"connected_time":189000000000,"state":"active","ping":52},{"user_id":556,"name":"CatLike Pigeon","steam_id":76561198171716030,"connected_time":188000000000,"state":"active","ping":86}]},{"server_id":112,"name":"Uncletopia | Los Angeles | 2 | All Maps","name_short":"lax-2","host":"lax-1.us.uncletopia.com","port":27025,"enabled":true,"region":"us-west","cc":"us","latitude":33.94279,"longitude":-118.41004,"reserved":0,"last_update":"0001-01-01T00:00:00Z","name_a2s":"Uncletopia | Los Angeles | 2 | All Maps","protocol":17,"map":"cp_process_final","folder":"tf","game":"Team Fortress","app_id":440,"player_count":24,"max_players":24,"Bots":0,"server_type":"Dedicated","server_os":"Linux","password":true,"vac":true,"version":"7961495","steam_id":85568392924469992,"keywords":["cp","nocrits","nodmgspread","uncletopia"],"game_id":440,"stv_port":27026,"stv_name":"Uncletopia | Los Angeles | 2 | All Maps | STV","players":[{"user_id":242,"name":"liftin'","steam_id":76561199089515791,"connected_time":3998000000000,"state":"active","ping":50},{"user_id":279,"name":"esoobac","steam_id":76561198010370396,"connected_time":860000000000,"state":"active","ping":102},{"user_id":274,"name":"TMonNin","steam_id":76561198345367192,"connected_time":1049000000000,"state":"active","ping":62},{"user_id":289,"name":"Antonpirulero10","steam_id":76561198253036781,"connected_time":581000000000,"state":"active","ping":74},{"user_id":264,"name":"mac_cheese","steam_id":76561198071334162,"connected_time":1561000000000,"state":"active","ping":75},{"user_id":292,"name":"Dongus","steam_id":76561197979056451,"connected_time":123000000000,"state":"active","ping":78},{"user_id":266,"name":"Saltine Cracker","steam_id":76561198889144728,"connected_time":1518000000000,"state":"active","ping":58},{"user_id":282,"name":"netoc6","steam_id":76561199065312168,"connected_time":798000000000,"state":"active","ping":116},{"user_id":281,"name":"TYPICAL-HUMAN","steam_id":76561198060914982,"connected_time":829000000000,"state":"active","ping":64},{"user_id":220,"name":"shitass (Reaping and Sowing)","steam_id":76561198210572481,"connected_time":5523000000000,"state":"active","ping":44},{"user_id":287,"name":"right wing grill master","steam_id":76561198178638591,"connected_time":631000000000,"state":"active","ping":76},{"user_id":283,"name":"Kaeo","steam_id":76561198066244086,"connected_time":764000000000,"state":"active","ping":93},{"user_id":270,"name":"Vaccine Eater","steam_id":76561198026301425,"connected_time":1431000000000,"state":"active","ping":59},{"user_id":222,"name":"corg","steam_id":76561198338740292,"connected_time":5396000000000,"state":"active","ping":58},{"user_id":256,"name":"The Caretaker","steam_id":76561198125241411,"connected_time":2067000000000,"state":"active","ping":79},{"user_id":278,"name":"ScoutBox","steam_id":76561198111539895,"connected_time":881000000000,"state":"active","ping":49},{"user_id":259,"name":"Lj3online","steam_id":76561198009960926,"connected_time":1724000000000,"state":"active","ping":68},{"user_id":284,"name":"rach9411","steam_id":76561198256535721,"connected_time":740000000000,"state":"active","ping":180},{"user_id":271,"name":"‚ô†Silver‚ô†","steam_id":76561198206109224,"connected_time":1426000000000,"state":"active","ping":196},{"user_id":273,"name":"Run 'n gun","steam_id":76561198081173302,"connected_time":1259000000000,"state":"active","ping":68},{"user_id":250,"name":"whitr","steam_id":76561198043981478,"connected_time":2959000000000,"state":"active","ping":99},{"user_id":290,"name":"Specter the Unchained","steam_id":76561198348354629,"connected_time":566000000000,"state":"active","ping":47},{"user_id":221,"name":"Bond","steam_id":76561198089262776,"connected_time":5516000000000,"state":"active","ping":88},{"user_id":291,"name":"SamSmelly","steam_id":76561198045152184,"connected_time":415000000000,"state":"active","ping":53}]},{"server_id":324,"name":"Uncletopia | Los Angeles | 3 | All Maps","name_short":"lax-3","host":"lax-1.us.uncletopia.com","port":27035,"enabled":true,"region":"us-west","cc":"us","latitude":33.94279,"longitude":-118.41004,"reserved":0,"last_update":"0001-01-01T00:00:00Z","name_a2s":"Uncletopia | Los Angeles | 3 | All Maps","protocol":17,"map":"koth_lakeside_final","folder":"tf","game":"Team Fortress","app_id":440,"player_count":0,"max_players":24,"Bots":0,"server_type":"Dedicated","server_os":"Linux","password":true,"vac":true,"version":"7961495","steam_id":85568392924510198,"keywords":["cp","nocrits","nodmgspread","uncletopia"],"game_id":440,"stv_port":27036,"stv_name":"Uncletopia | Los Angeles | 3 | All Maps | STV","players":null},{"server_id":25,"name":"Uncletopia | Los Angeles | 4 | Stopwatch","name_short":"lax-4","host":"lax-1.us.uncletopia.com","port":27045,"enabled":true,"region":"us-west","cc":"us","latitude":33.94279,"longitude":-118.41004,"reserved":0,"last_update":"0001-01-01T00:00:00Z","name_a2s":"Uncletopia | Los Angeles | 4 | Stopwatch","protocol":17,"map":"pl_swiftwater_final1","folder":"tf","game":"Team Fortress","app_id":440,"player_count":1,"max_players":24,"Bots":0,"server_type":"Dedicated","server_os":"Linux","password":true,"vac":true,"version":"7961495","steam_id":85568392924510199,"keywords":["nocrits","nodmgspread","payload","uncletopia"],"game_id":440,"stv_port":27046,"stv_name":"Uncletopia | Los Angeles | 4 | Stopwatch | STV","players":[{"user_id":200,"name":"broge","steam_id":76561198110002068,"connected_time":240000000000,"state":"active","ping":58}]},{"server_id":11,"name":"Uncletopia | London | 1 | All Maps","name_short":"lon-1","host":"lon-1.uk.uncletopia.com","port":27015,"enabled":true,"region":"eu","cc":"gb","latitude":51.509865,"longitude":-0.118092,"reserved":0,"last_update":"0001-01-01T00:00:00Z","name_a2s":"Uncletopia | London | 1 | All Maps","protocol":17,"map":"koth_highpass","folder":"tf","game":"Team Fortress","app_id":440,"player_count":0,"max_players":24,"Bots":0,"server_type":"Dedicated","server_os":"Linux","password":true,"vac":true,"version":"7961495","steam_id":85568392924367362,"keywords":["cp","nocrits","nodmgspread","uncletopia"],"game_id":440,"stv_port":27016,"stv_name":"Uncletopia | London | 1 | All Maps | STV","players":null},{"server_id":114,"name":"Uncletopia | London | 2 | All Maps","name_short":"lon-2","host":"lon-1.uk.uncletopia.com","port":27025,"enabled":true,"region":"eu","cc":"gb","latitude":51.509865,"longitude":-0.118092,"reserved":0,"last_update":"0001-01-01T00:00:00Z","name_a2s":"Uncletopia | London | 2 | All Maps","protocol":17,"map":"koth_lakeside_final","folder":"tf","game":"Team Fortress","app_id":440,"player_count":0,"max_players":24,"Bots":0,"server_type":"Dedicated","server_os":"Linux","password":true,"vac":true,"version":"7961495","steam_id":85568392924470941,"keywords":["cp","nocrits","nodmgspread","uncletopia"],"game_id":440,"stv_port":27026,"stv_name":"Uncletopia | London | 2 | All Maps | STV","players":null},{"server_id":320,"name":"Uncletopia | London | 3 | All Maps","name_short":"lon-3","host":"lon-1.uk.uncletopia.com","port":27035,"enabled":true,"region":"eu","cc":"gb","latitude":51.509865,"longitude":-0.118092,"reserved":0,"last_update":"0001-01-01T00:00:00Z","name_a2s":"Uncletopia | London | 3 | All Maps","protocol":17,"map":"cp_process_final","folder":"tf","game":"Team Fortress","app_id":440,"player_count":0,"max_players":24,"Bots":0,"server_type":"Dedicated","server_os":"Linux","password":true,"vac":true,"version":"7961495","steam_id":85568392924510192,"keywords":["cp","nocrits","nodmgspread","uncletopia"],"game_id":440,"stv_port":27036,"stv_name":"Uncletopia | London | 3 | All Maps | STV","players":null},{"server_id":321,"name":"Uncletopia | London | 4 | All Maps","name_short":"lon-4","host":"lon-1.uk.uncletopia.com","port":27045,"enabled":true,"region":"eu","cc":"gb","latitude":51.509865,"longitude":-0.118092,"reserved":0,"last_update":"0001-01-01T00:00:00Z","name_a2s":"Uncletopia | London | 4 | All Maps","protocol":17,"map":"koth_cascade","folder":"tf","game":"Team Fortress","app_id":440,"player_count":0,"max_players":24,"Bots":0,"server_type":"Dedicated","server_os":"Linux","password":true,"vac":true,"version":"7961495","steam_id":85568392924510193,"keywords":["cp","nocrits","nodmgspread","uncletopia"],"game_id":440,"stv_port":27046,"stv_name":"Uncletopia | London | 4 | All Maps | STV","players":null},{"server_id":21,"name":"Uncletopia | London | 5 | All Maps","name_short":"lon-5","host":"lon-1.uk.uncletopia.com","port":27055,"enabled":true,"region":"eu","cc":"gb","latitude":51.509865,"longitude":-0.118092,"reserved":0,"last_update":"0001-01-01T00:00:00Z","name_a2s":"Uncletopia | London | 5 | All Maps","protocol":17,"map":"koth_lakeside_final","folder":"tf","game":"Team Fortress","app_id":440,"player_count":0,"max_players":24,"Bots":0,"server_type":"Dedicated","server_os":"Linux","password":true,"vac":true,"version":"7961495","steam_id":85568392924742829,"keywords":["cp","nocrits","nodmgspread","uncletopia"],"game_id":440,"stv_port":27056,"stv_name":"Uncletopia | London | 5 | All Maps | STV","players":null},{"server_id":22,"name":"Uncletopia | London | 6 | All Maps","name_short":"lon-6","host":"lon-1.uk.uncletopia.com","port":27065,"enabled":true,"region":"eu","cc":"gb","latitude":51.509865,"longitude":-0.118092,"reserved":0,"last_update":"0001-01-01T00:00:00Z","name_a2s":"Uncletopia | London | 6 | All Maps","protocol":17,"map":"cp_dustbowl","folder":"tf","game":"Team Fortress","app_id":440,"player_count":0,"max_players":24,"Bots":0,"server_type":"Dedicated","server_os":"Linux","password":true,"vac":true,"version":"7961495","steam_id":85568392924742830,"keywords":["cp","nocrits","nodmgspread","uncletopia"],"game_id":440,"stv_port":27066,"stv_name":"Uncletopia | London | 6 | All Maps | STV","players":null},{"server_id":40,"name":"Uncletopia | London | 7 | Stopwatch","name_short":"lon-7","host":"lon-1.uk.uncletopia.com","port":27075,"enabled":true,"region":"eu","cc":"gb","latitude":51.509865,"longitude":-0.118092,"reserved":0,"last_update":"0001-01-01T00:00:00Z","name_a2s":"Uncletopia | London | 7 | Stopwatch","protocol":17,"map":"koth_lakeside_final","folder":"tf","game":"Team Fortress","app_id":440,"player_count":0,"max_players":24,"Bots":0,"server_type":"Dedicated","server_os":"Linux","password":true,"vac":true,"version":"7961495","steam_id":85568392924964314,"keywords":["cp","nocrits","nodmgspread","uncletopia"],"game_id":440,"stv_port":27076,"stv_name":"Uncletopia | London | 7 | Stopwatch | STV","players":null},{"server_id":41,"name":"Uncletopia | London | 8 | Community","name_short":"lon-8","host":"lon-1.uk.uncletopia.com","port":27085,"enabled":true,"region":"eu","cc":"gb","latitude":51.509865,"longitude":-0.118092,"reserved":0,"last_update":"0001-01-01T00:00:00Z","name_a2s":"Uncletopia | London | 8 | Community","protocol":17,"map":"cp_snakewater_final1","folder":"tf","game":"Team Fortress","app_id":440,"player_count":0,"max_players":24,"Bots":0,"server_type":"Dedicated","server_os":"Linux","password":true,"vac":true,"version":"7961495","steam_id":85568392924964315,"keywords":["cp","nocrits","nodmgspread","uncletopia"],"game_id":440,"stv_port":27086,"stv_name":"Uncletopia | London | 8 | Community | STV","players":null},{"server_id":300,"name":"Uncletopia | Montr√©al | 1 | One Thousand Uncles","name_short":"mtl-1","host":"mtl-1.ca.uncletopia.com","port":27015,"enabled":true,"region":"us-east","cc":"ca","latitude":45.50889,"longitude":-73.56167,"reserved":0,"last_update":"0001-01-01T00:00:00Z","name_a2s":"","protocol":0,"map":"","folder":"","game":"","app_id":0,"player_count":7,"max_players":0,"Bots":0,"server_type":"","server_os":"","password":false,"vac":false,"version":"","steam_id":0,"keywords":null,"game_id":0,"stv_port":0,"stv_name":"","players":[{"user_id":335,"name":"Gay Cake","steam_id":76561198004388831,"connected_time":3631000000000,"state":"active","ping":71},{"user_id":336,"name":"Holiday Fartcruise","steam_id":76561198043851584,"connected_time":3626000000000,"state":"active","ping":118},{"user_id":357,"name":"QueenCake575","steam_id":76561198996882407,"connected_time":1396000000000,"state":"active","ping":131},{"user_id":354,"name":"Ghor7","steam_id":76561198025552658,"connected_time":3166000000000,"state":"active","ping":71},{"user_id":356,"name":"Sparse","steam_id":76561198865084441,"connected_time":1609000000000,"state":"active","ping":87},{"user_id":358,"name":"c·ªông ƒë·ªìng k·∫ª th√π gh√©t","steam_id":76561199084680369,"connected_time":1263000000000,"state":"active","ping":144},{"user_id":359,"name":"Pie‚Ñ¢","steam_id":76561198158312625,"connected_time":642000000000,"state":"active","ping":111}]},{"server_id":301,"name":"Uncletopia | Montr√©al | 2 | One Thousand Uncles","name_short":"mtl-2","host":"mtl-1.ca.uncletopia.com","port":27025,"enabled":true,"region":"us-east","cc":"ca","latitude":45.50889,"longitude":-73.56167,"reserved":0,"last_update":"0001-01-01T00:00:00Z","name_a2s":"","protocol":0,"map":"","folder":"","game":"","app_id":0,"player_count":0,"max_players":0,"Bots":0,"server_type":"","server_os":"","password":false,"vac":false,"version":"","steam_id":0,"keywords":null,"game_id":0,"stv_port":0,"stv_name":"","players":null},{"server_id":302,"name":"Uncletopia | Montr√©al | 3 | One Thousand Uncles","name_short":"mtl-3","host":"mtl-1.ca.uncletopia.com","port":27035,"enabled":true,"region":"us-east","cc":"ca","latitude":45.50889,"longitude":-73.56167,"reserved":0,"last_update":"0001-01-01T00:00:00Z","name_a2s":"","protocol":0,"map":"","folder":"","game":"","app_id":0,"player_count":0,"max_players":0,"Bots":0,"server_type":"","server_os":"","password":false,"vac":false,"version":"","steam_id":0,"keywords":null,"game_id":0,"stv_port":0,"stv_name":"","players":null},{"server_id":13,"name":"Uncletopia | New York City | 1 | All Maps","name_short":"nyc-1","host":"nyc-1.us.uncletopia.com","port":27015,"enabled":true,"region":"us-east","cc":"us","latitude":40.73061,"longitude":-73.93524,"reserved":0,"last_update":"0001-01-01T00:00:00Z","name_a2s":"Uncletopia | New York City | 1 | All Maps","protocol":17,"map":"koth_suijin","folder":"tf","game":"Team Fortress","app_id":440,"player_count":24,"max_players":24,"Bots":0,"server_type":"Dedicated","server_os":"Linux","password":true,"vac":true,"version":"7961495","steam_id":85568392924469993,"keywords":["cp","nocrits","nodmgspread","uncletopia"],"game_id":440,"stv_port":27016,"stv_name":"Uncletopia | New York City | 1 | All Maps | STV","players":[{"user_id":854,"name":"Zeebop","steam_id":76561198148332988,"connected_time":3496000000000,"state":"active","ping":71},{"user_id":830,"name":"Terror-Billy #SaveTF2","steam_id":76561198328141870,"connected_time":7110000000000,"state":"active","ping":57},{"user_id":626,"name":"A Puppy","steam_id":76561198828184456,"connected_time":23329000000000,"state":"active","ping":47},{"user_id":849,"name":"flappyflap2","steam_id":76561198285048973,"connected_time":5275000000000,"state":"active","ping":44},{"user_id":887,"name":"Mole","steam_id":76561198069909083,"connected_time":455000000000,"state":"active","ping":60},{"user_id":888,"name":"Osteo-Oligarch","steam_id":76561198164731896,"connected_time":399000000000,"state":"active","ping":80},{"user_id":855,"name":"Unfortunate","steam_id":76561198049660844,"connected_time":3479000000000,"state":"active","ping":84},{"user_id":870,"name":"Runny Eggs","steam_id":76561198006785882,"connected_time":2518000000000,"state":"active","ping":98},{"user_id":797,"name":"Hipster_Giraffe","steam_id":76561198069701092,"connected_time":8911000000000,"state":"active","ping":88},{"user_id":878,"name":"EnderActually","steam_id":76561199227287180,"connected_time":1935000000000,"state":"active","ping":72},{"user_id":882,"name":"Baron von Whoopsie","steam_id":76561197996691013,"connected_time":1660000000000,"state":"active","ping":59},{"user_id":889,"name":"CRAZY engineer","steam_id":76561198887937902,"connected_time":327000000000,"state":"active","ping":47},{"user_id":807,"name":"space man","steam_id":76561198066333670,"connected_time":8765000000000,"state":"active","ping":69},{"user_id":894,"name":"Smegmar \"Piss Monkey\"","steam_id":76561198143476620,"connected_time":200000000000,"state":"active","ping":53},{"user_id":886,"name":"Great","steam_id":76561198895516433,"connected_time":532000000000,"state":"active","ping":58},{"user_id":890,"name":"family-friendly chainsaw man","steam_id":76561198007464245,"connected_time":299000000000,"state":"active","ping":68},{"user_id":892,"name":"evil sorceress","steam_id":76561199196442823,"connected_time":234000000000,"state":"active","ping":158},{"user_id":883,"name":"Mocanthl","steam_id":76561198043778324,"connected_time":1629000000000,"state":"active","ping":73},{"user_id":876,"name":"Captain Emerald The Changeling","steam_id":76561198320651177,"connected_time":2141000000000,"state":"active","ping":48},{"user_id":861,"name":"Xsaber","steam_id":76561198285273249,"connected_time":3217000000000,"state":"active","ping":58},{"user_id":893,"name":"ZestfulCorgi","steam_id":76561198121279963,"connected_time":225000000000,"state":"active","ping":78},{"user_id":881,"name":"Umme","steam_id":76561198053809566,"connected_time":1710000000000,"state":"active","ping":155},{"user_id":866,"name":"CCTV CAMERA","steam_id":76561198079973828,"connected_time":3013000000000,"state":"active","ping":98},{"user_id":895,"name":"kiseek","steam_id":76561198075474088,"connected_time":182000000000,"state":"active","ping":99}]},{"server_id":14,"name":"Uncletopia | New York City | 2 | All Maps","name_short":"nyc-2","host":"nyc-1.us.uncletopia.com","port":27025,"enabled":true,"region":"us-east","cc":"us","latitude":40.73061,"longitude":-73.93524,"reserved":0,"last_update":"0001-01-01T00:00:00Z","name_a2s":"Uncletopia | New York City | 2 | All Maps","protocol":17,"map":"cp_dustbowl","folder":"tf","game":"Team Fortress","app_id":440,"player_count":5,"max_players":24,"Bots":0,"server_type":"Dedicated","server_os":"Linux","password":true,"vac":true,"version":"7961495","steam_id":85568392924469994,"keywords":["cp","nocrits","nodmgspread","uncletopia"],"game_id":440,"stv_port":27026,"stv_name":"Uncletopia | New York City | 2 | All Maps | STV","players":[{"user_id":579,"name":"PIPUPINE","steam_id":76561198805194554,"connected_time":474000000000,"state":"active","ping":61},{"user_id":582,"name":"Bee_Pirate","steam_id":76561199000599111,"connected_time":135000000000,"state":"active","ping":59},{"user_id":576,"name":"Chirunomo","steam_id":76561197963956138,"connected_time":865000000000,"state":"active","ping":130},{"user_id":537,"name":"GOLDIE","steam_id":76561199375258674,"connected_time":5020000000000,"state":"active","ping":117},{"user_id":564,"name":"Mac is Bac #TransRights","steam_id":76561198307352761,"connected_time":1741000000000,"state":"active","ping":101}]},{"server_id":15,"name":"Uncletopia | New York City | 3 | Stopwatch","name_short":"nyc-3","host":"nyc-1.us.uncletopia.com","port":27035,"enabled":true,"region":"us-east","cc":"us","latitude":40.73061,"longitude":-73.93524,"reserved":0,"last_update":"0001-01-01T00:00:00Z","name_a2s":"Uncletopia | New York City | 3 | Stopwatch","protocol":17,"map":"workshop/koth_product_final.ugc454272353","folder":"tf","game":"Team Fortress","app_id":440,"player_count":0,"max_players":24,"Bots":0,"server_type":"Dedicated","server_os":"Linux","password":true,"vac":true,"version":"7961495","steam_id":85568392924742820,"keywords":["cp","nocrits","nodmgspread","uncletopia"],"game_id":440,"stv_port":27036,"stv_name":"Uncletopia | New York City | 3 | Stopwatch | STV","players":null},{"server_id":16,"name":"Uncletopia | New York City | 4 | Community","name_short":"nyc-4","host":"nyc-1.us.uncletopia.com","port":27045,"enabled":true,"region":"us-east","cc":"us","latitude":40.73061,"longitude":-73.93524,"reserved":0,"last_update":"0001-01-01T00:00:00Z","name_a2s":"Uncletopia | New York City | 4 | Community","protocol":17,"map":"workshop/pl_barnblitz_pro7.ugc582280235","folder":"tf","game":"Team Fortress","app_id":440,"player_count":24,"max_players":24,"Bots":0,"server_type":"Dedicated","server_os":"Linux","password":true,"vac":true,"version":"7961495","steam_id":85568392924742821,"keywords":["nocrits","nodmgspread","payload","uncletopia"],"game_id":440,"stv_port":27046,"stv_name":"Uncletopia | New York City | 4 | Community | STV","players":[{"user_id":299,"name":"Swifgz","steam_id":76561198162875756,"connected_time":253000000000,"state":"active","ping":45},{"user_id":292,"name":"victordead121","steam_id":76561199180843121,"connected_time":1301000000000,"state":"active","ping":130},{"user_id":276,"name":"Giddy","steam_id":76561198271951969,"connected_time":2114000000000,"state":"active","ping":130},{"user_id":301,"name":"homestuck","steam_id":76561198085042338,"connected_time":92000000000,"state":"active","ping":121},{"user_id":289,"name":"im useless to my team","steam_id":76561198937500426,"connected_time":1734000000000,"state":"active","ping":207},{"user_id":302,"name":"Naandi","steam_id":76561198153011059,"connected_time":85000000000,"state":"active","ping":135},{"user_id":256,"name":"degeneracy","steam_id":76561198836102519,"connected_time":3652000000000,"state":"active","ping":68},{"user_id":142,"name":"Chedda Cheese","steam_id":76561198095536103,"connected_time":10820000000000,"state":"active","ping":74},{"user_id":297,"name":"Arbiter","steam_id":76561198072605849,"connected_time":341000000000,"state":"active","ping":69},{"user_id":291,"name":"Sqiddwr","steam_id":76561197998071622,"connected_time":1337000000000,"state":"active","ping":97},{"user_id":160,"name":"Smiley Fries","steam_id":76561198052763637,"connected_time":9896000000000,"state":"active","ping":69},{"user_id":258,"name":"Ugly_Fat","steam_id":76561198123418237,"connected_time":3634000000000,"state":"active","ping":115},{"user_id":187,"name":"eatmysteel","steam_id":76561198976437527,"connected_time":7664000000000,"state":"active","ping":81},{"user_id":174,"name":"Bob","steam_id":76561198038708273,"connected_time":9082000000000,"state":"active","ping":84},{"user_id":259,"name":"he folat","steam_id":76561198434305562,"connected_time":3588000000000,"state":"active","ping":81},{"user_id":293,"name":"sqomboashous snickerdoodle","steam_id":76561198346001637,"connected_time":1210000000000,"state":"active","ping":99},{"user_id":303,"name":"Decapitation Station","steam_id":76561198201796098,"connected_time":66000000000,"state":"active","ping":88},{"user_id":239,"name":"Gelisor","steam_id":76561198001581101,"connected_time":4578000000000,"state":"active","ping":120},{"user_id":240,"name":"Rat Smacker","steam_id":76561198043629646,"connected_time":4572000000000,"state":"active","ping":122},{"user_id":304,"name":"killeroverscore123","steam_id":76561199168131321,"connected_time":47000000000,"state":"active","ping":105},{"user_id":295,"name":"Mythic","steam_id":76561198028616665,"connected_time":1082000000000,"state":"active","ping":58},{"user_id":205,"name":"Just_Bad","steam_id":76561198145153093,"connected_time":6962000000000,"state":"active","ping":46},{"user_id":272,"name":"‚ô•krystal301‚ô•","steam_id":76561198118772664,"connected_time":2371000000000,"state":"active","ping":108},{"user_id":263,"name":"Seaport Hime","steam_id":76561198055914224,"connected_time":3392000000000,"state":"active","ping":51}]},{"server_id":142,"name":"Uncletopia | S√£o Paulo | 1 | All Maps","name_short":"sao-1","host":"sao-1.br.uncletopia.com","port":27015,"enabled":true,"region":"sa","cc":"br","latitude":-23.533773,"longitude":-46.62529,"reserved":0,"last_update":"0001-01-01T00:00:00Z","name_a2s":"Uncletopia | S√£o Paulo | 1 | All Maps","protocol":17,"map":"koth_highpass","folder":"tf","game":"Team Fortress","app_id":440,"player_count":0,"max_players":24,"Bots":0,"server_type":"Dedicated","server_os":"Linux","password":true,"vac":true,"version":"7961495","steam_id":85568392924469996,"keywords":["cp","nocrits","nodmgspread","uncletopia"],"game_id":440,"stv_port":27016,"stv_name":"Uncletopia | S√£o Paulo | 1 | All Maps | STV","players":null},{"server_id":143,"name":"Uncletopia | S√£o Paulo | 2 | Community","name_short":"sao-2","host":"sao-2.br.uncletopia.com","port":27015,"enabled":true,"region":"sa","cc":"br","latitude":-23.533773,"longitude":-46.62529,"reserved":0,"last_update":"0001-01-01T00:00:00Z","name_a2s":"Uncletopia | S√£o Paulo | 2 | Community","protocol":17,"map":"workshop/koth_product_final.ugc454272353","folder":"tf","game":"Team Fortress","app_id":440,"player_count":0,"max_players":24,"Bots":0,"server_type":"Dedicated","server_os":"Linux","password":true,"vac":true,"version":"7961495","steam_id":85568392924485349,"keywords":["cp","nocrits","nodmgspread","uncletopia"],"game_id":440,"stv_port":27016,"stv_name":"Uncletopia | S√£o Paulo | 2 | Community | STV","players":null},{"server_id":7,"name":"Uncletopia | Seattle | 1 | All Maps","name_short":"sea-1","host":"sea-1.us.uncletopia.com","port":27015,"enabled":true,"region":"us-west","cc":"us","latitude":47.608013,"longitude":-122.33517,"reserved":0,"last_update":"0001-01-01T00:00:00Z","name_a2s":"Uncletopia | Seattle | 1 | All Maps","protocol":17,"map":"ctf_2fort","folder":"tf","game":"Team Fortress","app_id":440,"player_count":25,"max_players":24,"Bots":0,"server_type":"Dedicated","server_os":"Linux","password":true,"vac":true,"version":"7961495","steam_id":85568392924469997,"keywords":["ctf","nocrits","nodmgspread","uncletopia"],"game_id":440,"stv_port":27016,"stv_name":"Uncletopia | Seattle | 1 | All Maps | STV","players":[{"user_id":700,"name":"Alltrex","steam_id":76561198202254225,"connected_time":2311000000000,"state":"active","ping":46},{"user_id":710,"name":"Some Dood on the Internet","steam_id":76561198054657687,"connected_time":1265000000000,"state":"active","ping":58},{"user_id":704,"name":"Lily Thorn","steam_id":76561198305488625,"connected_time":1803000000000,"state":"active","ping":49},{"user_id":708,"name":"Sweets","steam_id":76561198998446307,"connected_time":1372000000000,"state":"active","ping":64},{"user_id":714,"name":"markgstring","steam_id":76561198065153674,"connected_time":1014000000000,"state":"active","ping":89},{"user_id":681,"name":"Cheezbeargur","steam_id":76561198164702899,"connected_time":3193000000000,"state":"active","ping":62},{"user_id":727,"name":"Daz","steam_id":76561198041431938,"connected_time":98000000000,"state":"active","ping":51},{"user_id":698,"name":"Mak","steam_id":76561198089197922,"connected_time":2578000000000,"state":"active","ping":59},{"user_id":683,"name":"Squigzy_","steam_id":76561198061696667,"connected_time":2961000000000,"state":"active","ping":75},{"user_id":692,"name":"Kryptonite253","steam_id":76561198019919891,"connected_time":2879000000000,"state":"active","ping":49},{"user_id":684,"name":"NEBULA","steam_id":76561198086878595,"connected_time":2957000000000,"state":"active","ping":68},{"user_id":656,"name":"mega","steam_id":76561198089520959,"connected_time":5808000000000,"state":"active","ping":95},{"user_id":702,"name":"Nom Skirrett","steam_id":76561198014600788,"connected_time":2051000000000,"state":"active","ping":62},{"user_id":728,"name":"Luca","steam_id":76561198125087140,"connected_time":93000000000,"state":"active","ping":46},{"user_id":726,"name":"God's Goofiest Goober","steam_id":76561198418288939,"connected_time":127000000000,"state":"active","ping":61},{"user_id":729,"name":"[TrC] Dackstrus","steam_id":76561197973518509,"connected_time":74000000000,"state":"active","ping":60},{"user_id":725,"name":"profile name","steam_id":76561198032625036,"connected_time":128000000000,"state":"active","ping":53},{"user_id":718,"name":"fart","steam_id":76561198046073848,"connected_time":474000000000,"state":"active","ping":45},{"user_id":699,"name":"rushy :))","steam_id":76561198065825165,"connected_time":2421000000000,"state":"active","ping":104},{"user_id":706,"name":"Darkgigglemonster","steam_id":76561198870649125,"connected_time":1631000000000,"state":"active","ping":87},{"user_id":709,"name":"Arsonist Goose","steam_id":76561198147441830,"connected_time":1329000000000,"state":"active","ping":74},{"user_id":689,"name":"WillowWisp","steam_id":76561198049104842,"connected_time":2895000000000,"state":"active","ping":45},{"user_id":680,"name":"Choom","steam_id":76561197972654816,"connected_time":4187000000000,"state":"active","ping":52},{"user_id":730,"name":"Dog","steam_id":76561198041841128,"connected_time":32000000000,"state":"spawning","ping":100},{"user_id":721,"name":"thomas","steam_id":76561198412353895,"connected_time":355000000000,"state":"active","ping":39}]},{"server_id":119,"name":"Uncletopia | Seattle | 2 | All Maps","name_short":"sea-2","host":"sea-1.us.uncletopia.com","port":27025,"enabled":true,"region":"us-west","cc":"us","latitude":47.608013,"longitude":-122.33517,"reserved":0,"last_update":"0001-01-01T00:00:00Z","name_a2s":"Uncletopia | Seattle | 2 | All Maps","protocol":17,"map":"cp_5gorge","folder":"tf","game":"Team Fortress","app_id":440,"player_count":23,"max_players":24,"Bots":0,"server_type":"Dedicated","server_os":"Linux","password":true,"vac":true,"version":"7961495","steam_id":85568392924469998,"keywords":["cp","nocrits","nodmgspread","uncletopia"],"game_id":440,"stv_port":27026,"stv_name":"Uncletopia | Seattle | 2 | All Maps | STV","players":[{"user_id":584,"name":"Paint Huffing Yoshi Player","steam_id":76561198028969023,"connected_time":4267000000000,"state":"active","ping":52},{"user_id":617,"name":"ghostglitch","steam_id":76561197991608573,"connected_time":1772000000000,"state":"active","ping":54},{"user_id":643,"name":"zuma deluxe","steam_id":76561198059041027,"connected_time":231000000000,"state":"active","ping":45},{"user_id":635,"name":"Irritated Duck","steam_id":76561198247792076,"connected_time":656000000000,"state":"active","ping":55},{"user_id":642,"name":"Common","steam_id":76561198041083863,"connected_time":270000000000,"state":"active","ping":60},{"user_id":591,"name":"moosein","steam_id":76561198354272434,"connected_time":3509000000000,"state":"active","ping":62},{"user_id":636,"name":"Orangejuicehero‚Ñ¢","steam_id":76561198072606052,"connected_time":572000000000,"state":"active","ping":98},{"user_id":631,"name":"i need to see your balls","steam_id":76561198168492250,"connected_time":856000000000,"state":"active","ping":69},{"user_id":641,"name":"Boi‚Ñ¢","steam_id":76561198361265193,"connected_time":434000000000,"state":"active","ping":46},{"user_id":548,"name":"Lili","steam_id":76561199488457138,"connected_time":6900000000000,"state":"active","ping":50},{"user_id":580,"name":"TheCowledWiz","steam_id":76561198016735868,"connected_time":4618000000000,"state":"active","ping":46},{"user_id":638,"name":"caca sniffer","steam_id":76561199099914725,"connected_time":545000000000,"state":"active","ping":54},{"user_id":597,"name":"[Industrial] A_HUMBLEBUMBLED","steam_id":76561198064771878,"connected_time":3329000000000,"state":"active","ping":34},{"user_id":509,"name":"ilun","steam_id":76561198042913843,"connected_time":9341000000000,"state":"active","ping":50},{"user_id":610,"name":"greens beans","steam_id":76561198153611491,"connected_time":2591000000000,"state":"active","ping":45},{"user_id":644,"name":"El Gato Paranoico","steam_id":76561198116567116,"connected_time":144000000000,"state":"active","ping":126},{"user_id":624,"name":"Bread","steam_id":76561199201106625,"connected_time":1498000000000,"state":"active","ping":98},{"user_id":578,"name":"Lane","steam_id":76561197965828506,"connected_time":4926000000000,"state":"active","ping":101},{"user_id":645,"name":"Shrimp Fried Rice","steam_id":76561198247688228,"connected_time":144000000000,"state":"active","ping":130},{"user_id":609,"name":"mine diam","steam_id":76561198119123981,"connected_time":2602000000000,"state":"active","ping":47},{"user_id":632,"name":"Autistic /tttt/ user","steam_id":76561198245291824,"connected_time":852000000000,"state":"active","ping":65},{"user_id":646,"name":"lime creator","steam_id":76561198074047574,"connected_time":125000000000,"state":"active","ping":77},{"user_id":604,"name":"CasemanTheBlondeBear","steam_id":76561198144862404,"connected_time":2752000000000,"state":"active","ping":51}]},{"server_id":406,"name":"Uncletopia | Seattle | 3 | Stopwatch","name_short":"sea-3","host":"sea-1.us.uncletopia.com","port":27035,"enabled":true,"region":"us-west","cc":"us","latitude":47.608013,"longitude":-122.33517,"reserved":0,"last_update":"0001-01-01T00:00:00Z","name_a2s":"Uncletopia | Seattle | 3 | Stopwatch","protocol":17,"map":"workshop/koth_ashville_final.ugc2130459942","folder":"tf","game":"Team Fortress","app_id":440,"player_count":0,"max_players":24,"Bots":0,"server_type":"Dedicated","server_os":"Linux","password":true,"vac":true,"version":"7961495","steam_id":85568392924515217,"keywords":["cp","nocrits","nodmgspread","uncletopia"],"game_id":440,"stv_port":27036,"stv_name":"Uncletopia | Seattle | 3 | Stopwatch | STV","players":null},{"server_id":17,"name":"Uncletopia | San Francisco | 1 | All Maps","name_short":"sfo-1","host":"sfo-1.us.uncletopia.com","port":27015,"enabled":true,"region":"us-west","cc":"us","latitude":37.77397,"longitude":-122.4313,"reserved":0,"last_update":"0001-01-01T00:00:00Z","name_a2s":"Uncletopia | San Francisco | 1 | All Maps","protocol":17,"map":"koth_highpass","folder":"tf","game":"Team Fortress","app_id":440,"player_count":0,"max_players":24,"Bots":0,"server_type":"Dedicated","server_os":"Linux","password":true,"vac":true,"version":"7961495","steam_id":85568392924469999,"keywords":["cp","nocrits","nodmgspread","uncletopia"],"game_id":440,"stv_port":27016,"stv_name":"Uncletopia | San Francisco | 1 | All Maps | STV","players":null},{"server_id":18,"name":"Uncletopia | San Francisco | 2 | All Maps","name_short":"sfo-2","host":"sfo-1.us.uncletopia.com","port":27025,"enabled":true,"region":"us-west","cc":"us","latitude":37.77397,"longitude":-122.4313,"reserved":0,"last_update":"0001-01-01T00:00:00Z","name_a2s":"Uncletopia | San Francisco | 2 | All Maps","protocol":17,"map":"pl_swiftwater_final1","folder":"tf","game":"Team Fortress","app_id":440,"player_count":0,"max_players":24,"Bots":0,"server_type":"Dedicated","server_os":"Linux","password":true,"vac":true,"version":"7961495","steam_id":85568392924470000,"keywords":["nocrits","nodmgspread","payload","uncletopia"],"game_id":440,"stv_port":27026,"stv_name":"Uncletopia | San Francisco | 2 | All Maps | STV","players":null},{"server_id":19,"name":"Uncletopia | San Francisco | 3 | Stopwatch","name_short":"sfo-3","host":"sfo-1.us.uncletopia.com","port":27035,"enabled":true,"region":"us-west","cc":"us","latitude":37.77397,"longitude":-122.4313,"reserved":0,"last_update":"0001-01-01T00:00:00Z","name_a2s":"Uncletopia | San Francisco | 3 | Stopwatch","protocol":17,"map":"workshop/koth_bagel_rc6.ugc2514036946","folder":"tf","game":"Team Fortress","app_id":440,"player_count":0,"max_players":24,"Bots":0,"server_type":"Dedicated","server_os":"Linux","password":true,"vac":true,"version":"7961495","steam_id":85568392924742824,"keywords":["cp","nocrits","nodmgspread","uncletopia"],"game_id":440,"stv_port":27036,"stv_name":"Uncletopia | San Francisco | 3 | Stopwatch | STV","players":null},{"server_id":20,"name":"Uncletopia | San Francisco | 4 | Community","name_short":"sfo-4","host":"sfo-1.us.uncletopia.com","port":27045,"enabled":true,"region":"us-west","cc":"us","latitude":37.77397,"longitude":-122.4313,"reserved":0,"last_update":"0001-01-01T00:00:00Z","name_a2s":"Uncletopia | San Francisco | 4 | Community","protocol":17,"map":"pl_pier","folder":"tf","game":"Team Fortress","app_id":440,"player_count":0,"max_players":24,"Bots":0,"server_type":"Dedicated","server_os":"Linux","password":true,"vac":true,"version":"7961495","steam_id":85568392924742826,"keywords":["nocrits","nodmgspread","payload","uncletopia"],"game_id":440,"stv_port":27046,"stv_name":"Uncletopia | San Francisco | 4 | Community | STV","players":null},{"server_id":141,"name":"Uncletopia | Sydney | 1 | All Maps","name_short":"syd-1","host":"syd-1.au.uncletopia.com","port":27015,"enabled":true,"region":"au","cc":"au","latitude":-33.865143,"longitude":151.2099,"reserved":0,"last_update":"0001-01-01T00:00:00Z","name_a2s":"Uncletopia | Sydney | 1 | All Maps","protocol":17,"map":"pl_barnblitz","folder":"tf","game":"Team Fortress","app_id":440,"player_count":24,"max_players":24,"Bots":0,"server_type":"Dedicated","server_os":"Linux","password":true,"vac":true,"version":"7961495","steam_id":85568392924470001,"keywords":["nocrits","nodmgspread","payload","uncletopia"],"game_id":440,"stv_port":27016,"stv_name":"Uncletopia | Sydney | 1 | All Maps | STV","players":[{"user_id":347,"name":"soupy","steam_id":76561198073734936,"connected_time":3587000000000,"state":"active","ping":93},{"user_id":374,"name":"King Stan II","steam_id":76561198890742309,"connected_time":720000000000,"state":"active","ping":80},{"user_id":367,"name":"sentry, buster","steam_id":76561198048064049,"connected_time":1109000000000,"state":"active","ping":66},{"user_id":380,"name":"uso","steam_id":76561198028756598,"connected_time":389000000000,"state":"active","ping":90},{"user_id":360,"name":"Glockenspe (She/Her)","steam_id":76561199184115241,"connected_time":2192000000000,"state":"active","ping":53},{"user_id":376,"name":"Warren","steam_id":76561198120350917,"connected_time":638000000000,"state":"active","ping":43},{"user_id":355,"name":"Coffee","steam_id":76561198008865459,"connected_time":2637000000000,"state":"active","ping":66},{"user_id":377,"name":"MoistNipple","steam_id":76561198180956833,"connected_time":622000000000,"state":"active","ping":62},{"user_id":381,"name":"2200","steam_id":76561198048634605,"connected_time":368000000000,"state":"active","ping":45},{"user_id":339,"name":"Mooty","steam_id":76561198301293435,"connected_time":3875000000000,"state":"active","ping":58},{"user_id":385,"name":"timtam","steam_id":76561199367793551,"connected_time":60000000000,"state":"active","ping":149},{"user_id":371,"name":"Snuky","steam_id":76561198117902338,"connected_time":843000000000,"state":"active","ping":42},{"user_id":366,"name":"Quartz-Powered Hoe","steam_id":76561198072845816,"connected_time":1245000000000,"state":"active","ping":56},{"user_id":364,"name":"modus","steam_id":76561198025099660,"connected_time":1678000000000,"state":"active","ping":34},{"user_id":331,"name":"Sentry Gun (EpicGuy4227)","steam_id":76561198094132328,"connected_time":5183000000000,"state":"active","ping":52},{"user_id":383,"name":"Centrelink","steam_id":76561198988128327,"connected_time":313000000000,"state":"active","ping":48},{"user_id":336,"name":"horrid webbon ·òõ‚ÅêÃ§·ïê·ê∑","steam_id":76561198061998379,"connected_time":4049000000000,"state":"active","ping":55},{"user_id":337,"name":"wobblygoogus sbizzlefritz","steam_id":76561198063481761,"connected_time":4028000000000,"state":"active","ping":46},{"user_id":368,"name":"level 7 concrete","steam_id":76561198067978287,"connected_time":1076000000000,"state":"active","ping":100},{"user_id":302,"name":"I desire ass","steam_id":76561198118385786,"connected_time":8230000000000,"state":"active","ping":68},{"user_id":215,"name":"P. Ness","steam_id":76561198037664265,"connected_time":13901000000000,"state":"active","ping":62},{"user_id":192,"name":"fun haver","steam_id":76561197996866578,"connected_time":15125000000000,"state":"active","ping":61},{"user_id":354,"name":"Paul Hollywood","steam_id":76561198060024585,"connected_time":2765000000000,"state":"active","ping":40},{"user_id":317,"name":"papa","steam_id":76561198163034070,"connected_time":6201000000000,"state":"active","ping":54}]},{"server_id":123,"name":"Uncletopia | Sydney | 2 | All Maps","name_short":"syd-2","host":"syd-1.au.uncletopia.com","port":27025,"enabled":true,"region":"au","cc":"au","latitude":-33.865143,"longitude":151.2099,"reserved":0,"last_update":"0001-01-01T00:00:00Z","name_a2s":"Uncletopia | Sydney | 2 | All Maps","protocol":17,"map":"pl_frontier_final","folder":"tf","game":"Team Fortress","app_id":440,"player_count":19,"max_players":24,"Bots":0,"server_type":"Dedicated","server_os":"Linux","password":true,"vac":true,"version":"7961495","steam_id":85568392924470002,"keywords":["nocrits","nodmgspread","payload","uncletopia"],"game_id":440,"stv_port":27026,"stv_name":"Uncletopia | Sydney | 2 | All Maps | STV","players":[{"user_id":35,"name":"jinker","steam_id":76561198365310012,"connected_time":2875000000000,"state":"active","ping":59},{"user_id":72,"name":"Finios","steam_id":76561198209013071,"connected_time":206000000000,"state":"active","ping":47},{"user_id":51,"name":"TheEqualiser","steam_id":76561198264237939,"connected_time":2145000000000,"state":"active","ping":147},{"user_id":54,"name":"The Lad","steam_id":76561198865537226,"connected_time":2022000000000,"state":"active","ping":84},{"user_id":19,"name":"infinite toast","steam_id":76561198808826338,"connected_time":4821000000000,"state":"active","ping":106},{"user_id":68,"name":"B. F. Bugleberry","steam_id":76561198137335569,"connected_time":838000000000,"state":"active","ping":58},{"user_id":66,"name":"Grumbo","steam_id":76561198169116395,"connected_time":1062000000000,"state":"active","ping":64},{"user_id":27,"name":"MINI S.","steam_id":76561198116179875,"connected_time":3299000000000,"state":"active","ping":52},{"user_id":59,"name":"FascismSalad","steam_id":76561198262410973,"connected_time":1401000000000,"state":"active","ping":45},{"user_id":31,"name":"i got 5 kills once","steam_id":76561198383320315,"connected_time":3037000000000,"state":"active","ping":45},{"user_id":63,"name":"Rock","steam_id":76561198122507211,"connected_time":1208000000000,"state":"active","ping":56},{"user_id":37,"name":"goldenfoxy79","steam_id":76561198211361749,"connected_time":2801000000000,"state":"active","ping":59},{"user_id":38,"name":"Lightningbenji","steam_id":76561198067214247,"connected_time":2791000000000,"state":"active","ping":45},{"user_id":41,"name":"Motormouth","steam_id":76561197980851839,"connected_time":2726000000000,"state":"active","ping":79},{"user_id":42,"name":"icey_dices","steam_id":76561199071251320,"connected_time":2685000000000,"state":"active","ping":69},{"user_id":67,"name":"mOnKe","steam_id":76561199188256398,"connected_time":1038000000000,"state":"active","ping":54},{"user_id":69,"name":"HYPER","steam_id":76561198302487295,"connected_time":825000000000,"state":"active","ping":52},{"user_id":47,"name":"Beangodhiann","steam_id":76561198189663681,"connected_time":2351000000000,"state":"active","ping":49},{"user_id":48,"name":"sweet","steam_id":76561198075311236,"connected_time":2286000000000,"state":"active","ping":57}]},{"server_id":395,"name":"Uncletopia | Sydney | 3 | All Maps","name_short":"syd-3","host":"syd-1.au.uncletopia.com","port":27035,"enabled":true,"region":"au","cc":"au","latitude":-33.865143,"longitude":151.2099,"reserved":0,"last_update":"0001-01-01T00:00:00Z","name_a2s":"Uncletopia | Sydney | 3 | All Maps","protocol":17,"map":"koth_lakeside_final","folder":"tf","game":"Team Fortress","app_id":440,"player_count":0,"max_players":24,"Bots":0,"server_type":"Dedicated","server_os":"Linux","password":true,"vac":true,"version":"7961495","steam_id":85568392925194467,"keywords":["cp","nocrits","nodmgspread","uncletopia"],"game_id":440,"stv_port":27036,"stv_name":"Uncletopia | Sydney | 3 | All Maps | STV","players":null},{"server_id":396,"name":"Uncletopia | Sydney | 4 | All Maps","name_short":"syd-4","host":"syd-1.au.uncletopia.com","port":27045,"enabled":true,"region":"au","cc":"au","latitude":-33.865143,"longitude":151.2099,"reserved":0,"last_update":"0001-01-01T00:00:00Z","name_a2s":"Uncletopia | Sydney | 4 | All Maps","protocol":17,"map":"koth_viaduct","folder":"tf","game":"Team Fortress","app_id":440,"player_count":0,"max_players":24,"Bots":0,"server_type":"Dedicated","server_os":"Linux","password":true,"vac":true,"version":"7961495","steam_id":85568392925397958,"keywords":["cp","nocrits","nodmgspread","uncletopia"],"game_id":440,"stv_port":27046,"stv_name":"Uncletopia | Sydney | 4 | All Maps | STV","players":null},{"server_id":58,"name":"Uncletopia | Sydney | 5 | Stopwatch","name_short":"syd-5","host":"syd-1.au.uncletopia.com","port":27055,"enabled":true,"region":"au","cc":"au","latitude":-33.865143,"longitude":151.2099,"reserved":0,"last_update":"0001-01-01T00:00:00Z","name_a2s":"Uncletopia | Sydney | 5 | Stopwatch","protocol":17,"map":"pl_frontier_final","folder":"tf","game":"Team Fortress","app_id":440,"player_count":0,"max_players":24,"Bots":0,"server_type":"Dedicated","server_os":"Linux","password":true,"vac":true,"version":"7961495","steam_id":85568392925397959,"keywords":["nocrits","nodmgspread","payload","uncletopia"],"game_id":440,"stv_port":27056,"stv_name":"Uncletopia | Sydney | 5 | Stopwatch | STV","players":null},{"server_id":59,"name":"Uncletopia | Sydney | 6 | Community","name_short":"syd-6","host":"syd-1.au.uncletopia.com","port":27065,"enabled":true,"region":"au","cc":"au","latitude":-33.865143,"longitude":151.2099,"reserved":0,"last_update":"0001-01-01T00:00:00Z","name_a2s":"Uncletopia | Sydney | 6 | Community","protocol":17,"map":"workshop/pl_cashworks_final1.ugc2904065412","folder":"tf","game":"Team Fortress","app_id":440,"player_count":0,"max_players":24,"Bots":0,"server_type":"Dedicated","server_os":"Linux","password":true,"vac":true,"version":"7961495","steam_id":85568392925397960,"keywords":["nocrits","nodmgspread","payload","uncletopia"],"game_id":440,"stv_port":27066,"stv_name":"Uncletopia | Sydney | 6 | Community | STV","players":null},{"server_id":49,"name":"Uncletopia | Warsaw | 1 | One Thousand Uncles","name_short":"waw-1","host":"waw-1.pl.uncletopia.com","port":27015,"enabled":true,"region":"eu","cc":"pl","latitude":52.2297,"longitude":21.017532,"reserved":0,"last_update":"0001-01-01T00:00:00Z","name_a2s":"Uncletopia | Warsaw | 1 | One Thousand Uncles","protocol":17,"map":"koth_highpass","folder":"tf","game":"Team Fortress","app_id":440,"player_count":0,"max_players":32,"Bots":0,"server_type":"Dedicated","server_os":"Linux","password":true,"vac":true,"version":"7961495","steam_id":85568392925397850,"keywords":["alltalk","cp","danepve","increased_maxplayers","nocrits","norespawntime","uncletopia"],"game_id":440,"stv_port":0,"stv_name":"","players":null},{"server_id":50,"name":"Uncletopia | Warsaw | 2 | One Thousand Uncles","name_short":"waw-2","host":"waw-1.pl.uncletopia.com","port":27025,"enabled":true,"region":"eu","cc":"pl","latitude":52.2297,"longitude":21.017532,"reserved":0,"last_update":"0001-01-01T00:00:00Z","name_a2s":"Uncletopia | Warsaw | 2 | One Thousand Uncles","protocol":17,"map":"pl_goldrush","folder":"tf","game":"Team Fortress","app_id":440,"player_count":0,"max_players":32,"Bots":0,"server_type":"Dedicated","server_os":"Linux","password":true,"vac":true,"version":"7961495","steam_id":85568392925397851,"keywords":["alltalk","danepve","increased_maxplayers","nocrits","norespawntime","payload","uncletopia"],"game_id":440,"stv_port":0,"stv_name":"","players":null},{"server_id":51,"name":"Uncletopia | Warsaw | 3 | All Maps","name_short":"waw-3","host":"waw-1.pl.uncletopia.com","port":27035,"enabled":true,"region":"eu","cc":"pl","latitude":52.2297,"longitude":21.017532,"reserved":0,"last_update":"0001-01-01T00:00:00Z","name_a2s":"Uncletopia | Warsaw | 3 | All Maps","protocol":17,"map":"plr_pipeline","folder":"tf","game":"Team Fortress","app_id":440,"player_count":0,"max_players":24,"Bots":0,"server_type":"Dedicated","server_os":"Linux","password":true,"vac":true,"version":"7961495","steam_id":85568392925397852,"keywords":["nocrits","nodmgspread","payload","uncletopia"],"game_id":440,"stv_port":27036,"stv_name":"Uncletopia | Warsaw | 3 | All Maps | STV","players":null},{"server_id":52,"name":"Uncletopia | Warsaw | 4 | All Maps","name_short":"waw-4","host":"waw-1.pl.uncletopia.com","port":27045,"enabled":true,"region":"eu","cc":"pl","latitude":52.2297,"longitude":21.017532,"reserved":0,"last_update":"0001-01-01T00:00:00Z","name_a2s":"Uncletopia | Warsaw | 4 | All Maps","protocol":17,"map":"cp_coldfront","folder":"tf","game":"Team Fortress","app_id":440,"player_count":0,"max_players":24,"Bots":0,"server_type":"Dedicated","server_os":"Linux","password":true,"vac":true,"version":"7961495","steam_id":85568392925397853,"keywords":["cp","nocrits","nodmgspread","uncletopia"],"game_id":440,"stv_port":27046,"stv_name":"Uncletopia | Warsaw | 4 | All Maps | STV","players":null},{"server_id":53,"name":"Uncletopia | Warsaw | 5 | Stopwatch","name_short":"waw-5","host":"waw-1.pl.uncletopia.com","port":27055,"enabled":true,"region":"eu","cc":"pl","latitude":52.2297,"longitude":21.017532,"reserved":0,"last_update":"0001-01-01T00:00:00Z","name_a2s":"Uncletopia | Warsaw | 5 | Stopwatch","protocol":17,"map":"workshop/koth_bagel_rc6.ugc2514036946","folder":"tf","game":"Team Fortress","app_id":440,"player_count":0,"max_players":24,"Bots":0,"server_type":"Dedicated","server_os":"Linux","password":true,"vac":true,"version":"7961495","steam_id":85568392925397854,"keywords":["cp","nocrits","nodmgspread","uncletopia"],"game_id":440,"stv_port":27056,"stv_name":"Uncletopia | Warsaw | 5 | Stopwatch | STV","players":null},{"server_id":54,"name":"Uncletopia | Warsaw | 6 | Community","name_short":"waw-6","host":"waw-1.pl.uncletopia.com","port":27065,"enabled":true,"region":"eu","cc":"pl","latitude":52.2297,"longitude":21.017532,"reserved":0,"last_update":"0001-01-01T00:00:00Z","name_a2s":"Uncletopia | Warsaw | 6 | Community","protocol":17,"map":"workshop/pl_badwater_pro_v12.ugc2142942074","folder":"tf","game":"Team Fortress","app_id":440,"player_count":0,"max_players":24,"Bots":0,"server_type":"Dedicated","server_os":"Linux","password":true,"vac":true,"version":"7961495","steam_id":85568392925397856,"keywords":["nocrits","nodmgspread","payload","uncletopia"],"game_id":440,"stv_port":27066,"stv_name":"Uncletopia | Warsaw | 6 | Community | STV","players":null}]}