{"status":true,"message":"","result":[{"server_id":9,"name":"Uncletopia | Atlanta | 1 | All Maps","name_short":"atl-1","host":"atl-1.us.uncletopia.com","port":27015,"enabled":true,"region":"us-east","cc":"us","latitude":33.753746,"longitude":-84.38633,"reserved":0,"last_update":"0001-01-01T00:00:00Z","name_a2s":"Uncletopia | Atlanta | 1 | All Maps","protocol":17,"map":"koth_cascade","folder":"tf","game":"Team Fortress","app_id":440,"player_count":5,"max_players":24,"Bots":0,"server_type":"Dedicated","server_os":"Linux","password":true,"vac":true,"version":"7961495","steam_id":85568392924469982,"keywords":["cp","nocrits","nodmgspread","uncletopia"],"game_id":440,"stv_port":27016,"stv_name":"Uncletopia | Atlanta | 1 | All Maps | STV","players":null},{"server_id":104,"name":"Uncletopia | Atlanta | 2 | All Maps","name_short":"atl-2","host":"atl-1.us.uncletopia.com","port":27025,"enabled":true,"region":"us-east","cc":"us","latitude":33.753746,"longitude":-84.38633,"reserved":0,"last_update":"0001-01-01T00:00:00Z","name_a2s":"Uncletopia | Atlanta | 2 | All Maps","protocol":17,"map":"koth_cascade","folder":"tf","game":"Team Fortress","app_id":440,"player_count":0,"max_players":24,"Bots":0,"server_type":"Dedicated","server_os":"Linux","password":true,"vac":true,"version":"7961495","steam_id":85568392924469983,"keywords":["cp","nocrits","nodmgspread","uncletopia"],"game_id":440,"stv_port":27026,"stv_name":"Uncletopia | Atlanta | 2 | All Maps | STV","players":null},{"server_id":400,"name":"Uncletopia | Atlanta | 3 | All Maps","name_short":"atl-3","host":"atl-1.us.uncletopia.com","port":27035,"enabled":true,"region":"us-east","cc":"us","latitude":33.753746,"longitude":-84.38633,"reserved":0,"last_update":"0001-01-01T00:00:00Z","name_a2s":"Uncletopia | Atlanta | 3 | All Maps","protocol":17,"map":"koth_cascade","folder":"tf","game":"Team Fortress","app_id":440,"player_count":15,"max_players":24,"Bots":0,"server_type":"Dedicated","server_os":"Linux","password":true,"vac":true,"version":"7961495","steam_id":85568392924515187,"keywords":["cp","nocrits","nodmgspread","uncletopia"],"game_id":440,"stv_port":27036,"stv_name":"Uncletopia | Atlanta | 3 | All Maps | STV","players":null},{"server_id":401,"name":"Uncletopia | Atlanta | 4 | Community","name_short":"atl-4","host":"atl-1.us.uncletopia.com","port":27045,"enabled":true,"region":"us-east","cc":"us","latitude":33.753746,"longitude":-84.38633,"reserved":0,"last_update":"0001-01-01T00:00:00Z","name_a2s":"Uncletopia | Atlanta | 4 | Community","protocol":17,"map":"koth_cascade","folder":"tf","game":"Team Fortress","app_id":440,"player_count":0,"max_players":24,"Bots":0,"server_type":"Dedicated","server_os":"Linux","password":true,"vac":true,"version":"7961495","steam_id":85568392924515188,"keywords":["cp","nocrits","nodmgspread","uncletopia"],"game_id":440,"stv_port":27046,"stv_name":"Uncletopia | Atlanta | 4 | Community | STV","players":null},{"server_id":2,"name":"Uncletopia | Chicago | 1 | All Maps","name_short":"chi-1","host":"chi-1.us.uncletopia.com","port":27015,"enabled":true,"region":"us-central","cc":"us","latitude":41.881832,"longitude":-87.62318,"reserved":0,"last_update":"0001-01-01T00:00:00Z","name_a2s":"Uncletopia | Chicago | 1 | All Maps","protocol":17,"map":"cp_dustbowl","folder":"tf","game":"Team Fortress","app_id":440,"player_count":24,"max_players":24,"Bots":0,"server_type":"Dedicated","server_os":"Linux","password":true,"vac":true,"version":"7961495","steam_id":85568392924469984,"keywords":["cp","nocrits","nodmgspread","uncletopia"],"game_id":440,"stv_port":27016,"stv_name":"Uncletopia | Chicago | 1 | All Maps | STV","players":[{"user_id":550,"name":"Craig Isonychia","steam_id":76561198272013678,"connected_time":130000000000,"state":"active","ping":68},{"user_id":540,"name":"kiv","steam_id":76561198838223023,"connected_time":1384000000000,"state":"active","ping":52},{"user_id":555,"name":"littlesack","steam_id":76561197960270526,"connected_time":97000000000,"state":"active","ping":84},{"user_id":496,"name":"Ras","steam_id":76561198123546775,"connected_time":5792000000000,"state":"active","ping":77},{"user_id":533,"name":"Ursus Ludius","steam_id":76561198025470722,"connected_time":1777000000000,"state":"active","ping":75},{"user_id":558,"name":"Rowmaster","steam_id":76561198271659574,"connected_time":16000000000,"state":"active","ping":107},{"user_id":538,"name":"pinguez","steam_id":76561199003447981,"connected_time":1416000000000,"state":"active","ping":79},{"user_id":516,"name":"Wolffkran","steam_id":76561198003018041,"connected_time":3201000000000,"state":"active","ping":104},{"user_id":557,"name":"ElZeto","steam_id":76561198252322622,"connected_time":71000000000,"state":"active","ping":104},{"user_id":527,"name":"Sunny D+","steam_id":76561197999371052,"connected_time":2251000000000,"state":"active","ping":75},{"user_id":547,"name":"soundwave | sfm comms open!","steam_id":76561198454725718,"connected_time":908000000000,"state":"active","ping":45},{"user_id":559,"name":"Sunfly","steam_id":76561198034307439,"connected_time":13000000000,"state":"active","ping":34},{"user_id":546,"name":"Crows!","steam_id":76561198150086324,"connected_time":1269000000000,"state":"active","ping":60},{"user_id":544,"name":"Michaelpc1","steam_id":76561198088365519,"connected_time":1374000000000,"state":"active","ping":60},{"user_id":551,"name":"(pro) semitic ye","steam_id":76561198068830312,"connected_time":121000000000,"state":"active","ping":45},{"user_id":535,"name":"thug shaker mind control","steam_id":76561198984612489,"connected_time":1704000000000,"state":"active","ping":90},{"user_id":552,"name":"AppleTruffle","steam_id":76561198031299571,"connected_time":119000000000,"state":"active","ping":62},{"user_id":545,"name":"Secret Derg","steam_id":76561198065005979,"connected_time":1354000000000,"state":"active","ping":86},{"user_id":554,"name":"Mysterious Stranger","steam_id":76561198212044371,"connected_time":104000000000,"state":"active","ping":69},{"user_id":505,"name":"TheOneZoot","steam_id":76561198121944243,"connected_time":4561000000000,"state":"active","ping":78},{"user_id":528,"name":"blob","steam_id":76561198122375328,"connected_time":2215000000000,"state":"active","ping":55},{"user_id":513,"name":"Boxpipe","steam_id":76561197964501915,"connected_time":3980000000000,"state":"active","ping":32},{"user_id":556,"name":"cringy","steam_id":76561198323000455,"connected_time":96000000000,"state":"active","ping":98},{"user_id":520,"name":"Undertime Slopper","steam_id":76561198396789061,"connected_time":2484000000000,"state":"active","ping":79}]},{"server_id":106,"name":"Uncletopia | Chicago | 2 | All Maps","name_short":"chi-2","host":"chi-1.us.uncletopia.com","port":27025,"enabled":true,"region":"us-central","cc":"us","latitude":41.881832,"longitude":-87.62318,"reserved":0,"last_update":"0001-01-01T00:00:00Z","name_a2s":"Uncletopia | Chicago | 2 | All Maps","protocol":17,"map":"pl_thundermountain","folder":"tf","game":"Team Fortress","app_id":440,"player_count":24,"max_players":24,"Bots":0,"server_type":"Dedicated","server_os":"Linux","password":true,"vac":true,"version":"7961495","steam_id":85568392924469985,"keywords":["nocrits","nodmgspread","payload","uncletopia"],"game_id":440,"stv_port":27026,"stv_name":"Uncletopia | Chicago | 2 | All Maps | STV","players":[{"user_id":352,"name":"Oopsie Daisy ❋","steam_id":76561198042144492,"connected_time":243000000000,"state":"active","ping":78},{"user_id":350,"name":"Safe Safe Safeee Houseee","steam_id":76561198049812861,"connected_time":379000000000,"state":"active","ping":76},{"user_id":334,"name":"sailor","steam_id":76561198091015050,"connected_time":3098000000000,"state":"active","ping":48},{"user_id":353,"name":"Fredrick","steam_id":76561197981419964,"connected_time":227000000000,"state":"active","ping":69},{"user_id":308,"name":"Lucon","steam_id":76561198067147724,"connected_time":4314000000000,"state":"active","ping":57},{"user_id":346,"name":"Bingleton","steam_id":76561198020364188,"connected_time":663000000000,"state":"active","ping":76},{"user_id":355,"name":"MythicalFreak","steam_id":76561198194125079,"connected_time":182000000000,"state":"active","ping":71},{"user_id":330,"name":"yo mr white, isn't this haram?","steam_id":76561198104086771,"connected_time":3613000000000,"state":"active","ping":103},{"user_id":354,"name":"tom","steam_id":76561199406261605,"connected_time":205000000000,"state":"active","ping":103},{"user_id":351,"name":"LooseCannon Main","steam_id":76561198169352967,"connected_time":306000000000,"state":"active","ping":60},{"user_id":342,"name":"Rukks","steam_id":76561197993918954,"connected_time":1573000000000,"state":"active","ping":90},{"user_id":320,"name":"painting4","steam_id":76561198067554256,"connected_time":4026000000000,"state":"active","ping":145},{"user_id":356,"name":"[Bandit]","steam_id":76561197986919852,"connected_time":147000000000,"state":"active","ping":100},{"user_id":332,"name":"Cidio Irion","steam_id":76561198176885019,"connected_time":3133000000000,"state":"active","ping":87},{"user_id":357,"name":"jerma but crying and lesbian","steam_id":76561198110661425,"connected_time":129000000000,"state":"active","ping":40},{"user_id":343,"name":"ae","steam_id":76561198185490827,"connected_time":1399000000000,"state":"active","ping":85},{"user_id":358,"name":"A Fruit","steam_id":76561198951830050,"connected_time":99000000000,"state":"active","ping":66},{"user_id":359,"name":"Enderneer","steam_id":76561198012136653,"connected_time":73000000000,"state":"active","ping":61},{"user_id":325,"name":"Cap'n Walrus","steam_id":76561198045651378,"connected_time":3931000000000,"state":"active","ping":85},{"user_id":360,"name":"8bean","steam_id":76561198239138132,"connected_time":72000000000,"state":"active","ping":62},{"user_id":361,"name":"Kindagoodplayer","steam_id":76561198814625843,"connected_time":35000000000,"state":"active","ping":101},{"user_id":347,"name":"Broadsword #LGM","steam_id":76561198011160411,"connected_time":647000000000,"state":"active","ping":88},{"user_id":344,"name":"AD to BC converter","steam_id":76561198057076267,"connected_time":1308000000000,"state":"active","ping":75},{"user_id":328,"name":"SquidGoose","steam_id":76561198119574973,"connected_time":3865000000000,"state":"active","ping":80}]},{"server_id":402,"name":"Uncletopia | Chicago | 3 | All Maps","name_short":"chi-3","host":"chi-1.us.uncletopia.com","port":27035,"enabled":true,"region":"us-central","cc":"us","latitude":41.881832,"longitude":-87.62318,"reserved":0,"last_update":"0001-01-01T00:00:00Z","name_a2s":"Uncletopia | Chicago | 3 | All Maps","protocol":17,"map":"pl_barnblitz","folder":"tf","game":"Team Fortress","app_id":440,"player_count":24,"max_players":24,"Bots":0,"server_type":"Dedicated","server_os":"Linux","password":true,"vac":true,"version":"7961495","steam_id":85568392924515191,"keywords":["nocrits","nodmgspread","payload","uncletopia"],"game_id":440,"stv_port":27036,"stv_name":"Uncletopia | Chicago | 3 | All Maps | STV","players":[{"user_id":343,"name":"Sophie","steam_id":76561198170408057,"connected_time":3966000000000,"state":"active","ping":60},{"user_id":354,"name":"Toonice","steam_id":76561198402994885,"connected_time":3261000000000,"state":"active","ping":78},{"user_id":350,"name":"Eviscerator","steam_id":76561197980073637,"connected_time":3366000000000,"state":"active","ping":71},{"user_id":380,"name":"Kevin Y.","steam_id":76561198364331423,"connected_time":104000000000,"state":"active","ping":88},{"user_id":348,"name":"MILKY","steam_id":76561198073114061,"connected_time":3436000000000,"state":"active","ping":73},{"user_id":372,"name":"noahjwarner09","steam_id":76561199444479988,"connected_time":1159000000000,"state":"active","ping":60},{"user_id":377,"name":"pinky","steam_id":76561199109784776,"connected_time":667000000000,"state":"active","ping":57},{"user_id":319,"name":"eish","steam_id":76561198089463603,"connected_time":6873000000000,"state":"active","ping":129},{"user_id":366,"name":"hej","steam_id":76561197996366940,"connected_time":1402000000000,"state":"active","ping":61},{"user_id":381,"name":"asfg","steam_id":76561198107931997,"connected_time":8000000000,"state":"spawning","ping":71},{"user_id":375,"name":"freehealthcare","steam_id":76561198800102297,"connected_time":993000000000,"state":"active","ping":58},{"user_id":376,"name":"CyberZayne","steam_id":76561198002351356,"connected_time":898000000000,"state":"active","ping":86},{"user_id":254,"name":"LittleFieryOne","steam_id":76561198107463724,"connected_time":10680000000000,"state":"active","ping":59},{"user_id":374,"name":"SyntheticCereal","steam_id":76561198208048093,"connected_time":1056000000000,"state":"active","ping":71},{"user_id":378,"name":"2JZ_","steam_id":76561198064027289,"connected_time":433000000000,"state":"active","ping":89},{"user_id":367,"name":"nomad","steam_id":76561197998740399,"connected_time":1391000000000,"state":"active","ping":66},{"user_id":379,"name":"Intro Bonito","steam_id":76561198119478838,"connected_time":177000000000,"state":"active","ping":74},{"user_id":368,"name":"MedRed™ #IATAH","steam_id":76561198002962970,"connected_time":1360000000000,"state":"active","ping":104},{"user_id":334,"name":"D. Kickem","steam_id":76561198978221033,"connected_time":5138000000000,"state":"active","ping":66},{"user_id":369,"name":"Swash","steam_id":76561197969421355,"connected_time":1316000000000,"state":"active","ping":57},{"user_id":357,"name":"i have no situational awareness","steam_id":76561198319442494,"connected_time":2882000000000,"state":"active","ping":101},{"user_id":352,"name":"uhooter","steam_id":76561198007829078,"connected_time":3345000000000,"state":"active","ping":57},{"user_id":336,"name":"chromed out 1100","steam_id":76561198142756572,"connected_time":5104000000000,"state":"active","ping":61},{"user_id":362,"name":"big steve","steam_id":76561199037050183,"connected_time":1833000000000,"state":"active","ping":111}]},{"server_id":403,"name":"Uncletopia | Chicago | 4 | All Maps","name_short":"chi-4","host":"chi-1.us.uncletopia.com","port":27045,"enabled":true,"region":"us-central","cc":"us","latitude":41.881832,"longitude":-87.62318,"reserved":0,"last_update":"0001-01-01T00:00:00Z","name_a2s":"Uncletopia | Chicago | 4 | All Maps","protocol":17,"map":"pl_frontier_final","folder":"tf","game":"Team Fortress","app_id":440,"player_count":24,"max_players":24,"Bots":0,"server_type":"Dedicated","server_os":"Linux","password":true,"vac":true,"version":"7961495","steam_id":85568392924515193,"keywords":["nocrits","nodmgspread","payload","uncletopia"],"game_id":440,"stv_port":27046,"stv_name":"Uncletopia | Chicago | 4 | All Maps | STV","players":[{"user_id":225,"name":"Autechture","steam_id":76561198099043734,"connected_time":1186000000000,"state":"active","ping":60},{"user_id":244,"name":"TrashCanGaming","steam_id":76561199150746424,"connected_time":593000000000,"state":"active","ping":41},{"user_id":208,"name":"Polly Geist","steam_id":76561198271964253,"connected_time":2280000000000,"state":"active","ping":76},{"user_id":251,"name":"Wan Shi Tong","steam_id":76561198076441225,"connected_time":92000000000,"state":"active","ping":63},{"user_id":248,"name":"[extremely tiny guy] bog","steam_id":76561198070975491,"connected_time":184000000000,"state":"active","ping":85},{"user_id":250,"name":"TJGSASQUATCH","steam_id":76561198077806921,"connected_time":114000000000,"state":"active","ping":80},{"user_id":203,"name":"RyInc","steam_id":76561198874261643,"connected_time":2869000000000,"state":"active","ping":47},{"user_id":216,"name":"DiamondEpsilon","steam_id":76561198203883311,"connected_time":1749000000000,"state":"active","ping":82},{"user_id":223,"name":"A new medic(F2p)","steam_id":76561199388826335,"connected_time":1352000000000,"state":"active","ping":77},{"user_id":227,"name":"The Jar","steam_id":76561198146013385,"connected_time":1174000000000,"state":"active","ping":75},{"user_id":228,"name":"「Mage」","steam_id":76561198150620467,"connected_time":1172000000000,"state":"active","ping":60},{"user_id":247,"name":"Mug Moment Gaming","steam_id":76561198233098136,"connected_time":213000000000,"state":"active","ping":52},{"user_id":245,"name":"Shark","steam_id":76561198219031981,"connected_time":456000000000,"state":"active","ping":66},{"user_id":81,"name":"DrD","steam_id":76561198067266383,"connected_time":9857000000000,"state":"active","ping":89},{"user_id":153,"name":"r","steam_id":76561198435286999,"connected_time":6031000000000,"state":"active","ping":60},{"user_id":249,"name":"Giuseppe","steam_id":76561198083040909,"connected_time":143000000000,"state":"active","ping":82},{"user_id":207,"name":"bobby wasabi","steam_id":76561198380018244,"connected_time":2344000000000,"state":"active","ping":72},{"user_id":232,"name":"Smashy","steam_id":76561198030704307,"connected_time":1106000000000,"state":"active","ping":74},{"user_id":233,"name":"AbsentMindedProf.","steam_id":76561198220180203,"connected_time":1103000000000,"state":"active","ping":72},{"user_id":252,"name":"WM1 PYRO","steam_id":76561198045893896,"connected_time":79000000000,"state":"active","ping":106},{"user_id":197,"name":"Cicada Orchestra","steam_id":76561199226839783,"connected_time":3252000000000,"state":"active","ping":83},{"user_id":234,"name":"Fuck I Missed.","steam_id":76561198992796249,"connected_time":1086000000000,"state":"active","ping":64},{"user_id":253,"name":"BigBubble42","steam_id":76561198136286123,"connected_time":49000000000,"state":"active","ping":53},{"user_id":241,"name":"DustBowl TF2","steam_id":76561199171572966,"connected_time":821000000000,"state":"active","ping":40}]},{"server_id":36,"name":"Uncletopia | Chicago | 5 | All Maps","name_short":"chi-5","host":"chi-2.us.uncletopia.com","port":27015,"enabled":true,"region":"us-central","cc":"us","latitude":41.881832,"longitude":-87.62318,"reserved":0,"last_update":"0001-01-01T00:00:00Z","name_a2s":"Uncletopia | Chicago | 5 | All Maps","protocol":17,"map":"pl_frontier_final","folder":"tf","game":"Team Fortress","app_id":440,"player_count":23,"max_players":24,"Bots":0,"server_type":"Dedicated","server_os":"Linux","password":true,"vac":true,"version":"7961495","steam_id":85568392924866362,"keywords":["nocrits","nodmgspread","payload","uncletopia"],"game_id":440,"stv_port":27016,"stv_name":"Uncletopia | Chicago | 5 | All Maps | STV","players":[{"user_id":148,"name":"Monkey D. Management","steam_id":76561198400603422,"connected_time":1792000000000,"state":"active","ping":66},{"user_id":167,"name":"NoarBear","steam_id":76561198145929802,"connected_time":718000000000,"state":"active","ping":30},{"user_id":175,"name":"Aligote","steam_id":76561199188849493,"connected_time":538000000000,"state":"active","ping":89},{"user_id":178,"name":"ShawnLmao","steam_id":76561198350691501,"connected_time":451000000000,"state":"active","ping":99},{"user_id":133,"name":"gIBBY","steam_id":76561198080099598,"connected_time":2827000000000,"state":"active","ping":58},{"user_id":145,"name":"Akornical","steam_id":76561199171025092,"connected_time":1974000000000,"state":"active","ping":65},{"user_id":168,"name":"threethree","steam_id":76561198177354155,"connected_time":716000000000,"state":"active","ping":60},{"user_id":176,"name":"Blorbus","steam_id":76561198081158578,"connected_time":480000000000,"state":"active","ping":66},{"user_id":120,"name":"astron","steam_id":76561198058546328,"connected_time":3831000000000,"state":"active","ping":70},{"user_id":144,"name":"Streetwise","steam_id":76561197971684268,"connected_time":2182000000000,"state":"active","ping":94},{"user_id":181,"name":"playr","steam_id":76561198354622099,"connected_time":0,"state":"spawning","ping":0},{"user_id":157,"name":"Adolf The Toast Jesus™","steam_id":76561198024553767,"connected_time":1356000000000,"state":"active","ping":67},{"user_id":177,"name":"nukeydog","steam_id":76561197971146482,"connected_time":471000000000,"state":"active","ping":81},{"user_id":89,"name":"prosciutto","steam_id":76561198882758067,"connected_time":5493000000000,"state":"active","ping":43},{"user_id":118,"name":"Bunt","steam_id":76561198124477567,"connected_time":3939000000000,"state":"active","ping":68},{"user_id":121,"name":"spooky","steam_id":76561198122964663,"connected_time":3827000000000,"state":"active","ping":63},{"user_id":153,"name":"Tri-Dot","steam_id":76561199075186597,"connected_time":1558000000000,"state":"active","ping":57},{"user_id":164,"name":"blockchain culture","steam_id":76561198040996386,"connected_time":1116000000000,"state":"active","ping":75},{"user_id":180,"name":"maS","steam_id":76561198033846407,"connected_time":235000000000,"state":"active","ping":54},{"user_id":171,"name":"5mech","steam_id":76561198979167520,"connected_time":691000000000,"state":"active","ping":55},{"user_id":179,"name":"Chernov","steam_id":76561198014463424,"connected_time":426000000000,"state":"active","ping":60},{"user_id":173,"name":"Ender","steam_id":76561198819439451,"connected_time":675000000000,"state":"active","ping":66},{"user_id":147,"name":"Isaac Clarke","steam_id":76561198317662346,"connected_time":1803000000000,"state":"active","ping":76}]},{"server_id":37,"name":"Uncletopia | Chicago | 6 | All Maps","name_short":"chi-6","host":"chi-2.us.uncletopia.com","port":27025,"enabled":true,"region":"us-central","cc":"us","latitude":41.881832,"longitude":-87.62318,"reserved":0,"last_update":"0001-01-01T00:00:00Z","name_a2s":"Uncletopia | Chicago | 6 | All Maps","protocol":17,"map":"pl_badwater","folder":"tf","game":"Team Fortress","app_id":440,"player_count":24,"max_players":24,"Bots":0,"server_type":"Dedicated","server_os":"Linux","password":true,"vac":true,"version":"7961495","steam_id":85568392924866363,"keywords":["nocrits","nodmgspread","payload","uncletopia"],"game_id":440,"stv_port":27026,"stv_name":"Uncletopia | Chicago | 6 | All Maps | STV","players":[{"user_id":162,"name":"thecal","steam_id":76561198307893384,"connected_time":2159000000000,"state":"active","ping":55},{"user_id":168,"name":"yeehaw","steam_id":76561198133984927,"connected_time":1766000000000,"state":"active","ping":56},{"user_id":191,"name":"goopgrabber","steam_id":76561199029951083,"connected_time":341000000000,"state":"active","ping":96},{"user_id":186,"name":"qiulongtao","steam_id":76561198977558717,"connected_time":514000000000,"state":"active","ping":77},{"user_id":115,"name":"--_Cook_--","steam_id":76561198080855748,"connected_time":4697000000000,"state":"active","ping":46},{"user_id":158,"name":"canofspaghettios","steam_id":76561198124204246,"connected_time":2582000000000,"state":"active","ping":59},{"user_id":182,"name":"V!CT!M","steam_id":76561198962721502,"connected_time":997000000000,"state":"active","ping":67},{"user_id":183,"name":"solstice","steam_id":76561198313364985,"connected_time":879000000000,"state":"active","ping":75},{"user_id":187,"name":"Node⋄","steam_id":76561198219359475,"connected_time":499000000000,"state":"active","ping":69},{"user_id":172,"name":"Viewless","steam_id":76561198859049237,"connected_time":1645000000000,"state":"active","ping":69},{"user_id":184,"name":"scapegoat","steam_id":76561198188722751,"connected_time":847000000000,"state":"active","ping":91},{"user_id":173,"name":"CrazyKermitRubes","steam_id":76561198009065204,"connected_time":1633000000000,"state":"active","ping":84},{"user_id":57,"name":"Rappitor","steam_id":76561198105613110,"connected_time":9168000000000,"state":"active","ping":68},{"user_id":165,"name":"D.E.O","steam_id":76561198096992957,"connected_time":2136000000000,"state":"active","ping":126},{"user_id":188,"name":"Controller gaming","steam_id":76561198309760791,"connected_time":483000000000,"state":"active","ping":152},{"user_id":175,"name":"TheGuy101","steam_id":76561199201772624,"connected_time":1626000000000,"state":"active","ping":139},{"user_id":194,"name":"Kartyac","steam_id":76561197991069005,"connected_time":273000000000,"state":"active","ping":78},{"user_id":177,"name":"Hollow","steam_id":76561198150586149,"connected_time":1616000000000,"state":"active","ping":70},{"user_id":122,"name":"Soup","steam_id":76561198079000665,"connected_time":4622000000000,"state":"active","ping":54},{"user_id":193,"name":"Tinhead","steam_id":76561198446806080,"connected_time":302000000000,"state":"active","ping":47},{"user_id":179,"name":"sock","steam_id":76561199117597830,"connected_time":1572000000000,"state":"active","ping":62},{"user_id":185,"name":"big macky","steam_id":76561197985191654,"connected_time":628000000000,"state":"active","ping":58},{"user_id":192,"name":"Pixel","steam_id":76561198156746320,"connected_time":337000000000,"state":"active","ping":46},{"user_id":164,"name":"wow120000000000000098","steam_id":76561198016826181,"connected_time":2145000000000,"state":"active","ping":75}]},{"server_id":38,"name":"Uncletopia | Chicago | 7 | Stopwatch Beta","name_short":"chi-7","host":"chi-2.us.uncletopia.com","port":27035,"enabled":true,"region":"us-central","cc":"us","latitude":41.881832,"longitude":-87.62318,"reserved":0,"last_update":"0001-01-01T00:00:00Z","name_a2s":"Uncletopia | Chicago | 7 | Stopwatch Beta","protocol":17,"map":"pl_badwater","folder":"tf","game":"Team Fortress","app_id":440,"player_count":1,"max_players":24,"Bots":0,"server_type":"Dedicated","server_os":"Linux","password":true,"vac":true,"version":"7961495","steam_id":85568392924866364,"keywords":["nocrits","nodmgspread","payload","uncletopia"],"game_id":440,"stv_port":27036,"stv_name":"Uncletopia | Chicago | 7 | Stopwatch Beta | STV","players":[{"user_id":20,"name":"oognis and poognis","steam_id":76561199293394516,"connected_time":5000000000,"state":"spawning","ping":64}]},{"server_id":39,"name":"Uncletopia | Chicago | 8 | Community","name_short":"chi-8","host":"chi-2.us.uncletopia.com","port":27045,"enabled":true,"region":"us-central","cc":"us","latitude":41.881832,"longitude":-87.62318,"reserved":0,"last_update":"0001-01-01T00:00:00Z","name_a2s":"Uncletopia | Chicago | 8 | Community","protocol":17,"map":"workshop/pl_badwater_pro_v12.ugc2142942074","folder":"tf","game":"Team Fortress","app_id":440,"player_count":24,"max_players":24,"Bots":0,"server_type":"Dedicated","server_os":"Linux","password":true,"vac":true,"version":"7961495","steam_id":85568392924866365,"keywords":["nocrits","nodmgspread","payload","uncletopia"],"game_id":440,"stv_port":27046,"stv_name":"Uncletopia | Chicago | 8 | Community | STV","players":[{"user_id":185,"name":"Aware","steam_id":76561198013338167,"connected_time":4763000000000,"state":"active","ping":58},{"user_id":244,"name":"Tom Crúaich","steam_id":76561197999439911,"connected_time":580000000000,"state":"active","ping":73},{"user_id":234,"name":"Pearez","steam_id":76561198158141878,"connected_time":1373000000000,"state":"active","ping":87},{"user_id":239,"name":"cool beans","steam_id":76561198321591685,"connected_time":842000000000,"state":"active","ping":86},{"user_id":225,"name":"The Donk","steam_id":76561198078462645,"connected_time":2024000000000,"state":"active","ping":62},{"user_id":245,"name":"Medic Bag","steam_id":76561198403209900,"connected_time":526000000000,"state":"active","ping":61},{"user_id":178,"name":"Ghille","steam_id":76561198027234838,"connected_time":5257000000000,"state":"active","ping":58},{"user_id":240,"name":"to sem ideia #savetf2","steam_id":76561199052177486,"connected_time":719000000000,"state":"active","ping":179},{"user_id":246,"name":"sheep","steam_id":76561198172943006,"connected_time":471000000000,"state":"active","ping":48},{"user_id":215,"name":"SanitysEdge","steam_id":76561198130732813,"connected_time":2329000000000,"state":"active","ping":100},{"user_id":247,"name":"Bamboo","steam_id":76561198043139553,"connected_time":456000000000,"state":"active","ping":104},{"user_id":232,"name":"[DEEP] Fitts1099","steam_id":76561198044986906,"connected_time":1717000000000,"state":"active","ping":50},{"user_id":238,"name":"Kyle H. McCloud","steam_id":76561198025050432,"connected_time":1217000000000,"state":"active","ping":86},{"user_id":212,"name":"dalehunter","steam_id":76561199158974920,"connected_time":2471000000000,"state":"active","ping":98},{"user_id":249,"name":"UndercookedToast","steam_id":76561198215845493,"connected_time":378000000000,"state":"active","ping":74},{"user_id":241,"name":"Kaiju","steam_id":76561198035703156,"connected_time":712000000000,"state":"active","ping":52},{"user_id":242,"name":"spooby","steam_id":76561198168114366,"connected_time":687000000000,"state":"active","ping":54},{"user_id":230,"name":"[ᎴᏋᏋᎮ] Danmar33","steam_id":76561198056453091,"connected_time":1927000000000,"state":"active","ping":47},{"user_id":243,"name":"The Sinister Potion","steam_id":76561198131280715,"connected_time":661000000000,"state":"active","ping":75},{"user_id":228,"name":"bubBub_theReal","steam_id":76561198367006824,"connected_time":1983000000000,"state":"active","ping":91},{"user_id":236,"name":"BarrowBaron","steam_id":76561198013633236,"connected_time":1331000000000,"state":"active","ping":61},{"user_id":233,"name":"None of that $9.99 bullshit","steam_id":76561198116169903,"connected_time":1665000000000,"state":"active","ping":47},{"user_id":237,"name":"green bean","steam_id":76561198113099204,"connected_time":1279000000000,"state":"active","ping":90},{"user_id":229,"name":"Justin Trudeau","steam_id":76561198063301525,"connected_time":1969000000000,"state":"active","ping":95}]},{"server_id":8,"name":"Uncletopia | Dallas | 1 | All Maps","name_short":"dal-1","host":"dal-1.us.uncletopia.com","port":27015,"enabled":true,"region":"us-central","cc":"us","latitude":32.779167,"longitude":-96.80889,"reserved":0,"last_update":"0001-01-01T00:00:00Z","name_a2s":"Uncletopia | Dallas | 1 | All Maps","protocol":17,"map":"pl_pier","folder":"tf","game":"Team Fortress","app_id":440,"player_count":24,"max_players":24,"Bots":0,"server_type":"Dedicated","server_os":"Linux","password":true,"vac":true,"version":"7961495","steam_id":85568392924469986,"keywords":["nocrits","nodmgspread","payload","uncletopia"],"game_id":440,"stv_port":27016,"stv_name":"Uncletopia | Dallas | 1 | All Maps | STV","players":[{"user_id":326,"name":"Ros","steam_id":76561199055963822,"connected_time":3425000000000,"state":"active","ping":62},{"user_id":321,"name":"Shrederatershan","steam_id":76561199211707598,"connected_time":3706000000000,"state":"active","ping":85},{"user_id":330,"name":"dolosuss","steam_id":76561198840706225,"connected_time":2611000000000,"state":"active","ping":75},{"user_id":322,"name":"Mehman","steam_id":76561199020244051,"connected_time":3583000000000,"state":"active","ping":97},{"user_id":339,"name":"Kramer's Apology (Full Video)","steam_id":76561198009339435,"connected_time":2056000000000,"state":"active","ping":51},{"user_id":290,"name":"flippercurve","steam_id":76561199238295034,"connected_time":6019000000000,"state":"active","ping":69},{"user_id":363,"name":"polyatomic subterfuge","steam_id":76561198050192689,"connected_time":140000000000,"state":"active","ping":78},{"user_id":362,"name":"Bogey","steam_id":76561198096227944,"connected_time":159000000000,"state":"active","ping":45},{"user_id":348,"name":"AMBIENCE","steam_id":76561198442522722,"connected_time":1498000000000,"state":"active","ping":73},{"user_id":344,"name":"PhaserLazer","steam_id":76561198407341298,"connected_time":1639000000000,"state":"active","ping":50},{"user_id":350,"name":"Lord Garrard","steam_id":76561198212184303,"connected_time":1365000000000,"state":"active","ping":53},{"user_id":337,"name":"InchMan","steam_id":76561198272658825,"connected_time":2292000000000,"state":"active","ping":88},{"user_id":325,"name":"kibsta","steam_id":76561198991982630,"connected_time":3494000000000,"state":"active","ping":73},{"user_id":351,"name":"I can't read","steam_id":76561198193356397,"connected_time":1363000000000,"state":"active","ping":88},{"user_id":352,"name":"i am clinically insane","steam_id":76561199013323529,"connected_time":1322000000000,"state":"active","ping":100},{"user_id":349,"name":"GOLDIE","steam_id":76561199375258674,"connected_time":1497000000000,"state":"active","ping":86},{"user_id":364,"name":"Per My Last Email","steam_id":76561197970096950,"connected_time":73000000000,"state":"active","ping":49},{"user_id":361,"name":"Stratus","steam_id":76561198855427705,"connected_time":529000000000,"state":"active","ping":114},{"user_id":356,"name":"BotchyAlarm8","steam_id":76561198092682129,"connected_time":1120000000000,"state":"active","ping":98},{"user_id":346,"name":"DrMisteryous2","steam_id":76561198336307012,"connected_time":1582000000000,"state":"active","ping":192},{"user_id":354,"name":"SuppressedBarrel","steam_id":76561198032336504,"connected_time":1288000000000,"state":"active","ping":45},{"user_id":345,"name":"nil","steam_id":76561198339527138,"connected_time":1617000000000,"state":"active","ping":71},{"user_id":342,"name":"Wiggee","steam_id":76561197972792989,"connected_time":1717000000000,"state":"active","ping":46},{"user_id":340,"name":"luca","steam_id":76561198069235730,"connected_time":2016000000000,"state":"active","ping":82}]},{"server_id":108,"name":"Uncletopia | Dallas | 2 | All Maps","name_short":"dal-2","host":"dal-1.us.uncletopia.com","port":27025,"enabled":true,"region":"us-central","cc":"us","latitude":32.779167,"longitude":-96.80889,"reserved":0,"last_update":"0001-01-01T00:00:00Z","name_a2s":"Uncletopia | Dallas | 2 | All Maps","protocol":17,"map":"pl_swiftwater_final1","folder":"tf","game":"Team Fortress","app_id":440,"player_count":24,"max_players":24,"Bots":0,"server_type":"Dedicated","server_os":"Linux","password":true,"vac":true,"version":"7961495","steam_id":85568392924469988,"keywords":["nocrits","nodmgspread","payload","uncletopia"],"game_id":440,"stv_port":27026,"stv_name":"Uncletopia | Dallas | 2 | All Maps | STV","players":[{"user_id":332,"name":"Exetior","steam_id":76561198978688451,"connected_time":408000000000,"state":"active","ping":65},{"user_id":333,"name":"zonzeluc2","steam_id":76561199122153763,"connected_time":392000000000,"state":"active","ping":67},{"user_id":340,"name":"morphine","steam_id":76561198072124799,"connected_time":224000000000,"state":"active","ping":64},{"user_id":312,"name":"ScoutBox","steam_id":76561198111539895,"connected_time":1978000000000,"state":"active","ping":66},{"user_id":311,"name":"DARCRY","steam_id":76561198886229798,"connected_time":2040000000000,"state":"active","ping":126},{"user_id":334,"name":"Scum Knight | T.I.D.K.","steam_id":76561198282444763,"connected_time":344000000000,"state":"active","ping":84},{"user_id":335,"name":"Boomer Gaming","steam_id":76561198037803087,"connected_time":340000000000,"state":"active","ping":65},{"user_id":321,"name":"Protoss High Templar","steam_id":76561198020001645,"connected_time":1423000000000,"state":"active","ping":93},{"user_id":331,"name":"Peter Muskrat (racist)","steam_id":76561198857749738,"connected_time":556000000000,"state":"active","ping":89},{"user_id":319,"name":"subdromeda","steam_id":76561198884351860,"connected_time":1696000000000,"state":"active","ping":90},{"user_id":324,"name":"Rat5555546","steam_id":76561199350546592,"connected_time":1062000000000,"state":"active","ping":86},{"user_id":322,"name":"Doctor Emerald(real)","steam_id":76561199123003872,"connected_time":1243000000000,"state":"active","ping":90},{"user_id":336,"name":"Rose","steam_id":76561198955581861,"connected_time":292000000000,"state":"active","ping":82},{"user_id":338,"name":"TastyWheat","steam_id":76561198855061918,"connected_time":243000000000,"state":"active","ping":104},{"user_id":325,"name":"Just washed","steam_id":76561199030160932,"connected_time":1043000000000,"state":"active","ping":82},{"user_id":337,"name":"flameboy50","steam_id":76561198258638052,"connected_time":285000000000,"state":"active","ping":134},{"user_id":329,"name":"D.W. Dockerson","steam_id":76561199100849880,"connected_time":811000000000,"state":"active","ping":65},{"user_id":339,"name":"schmuck","steam_id":76561198143789773,"connected_time":242000000000,"state":"active","ping":58},{"user_id":341,"name":"Fstev ✘","steam_id":76561198358766202,"connected_time":206000000000,"state":"active","ping":148},{"user_id":342,"name":"thai tea","steam_id":76561198308290211,"connected_time":188000000000,"state":"active","ping":92},{"user_id":323,"name":"mentos14","steam_id":76561198097993629,"connected_time":1172000000000,"state":"active","ping":87},{"user_id":343,"name":"get scrongled, idiot","steam_id":76561198115874625,"connected_time":183000000000,"state":"active","ping":92},{"user_id":344,"name":"clancy","steam_id":76561198201430977,"connected_time":154000000000,"state":"active","ping":120},{"user_id":310,"name":"Pan-Demonica","steam_id":76561198294350105,"connected_time":2047000000000,"state":"active","ping":70}]},{"server_id":404,"name":"Uncletopia | Dallas | 3 | All Maps","name_short":"dal-3","host":"dal-1.us.uncletopia.com","port":27035,"enabled":true,"region":"us-central","cc":"us","latitude":32.779167,"longitude":-96.80889,"reserved":0,"last_update":"0001-01-01T00:00:00Z","name_a2s":"Uncletopia | Dallas | 3 | All Maps","protocol":17,"map":"koth_highpass","folder":"tf","game":"Team Fortress","app_id":440,"player_count":23,"max_players":24,"Bots":0,"server_type":"Dedicated","server_os":"Linux","password":true,"vac":true,"version":"7961495","steam_id":85568392924515219,"keywords":["cp","nocrits","nodmgspread","uncletopia"],"game_id":440,"stv_port":27036,"stv_name":"Uncletopia | Dallas | 3 | All Maps | STV","players":[{"user_id":357,"name":"nonagon infinity","steam_id":76561198397662124,"connected_time":289000000000,"state":"active","ping":64},{"user_id":336,"name":"jordanddean2016","steam_id":76561198323772677,"connected_time":1834000000000,"state":"active","ping":111},{"user_id":265,"name":"Evil little man","steam_id":76561198311053471,"connected_time":9325000000000,"state":"active","ping":49},{"user_id":309,"name":"North","steam_id":76561198814844969,"connected_time":4076000000000,"state":"active","ping":75},{"user_id":358,"name":"CyberSpaceGaming","steam_id":76561198991830883,"connected_time":152000000000,"state":"active","ping":60},{"user_id":344,"name":"Sup m8","steam_id":76561198081659121,"connected_time":951000000000,"state":"active","ping":34},{"user_id":325,"name":"Nungel","steam_id":76561198272961376,"connected_time":3432000000000,"state":"active","ping":69},{"user_id":359,"name":"NeoTenico","steam_id":76561198025938411,"connected_time":83000000000,"state":"active","ping":85},{"user_id":203,"name":"FriedYogurt","steam_id":76561198280667376,"connected_time":14180000000000,"state":"active","ping":91},{"user_id":360,"name":"Dabbledornk","steam_id":76561198065241300,"connected_time":60000000000,"state":"active","ping":73},{"user_id":316,"name":"jimmyfnaf172198yay","steam_id":76561198311446636,"connected_time":3688000000000,"state":"active","ping":73},{"user_id":317,"name":"Neco-Arc (real)","steam_id":76561198353010811,"connected_time":3668000000000,"state":"active","ping":66},{"user_id":347,"name":"Lancerland","steam_id":76561198130497320,"connected_time":615000000000,"state":"active","ping":84},{"user_id":339,"name":"thunderbolt4","steam_id":76561199109352850,"connected_time":1727000000000,"state":"active","ping":57},{"user_id":353,"name":"neet","steam_id":76561197968115168,"connected_time":438000000000,"state":"active","ping":74},{"user_id":321,"name":"mkl","steam_id":76561197986401685,"connected_time":3597000000000,"state":"active","ping":58},{"user_id":352,"name":"kanatoro","steam_id":76561199229919765,"connected_time":456000000000,"state":"active","ping":87},{"user_id":277,"name":"IHaveKrabs","steam_id":76561198263208436,"connected_time":7399000000000,"state":"active","ping":83},{"user_id":354,"name":"FiddyFoMike","steam_id":76561198057072581,"connected_time":386000000000,"state":"active","ping":86},{"user_id":328,"name":"hforce11","steam_id":76561198087647130,"connected_time":3171000000000,"state":"active","ping":59},{"user_id":332,"name":"Deadangla Merkel","steam_id":76561198038258405,"connected_time":2682000000000,"state":"active","ping":51},{"user_id":214,"name":"Not Guztaf","steam_id":76561198334924763,"connected_time":13863000000000,"state":"active","ping":85},{"user_id":355,"name":"Ġ1 ♦ Synth","steam_id":76561198058660228,"connected_time":376000000000,"state":"active","ping":52}]},{"server_id":405,"name":"Uncletopia | Dallas | 4 | Community","name_short":"dal-4","host":"dal-1.us.uncletopia.com","port":27045,"enabled":true,"region":"us-central","cc":"us","latitude":32.779167,"longitude":-96.80889,"reserved":0,"last_update":"0001-01-01T00:00:00Z","name_a2s":"Uncletopia | Dallas | 4 | Community","protocol":17,"map":"workshop/pl_cactuscanyon_redux_final2.ugc2579644293","folder":"tf","game":"Team Fortress","app_id":440,"player_count":23,"max_players":24,"Bots":0,"server_type":"Dedicated","server_os":"Linux","password":true,"vac":true,"version":"7961495","steam_id":85568392924515220,"keywords":["nocrits","nodmgspread","payload","uncletopia"],"game_id":440,"stv_port":27046,"stv_name":"Uncletopia | Dallas | 4 | Community | STV","players":[{"user_id":186,"name":"OWOverkill","steam_id":76561198120569764,"connected_time":664000000000,"state":"active","ping":106},{"user_id":140,"name":"Bob \"Hell Rider\" White","steam_id":76561198979277948,"connected_time":3519000000000,"state":"active","ping":59},{"user_id":108,"name":"dweamy","steam_id":76561198119181880,"connected_time":5102000000000,"state":"active","ping":60},{"user_id":162,"name":"Hindmost","steam_id":76561199081837220,"connected_time":2103000000000,"state":"active","ping":66},{"user_id":147,"name":"Burny Sanders","steam_id":76561197961879048,"connected_time":3105000000000,"state":"active","ping":39},{"user_id":166,"name":"schnedwob","steam_id":76561197999146588,"connected_time":1796000000000,"state":"active","ping":54},{"user_id":152,"name":"iStrava","steam_id":76561198088223717,"connected_time":2780000000000,"state":"active","ping":77},{"user_id":184,"name":"minimalpair","steam_id":76561198071788709,"connected_time":755000000000,"state":"active","ping":79},{"user_id":180,"name":"Lil' Dunky","steam_id":76561198163572748,"connected_time":897000000000,"state":"active","ping":98},{"user_id":170,"name":"TwoBit","steam_id":76561198062437559,"connected_time":1379000000000,"state":"active","ping":94},{"user_id":188,"name":"mike","steam_id":76561199123292645,"connected_time":72000000000,"state":"active","ping":90},{"user_id":181,"name":"Amish Supremacist","steam_id":76561198396181197,"connected_time":896000000000,"state":"active","ping":72},{"user_id":175,"name":"Zipnet","steam_id":76561198000218824,"connected_time":1140000000000,"state":"active","ping":176},{"user_id":156,"name":"OwningTundra2","steam_id":76561198936893224,"connected_time":2496000000000,"state":"active","ping":60},{"user_id":138,"name":"Giselle","steam_id":76561198162593640,"connected_time":3577000000000,"state":"active","ping":106},{"user_id":173,"name":"TQman","steam_id":76561199031963925,"connected_time":1258000000000,"state":"active","ping":96},{"user_id":174,"name":"Squagol","steam_id":76561197987486159,"connected_time":1224000000000,"state":"active","ping":60},{"user_id":185,"name":"Dr Nefario","steam_id":76561198254646194,"connected_time":745000000000,"state":"active","ping":87},{"user_id":159,"name":"TheMaskedDingo","steam_id":76561198039022700,"connected_time":2461000000000,"state":"active","ping":70},{"user_id":167,"name":"Kerbal01","steam_id":76561198080296298,"connected_time":1795000000000,"state":"active","ping":85},{"user_id":149,"name":"Yarch0","steam_id":76561199106172477,"connected_time":2947000000000,"state":"active","ping":103},{"user_id":187,"name":"Area51RaidVeteran","steam_id":76561198257450563,"connected_time":199000000000,"state":"active","ping":58},{"user_id":150,"name":"Robzilla","steam_id":76561198035236155,"connected_time":2939000000000,"state":"active","ping":66}]},{"server_id":5,"name":"Uncletopia | Frankfurt | 1 | All Maps","name_short":"frk-1","host":"frk-1.de.uncletopia.com","port":27015,"enabled":true,"region":"eu","cc":"de","latitude":50.110924,"longitude":8.682127,"reserved":0,"last_update":"0001-01-01T00:00:00Z","name_a2s":"Uncletopia | Frankfurt | 1 | All Maps","protocol":17,"map":"cp_sunshine","folder":"tf","game":"Team Fortress","app_id":440,"player_count":8,"max_players":24,"Bots":0,"server_type":"Dedicated","server_os":"Linux","password":true,"vac":true,"version":"7961495","steam_id":85568392924469989,"keywords":["cp","nocrits","nodmgspread","uncletopia"],"game_id":440,"stv_port":27016,"stv_name":"Uncletopia | Frankfurt | 1 | All Maps | STV","players":[{"user_id":544,"name":"ducksattack","steam_id":76561198074706076,"connected_time":873000000000,"state":"active","ping":81},{"user_id":552,"name":"The7thNugget","steam_id":76561198346703593,"connected_time":5000000000,"state":"spawning","ping":116},{"user_id":549,"name":"CBT","steam_id":76561199439141531,"connected_time":346000000000,"state":"active","ping":53},{"user_id":551,"name":"Ace","steam_id":76561198162550368,"connected_time":95000000000,"state":"active","ping":161},{"user_id":543,"name":"Brixlemy","steam_id":76561198222855616,"connected_time":1073000000000,"state":"active","ping":75},{"user_id":548,"name":"avalon","steam_id":76561198003212528,"connected_time":635000000000,"state":"active","ping":60},{"user_id":535,"name":"Galex","steam_id":76561198045637579,"connected_time":1456000000000,"state":"active","ping":41},{"user_id":521,"name":"finbar","steam_id":76561198056812396,"connected_time":3144000000000,"state":"active","ping":76}]},{"server_id":110,"name":"Uncletopia | Frankfurt | 2 | All Maps","name_short":"frk-2","host":"frk-1.de.uncletopia.com","port":27025,"enabled":true,"region":"eu","cc":"de","latitude":50.110924,"longitude":8.682127,"reserved":0,"last_update":"0001-01-01T00:00:00Z","name_a2s":"Uncletopia | Frankfurt | 2 | All Maps","protocol":17,"map":"pl_pier","folder":"tf","game":"Team Fortress","app_id":440,"player_count":24,"max_players":24,"Bots":0,"server_type":"Dedicated","server_os":"Linux","password":true,"vac":true,"version":"7961495","steam_id":85568392924469990,"keywords":["nocrits","nodmgspread","payload","uncletopia"],"game_id":440,"stv_port":27026,"stv_name":"Uncletopia | Frankfurt | 2 | All Maps | STV","players":[{"user_id":222,"name":"Booter","steam_id":76561198062598972,"connected_time":1494000000000,"state":"active","ping":87},{"user_id":218,"name":"El Ketchapo","steam_id":76561198304311172,"connected_time":1572000000000,"state":"active","ping":105},{"user_id":211,"name":"hichem","steam_id":76561198056197307,"connected_time":1719000000000,"state":"active","ping":60},{"user_id":174,"name":"antlionguard","steam_id":76561198072747143,"connected_time":5017000000000,"state":"active","ping":91},{"user_id":238,"name":"Warped","steam_id":76561197989916494,"connected_time":580000000000,"state":"active","ping":53},{"user_id":239,"name":"Flared","steam_id":76561198018673136,"connected_time":546000000000,"state":"active","ping":77},{"user_id":244,"name":"Woa","steam_id":76561198345683201,"connected_time":213000000000,"state":"active","ping":58},{"user_id":230,"name":"ducks","steam_id":76561198166148685,"connected_time":897000000000,"state":"active","ping":46},{"user_id":225,"name":"Toofy","steam_id":76561197989727907,"connected_time":1203000000000,"state":"active","ping":53},{"user_id":237,"name":"誰かが見ている","steam_id":76561198834913692,"connected_time":606000000000,"state":"active","ping":72},{"user_id":182,"name":"svannl","steam_id":76561198980095345,"connected_time":4549000000000,"state":"active","ping":52},{"user_id":242,"name":"Somesadkid","steam_id":76561198432663499,"connected_time":252000000000,"state":"active","ping":61},{"user_id":196,"name":"jawA","steam_id":76561198070341774,"connected_time":3229000000000,"state":"active","ping":80},{"user_id":207,"name":"thekoolest88","steam_id":76561199022415672,"connected_time":2261000000000,"state":"active","ping":147},{"user_id":240,"name":"Dipping balls in liquid morkite","steam_id":76561198173218318,"connected_time":524000000000,"state":"active","ping":54},{"user_id":231,"name":"TriRИЌ","steam_id":76561198119622375,"connected_time":844000000000,"state":"active","ping":74},{"user_id":203,"name":"Cosmetic brain","steam_id":76561198055936410,"connected_time":2693000000000,"state":"active","ping":86},{"user_id":184,"name":"Gugu","steam_id":76561198161822358,"connected_time":4475000000000,"state":"active","ping":54},{"user_id":226,"name":"crème fatale","steam_id":76561198106455841,"connected_time":1173000000000,"state":"active","ping":77},{"user_id":241,"name":"Adushka","steam_id":76561198053095808,"connected_time":508000000000,"state":"active","ping":83},{"user_id":206,"name":"halow","steam_id":76561198061505163,"connected_time":2522000000000,"state":"active","ping":86},{"user_id":229,"name":"flappi","steam_id":76561198072892783,"connected_time":944000000000,"state":"active","ping":57},{"user_id":201,"name":"dolo","steam_id":76561198206672297,"connected_time":2857000000000,"state":"active","ping":54},{"user_id":245,"name":"mimi","steam_id":76561198060648946,"connected_time":78000000000,"state":"active","ping":59}]},{"server_id":308,"name":"Uncletopia | Frankfurt | 3 | All Maps","name_short":"frk-3","host":"frk-1.de.uncletopia.com","port":27035,"enabled":true,"region":"eu","cc":"de","latitude":50.110924,"longitude":8.682127,"reserved":0,"last_update":"0001-01-01T00:00:00Z","name_a2s":"Uncletopia | Frankfurt | 3 | All Maps","protocol":17,"map":"cp_process_final","folder":"tf","game":"Team Fortress","app_id":440,"player_count":24,"max_players":24,"Bots":0,"server_type":"Dedicated","server_os":"Linux","password":true,"vac":true,"version":"7961495","steam_id":85568392924504274,"keywords":["cp","nocrits","nodmgspread","uncletopia"],"game_id":440,"stv_port":27036,"stv_name":"Uncletopia | Frankfurt | 3 | All Maps | STV","players":[{"user_id":304,"name":"Lyncurion","steam_id":76561199260022725,"connected_time":6470000000000,"state":"active","ping":79},{"user_id":394,"name":"Zelenskiy","steam_id":76561198273199378,"connected_time":412000000000,"state":"active","ping":64},{"user_id":369,"name":"M2rtRa","steam_id":76561198111036466,"connected_time":2436000000000,"state":"active","ping":72},{"user_id":375,"name":"hisham","steam_id":76561198414437290,"connected_time":2223000000000,"state":"active","ping":113},{"user_id":385,"name":"你喜欢它?","steam_id":76561198201424726,"connected_time":1056000000000,"state":"active","ping":164},{"user_id":395,"name":"Ch4bby","steam_id":76561198058792875,"connected_time":370000000000,"state":"active","ping":58},{"user_id":353,"name":"Rimx","steam_id":76561198053034840,"connected_time":4010000000000,"state":"active","ping":92},{"user_id":391,"name":"lllama","steam_id":76561198066396529,"connected_time":530000000000,"state":"active","ping":62},{"user_id":343,"name":"pos","steam_id":76561198026132442,"connected_time":4822000000000,"state":"active","ping":86},{"user_id":350,"name":"Toasty5050","steam_id":76561198073540881,"connected_time":4598000000000,"state":"active","ping":45},{"user_id":393,"name":"aguy without amustache","steam_id":76561198397105421,"connected_time":503000000000,"state":"active","ping":60},{"user_id":378,"name":"tompp","steam_id":76561198143529110,"connected_time":1280000000000,"state":"active","ping":48},{"user_id":373,"name":"Hildreth","steam_id":76561197995254867,"connected_time":2362000000000,"state":"active","ping":58},{"user_id":386,"name":"GZimmer","steam_id":76561198088794767,"connected_time":1050000000000,"state":"active","ping":45},{"user_id":397,"name":"Alpha","steam_id":76561198133229149,"connected_time":201000000000,"state":"active","ping":100},{"user_id":398,"name":"Wilderhammer","steam_id":76561198132133702,"connected_time":156000000000,"state":"active","ping":45},{"user_id":392,"name":"Fritz","steam_id":76561198129181164,"connected_time":523000000000,"state":"active","ping":52},{"user_id":355,"name":"i've committed war crimes","steam_id":76561198882711226,"connected_time":3551000000000,"state":"active","ping":95},{"user_id":382,"name":"FLEX YOUR MUSCLES","steam_id":76561198166555207,"connected_time":1219000000000,"state":"active","ping":61},{"user_id":377,"name":"Sunchouse","steam_id":76561198453479806,"connected_time":2092000000000,"state":"active","ping":74},{"user_id":396,"name":"✪❤♕AbraKadaBra♕❤✪","steam_id":76561198030773877,"connected_time":319000000000,"state":"active","ping":78},{"user_id":364,"name":"Tld Gamer ::DD","steam_id":76561198304101559,"connected_time":2815000000000,"state":"active","ping":99},{"user_id":365,"name":"DJPNK","steam_id":76561197989948420,"connected_time":2767000000000,"state":"active","ping":66},{"user_id":388,"name":"Pepis the smelly","steam_id":76561198191369066,"connected_time":708000000000,"state":"active","ping":119}]},{"server_id":309,"name":"Uncletopia | Frankfurt | 4 | All Maps","name_short":"frk-4","host":"frk-1.de.uncletopia.com","port":27045,"enabled":true,"region":"eu","cc":"de","latitude":50.110924,"longitude":8.682127,"reserved":0,"last_update":"0001-01-01T00:00:00Z","name_a2s":"Uncletopia | Frankfurt | 4 | All Maps","protocol":17,"map":"pl_badwater","folder":"tf","game":"Team Fortress","app_id":440,"player_count":24,"max_players":24,"Bots":0,"server_type":"Dedicated","server_os":"Linux","password":true,"vac":true,"version":"7961495","steam_id":85568392924504275,"keywords":["nocrits","nodmgspread","payload","uncletopia"],"game_id":440,"stv_port":27046,"stv_name":"Uncletopia | Frankfurt | 4 | All Maps | STV","players":[{"user_id":411,"name":"Fandovec03","steam_id":76561198252567650,"connected_time":1851000000000,"state":"active","ping":45},{"user_id":404,"name":"Rarky","steam_id":76561198054398642,"connected_time":3071000000000,"state":"active","ping":50},{"user_id":417,"name":"TunaaFsh","steam_id":76561198127194010,"connected_time":1744000000000,"state":"active","ping":72},{"user_id":397,"name":"\u003e\u003c\u003e","steam_id":76561198190225954,"connected_time":4526000000000,"state":"active","ping":81},{"user_id":378,"name":"fronin","steam_id":76561198189553021,"connected_time":6400000000000,"state":"active","ping":64},{"user_id":371,"name":"Yangus","steam_id":76561198147796010,"connected_time":6808000000000,"state":"active","ping":61},{"user_id":430,"name":"Aregularhuman","steam_id":76561198343319848,"connected_time":333000000000,"state":"active","ping":43},{"user_id":398,"name":"Mi Manchi","steam_id":76561198171573129,"connected_time":4024000000000,"state":"active","ping":49},{"user_id":410,"name":"♥ trixy ♥","steam_id":76561199474154775,"connected_time":1957000000000,"state":"active","ping":62},{"user_id":437,"name":"사랑해","steam_id":76561199266192059,"connected_time":142000000000,"state":"active","ping":88},{"user_id":431,"name":"hai","steam_id":76561198074743037,"connected_time":319000000000,"state":"active","ping":63},{"user_id":432,"name":"glyph","steam_id":76561197980736364,"connected_time":304000000000,"state":"active","ping":77},{"user_id":406,"name":"willus212","steam_id":76561199182615246,"connected_time":2864000000000,"state":"active","ping":87},{"user_id":370,"name":"Vershal Smershal","steam_id":76561198116223995,"connected_time":6869000000000,"state":"active","ping":61},{"user_id":433,"name":"Kahvi","steam_id":76561198723244199,"connected_time":295000000000,"state":"active","ping":91},{"user_id":434,"name":"banrab","steam_id":76561198083615367,"connected_time":250000000000,"state":"active","ping":52},{"user_id":415,"name":"Arty","steam_id":76561198160100181,"connected_time":1773000000000,"state":"active","ping":82},{"user_id":436,"name":"I am on the TF2 Scoreboard...","steam_id":76561198043850884,"connected_time":224000000000,"state":"active","ping":66},{"user_id":423,"name":"huan","steam_id":76561198436958311,"connected_time":1397000000000,"state":"active","ping":85},{"user_id":419,"name":"[ Louinskii ]","steam_id":76561198060509154,"connected_time":1722000000000,"state":"active","ping":71},{"user_id":377,"name":"antonio.jurjevic@brazzers.hr","steam_id":76561198179392402,"connected_time":6567000000000,"state":"active","ping":54},{"user_id":439,"name":"Doko","steam_id":76561198039056041,"connected_time":108000000000,"state":"active","ping":67},{"user_id":392,"name":"Cabbch","steam_id":76561198045955679,"connected_time":5064000000000,"state":"active","ping":53},{"user_id":395,"name":"sareena","steam_id":76561198810194062,"connected_time":4645000000000,"state":"active","ping":78}]},{"server_id":310,"name":"Uncletopia | Frankfurt | 5 | All Maps","name_short":"frk-5","host":"frk-1.de.uncletopia.com","port":27055,"enabled":true,"region":"eu","cc":"de","latitude":50.110924,"longitude":8.682127,"reserved":0,"last_update":"0001-01-01T00:00:00Z","name_a2s":"Uncletopia | Frankfurt | 5 | All Maps","protocol":17,"map":"pl_badwater","folder":"tf","game":"Team Fortress","app_id":440,"player_count":0,"max_players":24,"Bots":0,"server_type":"Dedicated","server_os":"Linux","password":true,"vac":true,"version":"7961495","steam_id":85568392924504277,"keywords":["nocrits","nodmgspread","payload","uncletopia"],"game_id":440,"stv_port":27056,"stv_name":"Uncletopia | Frankfurt | 5 | All Maps | STV","players":null},{"server_id":311,"name":"Uncletopia | Frankfurt | 6 | All Maps","name_short":"frk-6","host":"frk-1.de.uncletopia.com","port":27065,"enabled":true,"region":"eu","cc":"de","latitude":50.110924,"longitude":8.682127,"reserved":0,"last_update":"0001-01-01T00:00:00Z","name_a2s":"Uncletopia | Frankfurt | 6 | All Maps","protocol":17,"map":"pl_upward","folder":"tf","game":"Team Fortress","app_id":440,"player_count":24,"max_players":24,"Bots":0,"server_type":"Dedicated","server_os":"Linux","password":true,"vac":true,"version":"7961495","steam_id":85568392924504278,"keywords":["nocrits","nodmgspread","payload","uncletopia"],"game_id":440,"stv_port":27066,"stv_name":"Uncletopia | Frankfurt | 6 | All Maps | STV","players":[{"user_id":464,"name":"鈴木一朗","steam_id":76561198143551042,"connected_time":1966000000000,"state":"active","ping":76},{"user_id":383,"name":"The Daniella","steam_id":76561198023075547,"connected_time":7536000000000,"state":"active","ping":67},{"user_id":474,"name":"Larry Penus","steam_id":76561198207546233,"connected_time":1217000000000,"state":"active","ping":59},{"user_id":466,"name":"tone","steam_id":76561197975301462,"connected_time":1917000000000,"state":"active","ping":89},{"user_id":454,"name":"Jamie","steam_id":76561198236763246,"connected_time":2301000000000,"state":"active","ping":76},{"user_id":388,"name":"protëin","steam_id":76561197998423616,"connected_time":7179000000000,"state":"active","ping":76},{"user_id":448,"name":"DM_Tiz","steam_id":76561198061478257,"connected_time":2642000000000,"state":"active","ping":49},{"user_id":480,"name":"Mav","steam_id":76561198004403881,"connected_time":574000000000,"state":"active","ping":51},{"user_id":422,"name":"Philosophos_Alpha","steam_id":76561198951264580,"connected_time":4699000000000,"state":"active","ping":100},{"user_id":479,"name":"elwen","steam_id":76561198025282054,"connected_time":576000000000,"state":"active","ping":73},{"user_id":444,"name":"Wade Wilson's Spoilt C4","steam_id":76561198013884709,"connected_time":2778000000000,"state":"active","ping":78},{"user_id":482,"name":"Doggo225","steam_id":76561198166707002,"connected_time":550000000000,"state":"active","ping":55},{"user_id":477,"name":"the one who grips","steam_id":76561198381106289,"connected_time":593000000000,"state":"active","ping":72},{"user_id":456,"name":"Equinox","steam_id":76561198154698086,"connected_time":2291000000000,"state":"active","ping":72},{"user_id":457,"name":"KMP","steam_id":76561198278707199,"connected_time":2285000000000,"state":"active","ping":67},{"user_id":478,"name":"VampiuS","steam_id":76561197998827007,"connected_time":590000000000,"state":"active","ping":59},{"user_id":463,"name":"svantezch","steam_id":76561198373831657,"connected_time":2124000000000,"state":"active","ping":74},{"user_id":486,"name":"Glenn Quagmire","steam_id":76561199348527880,"connected_time":166000000000,"state":"active","ping":85},{"user_id":473,"name":"Gosman","steam_id":76561198062956955,"connected_time":1346000000000,"state":"active","ping":87},{"user_id":481,"name":"MORTAL-WOMBAT","steam_id":76561198101581746,"connected_time":558000000000,"state":"active","ping":57},{"user_id":411,"name":"Tampon Lollipop","steam_id":76561198042593027,"connected_time":5542000000000,"state":"active","ping":86},{"user_id":471,"name":"rajAs | Aoeitalia.com","steam_id":76561198035928111,"connected_time":1831000000000,"state":"active","ping":82},{"user_id":485,"name":"madijo","steam_id":76561198012617400,"connected_time":210000000000,"state":"active","ping":59},{"user_id":484,"name":"kubanamaxa","steam_id":76561198154315656,"connected_time":434000000000,"state":"active","ping":89}]},{"server_id":23,"name":"Uncletopia | Frankfurt | 7 | Stopwatch Beta","name_short":"frk-7","host":"frk-1.de.uncletopia.com","port":27075,"enabled":true,"region":"eu","cc":"de","latitude":50.110924,"longitude":8.682127,"reserved":0,"last_update":"0001-01-01T00:00:00Z","name_a2s":"Uncletopia | Frankfurt | 7 | Stopwatch Beta","protocol":17,"map":"workshop/koth_clearcut_b15.ugc2107050255","folder":"tf","game":"Team Fortress","app_id":440,"player_count":0,"max_players":24,"Bots":0,"server_type":"Dedicated","server_os":"Linux","password":true,"vac":true,"version":"7961495","steam_id":85568392924742827,"keywords":["cp","nocrits","nodmgspread","uncletopia"],"game_id":440,"stv_port":27076,"stv_name":"Uncletopia | Frankfurt | 7 | Stopwatch Beta | STV","players":null},{"server_id":24,"name":"Uncletopia | Frankfurt | 8 | Community","name_short":"frk-8","host":"frk-1.de.uncletopia.com","port":27085,"enabled":true,"region":"eu","cc":"de","latitude":50.110924,"longitude":8.682127,"reserved":0,"last_update":"0001-01-01T00:00:00Z","name_a2s":"Uncletopia | Frankfurt | 8 | Community","protocol":17,"map":"workshop/cp_snowbase_b18.ugc2081770490","folder":"tf","game":"Team Fortress","app_id":440,"player_count":0,"max_players":24,"Bots":0,"server_type":"Dedicated","server_os":"Linux","password":true,"vac":true,"version":"7961495","steam_id":85568392924742828,"keywords":["cp","nocrits","nodmgspread","uncletopia"],"game_id":440,"stv_port":27086,"stv_name":"Uncletopia | Frankfurt | 8 | Community | STV","players":null},{"server_id":202,"name":"Uncletopia | Hong Kong | 1 | All Maps","name_short":"hgk-1","host":"hgk-1.hk.uncletopia.com","port":27015,"enabled":true,"region":"asia","cc":"hk","latitude":22.302711,"longitude":114.177216,"reserved":0,"last_update":"0001-01-01T00:00:00Z","name_a2s":"","protocol":0,"map":"","folder":"","game":"","app_id":0,"player_count":0,"max_players":0,"Bots":0,"server_type":"","server_os":"","password":false,"vac":false,"version":"","steam_id":0,"keywords":null,"game_id":0,"stv_port":0,"stv_name":"","players":null},{"server_id":1,"name":"Uncletopia | Los Angeles | 1 | All Maps","name_short":"lax-1","host":"lax-1.us.uncletopia.com","port":27015,"enabled":true,"region":"us-west","cc":"us","latitude":33.94279,"longitude":-118.41004,"reserved":0,"last_update":"0001-01-01T00:00:00Z","name_a2s":"Uncletopia | Los Angeles | 1 | All Maps","protocol":17,"map":"pl_swiftwater_final1","folder":"tf","game":"Team Fortress","app_id":440,"player_count":0,"max_players":24,"Bots":0,"server_type":"Dedicated","server_os":"Linux","password":true,"vac":true,"version":"7961495","steam_id":85568392924469991,"keywords":["nocrits","nodmgspread","payload","uncletopia"],"game_id":440,"stv_port":27016,"stv_name":"Uncletopia | Los Angeles | 1 | All Maps | STV","players":null},{"server_id":112,"name":"Uncletopia | Los Angeles | 2 | All Maps","name_short":"lax-2","host":"lax-1.us.uncletopia.com","port":27025,"enabled":true,"region":"us-west","cc":"us","latitude":33.94279,"longitude":-118.41004,"reserved":0,"last_update":"0001-01-01T00:00:00Z","name_a2s":"Uncletopia | Los Angeles | 2 | All Maps","protocol":17,"map":"ctf_2fort","folder":"tf","game":"Team Fortress","app_id":440,"player_count":24,"max_players":24,"Bots":0,"server_type":"Dedicated","server_os":"Linux","password":true,"vac":true,"version":"7961495","steam_id":85568392924469992,"keywords":["ctf","nocrits","nodmgspread","uncletopia"],"game_id":440,"stv_port":27026,"stv_name":"Uncletopia | Los Angeles | 2 | All Maps | STV","players":[{"user_id":150,"name":"Hypertripp","steam_id":76561198066776627,"connected_time":853000000000,"state":"active","ping":92},{"user_id":92,"name":"HAT-WEARING™ Maggot Gamer Cat","steam_id":76561197973992705,"connected_time":6958000000000,"state":"active","ping":68},{"user_id":141,"name":"AntHoot","steam_id":76561198080674895,"connected_time":1234000000000,"state":"active","ping":103},{"user_id":162,"name":"eggplantgirl♥","steam_id":76561198811515692,"connected_time":291000000000,"state":"active","ping":47},{"user_id":159,"name":"fruit dog","steam_id":76561199093189162,"connected_time":499000000000,"state":"active","ping":116},{"user_id":158,"name":"foofydafoofer","steam_id":76561199395830278,"connected_time":521000000000,"state":"active","ping":60},{"user_id":169,"name":"Smashing93","steam_id":76561199058453316,"connected_time":16000000000,"state":"spawning","ping":138},{"user_id":163,"name":"zuna","steam_id":76561199038981515,"connected_time":289000000000,"state":"active","ping":49},{"user_id":151,"name":"Frogzilla","steam_id":76561198077657538,"connected_time":735000000000,"state":"active","ping":93},{"user_id":142,"name":"exx","steam_id":76561198090552145,"connected_time":1232000000000,"state":"active","ping":47},{"user_id":133,"name":"Dr. Fish, PhD","steam_id":76561198045814069,"connected_time":2718000000000,"state":"active","ping":57},{"user_id":145,"name":"Dementophobic_Dude","steam_id":76561199470601524,"connected_time":1170000000000,"state":"active","ping":116},{"user_id":140,"name":"Cheff cook","steam_id":76561198451203268,"connected_time":1288000000000,"state":"active","ping":61},{"user_id":168,"name":"raccoonmanthing","steam_id":76561199042222863,"connected_time":45000000000,"state":"active","ping":59},{"user_id":110,"name":"Ashes!","steam_id":76561197998475441,"connected_time":5225000000000,"state":"active","ping":121},{"user_id":152,"name":"BionicApe","steam_id":76561198154637711,"connected_time":732000000000,"state":"active","ping":67},{"user_id":153,"name":"too much peyote","steam_id":76561198161747964,"connected_time":692000000000,"state":"active","ping":97},{"user_id":130,"name":"Grim","steam_id":76561198016978310,"connected_time":2936000000000,"state":"active","ping":67},{"user_id":154,"name":"SpamTheAlien","steam_id":76561199122290968,"connected_time":688000000000,"state":"active","ping":95},{"user_id":123,"name":"i cant aim","steam_id":76561198065873462,"connected_time":3296000000000,"state":"active","ping":44},{"user_id":90,"name":"AimBütter","steam_id":76561198060108739,"connected_time":7213000000000,"state":"active","ping":45},{"user_id":170,"name":"BasedGod","steam_id":76561198061177973,"connected_time":15000000000,"state":"active","ping":53},{"user_id":131,"name":"Mr. Pockets","steam_id":76561198053657771,"connected_time":2859000000000,"state":"active","ping":63},{"user_id":156,"name":"Space360","steam_id":76561198106743284,"connected_time":625000000000,"state":"active","ping":77}]},{"server_id":324,"name":"Uncletopia | Los Angeles | 3 | All Maps","name_short":"lax-3","host":"lax-1.us.uncletopia.com","port":27035,"enabled":true,"region":"us-west","cc":"us","latitude":33.94279,"longitude":-118.41004,"reserved":0,"last_update":"0001-01-01T00:00:00Z","name_a2s":"Uncletopia | Los Angeles | 3 | All Maps","protocol":17,"map":"pl_badwater","folder":"tf","game":"Team Fortress","app_id":440,"player_count":3,"max_players":24,"Bots":0,"server_type":"Dedicated","server_os":"Linux","password":true,"vac":true,"version":"7961495","steam_id":85568392924510198,"keywords":["nocrits","nodmgspread","payload","uncletopia"],"game_id":440,"stv_port":27036,"stv_name":"Uncletopia | Los Angeles | 3 | All Maps | STV","players":[{"user_id":11,"name":"pinkacrash","steam_id":76561198110723576,"connected_time":116000000000,"state":"active","ping":30},{"user_id":12,"name":"Johnny","steam_id":76561198128598437,"connected_time":107000000000,"state":"active","ping":84},{"user_id":15,"name":"llahxam","steam_id":76561198151900957,"connected_time":9000000000,"state":"spawning","ping":82}]},{"server_id":25,"name":"Uncletopia | Los Angeles | 4 | Stopwatch Beta","name_short":"lax-4","host":"lax-1.us.uncletopia.com","port":27045,"enabled":true,"region":"us-west","cc":"us","latitude":33.94279,"longitude":-118.41004,"reserved":0,"last_update":"0001-01-01T00:00:00Z","name_a2s":"Uncletopia | Los Angeles | 4 | Stopwatch Beta","protocol":17,"map":"pl_upward","folder":"tf","game":"Team Fortress","app_id":440,"player_count":0,"max_players":24,"Bots":0,"server_type":"Dedicated","server_os":"Linux","password":true,"vac":true,"version":"7961495","steam_id":85568392924510199,"keywords":["nocrits","nodmgspread","payload","uncletopia"],"game_id":440,"stv_port":27046,"stv_name":"Uncletopia | Los Angeles | 4 | Stopwatch Beta | STV","players":null},{"server_id":11,"name":"Uncletopia | London | 1 | All Maps","name_short":"lon-1","host":"lon-1.uk.uncletopia.com","port":27015,"enabled":true,"region":"eu","cc":"gb","latitude":51.509865,"longitude":-0.118092,"reserved":0,"last_update":"0001-01-01T00:00:00Z","name_a2s":"Uncletopia | London | 1 | All Maps","protocol":17,"map":"pl_goldrush","folder":"tf","game":"Team Fortress","app_id":440,"player_count":23,"max_players":24,"Bots":0,"server_type":"Dedicated","server_os":"Linux","password":true,"vac":true,"version":"7961495","steam_id":85568392924367362,"keywords":["nocrits","nodmgspread","payload","uncletopia"],"game_id":440,"stv_port":27016,"stv_name":"Uncletopia | London | 1 | All Maps | STV","players":[{"user_id":434,"name":"Gubbly Bubbins","steam_id":76561198101451654,"connected_time":743000000000,"state":"active","ping":50},{"user_id":375,"name":"jimmy bob","steam_id":76561198319583692,"connected_time":3378000000000,"state":"active","ping":60},{"user_id":431,"name":"Curlew","steam_id":76561198075884540,"connected_time":947000000000,"state":"active","ping":69},{"user_id":420,"name":"IanFishooks","steam_id":76561199403427527,"connected_time":1496000000000,"state":"active","ping":134},{"user_id":377,"name":"Jeffrey Harpen","steam_id":76561199073314677,"connected_time":3108000000000,"state":"active","ping":85},{"user_id":444,"name":"Borat","steam_id":76561198122226417,"connected_time":110000000000,"state":"active","ping":30},{"user_id":442,"name":"BOT GAMDOM","steam_id":76561198151052744,"connected_time":224000000000,"state":"active","ping":85},{"user_id":379,"name":"krayy (she/her)","steam_id":76561198035037830,"connected_time":3047000000000,"state":"active","ping":58},{"user_id":369,"name":"cinder block enthusiast","steam_id":76561199062160061,"connected_time":4998000000000,"state":"active","ping":51},{"user_id":441,"name":"remi, she wrote.","steam_id":76561198044045655,"connected_time":285000000000,"state":"active","ping":73},{"user_id":381,"name":"mkwii","steam_id":76561198062507768,"connected_time":2886000000000,"state":"active","ping":60},{"user_id":392,"name":"Blobbaz","steam_id":76561198031076278,"connected_time":2627000000000,"state":"active","ping":55},{"user_id":364,"name":"Fwebbie","steam_id":76561199006875621,"connected_time":5702000000000,"state":"active","ping":54},{"user_id":360,"name":"SOPHIIEE (JESSIE GANG)","steam_id":76561198443798981,"connected_time":6036000000000,"state":"active","ping":59},{"user_id":436,"name":"bowchika wowa #SlavaUkraine","steam_id":76561198159564550,"connected_time":539000000000,"state":"active","ping":75},{"user_id":423,"name":"Uncle Moomin","steam_id":76561198011628656,"connected_time":1335000000000,"state":"active","ping":84},{"user_id":368,"name":"jermany","steam_id":76561198126599355,"connected_time":5009000000000,"state":"active","ping":62},{"user_id":439,"name":"randompixel","steam_id":76561198003941207,"connected_time":382000000000,"state":"active","ping":57},{"user_id":430,"name":"peace of sheet","steam_id":76561197997323419,"connected_time":1032000000000,"state":"active","ping":81},{"user_id":438,"name":"BlobsOfWax","steam_id":76561198041752402,"connected_time":415000000000,"state":"active","ping":52},{"user_id":410,"name":"Aaron","steam_id":76561197990046953,"connected_time":1968000000000,"state":"active","ping":58},{"user_id":429,"name":"Soaya","steam_id":76561199101510855,"connected_time":1038000000000,"state":"active","ping":56},{"user_id":433,"name":"Gryoss","steam_id":76561197999837111,"connected_time":864000000000,"state":"active","ping":110}]},{"server_id":114,"name":"Uncletopia | London | 2 | All Maps","name_short":"lon-2","host":"lon-1.uk.uncletopia.com","port":27025,"enabled":true,"region":"eu","cc":"gb","latitude":51.509865,"longitude":-0.118092,"reserved":0,"last_update":"0001-01-01T00:00:00Z","name_a2s":"Uncletopia | London | 2 | All Maps","protocol":17,"map":"cp_process_final","folder":"tf","game":"Team Fortress","app_id":440,"player_count":24,"max_players":24,"Bots":0,"server_type":"Dedicated","server_os":"Linux","password":true,"vac":true,"version":"7961495","steam_id":85568392924470941,"keywords":["cp","nocrits","nodmgspread","uncletopia"],"game_id":440,"stv_port":27026,"stv_name":"Uncletopia | London | 2 | All Maps | STV","players":[{"user_id":468,"name":"someone","steam_id":76561199471582243,"connected_time":1042000000000,"state":"active","ping":101},{"user_id":429,"name":"Baron","steam_id":76561198021901783,"connected_time":2547000000000,"state":"active","ping":56},{"user_id":451,"name":"JugoTopia","steam_id":76561197996067209,"connected_time":1535000000000,"state":"active","ping":132},{"user_id":453,"name":"Whitey","steam_id":76561198001472889,"connected_time":1459000000000,"state":"active","ping":47},{"user_id":357,"name":"LordTrap.exe","steam_id":76561198318089716,"connected_time":8636000000000,"state":"active","ping":58},{"user_id":474,"name":"Purps","steam_id":76561198053886680,"connected_time":318000000000,"state":"active","ping":48},{"user_id":454,"name":"Jabussy","steam_id":76561198111148719,"connected_time":1445000000000,"state":"active","ping":71},{"user_id":422,"name":"MudFlap","steam_id":76561198257541676,"connected_time":3066000000000,"state":"active","ping":96},{"user_id":431,"name":"Teecho","steam_id":76561197995269610,"connected_time":2465000000000,"state":"active","ping":56},{"user_id":455,"name":"schmick h_stt 0","steam_id":76561198039537958,"connected_time":1416000000000,"state":"active","ping":45},{"user_id":469,"name":"H2n9","steam_id":76561198055811259,"connected_time":1014000000000,"state":"active","ping":59},{"user_id":457,"name":"my reaction to that information","steam_id":76561198015844988,"connected_time":1406000000000,"state":"active","ping":71},{"user_id":458,"name":"Vinni Pukh","steam_id":76561198123740433,"connected_time":1364000000000,"state":"active","ping":66},{"user_id":460,"name":"zoinks!","steam_id":76561198068645362,"connected_time":1357000000000,"state":"active","ping":40},{"user_id":459,"name":"Dr. Whet Faartz","steam_id":76561198145776181,"connected_time":1361000000000,"state":"active","ping":69},{"user_id":419,"name":"BELADIT","steam_id":76561198011911501,"connected_time":3264000000000,"state":"active","ping":78},{"user_id":449,"name":"Joseph R. Experience","steam_id":76561198800643204,"connected_time":1813000000000,"state":"active","ping":81},{"user_id":463,"name":"James","steam_id":76561198168882012,"connected_time":1349000000000,"state":"active","ping":53},{"user_id":466,"name":"Asfedia","steam_id":76561199386836351,"connected_time":1210000000000,"state":"active","ping":66},{"user_id":470,"name":"goofy ahh garry","steam_id":76561198019078145,"connected_time":631000000000,"state":"active","ping":90},{"user_id":471,"name":"Fox","steam_id":76561198052541711,"connected_time":416000000000,"state":"active","ping":64},{"user_id":465,"name":"Jack","steam_id":76561198040430307,"connected_time":1323000000000,"state":"active","ping":70},{"user_id":442,"name":"❤ Sparx ❤","steam_id":76561198095009261,"connected_time":2285000000000,"state":"active","ping":58},{"user_id":447,"name":"Feel Like a Choco","steam_id":76561198049372640,"connected_time":2131000000000,"state":"active","ping":83}]},{"server_id":320,"name":"Uncletopia | London | 3 | All Maps","name_short":"lon-3","host":"lon-1.uk.uncletopia.com","port":27035,"enabled":true,"region":"eu","cc":"gb","latitude":51.509865,"longitude":-0.118092,"reserved":0,"last_update":"0001-01-01T00:00:00Z","name_a2s":"Uncletopia | London | 3 | All Maps","protocol":17,"map":"pl_snowycoast","folder":"tf","game":"Team Fortress","app_id":440,"player_count":0,"max_players":24,"Bots":0,"server_type":"Dedicated","server_os":"Linux","password":true,"vac":true,"version":"7961495","steam_id":85568392924510192,"keywords":["nocrits","nodmgspread","payload","uncletopia"],"game_id":440,"stv_port":27036,"stv_name":"Uncletopia | London | 3 | All Maps | STV","players":null},{"server_id":321,"name":"Uncletopia | London | 4 | All Maps","name_short":"lon-4","host":"lon-1.uk.uncletopia.com","port":27045,"enabled":true,"region":"eu","cc":"gb","latitude":51.509865,"longitude":-0.118092,"reserved":0,"last_update":"0001-01-01T00:00:00Z","name_a2s":"Uncletopia | London | 4 | All Maps","protocol":17,"map":"pl_snowycoast","folder":"tf","game":"Team Fortress","app_id":440,"player_count":24,"max_players":24,"Bots":0,"server_type":"Dedicated","server_os":"Linux","password":true,"vac":true,"version":"7961495","steam_id":85568392924510193,"keywords":["nocrits","nodmgspread","payload","uncletopia"],"game_id":440,"stv_port":27046,"stv_name":"Uncletopia | London | 4 | All Maps | STV","players":[{"user_id":222,"name":"Adolf Potter","steam_id":76561198120554557,"connected_time":1391000000000,"state":"active","ping":60},{"user_id":225,"name":"Registered Sex Defender","steam_id":76561198039836567,"connected_time":1264000000000,"state":"active","ping":44},{"user_id":223,"name":"Emerald","steam_id":76561199141384216,"connected_time":1360000000000,"state":"active","ping":51},{"user_id":245,"name":"Manipo","steam_id":76561198074791803,"connected_time":483000000000,"state":"active","ping":64},{"user_id":247,"name":"Mikjoda","steam_id":76561198051996369,"connected_time":325000000000,"state":"active","ping":85},{"user_id":227,"name":"LOBZIK","steam_id":76561198114830120,"connected_time":1245000000000,"state":"active","ping":79},{"user_id":244,"name":"going bananas","steam_id":76561199480942903,"connected_time":495000000000,"state":"active","ping":75},{"user_id":148,"name":"Fungiii༼つ ◕_◕ ༽つ","steam_id":76561198030595729,"connected_time":5268000000000,"state":"active","ping":80},{"user_id":228,"name":"EmissaryOfTheLord","steam_id":76561199130305263,"connected_time":1236000000000,"state":"active","ping":41},{"user_id":230,"name":"jovi_","steam_id":76561198449280552,"connected_time":1226000000000,"state":"active","ping":53},{"user_id":231,"name":"Gimble","steam_id":76561198964372777,"connected_time":1222000000000,"state":"active","ping":54},{"user_id":240,"name":"cantsniff","steam_id":76561198259668029,"connected_time":760000000000,"state":"active","ping":76},{"user_id":233,"name":"MefedronDowóz24h","steam_id":76561198107166530,"connected_time":1161000000000,"state":"active","ping":107},{"user_id":237,"name":"UltimateAura","steam_id":76561198338361324,"connected_time":1113000000000,"state":"active","ping":38},{"user_id":211,"name":"imthegerman","steam_id":76561198053401077,"connected_time":2230000000000,"state":"active","ping":112},{"user_id":168,"name":"⑨","steam_id":76561198351154533,"connected_time":4309000000000,"state":"active","ping":56},{"user_id":248,"name":"asko","steam_id":76561198081966620,"connected_time":288000000000,"state":"active","ping":90},{"user_id":242,"name":"Dyfed","steam_id":76561198055389492,"connected_time":671000000000,"state":"active","ping":44},{"user_id":246,"name":"Rizz","steam_id":76561198192135953,"connected_time":409000000000,"state":"active","ping":79},{"user_id":235,"name":"wal","steam_id":76561198066043883,"connected_time":1143000000000,"state":"active","ping":56},{"user_id":238,"name":"Naix","steam_id":76561198053893077,"connected_time":1110000000000,"state":"active","ping":54},{"user_id":241,"name":"The Nostalgia Critic","steam_id":76561198360395476,"connected_time":724000000000,"state":"active","ping":47},{"user_id":239,"name":"KingPotatoChips","steam_id":76561198035156465,"connected_time":1091000000000,"state":"active","ping":74},{"user_id":249,"name":"Arii","steam_id":76561198138137939,"connected_time":145000000000,"state":"active","ping":59}]},{"server_id":21,"name":"Uncletopia | London | 5 | All Maps","name_short":"lon-5","host":"lon-1.uk.uncletopia.com","port":27055,"enabled":true,"region":"eu","cc":"gb","latitude":51.509865,"longitude":-0.118092,"reserved":0,"last_update":"0001-01-01T00:00:00Z","name_a2s":"Uncletopia | London | 5 | All Maps","protocol":17,"map":"cp_sunshine","folder":"tf","game":"Team Fortress","app_id":440,"player_count":24,"max_players":24,"Bots":0,"server_type":"Dedicated","server_os":"Linux","password":true,"vac":true,"version":"7961495","steam_id":85568392924742829,"keywords":["cp","nocrits","nodmgspread","uncletopia"],"game_id":440,"stv_port":27056,"stv_name":"Uncletopia | London | 5 | All Maps | STV","players":[{"user_id":372,"name":"true","steam_id":76561198031145243,"connected_time":144000000000,"state":"active","ping":88},{"user_id":318,"name":"artonzhun","steam_id":76561198259104010,"connected_time":3457000000000,"state":"active","ping":85},{"user_id":319,"name":"walter","steam_id":76561198021950957,"connected_time":3450000000000,"state":"active","ping":66},{"user_id":339,"name":"t0ksi","steam_id":76561198107240798,"connected_time":2071000000000,"state":"active","ping":87},{"user_id":371,"name":"Lessoz","steam_id":76561199211572036,"connected_time":172000000000,"state":"active","ping":91},{"user_id":367,"name":"dbuBBle","steam_id":76561198057961506,"connected_time":349000000000,"state":"active","ping":68},{"user_id":343,"name":"Dr. Yes","steam_id":76561198435075977,"connected_time":1772000000000,"state":"active","ping":54},{"user_id":321,"name":"Maldom","steam_id":76561198000687053,"connected_time":3290000000000,"state":"active","ping":68},{"user_id":368,"name":"Milk","steam_id":76561198125876588,"connected_time":335000000000,"state":"active","ping":45},{"user_id":345,"name":"sushii","steam_id":76561198297987372,"connected_time":1755000000000,"state":"active","ping":56},{"user_id":363,"name":"TheBeardedM1G","steam_id":76561198040208946,"connected_time":790000000000,"state":"active","ping":42},{"user_id":373,"name":"simbly","steam_id":76561199475493122,"connected_time":130000000000,"state":"active","ping":121},{"user_id":369,"name":"whatshisface","steam_id":76561199380660980,"connected_time":313000000000,"state":"active","ping":149},{"user_id":370,"name":"Pomson 6000","steam_id":76561198344588858,"connected_time":259000000000,"state":"active","ping":54},{"user_id":365,"name":"Hacky","steam_id":76561199001746800,"connected_time":577000000000,"state":"active","ping":59},{"user_id":349,"name":"Starach","steam_id":76561198084530972,"connected_time":1477000000000,"state":"active","ping":57},{"user_id":328,"name":"xaronex","steam_id":76561198112004175,"connected_time":2973000000000,"state":"active","ping":76},{"user_id":334,"name":"sAmasam","steam_id":76561198114953928,"connected_time":2424000000000,"state":"active","ping":69},{"user_id":361,"name":"midlpsyzl47","steam_id":76561199475972637,"connected_time":884000000000,"state":"active","ping":76},{"user_id":379,"name":"AFerociousTeddyBearSlayer","steam_id":76561198247447256,"connected_time":14000000000,"state":"active","ping":59},{"user_id":351,"name":"ROX","steam_id":76561198272289320,"connected_time":1402000000000,"state":"active","ping":63},{"user_id":280,"name":"fence_","steam_id":76561198150386379,"connected_time":7938000000000,"state":"active","ping":46},{"user_id":375,"name":"i can't see","steam_id":76561198056798578,"connected_time":111000000000,"state":"active","ping":58},{"user_id":353,"name":"mr weatherman","steam_id":76561198097612561,"connected_time":1361000000000,"state":"active","ping":69}]},{"server_id":22,"name":"Uncletopia | London | 6 | All Maps","name_short":"lon-6","host":"lon-1.uk.uncletopia.com","port":27065,"enabled":true,"region":"eu","cc":"gb","latitude":51.509865,"longitude":-0.118092,"reserved":0,"last_update":"0001-01-01T00:00:00Z","name_a2s":"Uncletopia | London | 6 | All Maps","protocol":17,"map":"pl_pier","folder":"tf","game":"Team Fortress","app_id":440,"player_count":20,"max_players":24,"Bots":0,"server_type":"Dedicated","server_os":"Linux","password":true,"vac":true,"version":"7961495","steam_id":85568392924742830,"keywords":["nocrits","nodmgspread","payload","uncletopia"],"game_id":440,"stv_port":27066,"stv_name":"Uncletopia | London | 6 | All Maps | STV","players":[{"user_id":322,"name":"The Power","steam_id":76561198060566884,"connected_time":118000000000,"state":"active","ping":45},{"user_id":321,"name":"Tort","steam_id":76561198329646769,"connected_time":159000000000,"state":"active","ping":59},{"user_id":259,"name":"Plop_","steam_id":76561198112567921,"connected_time":4529000000000,"state":"active","ping":41},{"user_id":273,"name":"Dewotter","steam_id":76561198007653168,"connected_time":3325000000000,"state":"active","ping":60},{"user_id":323,"name":"mangoface","steam_id":76561199028760996,"connected_time":86000000000,"state":"active","ping":77},{"user_id":319,"name":"gub","steam_id":76561198171178427,"connected_time":521000000000,"state":"active","ping":86},{"user_id":301,"name":"tm`","steam_id":76561197993580412,"connected_time":2054000000000,"state":"active","ping":72},{"user_id":266,"name":"I jazzed myself","steam_id":76561198203016603,"connected_time":4137000000000,"state":"active","ping":59},{"user_id":324,"name":"NotChloe","steam_id":76561198080658092,"connected_time":60000000000,"state":"active","ping":57},{"user_id":325,"name":"[503. ]captain swiftfingers","steam_id":76561198043684517,"connected_time":47000000000,"state":"active","ping":49},{"user_id":317,"name":"TheEventGuy","steam_id":76561197972797744,"connected_time":881000000000,"state":"active","ping":81},{"user_id":326,"name":"no one","steam_id":76561198438741909,"connected_time":1000000000,"state":"spawning","ping":56},{"user_id":267,"name":"omnibombulator","steam_id":76561198025858897,"connected_time":4057000000000,"state":"active","ping":49},{"user_id":265,"name":"screenshot2020-25-09","steam_id":76561198255275650,"connected_time":4286000000000,"state":"active","ping":52},{"user_id":313,"name":"8 Ball","steam_id":76561197960988736,"connected_time":1323000000000,"state":"active","ping":45},{"user_id":314,"name":"MovingIsOverRated","steam_id":76561198385633292,"connected_time":1131000000000,"state":"active","ping":171},{"user_id":297,"name":"RflxCypher","steam_id":76561199015470141,"connected_time":2137000000000,"state":"active","ping":49},{"user_id":316,"name":"limbicsystem","steam_id":76561198025612680,"connected_time":999000000000,"state":"active","ping":61},{"user_id":302,"name":"Valen","steam_id":76561198049614521,"connected_time":2038000000000,"state":"active","ping":74},{"user_id":253,"name":"Mr_Pulse_","steam_id":76561198095001602,"connected_time":5106000000000,"state":"active","ping":108}]},{"server_id":40,"name":"Uncletopia | London | 7 | No Payload","name_short":"lon-7","host":"lon-1.uk.uncletopia.com","port":27075,"enabled":true,"region":"eu","cc":"gb","latitude":51.509865,"longitude":-0.118092,"reserved":0,"last_update":"0001-01-01T00:00:00Z","name_a2s":"Uncletopia | London | 7 | No Payload","protocol":17,"map":"koth_harvest_final","folder":"tf","game":"Team Fortress","app_id":440,"player_count":23,"max_players":24,"Bots":0,"server_type":"Dedicated","server_os":"Linux","password":true,"vac":true,"version":"7961495","steam_id":85568392924964314,"keywords":["cp","nocrits","nodmgspread","uncletopia"],"game_id":440,"stv_port":27076,"stv_name":"Uncletopia | London | 7 | No Payload | STV","players":[{"user_id":291,"name":"GeneralBathtub","steam_id":76561198291678581,"connected_time":866000000000,"state":"active","ping":61},{"user_id":247,"name":"Tx_madmash","steam_id":76561198924656512,"connected_time":3779000000000,"state":"active","ping":103},{"user_id":292,"name":"Lavalampje","steam_id":76561198395264222,"connected_time":846000000000,"state":"active","ping":61},{"user_id":293,"name":"Stage 5 Autism","steam_id":76561198370485227,"connected_time":843000000000,"state":"active","ping":71},{"user_id":304,"name":"LobsterFi","steam_id":76561199109891035,"connected_time":509000000000,"state":"active","ping":59},{"user_id":295,"name":"Mophead","steam_id":76561198161328553,"connected_time":694000000000,"state":"active","ping":49},{"user_id":296,"name":"chrząszcz","steam_id":76561198358887237,"connected_time":682000000000,"state":"active","ping":82},{"user_id":297,"name":"RogueWave","steam_id":76561198067825459,"connected_time":646000000000,"state":"active","ping":52},{"user_id":299,"name":"Dispenser.jsx","steam_id":76561198303429751,"connected_time":618000000000,"state":"active","ping":57},{"user_id":317,"name":"Pineappleman","steam_id":76561199074651648,"connected_time":30000000000,"state":"active","ping":44},{"user_id":302,"name":"bong","steam_id":76561198117866815,"connected_time":557000000000,"state":"active","ping":51},{"user_id":303,"name":"Thrallix","steam_id":76561198196374803,"connected_time":555000000000,"state":"active","ping":66},{"user_id":309,"name":"asim40 | #savetf2","steam_id":76561198203070404,"connected_time":296000000000,"state":"active","ping":73},{"user_id":306,"name":"mumbler","steam_id":76561197970641239,"connected_time":453000000000,"state":"active","ping":57},{"user_id":307,"name":"UglyTwinYgor","steam_id":76561198132718039,"connected_time":446000000000,"state":"active","ping":85},{"user_id":314,"name":"FISH_EGG","steam_id":76561198881794548,"connected_time":110000000000,"state":"active","ping":51},{"user_id":310,"name":"hide on bush","steam_id":76561198149967445,"connected_time":223000000000,"state":"active","ping":42},{"user_id":311,"name":"Teathling.ttv","steam_id":76561198061580505,"connected_time":223000000000,"state":"active","ping":56},{"user_id":312,"name":"deloreg (playing scout)","steam_id":76561199487318962,"connected_time":218000000000,"state":"active","ping":78},{"user_id":313,"name":"TylowStar","steam_id":76561198357107806,"connected_time":203000000000,"state":"active","ping":73},{"user_id":284,"name":"PidgeonsOfWar","steam_id":76561198849223850,"connected_time":1864000000000,"state":"active","ping":45},{"user_id":315,"name":"ran is running","steam_id":76561199443185667,"connected_time":104000000000,"state":"active","ping":133},{"user_id":316,"name":"TomNoSocks","steam_id":76561198114071046,"connected_time":53000000000,"state":"active","ping":68}]},{"server_id":41,"name":"Uncletopia | London | 8 | Community","name_short":"lon-8","host":"lon-1.uk.uncletopia.com","port":27085,"enabled":true,"region":"eu","cc":"gb","latitude":51.509865,"longitude":-0.118092,"reserved":0,"last_update":"0001-01-01T00:00:00Z","name_a2s":"Uncletopia | London | 8 | Community","protocol":17,"map":"workshop/koth_ashville_final.ugc2130459942","folder":"tf","game":"Team Fortress","app_id":440,"player_count":0,"max_players":24,"Bots":0,"server_type":"Dedicated","server_os":"Linux","password":true,"vac":true,"version":"7961495","steam_id":85568392924964315,"keywords":["cp","nocrits","nodmgspread","uncletopia"],"game_id":440,"stv_port":27086,"stv_name":"Uncletopia | London | 8 | Community | STV","players":null},{"server_id":300,"name":"Uncletopia | Montréal | 1 | All Maps","name_short":"mtl-1","host":"mtl-1.ca.uncletopia.com","port":27015,"enabled":true,"region":"us-east","cc":"ca","latitude":45.50889,"longitude":-73.56167,"reserved":0,"last_update":"0001-01-01T00:00:00Z","name_a2s":"Uncletopia | Montréal | 1 | All Maps","protocol":17,"map":"pl_swiftwater_final1","folder":"tf","game":"Team Fortress","app_id":440,"player_count":0,"max_players":24,"Bots":0,"server_type":"Dedicated","server_os":"Linux","password":true,"vac":true,"version":"7961495","steam_id":85568392924500087,"keywords":["nocrits","nodmgspread","payload","uncletopia"],"game_id":440,"stv_port":27016,"stv_name":"Uncletopia | Montréal | 1 | All Maps | STV","players":null},{"server_id":301,"name":"Uncletopia | Montréal | 2 | All Maps","name_short":"mtl-2","host":"mtl-1.ca.uncletopia.com","port":27025,"enabled":true,"region":"us-east","cc":"ca","latitude":45.50889,"longitude":-73.56167,"reserved":0,"last_update":"0001-01-01T00:00:00Z","name_a2s":"Uncletopia | Montréal | 2 | All Maps","protocol":17,"map":"cp_dustbowl","folder":"tf","game":"Team Fortress","app_id":440,"player_count":0,"max_players":24,"Bots":0,"server_type":"Dedicated","server_os":"Linux","password":true,"vac":true,"version":"7961495","steam_id":85568392924500088,"keywords":["cp","nocrits","nodmgspread","uncletopia"],"game_id":440,"stv_port":27026,"stv_name":"Uncletopia | Montréal | 2 | All Maps | STV","players":null},{"server_id":302,"name":"Uncletopia | Montréal | 3 | All Maps","name_short":"mtl-3","host":"mtl-1.ca.uncletopia.com","port":27035,"enabled":true,"region":"us-east","cc":"ca","latitude":45.50889,"longitude":-73.56167,"reserved":0,"last_update":"0001-01-01T00:00:00Z","name_a2s":"Uncletopia | Montréal | 3 | All Maps","protocol":17,"map":"koth_cascade","folder":"tf","game":"Team Fortress","app_id":440,"player_count":0,"max_players":24,"Bots":0,"server_type":"Dedicated","server_os":"Linux","password":true,"vac":true,"version":"7961495","steam_id":85568392924500089,"keywords":["cp","nocrits","nodmgspread","uncletopia"],"game_id":440,"stv_port":27036,"stv_name":"Uncletopia | Montréal | 3 | All Maps | STV","players":null},{"server_id":303,"name":"Uncletopia | Montréal | 4 | No Payload","name_short":"mtl-4","host":"mtl-1.ca.uncletopia.com","port":27045,"enabled":true,"region":"us-east","cc":"ca","latitude":45.50889,"longitude":-73.56167,"reserved":0,"last_update":"0001-01-01T00:00:00Z","name_a2s":"Uncletopia | Montréal | 4 | No Payload","protocol":17,"map":"koth_lakeside_final","folder":"tf","game":"Team Fortress","app_id":440,"player_count":0,"max_players":24,"Bots":0,"server_type":"Dedicated","server_os":"Linux","password":true,"vac":true,"version":"7961495","steam_id":85568392924500090,"keywords":["cp","nocrits","nodmgspread","uncletopia"],"game_id":440,"stv_port":27046,"stv_name":"Uncletopia | Montréal | 4 | No Payload | STV","players":null},{"server_id":13,"name":"Uncletopia | New York City | 1 | All Maps","name_short":"nyc-1","host":"nyc-1.us.uncletopia.com","port":27015,"enabled":true,"region":"us-east","cc":"us","latitude":40.73061,"longitude":-73.93524,"reserved":0,"last_update":"0001-01-01T00:00:00Z","name_a2s":"Uncletopia | New York City | 1 | All Maps","protocol":17,"map":"pl_thundermountain","folder":"tf","game":"Team Fortress","app_id":440,"player_count":16,"max_players":24,"Bots":0,"server_type":"Dedicated","server_os":"Linux","password":true,"vac":true,"version":"7961495","steam_id":85568392924469993,"keywords":["nocrits","nodmgspread","payload","uncletopia"],"game_id":440,"stv_port":27016,"stv_name":"Uncletopia | New York City | 1 | All Maps | STV","players":[{"user_id":583,"name":"DiamondGuy 022","steam_id":76561198966794310,"connected_time":322000000000,"state":"active","ping":97},{"user_id":566,"name":"The Rin Pizzler","steam_id":76561198412112639,"connected_time":1820000000000,"state":"active","ping":62},{"user_id":586,"name":"Webelwober","steam_id":76561197981087545,"connected_time":108000000000,"state":"active","ping":65},{"user_id":580,"name":"King Sans","steam_id":76561198294198517,"connected_time":828000000000,"state":"active","ping":43},{"user_id":587,"name":"Lumi","steam_id":76561198089978036,"connected_time":36000000000,"state":"spawning","ping":83},{"user_id":581,"name":"castlerock","steam_id":76561198857184966,"connected_time":490000000000,"state":"active","ping":43},{"user_id":548,"name":"Nic0","steam_id":76561198305690218,"connected_time":3795000000000,"state":"active","ping":60},{"user_id":535,"name":"Raine","steam_id":76561198055761141,"connected_time":5055000000000,"state":"active","ping":113},{"user_id":556,"name":"l3fty","steam_id":76561198057788958,"connected_time":2744000000000,"state":"active","ping":66},{"user_id":549,"name":"t","steam_id":76561198175988929,"connected_time":3777000000000,"state":"active","ping":119},{"user_id":554,"name":"Rodgedan","steam_id":76561198226236524,"connected_time":3637000000000,"state":"active","ping":70},{"user_id":552,"name":"Cookie","steam_id":76561198047736899,"connected_time":3757000000000,"state":"active","ping":31},{"user_id":578,"name":"b4rry","steam_id":76561198365887154,"connected_time":1278000000000,"state":"active","ping":58},{"user_id":573,"name":"Raza","steam_id":76561198996455559,"connected_time":1471000000000,"state":"active","ping":61},{"user_id":582,"name":"Gentoo Linux Gaming","steam_id":76561197999657118,"connected_time":478000000000,"state":"active","ping":65},{"user_id":543,"name":"MetalNavigator","steam_id":76561198974231439,"connected_time":4152000000000,"state":"active","ping":94}]},{"server_id":14,"name":"Uncletopia | New York City | 2 | All Maps","name_short":"nyc-2","host":"nyc-1.us.uncletopia.com","port":27025,"enabled":true,"region":"us-east","cc":"us","latitude":40.73061,"longitude":-73.93524,"reserved":0,"last_update":"0001-01-01T00:00:00Z","name_a2s":"Uncletopia | New York City | 2 | All Maps","protocol":17,"map":"pl_badwater","folder":"tf","game":"Team Fortress","app_id":440,"player_count":22,"max_players":24,"Bots":0,"server_type":"Dedicated","server_os":"Linux","password":true,"vac":true,"version":"7961495","steam_id":85568392924469994,"keywords":["nocrits","nodmgspread","payload","uncletopia"],"game_id":440,"stv_port":27026,"stv_name":"Uncletopia | New York City | 2 | All Maps | STV","players":[{"user_id":360,"name":"...","steam_id":76561198312298321,"connected_time":3391000000000,"state":"active","ping":59},{"user_id":389,"name":"SoggyBread","steam_id":76561199094181697,"connected_time":1627000000000,"state":"active","ping":60},{"user_id":381,"name":"Le4n!!!","steam_id":76561198045522596,"connected_time":2239000000000,"state":"active","ping":76},{"user_id":399,"name":"poke_ravi","steam_id":76561198006619886,"connected_time":382000000000,"state":"active","ping":54},{"user_id":400,"name":"ancientfunland","steam_id":76561199220174291,"connected_time":295000000000,"state":"active","ping":68},{"user_id":403,"name":"Sully","steam_id":76561198310784589,"connected_time":210000000000,"state":"active","ping":51},{"user_id":386,"name":"Lylith!!!","steam_id":76561198386687546,"connected_time":1809000000000,"state":"active","ping":75},{"user_id":354,"name":"Redkiller","steam_id":76561199453655288,"connected_time":3803000000000,"state":"active","ping":64},{"user_id":398,"name":"BNTF","steam_id":76561198062740087,"connected_time":435000000000,"state":"active","ping":75},{"user_id":401,"name":"fish.EXE","steam_id":76561198995564430,"connected_time":277000000000,"state":"active","ping":70},{"user_id":406,"name":"Sovereign","steam_id":76561198018841787,"connected_time":124000000000,"state":"active","ping":105},{"user_id":412,"name":"mothwizard","steam_id":76561198847493072,"connected_time":16000000000,"state":"spawning","ping":63},{"user_id":404,"name":"Nihplod_","steam_id":76561199010320094,"connected_time":182000000000,"state":"active","ping":59},{"user_id":315,"name":"marcus tillius","steam_id":76561197982832274,"connected_time":6282000000000,"state":"active","ping":93},{"user_id":405,"name":"hucklander","steam_id":76561199473487575,"connected_time":155000000000,"state":"active","ping":85},{"user_id":407,"name":"quandavious dinglebottom","steam_id":76561199078842978,"connected_time":115000000000,"state":"active","ping":68},{"user_id":375,"name":"Piss God","steam_id":76561198090504334,"connected_time":2695000000000,"state":"active","ping":55},{"user_id":408,"name":"Ghost Lord","steam_id":76561198088956723,"connected_time":106000000000,"state":"active","ping":108},{"user_id":409,"name":"Sensational Sesame Seed","steam_id":76561198092494136,"connected_time":96000000000,"state":"active","ping":62},{"user_id":410,"name":"Chris P. Bacon","steam_id":76561198000851038,"connected_time":80000000000,"state":"active","ping":55},{"user_id":316,"name":"peniblor","steam_id":76561198307923786,"connected_time":6262000000000,"state":"active","ping":124},{"user_id":413,"name":"Dark Lord","steam_id":76561198044199150,"connected_time":15000000000,"state":"active","ping":86}]},{"server_id":15,"name":"Uncletopia | New York City | 3 | Stopwatch Beta","name_short":"nyc-3","host":"nyc-1.us.uncletopia.com","port":27035,"enabled":true,"region":"us-east","cc":"us","latitude":40.73061,"longitude":-73.93524,"reserved":0,"last_update":"0001-01-01T00:00:00Z","name_a2s":"Uncletopia | New York City | 3 | Stopwatch Beta","protocol":17,"map":"workshop/koth_ramjam_rc1.ugc459778887","folder":"tf","game":"Team Fortress","app_id":440,"player_count":0,"max_players":24,"Bots":0,"server_type":"Dedicated","server_os":"Linux","password":true,"vac":true,"version":"7961495","steam_id":85568392924742820,"keywords":["cp","nocrits","nodmgspread","uncletopia"],"game_id":440,"stv_port":27036,"stv_name":"Uncletopia | New York City | 3 | Stopwatch Beta | STV","players":null},{"server_id":16,"name":"Uncletopia | New York City | 4 | Community","name_short":"nyc-4","host":"nyc-1.us.uncletopia.com","port":27045,"enabled":true,"region":"us-east","cc":"us","latitude":40.73061,"longitude":-73.93524,"reserved":0,"last_update":"0001-01-01T00:00:00Z","name_a2s":"Uncletopia | New York City | 4 | Community","protocol":17,"map":"workshop/koth_bagel_rc6.ugc2514036946","folder":"tf","game":"Team Fortress","app_id":440,"player_count":23,"max_players":24,"Bots":0,"server_type":"Dedicated","server_os":"Linux","password":true,"vac":true,"version":"7961495","steam_id":85568392924742821,"keywords":["cp","nocrits","nodmgspread","uncletopia"],"game_id":440,"stv_port":27046,"stv_name":"Uncletopia | New York City | 4 | Community | STV","players":[{"user_id":240,"name":"Justario","steam_id":76561198016095410,"connected_time":2178000000000,"state":"active","ping":48},{"user_id":265,"name":"drood","steam_id":76561198000300475,"connected_time":978000000000,"state":"active","ping":103},{"user_id":152,"name":"Mecha","steam_id":76561198014927379,"connected_time":6603000000000,"state":"active","ping":69},{"user_id":273,"name":"GamblecoreSlotsTrillionaire#Win","steam_id":76561198079405234,"connected_time":11000000000,"state":"active","ping":50},{"user_id":201,"name":"Wut dat dog doin","steam_id":76561198848535267,"connected_time":3650000000000,"state":"active","ping":63},{"user_id":266,"name":"Blake...","steam_id":76561198064090974,"connected_time":940000000000,"state":"active","ping":88},{"user_id":257,"name":"is there anything unfappable?","steam_id":76561198032259680,"connected_time":1445000000000,"state":"active","ping":64},{"user_id":271,"name":"plokmijnuhbygvtfcrdxeszwaq","steam_id":76561198175741741,"connected_time":367000000000,"state":"active","ping":94},{"user_id":246,"name":"BigMan","steam_id":76561198277150955,"connected_time":1662000000000,"state":"active","ping":53},{"user_id":260,"name":"phonedirectory","steam_id":76561198102360911,"connected_time":1360000000000,"state":"active","ping":86},{"user_id":253,"name":"brg","steam_id":76561197998415548,"connected_time":1532000000000,"state":"active","ping":79},{"user_id":249,"name":"ThtGyVrThr","steam_id":76561198805852870,"connected_time":1624000000000,"state":"active","ping":123},{"user_id":267,"name":"AnnieM","steam_id":76561199435467297,"connected_time":769000000000,"state":"active","ping":90},{"user_id":264,"name":"Gram Tokers Count Doinkula","steam_id":76561198112811565,"connected_time":991000000000,"state":"active","ping":56},{"user_id":268,"name":"Molten Pancake","steam_id":76561199085340387,"connected_time":766000000000,"state":"active","ping":83},{"user_id":259,"name":"kiobu","steam_id":76561198012914428,"connected_time":1372000000000,"state":"active","ping":84},{"user_id":261,"name":"DeepDive","steam_id":76561198140542184,"connected_time":1328000000000,"state":"active","ping":49},{"user_id":262,"name":"Acking02","steam_id":76561198042543757,"connected_time":1325000000000,"state":"active","ping":70},{"user_id":254,"name":"Winter the Witchie","steam_id":76561198151971178,"connected_time":1508000000000,"state":"active","ping":79},{"user_id":263,"name":"CheeseyPyro","steam_id":76561199238876286,"connected_time":1175000000000,"state":"active","ping":70},{"user_id":251,"name":"the_willy12","steam_id":76561199145029672,"connected_time":1594000000000,"state":"active","ping":83},{"user_id":270,"name":"Lemon","steam_id":76561198119362095,"connected_time":751000000000,"state":"active","ping":45},{"user_id":230,"name":"eaglesfan609","steam_id":76561198151032242,"connected_time":2511000000000,"state":"active","ping":59}]},{"server_id":142,"name":"Uncletopia | São Paulo | 1 | All Maps","name_short":"sao-1","host":"sao-1.br.uncletopia.com","port":27015,"enabled":true,"region":"sa","cc":"br","latitude":-23.533773,"longitude":-46.62529,"reserved":0,"last_update":"0001-01-01T00:00:00Z","name_a2s":"Uncletopia | São Paulo | 1 | All Maps","protocol":17,"map":"pl_pier","folder":"tf","game":"Team Fortress","app_id":440,"player_count":0,"max_players":24,"Bots":0,"server_type":"Dedicated","server_os":"Linux","password":true,"vac":true,"version":"7961495","steam_id":85568392924469996,"keywords":["nocrits","nodmgspread","payload","uncletopia"],"game_id":440,"stv_port":27016,"stv_name":"Uncletopia | São Paulo | 1 | All Maps | STV","players":null},{"server_id":143,"name":"Uncletopia | São Paulo | 2 | Community","name_short":"sao-2","host":"sao-2.br.uncletopia.com","port":27015,"enabled":true,"region":"sa","cc":"br","latitude":-23.533773,"longitude":-46.62529,"reserved":0,"last_update":"0001-01-01T00:00:00Z","name_a2s":"Uncletopia | São Paulo | 2 | Community","protocol":17,"map":"workshop/koth_trenchfoot_b1a.ugc731436616","folder":"tf","game":"Team Fortress","app_id":440,"player_count":9,"max_players":24,"Bots":0,"server_type":"Dedicated","server_os":"Linux","password":true,"vac":true,"version":"7961495","steam_id":85568392924485349,"keywords":["cp","nocrits","nodmgspread","uncletopia"],"game_id":440,"stv_port":27016,"stv_name":"Uncletopia | São Paulo | 2 | Community | STV","players":[{"user_id":31,"name":"TheHiddenBlade","steam_id":76561199129787866,"connected_time":557000000000,"state":"active","ping":207},{"user_id":21,"name":"Cheesi","steam_id":76561199417190840,"connected_time":2127000000000,"state":"active","ping":206},{"user_id":23,"name":"AddonFails","steam_id":76561199122241547,"connected_time":2034000000000,"state":"active","ping":200},{"user_id":30,"name":"SenhorFooca","steam_id":76561199269436074,"connected_time":585000000000,"state":"active","ping":53},{"user_id":25,"name":"༒  Red  ༒","steam_id":76561199230923075,"connected_time":1710000000000,"state":"active","ping":74},{"user_id":26,"name":"YellowEyePatch Guy","steam_id":76561199108111310,"connected_time":1684000000000,"state":"active","ping":56},{"user_id":32,"name":"Frans","steam_id":76561198207928860,"connected_time":272000000000,"state":"active","ping":34},{"user_id":33,"name":"kifi","steam_id":76561199069994646,"connected_time":227000000000,"state":"active","ping":92},{"user_id":34,"name":"matheus whatsapp","steam_id":76561199359501901,"connected_time":58000000000,"state":"active","ping":279}]},{"server_id":7,"name":"Uncletopia | Seattle | 1 | All Maps","name_short":"sea-1","host":"sea-1.us.uncletopia.com","port":27015,"enabled":true,"region":"us-west","cc":"us","latitude":47.608013,"longitude":-122.33517,"reserved":0,"last_update":"0001-01-01T00:00:00Z","name_a2s":"Uncletopia | Seattle | 1 | All Maps","protocol":17,"map":"koth_viaduct","folder":"tf","game":"Team Fortress","app_id":440,"player_count":24,"max_players":24,"Bots":0,"server_type":"Dedicated","server_os":"Linux","password":true,"vac":true,"version":"7961495","steam_id":85568392924469997,"keywords":["cp","nocrits","nodmgspread","uncletopia"],"game_id":440,"stv_port":27016,"stv_name":"Uncletopia | Seattle | 1 | All Maps | STV","players":[{"user_id":155,"name":"Wimpzilla","steam_id":76561198025166189,"connected_time":4436000000000,"state":"active","ping":45},{"user_id":77,"name":"General Fisticuffs","steam_id":76561198255721392,"connected_time":12926000000000,"state":"active","ping":113},{"user_id":180,"name":"moe","steam_id":76561198929586245,"connected_time":649000000000,"state":"active","ping":74},{"user_id":144,"name":"ZEKKER","steam_id":76561197967968980,"connected_time":5149000000000,"state":"active","ping":54},{"user_id":176,"name":"LR INT Super Perfect Cell","steam_id":76561198855935442,"connected_time":924000000000,"state":"active","ping":60},{"user_id":172,"name":"26O3 極光面紗","steam_id":76561198964074985,"connected_time":1254000000000,"state":"active","ping":63},{"user_id":177,"name":"mega","steam_id":76561198089520959,"connected_time":887000000000,"state":"active","ping":98},{"user_id":160,"name":"Skoad","steam_id":76561198104650528,"connected_time":3498000000000,"state":"active","ping":67},{"user_id":138,"name":"gnoblin","steam_id":76561198210322871,"connected_time":5905000000000,"state":"active","ping":90},{"user_id":152,"name":"dust | she/it","steam_id":76561198045218909,"connected_time":4532000000000,"state":"active","ping":43},{"user_id":121,"name":"oo","steam_id":76561198119626492,"connected_time":7946000000000,"state":"active","ping":76},{"user_id":179,"name":"SAVECASEY","steam_id":76561198857896847,"connected_time":677000000000,"state":"active","ping":68},{"user_id":164,"name":"Bendidy","steam_id":76561198041964300,"connected_time":2556000000000,"state":"active","ping":75},{"user_id":171,"name":"4 life","steam_id":76561198175961598,"connected_time":1479000000000,"state":"active","ping":90},{"user_id":153,"name":"CashGordon","steam_id":76561197975594096,"connected_time":4529000000000,"state":"active","ping":40},{"user_id":124,"name":"♥ President Shitfart ♥","steam_id":76561198141819053,"connected_time":7443000000000,"state":"active","ping":64},{"user_id":183,"name":"secio5","steam_id":76561198189746963,"connected_time":337000000000,"state":"active","ping":53},{"user_id":170,"name":"Radio","steam_id":76561198194821053,"connected_time":1532000000000,"state":"active","ping":54},{"user_id":154,"name":"BlazedBunny","steam_id":76561198243610560,"connected_time":4466000000000,"state":"active","ping":77},{"user_id":147,"name":"2 Point Tom","steam_id":76561198087617008,"connected_time":4997000000000,"state":"active","ping":53},{"user_id":181,"name":"Porky","steam_id":76561198963653950,"connected_time":645000000000,"state":"active","ping":68},{"user_id":178,"name":"my mom","steam_id":76561199225201569,"connected_time":874000000000,"state":"active","ping":123},{"user_id":169,"name":"Qas","steam_id":76561198067564482,"connected_time":1544000000000,"state":"active","ping":73},{"user_id":175,"name":"doomshroom","steam_id":76561198092827250,"connected_time":1072000000000,"state":"active","ping":70}]},{"server_id":119,"name":"Uncletopia | Seattle | 2 | All Maps","name_short":"sea-2","host":"sea-1.us.uncletopia.com","port":27025,"enabled":true,"region":"us-west","cc":"us","latitude":47.608013,"longitude":-122.33517,"reserved":0,"last_update":"0001-01-01T00:00:00Z","name_a2s":"Uncletopia | Seattle | 2 | All Maps","protocol":17,"map":"cp_process_final","folder":"tf","game":"Team Fortress","app_id":440,"player_count":22,"max_players":24,"Bots":0,"server_type":"Dedicated","server_os":"Linux","password":true,"vac":true,"version":"7961495","steam_id":85568392924469998,"keywords":["cp","nocrits","nodmgspread","uncletopia"],"game_id":440,"stv_port":27026,"stv_name":"Uncletopia | Seattle | 2 | All Maps | STV","players":[{"user_id":171,"name":"circus","steam_id":76561199085524751,"connected_time":520000000000,"state":"active","ping":74},{"user_id":56,"name":"Defeat","steam_id":76561198065203818,"connected_time":9373000000000,"state":"active","ping":39},{"user_id":173,"name":"𝕮𝖆𝖒𝖊𝖗𝖔𝖓 \ufffd\ufffd","steam_id":76561198045826628,"connected_time":394000000000,"state":"active","ping":75},{"user_id":141,"name":"lukamine","steam_id":76561198166827208,"connected_time":2766000000000,"state":"active","ping":49},{"user_id":180,"name":"Latedawns82","steam_id":76561199196300397,"connected_time":3000000000,"state":"spawning","ping":76},{"user_id":174,"name":"choi","steam_id":76561198053669887,"connected_time":324000000000,"state":"active","ping":89},{"user_id":156,"name":"Rock Kickass","steam_id":76561198450510841,"connected_time":1718000000000,"state":"active","ping":117},{"user_id":177,"name":"?","steam_id":76561198209880837,"connected_time":165000000000,"state":"active","ping":31},{"user_id":175,"name":"Shadow Monster Man","steam_id":76561198838739421,"connected_time":308000000000,"state":"active","ping":70},{"user_id":178,"name":"milwaukee pasta bandit","steam_id":76561198417793830,"connected_time":107000000000,"state":"active","ping":123},{"user_id":142,"name":"Jane Against the Grain","steam_id":76561198424248616,"connected_time":2755000000000,"state":"active","ping":146},{"user_id":126,"name":"Seriously Bruh","steam_id":76561198070408485,"connected_time":3294000000000,"state":"active","ping":46},{"user_id":160,"name":"Irritated Duck","steam_id":76561198247792076,"connected_time":1552000000000,"state":"active","ping":71},{"user_id":179,"name":"canakblasteran","steam_id":76561199472518822,"connected_time":26000000000,"state":"active","ping":99},{"user_id":138,"name":"ベガーズブラスト (BB BL","steam_id":76561198999161827,"connected_time":2836000000000,"state":"active","ping":114},{"user_id":60,"name":"ejschild745","steam_id":76561199013388867,"connected_time":8858000000000,"state":"active","ping":71},{"user_id":169,"name":"ume_ybbuhc","steam_id":76561199482149729,"connected_time":709000000000,"state":"active","ping":116},{"user_id":148,"name":"bladees realest, saddest verse","steam_id":76561198098099826,"connected_time":2016000000000,"state":"active","ping":82},{"user_id":162,"name":"chanoc","steam_id":76561198026734746,"connected_time":1377000000000,"state":"active","ping":65},{"user_id":159,"name":"Lorberry","steam_id":76561198023706058,"connected_time":1555000000000,"state":"active","ping":78},{"user_id":132,"name":"SAD PANDA GAMING","steam_id":76561198060846419,"connected_time":2925000000000,"state":"active","ping":56},{"user_id":167,"name":"Angela :3","steam_id":76561198991101353,"connected_time":900000000000,"state":"active","ping":45}]},{"server_id":406,"name":"Uncletopia | Seattle | 3 | Stopwatch Beta","name_short":"sea-3","host":"sea-1.us.uncletopia.com","port":27035,"enabled":true,"region":"us-west","cc":"us","latitude":47.608013,"longitude":-122.33517,"reserved":0,"last_update":"0001-01-01T00:00:00Z","name_a2s":"Uncletopia | Seattle | 3 | Stopwatch Beta","protocol":17,"map":"cp_sunshine","folder":"tf","game":"Team Fortress","app_id":440,"player_count":0,"max_players":24,"Bots":0,"server_type":"Dedicated","server_os":"Linux","password":true,"vac":true,"version":"7961495","steam_id":85568392924515217,"keywords":["cp","nocrits","nodmgspread","uncletopia"],"game_id":440,"stv_port":27036,"stv_name":"Uncletopia | Seattle | 3 | Stopwatch Beta | STV","players":null},{"server_id":17,"name":"Uncletopia | San Francisco | 1 | All Maps","name_short":"sfo-1","host":"sfo-1.us.uncletopia.com","port":27015,"enabled":true,"region":"us-west","cc":"us","latitude":37.77397,"longitude":-122.4313,"reserved":0,"last_update":"0001-01-01T00:00:00Z","name_a2s":"Uncletopia | San Francisco | 1 | All Maps","protocol":17,"map":"plr_bananabay","folder":"tf","game":"Team Fortress","app_id":440,"player_count":24,"max_players":24,"Bots":0,"server_type":"Dedicated","server_os":"Linux","password":true,"vac":true,"version":"7961495","steam_id":85568392924469999,"keywords":["nocrits","nodmgspread","payload","uncletopia"],"game_id":440,"stv_port":27016,"stv_name":"Uncletopia | San Francisco | 1 | All Maps | STV","players":[{"user_id":13,"name":"Huntsman Sniper","steam_id":76561198204055701,"connected_time":6456000000000,"state":"active","ping":62},{"user_id":94,"name":"BurdBrain","steam_id":76561197962097737,"connected_time":669000000000,"state":"active","ping":68},{"user_id":86,"name":"Branta","steam_id":76561199103842843,"connected_time":928000000000,"state":"active","ping":70},{"user_id":64,"name":"isomething","steam_id":76561199221951548,"connected_time":3165000000000,"state":"active","ping":63},{"user_id":91,"name":"I_amgeneric","steam_id":76561198058605649,"connected_time":815000000000,"state":"active","ping":80},{"user_id":82,"name":"Stupid Monkey =3","steam_id":76561198024580166,"connected_time":1825000000000,"state":"active","ping":69},{"user_id":75,"name":"Board","steam_id":76561198134326473,"connected_time":2339000000000,"state":"active","ping":72},{"user_id":66,"name":"YouAreReadingThis","steam_id":76561198367831600,"connected_time":2792000000000,"state":"active","ping":71},{"user_id":28,"name":"The Original Ryan","steam_id":76561197992443496,"connected_time":4528000000000,"state":"active","ping":42},{"user_id":88,"name":"Red Pikmin","steam_id":76561198881800639,"connected_time":892000000000,"state":"active","ping":69},{"user_id":70,"name":"Cruciphyxiate","steam_id":76561198044992123,"connected_time":2583000000000,"state":"active","ping":98},{"user_id":49,"name":"Can You Feel It Mr.Krabs","steam_id":76561198128302414,"connected_time":3960000000000,"state":"active","ping":65},{"user_id":96,"name":"Amogous Supreme","steam_id":76561198025476774,"connected_time":346000000000,"state":"active","ping":55},{"user_id":93,"name":"Yellow Pikmin","steam_id":76561198041356234,"connected_time":683000000000,"state":"active","ping":56},{"user_id":42,"name":"but why though?","steam_id":76561198091871087,"connected_time":4186000000000,"state":"active","ping":46},{"user_id":78,"name":"CashBin","steam_id":76561199382865598,"connected_time":2222000000000,"state":"active","ping":94},{"user_id":89,"name":"eau:","steam_id":76561198110020262,"connected_time":866000000000,"state":"active","ping":48},{"user_id":97,"name":"shakoiwa","steam_id":76561199059441773,"connected_time":332000000000,"state":"active","ping":71},{"user_id":43,"name":"SomeRandomMail","steam_id":76561199002913110,"connected_time":4181000000000,"state":"active","ping":45},{"user_id":95,"name":"elephant thumb","steam_id":76561198118859752,"connected_time":402000000000,"state":"active","ping":53},{"user_id":71,"name":"Loader","steam_id":76561198141199058,"connected_time":2578000000000,"state":"active","ping":66},{"user_id":90,"name":"supcupman","steam_id":76561198051513866,"connected_time":832000000000,"state":"active","ping":71},{"user_id":98,"name":"omnislime","steam_id":76561199382475668,"connected_time":2000000000,"state":"spawning","ping":106},{"user_id":48,"name":"FrostNova","steam_id":76561198348354629,"connected_time":4136000000000,"state":"active","ping":57}]},{"server_id":18,"name":"Uncletopia | San Francisco | 2 | All Maps","name_short":"sfo-2","host":"sfo-1.us.uncletopia.com","port":27025,"enabled":true,"region":"us-west","cc":"us","latitude":37.77397,"longitude":-122.4313,"reserved":0,"last_update":"0001-01-01T00:00:00Z","name_a2s":"Uncletopia | San Francisco | 2 | All Maps","protocol":17,"map":"cp_snakewater_final1","folder":"tf","game":"Team Fortress","app_id":440,"player_count":0,"max_players":24,"Bots":0,"server_type":"Dedicated","server_os":"Linux","password":true,"vac":true,"version":"7961495","steam_id":85568392924470000,"keywords":["cp","nocrits","nodmgspread","uncletopia"],"game_id":440,"stv_port":27026,"stv_name":"Uncletopia | San Francisco | 2 | All Maps | STV","players":null},{"server_id":19,"name":"Uncletopia | San Francisco | 3 | Stopwatch Beta","name_short":"sfo-3","host":"sfo-1.us.uncletopia.com","port":27035,"enabled":true,"region":"us-west","cc":"us","latitude":37.77397,"longitude":-122.4313,"reserved":0,"last_update":"0001-01-01T00:00:00Z","name_a2s":"Uncletopia | San Francisco | 3 | Stopwatch Beta","protocol":17,"map":"pl_borneo","folder":"tf","game":"Team Fortress","app_id":440,"player_count":0,"max_players":24,"Bots":0,"server_type":"Dedicated","server_os":"Linux","password":true,"vac":true,"version":"7961495","steam_id":85568392924742824,"keywords":["nocrits","nodmgspread","payload","uncletopia"],"game_id":440,"stv_port":27036,"stv_name":"Uncletopia | San Francisco | 3 | Stopwatch Beta | STV","players":null},{"server_id":20,"name":"Uncletopia | San Francisco | 4 | Community","name_short":"sfo-4","host":"sfo-1.us.uncletopia.com","port":27045,"enabled":true,"region":"us-west","cc":"us","latitude":37.77397,"longitude":-122.4313,"reserved":0,"last_update":"0001-01-01T00:00:00Z","name_a2s":"Uncletopia | San Francisco | 4 | Community","protocol":17,"map":"koth_viaduct","folder":"tf","game":"Team Fortress","app_id":440,"player_count":0,"max_players":24,"Bots":0,"server_type":"Dedicated","server_os":"Linux","password":true,"vac":true,"version":"7961495","steam_id":85568392924742826,"keywords":["cp","nocrits","nodmgspread","uncletopia"],"game_id":440,"stv_port":27046,"stv_name":"Uncletopia | San Francisco | 4 | Community | STV","players":null},{"server_id":141,"name":"Uncletopia | Sydney | 1 | All Maps","name_short":"syd-1","host":"syd-1.au.uncletopia.com","port":27015,"enabled":true,"region":"au","cc":"au","latitude":-33.865143,"longitude":151.2099,"reserved":0,"last_update":"0001-01-01T00:00:00Z","name_a2s":"","protocol":0,"map":"","folder":"","game":"","app_id":0,"player_count":0,"max_players":0,"Bots":0,"server_type":"","server_os":"","password":false,"vac":false,"version":"","steam_id":0,"keywords":null,"game_id":0,"stv_port":0,"stv_name":"","players":null},{"server_id":123,"name":"Uncletopia | Sydney | 2 | All Maps","name_short":"syd-2","host":"syd-1.au.uncletopia.com","port":27025,"enabled":true,"region":"au","cc":"au","latitude":-33.865143,"longitude":151.2099,"reserved":0,"last_update":"0001-01-01T00:00:00Z","name_a2s":"","protocol":0,"map":"","folder":"","game":"","app_id":0,"player_count":0,"max_players":0,"Bots":0,"server_type":"","server_os":"","password":false,"vac":false,"version":"","steam_id":0,"keywords":null,"game_id":0,"stv_port":0,"stv_name":"","players":null},{"server_id":395,"name":"Uncletopia | Sydney | 3 | All Maps","name_short":"syd-3","host":"syd-1.au.uncletopia.com","port":27035,"enabled":true,"region":"au","cc":"au","latitude":-33.865143,"longitude":151.2099,"reserved":0,"last_update":"0001-01-01T00:00:00Z","name_a2s":"","protocol":0,"map":"","folder":"","game":"","app_id":0,"player_count":0,"max_players":0,"Bots":0,"server_type":"","server_os":"","password":false,"vac":false,"version":"","steam_id":0,"keywords":null,"game_id":0,"stv_port":0,"stv_name":"","players":null},{"server_id":396,"name":"Uncletopia | Sydney | 4 | All Maps","name_short":"syd-4","host":"syd-1.au.uncletopia.com","port":27045,"enabled":true,"region":"au","cc":"au","latitude":-33.865143,"longitude":151.2099,"reserved":0,"last_update":"0001-01-01T00:00:00Z","name_a2s":"","protocol":0,"map":"","folder":"","game":"","app_id":0,"player_count":0,"max_players":0,"Bots":0,"server_type":"","server_os":"","password":false,"vac":false,"version":"","steam_id":0,"keywords":null,"game_id":0,"stv_port":0,"stv_name":"","players":null},{"server_id":58,"name":"Uncletopia | Sydney | 5 | Stopwatch Beta","name_short":"syd-5","host":"syd-1.au.uncletopia.com","port":27055,"enabled":true,"region":"au","cc":"au","latitude":-33.865143,"longitude":151.2099,"reserved":0,"last_update":"0001-01-01T00:00:00Z","name_a2s":"","protocol":0,"map":"","folder":"","game":"","app_id":0,"player_count":0,"max_players":0,"Bots":0,"server_type":"","server_os":"","password":false,"vac":false,"version":"","steam_id":0,"keywords":null,"game_id":0,"stv_port":0,"stv_name":"","players":null},{"server_id":59,"name":"Uncletopia | Sydney | 6 | Community","name_short":"syd-6","host":"syd-1.au.uncletopia.com","port":27065,"enabled":true,"region":"au","cc":"au","latitude":-33.865143,"longitude":151.2099,"reserved":0,"last_update":"0001-01-01T00:00:00Z","name_a2s":"","protocol":0,"map":"","folder":"","game":"","app_id":0,"player_count":0,"max_players":0,"Bots":0,"server_type":"","server_os":"","password":false,"vac":false,"version":"","steam_id":0,"keywords":null,"game_id":0,"stv_port":0,"stv_name":"","players":null},{"server_id":49,"name":"Uncletopia | Warsaw | 1 | All Maps","name_short":"waw-1","host":"waw-1.pl.uncletopia.com","port":27015,"enabled":true,"region":"eu","cc":"pl","latitude":52.2297,"longitude":21.017532,"reserved":0,"last_update":"0001-01-01T00:00:00Z","name_a2s":"","protocol":0,"map":"","folder":"","game":"","app_id":0,"player_count":0,"max_players":0,"Bots":0,"server_type":"","server_os":"","password":false,"vac":false,"version":"","steam_id":0,"keywords":null,"game_id":0,"stv_port":0,"stv_name":"","players":null},{"server_id":50,"name":"Uncletopia | Warsaw | 2 | All Maps","name_short":"waw-2","host":"waw-1.pl.uncletopia.com","port":27025,"enabled":true,"region":"eu","cc":"pl","latitude":52.2297,"longitude":21.017532,"reserved":0,"last_update":"0001-01-01T00:00:00Z","name_a2s":"","protocol":0,"map":"","folder":"","game":"","app_id":0,"player_count":0,"max_players":0,"Bots":0,"server_type":"","server_os":"","password":false,"vac":false,"version":"","steam_id":0,"keywords":null,"game_id":0,"stv_port":0,"stv_name":"","players":null},{"server_id":51,"name":"Uncletopia | Warsaw | 3 | All Maps","name_short":"waw-3","host":"waw-1.pl.uncletopia.com","port":27035,"enabled":true,"region":"eu","cc":"pl","latitude":52.2297,"longitude":21.017532,"reserved":0,"last_update":"0001-01-01T00:00:00Z","name_a2s":"","protocol":0,"map":"","folder":"","game":"","app_id":0,"player_count":0,"max_players":0,"Bots":0,"server_type":"","server_os":"","password":false,"vac":false,"version":"","steam_id":0,"keywords":null,"game_id":0,"stv_port":0,"stv_name":"","players":null},{"server_id":52,"name":"Uncletopia | Warsaw | 4 | All Maps","name_short":"waw-4","host":"waw-1.pl.uncletopia.com","port":27045,"enabled":true,"region":"eu","cc":"pl","latitude":52.2297,"longitude":21.017532,"reserved":0,"last_update":"0001-01-01T00:00:00Z","name_a2s":"","protocol":0,"map":"","folder":"","game":"","app_id":0,"player_count":0,"max_players":0,"Bots":0,"server_type":"","server_os":"","password":false,"vac":false,"version":"","steam_id":0,"keywords":null,"game_id":0,"stv_port":0,"stv_name":"","players":null},{"server_id":53,"name":"Uncletopia | Warsaw | 5 | No Payload","name_short":"waw-5","host":"waw-1.pl.uncletopia.com","port":27055,"enabled":true,"region":"eu","cc":"pl","latitude":52.2297,"longitude":21.017532,"reserved":0,"last_update":"0001-01-01T00:00:00Z","name_a2s":"","protocol":0,"map":"","folder":"","game":"","app_id":0,"player_count":0,"max_players":0,"Bots":0,"server_type":"","server_os":"","password":false,"vac":false,"version":"","steam_id":0,"keywords":null,"game_id":0,"stv_port":0,"stv_name":"","players":null},{"server_id":54,"name":"Uncletopia | Warsaw | 6 | Community","name_short":"waw-6","host":"waw-1.pl.uncletopia.com","port":27065,"enabled":true,"region":"eu","cc":"pl","latitude":52.2297,"longitude":21.017532,"reserved":0,"last_update":"0001-01-01T00:00:00Z","name_a2s":"","protocol":0,"map":"","folder":"","game":"","app_id":0,"player_count":0,"max_players":0,"Bots":0,"server_type":"","server_os":"","password":false,"vac":false,"version":"","steam_id":0,"keywords":null,"game_id":0,"stv_port":0,"stv_name":"","players":null}]}