{"status":true,"message":"","result":[{"server_id":9,"name":"Uncletopia | Atlanta | 1 | All Maps","name_short":"atl-1","host":"atl-1.us.uncletopia.com","port":27015,"enabled":true,"region":"us-east","cc":"us","latitude":33.753746,"longitude":-84.38633,"reserved":0,"last_update":"0001-01-01T00:00:00Z","name_a2s":"Uncletopia | Atlanta | 1 | All Maps","protocol":17,"map":"pl_snowycoast","folder":"tf","game":"Team Fortress","app_id":440,"player_count":24,"max_players":24,"Bots":0,"server_type":"Dedicated","server_os":"Linux","password":true,"vac":true,"version":"7757534","steam_id":85568392924469982,"keywords":["nocrits","nodmgspread","payload","uncletopia"],"game_id":440,"stv_port":27016,"stv_name":"Uncletopia | Atlanta | 1 | All Maps | STV","players":[{"user_id":205,"name":"ash","steam_id":76561198127890645,"connected_time":2293000000000,"state":"active","ping":69},{"user_id":209,"name":"Noobium","steam_id":76561199058711984,"connected_time":2003000000000,"state":"active","ping":78},{"user_id":219,"name":"mic you","steam_id":76561198120735848,"connected_time":905000000000,"state":"active","ping":87},{"user_id":229,"name":"The Power","steam_id":76561198060566884,"connected_time":565000000000,"state":"active","ping":132},{"user_id":102,"name":"ATL1 | on my hunting trip","steam_id":76561198315341646,"connected_time":11195000000000,"state":"active","ping":69},{"user_id":195,"name":"Dungo","steam_id":76561198881565400,"connected_time":3317000000000,"state":"active","ping":92},{"user_id":121,"name":"Ashes!","steam_id":76561197998475441,"connected_time":10136000000000,"state":"active","ping":69},{"user_id":217,"name":"Wingm4n","steam_id":76561198064127012,"connected_time":1006000000000,"state":"active","ping":49},{"user_id":221,"name":"clopherite","steam_id":76561198860351700,"connected_time":861000000000,"state":"active","ping":76},{"user_id":190,"name":"butterbutt!","steam_id":76561198038160740,"connected_time":4046000000000,"state":"active","ping":53},{"user_id":210,"name":"Atlas","steam_id":76561198127975050,"connected_time":1955000000000,"state":"active","ping":53},{"user_id":197,"name":"Bobbn","steam_id":76561198876124683,"connected_time":3239000000000,"state":"active","ping":91},{"user_id":218,"name":"Mug","steam_id":76561199282207802,"connected_time":995000000000,"state":"active","ping":73},{"user_id":220,"name":"aether","steam_id":76561198178293861,"connected_time":882000000000,"state":"active","ping":90},{"user_id":213,"name":"lil hog","steam_id":76561199230929836,"connected_time":1720000000000,"state":"active","ping":95},{"user_id":187,"name":"fortnite.jimmy.2014","steam_id":76561199177672325,"connected_time":4086000000000,"state":"active","ping":48},{"user_id":222,"name":"Boop","steam_id":76561198376703875,"connected_time":853000000000,"state":"active","ping":64},{"user_id":223,"name":"Ossy-3","steam_id":76561198272078550,"connected_time":837000000000,"state":"active","ping":56},{"user_id":230,"name":"when the oob hits","steam_id":76561198277163301,"connected_time":547000000000,"state":"active","ping":84},{"user_id":161,"name":"Karma","steam_id":76561198030565234,"connected_time":7361000000000,"state":"active","ping":74},{"user_id":231,"name":"bur","steam_id":76561198004231658,"connected_time":525000000000,"state":"active","ping":85},{"user_id":224,"name":"i am last tuesday","steam_id":76561199064660270,"connected_time":795000000000,"state":"active","ping":55},{"user_id":198,"name":"Eins","steam_id":76561199030343810,"connected_time":3209000000000,"state":"active","ping":49},{"user_id":228,"name":"Toygar","steam_id":76561198023679830,"connected_time":649000000000,"state":"active","ping":72}]},{"server_id":400,"name":"Uncletopia | Atlanta | 3 | Community","name_short":"atl-3","host":"atl-1.us.uncletopia.com","port":27035,"enabled":true,"region":"us-east","cc":"us","latitude":33.753746,"longitude":-84.38633,"reserved":0,"last_update":"0001-01-01T00:00:00Z","name_a2s":"Uncletopia | Atlanta | 3 | Community","protocol":17,"map":"workshop/pl_vigil_rc9.ugc1266210012","folder":"tf","game":"Team Fortress","app_id":440,"player_count":5,"max_players":24,"Bots":0,"server_type":"Dedicated","server_os":"Linux","password":true,"vac":true,"version":"7757534","steam_id":85568392924515187,"keywords":["nocrits","nodmgspread","payload","uncletopia"],"game_id":440,"stv_port":27036,"stv_name":"Uncletopia | Atlanta | 3 | Community | STV","players":[{"user_id":24,"name":"illious","steam_id":76561198169925494,"connected_time":849000000000,"state":"active","ping":60},{"user_id":21,"name":"SORPER","steam_id":76561198425503395,"connected_time":1571000000000,"state":"active","ping":56},{"user_id":25,"name":"tulpa","steam_id":76561198013253513,"connected_time":826000000000,"state":"active","ping":54},{"user_id":29,"name":"kingslayer","steam_id":76561198328109873,"connected_time":270000000000,"state":"active","ping":69},{"user_id":27,"name":"MaximumAce","steam_id":76561198359596849,"connected_time":487000000000,"state":"active","ping":55}]},{"server_id":401,"name":"Uncletopia | Atlanta | 4 | No Payload","name_short":"atl-4","host":"atl-1.us.uncletopia.com","port":27045,"enabled":true,"region":"us-east","cc":"us","latitude":33.753746,"longitude":-84.38633,"reserved":0,"last_update":"0001-01-01T00:00:00Z","name_a2s":"","protocol":0,"map":"","folder":"","game":"","app_id":0,"player_count":0,"max_players":0,"Bots":0,"server_type":"","server_os":"","password":false,"vac":false,"version":"","steam_id":0,"keywords":null,"game_id":0,"stv_port":0,"stv_name":"","players":null},{"server_id":2,"name":"Uncletopia | Chicago | 1 | All Maps","name_short":"chi-1","host":"chi-1.us.uncletopia.com","port":27015,"enabled":true,"region":"us-central","cc":"us","latitude":41.881832,"longitude":-87.62318,"reserved":0,"last_update":"0001-01-01T00:00:00Z","name_a2s":"Uncletopia | Chicago | 1 | All Maps","protocol":17,"map":"cp_dustbowl","folder":"tf","game":"Team Fortress","app_id":440,"player_count":24,"max_players":24,"Bots":0,"server_type":"Dedicated","server_os":"Linux","password":true,"vac":true,"version":"7757534","steam_id":85568392924469984,"keywords":["cp","nocrits","nodmgspread","uncletopia"],"game_id":440,"stv_port":27016,"stv_name":"Uncletopia | Chicago | 1 | All Maps | STV","players":[{"user_id":334,"name":"pat fusty","steam_id":76561198117181511,"connected_time":2472000000000,"state":"active","ping":54},{"user_id":374,"name":"gorebastard","steam_id":76561198295113883,"connected_time":595000000000,"state":"active","ping":142},{"user_id":371,"name":"PandaPowaaa","steam_id":76561197967266704,"connected_time":826000000000,"state":"active","ping":79},{"user_id":372,"name":"CaptainRedbeard","steam_id":76561198058647430,"connected_time":729000000000,"state":"active","ping":113},{"user_id":373,"name":"loco503","steam_id":76561198827495121,"connected_time":711000000000,"state":"active","ping":108},{"user_id":370,"name":"CrimsonPants","steam_id":76561198011169950,"connected_time":854000000000,"state":"active","ping":93},{"user_id":368,"name":"Supr","steam_id":76561198093790672,"connected_time":1014000000000,"state":"active","ping":60},{"user_id":379,"name":"antivirus.exe","steam_id":76561198152067633,"connected_time":298000000000,"state":"active","ping":71},{"user_id":380,"name":"Vimchi","steam_id":76561198151927029,"connected_time":256000000000,"state":"active","ping":108},{"user_id":353,"name":"TeeTree","steam_id":76561198862307874,"connected_time":1463000000000,"state":"active","ping":62},{"user_id":382,"name":"Toasty Gyro","steam_id":76561198001026643,"connected_time":125000000000,"state":"active","ping":45},{"user_id":355,"name":"King Baldski","steam_id":76561198359568400,"connected_time":1387000000000,"state":"active","ping":160},{"user_id":378,"name":"CrankShaft","steam_id":76561197970750813,"connected_time":333000000000,"state":"active","ping":60},{"user_id":386,"name":"Ati","steam_id":76561198381841894,"connected_time":98000000000,"state":"active","ping":57},{"user_id":338,"name":"Wug","steam_id":76561198084112264,"connected_time":2379000000000,"state":"active","ping":77},{"user_id":357,"name":"bruiseraaron","steam_id":76561198020092380,"connected_time":1340000000000,"state":"active","ping":51},{"user_id":383,"name":"Mr. Soupman","steam_id":76561198021649598,"connected_time":121000000000,"state":"active","ping":60},{"user_id":385,"name":"Lilac","steam_id":76561198977523626,"connected_time":109000000000,"state":"active","ping":71},{"user_id":387,"name":"Establish Dominance","steam_id":76561197994706942,"connected_time":91000000000,"state":"active","ping":102},{"user_id":366,"name":"papa stalin","steam_id":76561198353622863,"connected_time":1100000000000,"state":"active","ping":92},{"user_id":369,"name":"ProfessorCagan","steam_id":76561198141372356,"connected_time":888000000000,"state":"active","ping":48},{"user_id":376,"name":"Lia_Rein","steam_id":76561198151569597,"connected_time":409000000000,"state":"active","ping":148},{"user_id":388,"name":"Garbunkle","steam_id":76561198389831507,"connected_time":49000000000,"state":"active","ping":63},{"user_id":336,"name":"SIGMA [BS]","steam_id":76561197962604879,"connected_time":2468000000000,"state":"active","ping":75}]},{"server_id":106,"name":"Uncletopia | Chicago | 2 | All Maps","name_short":"chi-2","host":"chi-1.us.uncletopia.com","port":27025,"enabled":true,"region":"us-central","cc":"us","latitude":41.881832,"longitude":-87.62318,"reserved":0,"last_update":"0001-01-01T00:00:00Z","name_a2s":"Uncletopia | Chicago | 2 | All Maps","protocol":17,"map":"pl_barnblitz","folder":"tf","game":"Team Fortress","app_id":440,"player_count":24,"max_players":24,"Bots":0,"server_type":"Dedicated","server_os":"Linux","password":true,"vac":true,"version":"7757534","steam_id":85568392924469985,"keywords":["nocrits","nodmgspread","payload","uncletopia"],"game_id":440,"stv_port":27026,"stv_name":"Uncletopia | Chicago | 2 | All Maps | STV","players":[{"user_id":233,"name":".jpg","steam_id":76561198137237377,"connected_time":12072000000000,"state":"active","ping":71},{"user_id":490,"name":"bengineer","steam_id":76561198171912174,"connected_time":1133000000000,"state":"active","ping":104},{"user_id":503,"name":"Bastee1021","steam_id":76561199456141163,"connected_time":418000000000,"state":"active","ping":129},{"user_id":468,"name":"Shina","steam_id":76561198301826800,"connected_time":3124000000000,"state":"active","ping":93},{"user_id":478,"name":"Zero","steam_id":76561199383267408,"connected_time":2480000000000,"state":"active","ping":70},{"user_id":506,"name":"Midnight-ag LFT","steam_id":76561198115714484,"connected_time":371000000000,"state":"active","ping":108},{"user_id":511,"name":"yomommasabitch","steam_id":76561198323217150,"connected_time":87000000000,"state":"active","ping":61},{"user_id":507,"name":"❋Pfc. BFS","steam_id":76561198326359972,"connected_time":353000000000,"state":"active","ping":77},{"user_id":429,"name":"Trusty","steam_id":76561198035444237,"connected_time":5793000000000,"state":"active","ping":72},{"user_id":509,"name":"FROYO domando","steam_id":76561199150367705,"connected_time":264000000000,"state":"active","ping":78},{"user_id":459,"name":"jan kili","steam_id":76561198289894834,"connected_time":3522000000000,"state":"active","ping":60},{"user_id":508,"name":"Oakfafee","steam_id":76561198335967226,"connected_time":344000000000,"state":"active","ping":166},{"user_id":493,"name":"Pneumo.","steam_id":76561197987911883,"connected_time":1058000000000,"state":"active","ping":126},{"user_id":475,"name":"Pennis the Menace","steam_id":76561198254878037,"connected_time":2519000000000,"state":"active","ping":71},{"user_id":510,"name":"picnicc","steam_id":76561198193322375,"connected_time":236000000000,"state":"active","ping":117},{"user_id":488,"name":"Kapitan Bomba","steam_id":76561199102087660,"connected_time":1149000000000,"state":"active","ping":68},{"user_id":498,"name":"Aribari","steam_id":76561198117327938,"connected_time":807000000000,"state":"active","ping":68},{"user_id":502,"name":"Bawower","steam_id":76561198347769261,"connected_time":634000000000,"state":"active","ping":78},{"user_id":495,"name":"the dishtv1605","steam_id":76561198061284371,"connected_time":1021000000000,"state":"active","ping":42},{"user_id":496,"name":"Nodin","steam_id":76561198135757376,"connected_time":1020000000000,"state":"active","ping":53},{"user_id":486,"name":"flat soda","steam_id":76561198074247207,"connected_time":1554000000000,"state":"active","ping":75},{"user_id":487,"name":"Adam (Cursed Confetti Creature)","steam_id":76561198317690197,"connected_time":1154000000000,"state":"active","ping":45},{"user_id":512,"name":"hackersan","steam_id":76561199130583553,"connected_time":28000000000,"state":"spawning","ping":90},{"user_id":497,"name":"silver","steam_id":76561198081906712,"connected_time":996000000000,"state":"active","ping":43}]},{"server_id":402,"name":"Uncletopia | Chicago | 3 | All Maps","name_short":"chi-3","host":"chi-1.us.uncletopia.com","port":27035,"enabled":true,"region":"us-central","cc":"us","latitude":41.881832,"longitude":-87.62318,"reserved":0,"last_update":"0001-01-01T00:00:00Z","name_a2s":"Uncletopia | Chicago | 3 | All Maps","protocol":17,"map":"pl_barnblitz","folder":"tf","game":"Team Fortress","app_id":440,"player_count":24,"max_players":24,"Bots":0,"server_type":"Dedicated","server_os":"Linux","password":true,"vac":true,"version":"7757534","steam_id":85568392924515191,"keywords":["nocrits","nodmgspread","payload","uncletopia"],"game_id":440,"stv_port":27036,"stv_name":"Uncletopia | Chicago | 3 | All Maps | STV","players":[{"user_id":357,"name":"DrD","steam_id":76561198067266383,"connected_time":700000000000,"state":"active","ping":83},{"user_id":347,"name":"salty","steam_id":76561198293673616,"connected_time":1722000000000,"state":"active","ping":74},{"user_id":312,"name":"dbelow_","steam_id":76561198056148853,"connected_time":4054000000000,"state":"active","ping":61},{"user_id":358,"name":"SinCore777","steam_id":76561199054261737,"connected_time":667000000000,"state":"active","ping":77},{"user_id":269,"name":"Ejaculation Zach","steam_id":76561198203765200,"connected_time":7311000000000,"state":"active","ping":62},{"user_id":359,"name":"Ellis","steam_id":76561198993634489,"connected_time":658000000000,"state":"active","ping":97},{"user_id":368,"name":"Snimca","steam_id":76561198453519709,"connected_time":41000000000,"state":"active","ping":71},{"user_id":360,"name":"ore","steam_id":76561198146965165,"connected_time":613000000000,"state":"active","ping":83},{"user_id":288,"name":"UNITED WE STAND","steam_id":76561198282764599,"connected_time":6463000000000,"state":"active","ping":47},{"user_id":356,"name":"a garbage can","steam_id":76561198403626105,"connected_time":863000000000,"state":"active","ping":55},{"user_id":314,"name":"A Shiny Meat Bicycle","steam_id":76561198358757709,"connected_time":4038000000000,"state":"active","ping":97},{"user_id":353,"name":"SuperAngel","steam_id":76561198861482461,"connected_time":1291000000000,"state":"active","ping":72},{"user_id":340,"name":"Mayspark","steam_id":76561198266497823,"connected_time":2284000000000,"state":"active","ping":60},{"user_id":326,"name":"Draconic Ballad","steam_id":76561198027191515,"connected_time":3123000000000,"state":"active","ping":49},{"user_id":364,"name":"RiskT","steam_id":76561198281983302,"connected_time":429000000000,"state":"active","ping":70},{"user_id":361,"name":"lag","steam_id":76561197963872739,"connected_time":585000000000,"state":"active","ping":94},{"user_id":365,"name":"Ender","steam_id":76561198819439451,"connected_time":390000000000,"state":"active","ping":63},{"user_id":259,"name":"BrightestHammer","steam_id":76561198142343467,"connected_time":8103000000000,"state":"active","ping":67},{"user_id":351,"name":"Cousin Corn on the Cob","steam_id":76561198049837377,"connected_time":1388000000000,"state":"active","ping":52},{"user_id":352,"name":"RyInc","steam_id":76561198874261643,"connected_time":1350000000000,"state":"active","ping":47},{"user_id":362,"name":"Average Gibus Enjoyer","steam_id":76561198300953867,"connected_time":578000000000,"state":"active","ping":86},{"user_id":305,"name":"Veritox","steam_id":76561198075778026,"connected_time":5066000000000,"state":"active","ping":109},{"user_id":306,"name":"Bada Bingus","steam_id":76561198046743307,"connected_time":5062000000000,"state":"active","ping":92},{"user_id":363,"name":"dicksouls26","steam_id":76561198838196266,"connected_time":473000000000,"state":"active","ping":79}]},{"server_id":403,"name":"Uncletopia | Chicago | 4 | All Maps","name_short":"chi-4","host":"chi-1.us.uncletopia.com","port":27045,"enabled":true,"region":"us-central","cc":"us","latitude":41.881832,"longitude":-87.62318,"reserved":0,"last_update":"0001-01-01T00:00:00Z","name_a2s":"Uncletopia | Chicago | 4 | All Maps","protocol":17,"map":"pl_swiftwater_final1","folder":"tf","game":"Team Fortress","app_id":440,"player_count":24,"max_players":24,"Bots":0,"server_type":"Dedicated","server_os":"Linux","password":true,"vac":true,"version":"7757534","steam_id":85568392924515193,"keywords":["nocrits","nodmgspread","payload","uncletopia"],"game_id":440,"stv_port":27046,"stv_name":"Uncletopia | Chicago | 4 | All Maps | STV","players":[{"user_id":392,"name":"Harold","steam_id":76561198057317770,"connected_time":96000000000,"state":"active","ping":81},{"user_id":397,"name":"white ray","steam_id":76561198026664629,"connected_time":78000000000,"state":"active","ping":59},{"user_id":376,"name":"Bocchi the Rock!","steam_id":76561198207987376,"connected_time":1648000000000,"state":"active","ping":54},{"user_id":347,"name":"Doost44","steam_id":76561198115785902,"connected_time":4315000000000,"state":"active","ping":57},{"user_id":368,"name":"Furry Saul Goodman","steam_id":76561198069580305,"connected_time":2451000000000,"state":"active","ping":48},{"user_id":389,"name":"aqua","steam_id":76561199407709552,"connected_time":392000000000,"state":"active","ping":46},{"user_id":393,"name":"wack","steam_id":76561198095697330,"connected_time":92000000000,"state":"active","ping":75},{"user_id":383,"name":"DoctorBodacious","steam_id":76561198258784171,"connected_time":564000000000,"state":"active","ping":60},{"user_id":394,"name":"Ellen Baker","steam_id":76561198065712435,"connected_time":89000000000,"state":"active","ping":110},{"user_id":395,"name":"MeatShield 2000","steam_id":76561199375192850,"connected_time":79000000000,"state":"active","ping":94},{"user_id":381,"name":"Z1337SKILLZ","steam_id":76561198318479520,"connected_time":877000000000,"state":"active","ping":101},{"user_id":377,"name":"Prison Sal","steam_id":76561198355553673,"connected_time":1508000000000,"state":"active","ping":54},{"user_id":384,"name":"Eradicator","steam_id":76561197972314510,"connected_time":551000000000,"state":"active","ping":74},{"user_id":396,"name":"grape","steam_id":76561197993980328,"connected_time":79000000000,"state":"active","ping":116},{"user_id":348,"name":"OldRavensFan","steam_id":76561198043919562,"connected_time":4033000000000,"state":"active","ping":69},{"user_id":319,"name":"gyozaking","steam_id":76561197972312696,"connected_time":6640000000000,"state":"active","ping":45},{"user_id":390,"name":"An Erect Penis :)","steam_id":76561198086477485,"connected_time":270000000000,"state":"active","ping":47},{"user_id":366,"name":"Dojoloachfr","steam_id":76561198826298849,"connected_time":3215000000000,"state":"active","ping":99},{"user_id":370,"name":"Emails","steam_id":76561198836919458,"connected_time":1774000000000,"state":"active","ping":86},{"user_id":398,"name":"RockMan","steam_id":76561199228684720,"connected_time":19000000000,"state":"active","ping":83},{"user_id":333,"name":"Nolan","steam_id":76561198047844747,"connected_time":4966000000000,"state":"active","ping":58},{"user_id":386,"name":"RaccoonTrenchcoat","steam_id":76561198349763652,"connected_time":530000000000,"state":"active","ping":82},{"user_id":399,"name":"nichole","steam_id":76561198267961813,"connected_time":19000000000,"state":"spawning","ping":48},{"user_id":400,"name":"Ametrines","steam_id":76561198981184670,"connected_time":13000000000,"state":"active","ping":67}]},{"server_id":36,"name":"Uncletopia | Chicago | 5 | All Maps","name_short":"chi-5","host":"chi-2.us.uncletopia.com","port":27015,"enabled":true,"region":"us-central","cc":"us","latitude":41.881832,"longitude":-87.62318,"reserved":0,"last_update":"0001-01-01T00:00:00Z","name_a2s":"Uncletopia | Chicago | 5 | All Maps","protocol":17,"map":"pl_upward","folder":"tf","game":"Team Fortress","app_id":440,"player_count":23,"max_players":24,"Bots":0,"server_type":"Dedicated","server_os":"Linux","password":true,"vac":true,"version":"7757534","steam_id":85568392924866362,"keywords":["nocrits","nodmgspread","payload","uncletopia"],"game_id":440,"stv_port":27016,"stv_name":"Uncletopia | Chicago | 5 | All Maps | STV","players":[{"user_id":186,"name":"Dispenser (Twan)","steam_id":76561197991064908,"connected_time":653000000000,"state":"active","ping":67},{"user_id":169,"name":"Monster Girl Waifu","steam_id":76561198065064797,"connected_time":2154000000000,"state":"active","ping":83},{"user_id":199,"name":"wehhhh","steam_id":76561198354473513,"connected_time":155000000000,"state":"active","ping":53},{"user_id":189,"name":"Giacomo","steam_id":76561198058560798,"connected_time":426000000000,"state":"active","ping":47},{"user_id":147,"name":"Jaydyn","steam_id":76561198140326797,"connected_time":3377000000000,"state":"active","ping":84},{"user_id":190,"name":"Thunderin' Typhoons","steam_id":76561198197687293,"connected_time":407000000000,"state":"active","ping":75},{"user_id":182,"name":"MasterAqua","steam_id":76561198044807380,"connected_time":1357000000000,"state":"active","ping":62},{"user_id":191,"name":"FUCK THE PAIN AWAY","steam_id":76561198033499175,"connected_time":327000000000,"state":"active","ping":64},{"user_id":181,"name":"Mara Roo","steam_id":76561198279341789,"connected_time":1424000000000,"state":"active","ping":74},{"user_id":202,"name":"golem","steam_id":76561198355040593,"connected_time":67000000000,"state":"active","ping":70},{"user_id":150,"name":"crunchy and spicy wasp snack","steam_id":76561199322728703,"connected_time":3350000000000,"state":"active","ping":70},{"user_id":83,"name":"sweppy","steam_id":76561198035457667,"connected_time":8596000000000,"state":"active","ping":75},{"user_id":151,"name":"Mario8494","steam_id":76561198108041730,"connected_time":3328000000000,"state":"active","ping":68},{"user_id":193,"name":"Would You Make Me A Sandwich?","steam_id":76561198152332211,"connected_time":276000000000,"state":"active","ping":59},{"user_id":163,"name":"BLACK MAN FROM JOJO","steam_id":76561198272948471,"connected_time":2444000000000,"state":"active","ping":49},{"user_id":194,"name":"JesterJasper","steam_id":76561198025338925,"connected_time":240000000000,"state":"active","ping":95},{"user_id":154,"name":"Spy achungus","steam_id":76561198135651070,"connected_time":3283000000000,"state":"active","ping":87},{"user_id":195,"name":"strawberry","steam_id":76561198101926397,"connected_time":229000000000,"state":"active","ping":41},{"user_id":196,"name":"Back with the milk","steam_id":76561199020105501,"connected_time":220000000000,"state":"active","ping":63},{"user_id":197,"name":"Yongle","steam_id":76561198068591156,"connected_time":202000000000,"state":"active","ping":55},{"user_id":198,"name":"Infineable","steam_id":76561198358100698,"connected_time":188000000000,"state":"active","ping":55},{"user_id":200,"name":"a narwhal","steam_id":76561198014527353,"connected_time":136000000000,"state":"active","ping":74},{"user_id":201,"name":"\u003c3Elise\u003c3","steam_id":76561198146435005,"connected_time":132000000000,"state":"active","ping":84}]},{"server_id":37,"name":"Uncletopia | Chicago | 6 | All Maps","name_short":"chi-6","host":"chi-2.us.uncletopia.com","port":27025,"enabled":true,"region":"us-central","cc":"us","latitude":41.881832,"longitude":-87.62318,"reserved":0,"last_update":"0001-01-01T00:00:00Z","name_a2s":"Uncletopia | Chicago | 6 | All Maps","protocol":17,"map":"cp_badlands","folder":"tf","game":"Team Fortress","app_id":440,"player_count":24,"max_players":24,"Bots":0,"server_type":"Dedicated","server_os":"Linux","password":true,"vac":true,"version":"7757534","steam_id":85568392924866363,"keywords":["cp","nocrits","nodmgspread","uncletopia"],"game_id":440,"stv_port":27026,"stv_name":"Uncletopia | Chicago | 6 | All Maps | STV","players":[{"user_id":300,"name":"Antwan","steam_id":76561198246200638,"connected_time":303000000000,"state":"active","ping":69},{"user_id":273,"name":"Elongated Muskrat","steam_id":76561198314501346,"connected_time":2179000000000,"state":"active","ping":84},{"user_id":296,"name":"CoffeeTheCake","steam_id":76561198065318169,"connected_time":528000000000,"state":"active","ping":61},{"user_id":242,"name":"Lukasnats","steam_id":76561198308073456,"connected_time":4438000000000,"state":"active","ping":87},{"user_id":277,"name":"diesel_carsuite","steam_id":76561198229903328,"connected_time":2074000000000,"state":"active","ping":80},{"user_id":237,"name":"Sasha Enjoyer","steam_id":76561198070402855,"connected_time":5354000000000,"state":"active","ping":54},{"user_id":267,"name":"Local","steam_id":76561199042686473,"connected_time":2517000000000,"state":"active","ping":54},{"user_id":305,"name":"armadahamnsterx","steam_id":76561198333027263,"connected_time":17000000000,"state":"active","ping":133},{"user_id":282,"name":"Prof. Oli","steam_id":76561198980241587,"connected_time":1991000000000,"state":"active","ping":74},{"user_id":294,"name":"catrinaisahuman","steam_id":76561198281355729,"connected_time":871000000000,"state":"active","ping":65},{"user_id":295,"name":"s___ on the grass","steam_id":76561198008453104,"connected_time":824000000000,"state":"active","ping":52},{"user_id":302,"name":"LtK","steam_id":76561197993180943,"connected_time":218000000000,"state":"active","ping":60},{"user_id":278,"name":"vladix","steam_id":76561198198205445,"connected_time":2063000000000,"state":"active","ping":65},{"user_id":164,"name":"Dot.","steam_id":76561198149463984,"connected_time":10253000000000,"state":"active","ping":50},{"user_id":265,"name":"Fewseb","steam_id":76561198104808456,"connected_time":2629000000000,"state":"active","ping":71},{"user_id":270,"name":"Flying rat","steam_id":76561198891152046,"connected_time":2439000000000,"state":"active","ping":105},{"user_id":298,"name":"limonudo22","steam_id":76561199401357220,"connected_time":493000000000,"state":"active","ping":165},{"user_id":297,"name":"MAXIMUM OVERDRIVE","steam_id":76561198113992547,"connected_time":519000000000,"state":"active","ping":92},{"user_id":301,"name":"The Lamb","steam_id":76561198347479416,"connected_time":288000000000,"state":"active","ping":78},{"user_id":279,"name":"dwarf guy","steam_id":76561198993740818,"connected_time":2049000000000,"state":"active","ping":62},{"user_id":291,"name":"smuffy","steam_id":76561198091459506,"connected_time":1063000000000,"state":"active","ping":67},{"user_id":264,"name":"toastman","steam_id":76561198207073088,"connected_time":2726000000000,"state":"active","ping":72},{"user_id":299,"name":"YES YES YES","steam_id":76561198969592244,"connected_time":447000000000,"state":"active","ping":90},{"user_id":286,"name":"Mike Kachowski","steam_id":76561198384851611,"connected_time":1839000000000,"state":"active","ping":98}]},{"server_id":38,"name":"Uncletopia | Chicago | 7 | Stopwatch Beta","name_short":"chi-7","host":"chi-2.us.uncletopia.com","port":27035,"enabled":true,"region":"us-central","cc":"us","latitude":41.881832,"longitude":-87.62318,"reserved":0,"last_update":"0001-01-01T00:00:00Z","name_a2s":"Uncletopia | Chicago | 7 | Stopwatch Beta","protocol":17,"map":"koth_viaduct","folder":"tf","game":"Team Fortress","app_id":440,"player_count":1,"max_players":24,"Bots":0,"server_type":"Dedicated","server_os":"Linux","password":true,"vac":true,"version":"7757534","steam_id":85568392924866364,"keywords":["cp","nocrits","nodmgspread","uncletopia"],"game_id":440,"stv_port":27036,"stv_name":"Uncletopia | Chicago | 7 | Stopwatch Beta | STV","players":[{"user_id":18,"name":"ubbers","steam_id":76561199014978136,"connected_time":266000000000,"state":"active","ping":186}]},{"server_id":39,"name":"Uncletopia | Chicago | 8 | Community","name_short":"chi-8","host":"chi-2.us.uncletopia.com","port":27045,"enabled":true,"region":"us-central","cc":"us","latitude":41.881832,"longitude":-87.62318,"reserved":0,"last_update":"0001-01-01T00:00:00Z","name_a2s":"Uncletopia | Chicago | 8 | Community","protocol":17,"map":"koth_lakeside_final","folder":"tf","game":"Team Fortress","app_id":440,"player_count":0,"max_players":24,"Bots":0,"server_type":"Dedicated","server_os":"Linux","password":true,"vac":true,"version":"7757534","steam_id":85568392924866365,"keywords":["cp","nocrits","nodmgspread","uncletopia"],"game_id":440,"stv_port":27046,"stv_name":"Uncletopia | Chicago | 8 | Community | STV","players":null},{"server_id":8,"name":"Uncletopia | Dallas | 1 | All Maps","name_short":"dal-1","host":"dal-1.us.uncletopia.com","port":27015,"enabled":true,"region":"us-central","cc":"us","latitude":32.779167,"longitude":-96.80889,"reserved":0,"last_update":"0001-01-01T00:00:00Z","name_a2s":"Uncletopia | Dallas | 1 | All Maps","protocol":17,"map":"cp_dustbowl","folder":"tf","game":"Team Fortress","app_id":440,"player_count":21,"max_players":24,"Bots":0,"server_type":"Dedicated","server_os":"Linux","password":true,"vac":true,"version":"7757534","steam_id":85568392924469986,"keywords":["cp","nocrits","nodmgspread","uncletopia"],"game_id":440,"stv_port":27016,"stv_name":"Uncletopia | Dallas | 1 | All Maps | STV","players":[{"user_id":274,"name":"Moonflower ✦","steam_id":76561198191782483,"connected_time":2457000000000,"state":"active","ping":40},{"user_id":299,"name":"N64Kanroji","steam_id":76561198045209288,"connected_time":40000000000,"state":"active","ping":64},{"user_id":278,"name":"Derply","steam_id":76561198871211642,"connected_time":1892000000000,"state":"active","ping":73},{"user_id":290,"name":"Grify","steam_id":76561198012292317,"connected_time":632000000000,"state":"active","ping":90},{"user_id":267,"name":"weed lesbian","steam_id":76561198042263805,"connected_time":2794000000000,"state":"active","ping":95},{"user_id":284,"name":"Turtlin'","steam_id":76561198885096042,"connected_time":799000000000,"state":"active","ping":73},{"user_id":291,"name":"SMHTMFTTF","steam_id":76561199079614516,"connected_time":615000000000,"state":"active","ping":54},{"user_id":262,"name":"Muse","steam_id":76561198177715869,"connected_time":3145000000000,"state":"active","ping":66},{"user_id":261,"name":"Ccpop123a","steam_id":76561198883889729,"connected_time":3256000000000,"state":"active","ping":71},{"user_id":172,"name":"Dr. Dynamo","steam_id":76561198114569365,"connected_time":8514000000000,"state":"active","ping":64},{"user_id":298,"name":"quetzalcoatly","steam_id":76561198323389635,"connected_time":57000000000,"state":"active","ping":74},{"user_id":252,"name":"クケイ","steam_id":76561198215122444,"connected_time":3971000000000,"state":"active","ping":73},{"user_id":296,"name":"Trackpad Gaming","steam_id":76561198189062066,"connected_time":208000000000,"state":"active","ping":99},{"user_id":289,"name":"eggo-on-a-stick","steam_id":76561198799357966,"connected_time":657000000000,"state":"active","ping":76},{"user_id":297,"name":"panzerfaust13579","steam_id":76561198351615188,"connected_time":62000000000,"state":"active","ping":92},{"user_id":285,"name":"GlizzLord","steam_id":76561198321010427,"connected_time":792000000000,"state":"active","ping":76},{"user_id":282,"name":"luigigario","steam_id":76561198881262416,"connected_time":888000000000,"state":"active","ping":90},{"user_id":223,"name":"the","steam_id":76561198311446636,"connected_time":5481000000000,"state":"active","ping":75},{"user_id":286,"name":"Paideutic","steam_id":76561199112264211,"connected_time":780000000000,"state":"active","ping":86},{"user_id":295,"name":"ShinGojirabrYT","steam_id":76561199199037141,"connected_time":487000000000,"state":"active","ping":152},{"user_id":293,"name":"xXx_The_REAL_Marge_Simpson_xXx","steam_id":76561199116846851,"connected_time":600000000000,"state":"active","ping":84}]},{"server_id":108,"name":"Uncletopia | Dallas | 2 | All Maps","name_short":"dal-2","host":"dal-1.us.uncletopia.com","port":27025,"enabled":true,"region":"us-central","cc":"us","latitude":32.779167,"longitude":-96.80889,"reserved":0,"last_update":"0001-01-01T00:00:00Z","name_a2s":"Uncletopia | Dallas | 2 | All Maps","protocol":17,"map":"cp_dustbowl","folder":"tf","game":"Team Fortress","app_id":440,"player_count":24,"max_players":24,"Bots":0,"server_type":"Dedicated","server_os":"Linux","password":true,"vac":true,"version":"7757534","steam_id":85568392924469988,"keywords":["cp","nocrits","nodmgspread","uncletopia"],"game_id":440,"stv_port":27026,"stv_name":"Uncletopia | Dallas | 2 | All Maps | STV","players":[{"user_id":165,"name":"im overdosing on copium","steam_id":76561198319442494,"connected_time":257000000000,"state":"active","ping":87},{"user_id":148,"name":";-;","steam_id":76561198044443985,"connected_time":1855000000000,"state":"active","ping":70},{"user_id":127,"name":"Abra","steam_id":76561198086309918,"connected_time":2983000000000,"state":"active","ping":66},{"user_id":161,"name":"Red","steam_id":76561198031865869,"connected_time":491000000000,"state":"active","ping":63},{"user_id":120,"name":"Legit_Jaxer","steam_id":76561198172234053,"connected_time":3456000000000,"state":"active","ping":107},{"user_id":142,"name":"Floating Peasant","steam_id":76561198000183671,"connected_time":2282000000000,"state":"active","ping":55},{"user_id":133,"name":"Oddjob","steam_id":76561198976160793,"connected_time":2877000000000,"state":"active","ping":103},{"user_id":162,"name":"Bat(Magnetized to your head)","steam_id":76561198976521735,"connected_time":483000000000,"state":"active","ping":77},{"user_id":151,"name":"zrsp1","steam_id":76561199030845505,"connected_time":1235000000000,"state":"active","ping":99},{"user_id":155,"name":"TheSaltRobot","steam_id":76561198839739497,"connected_time":1039000000000,"state":"active","ping":61},{"user_id":149,"name":"Sal In Haiti","steam_id":76561198055452939,"connected_time":1855000000000,"state":"active","ping":92},{"user_id":166,"name":"choi","steam_id":76561198053669887,"connected_time":238000000000,"state":"active","ping":90},{"user_id":160,"name":"schnedwob","steam_id":76561197999146588,"connected_time":513000000000,"state":"active","ping":56},{"user_id":136,"name":"nnobi","steam_id":76561198878729277,"connected_time":2870000000000,"state":"active","ping":75},{"user_id":140,"name":"Bullwinkle J. Moose","steam_id":76561198075977196,"connected_time":2348000000000,"state":"active","ping":60},{"user_id":158,"name":"Bluedot","steam_id":76561198019909639,"connected_time":630000000000,"state":"active","ping":78},{"user_id":154,"name":"Torip","steam_id":76561198251665862,"connected_time":1108000000000,"state":"active","ping":102},{"user_id":152,"name":"PageBoiSkull","steam_id":76561198237353578,"connected_time":1229000000000,"state":"active","ping":99},{"user_id":168,"name":"bolainassr0","steam_id":76561199079078845,"connected_time":108000000000,"state":"active","ping":101},{"user_id":156,"name":"Herr Texas","steam_id":76561198300069355,"connected_time":970000000000,"state":"active","ping":137},{"user_id":167,"name":"Fishstall","steam_id":76561198038126034,"connected_time":176000000000,"state":"active","ping":69},{"user_id":157,"name":"Merpling","steam_id":76561198048272047,"connected_time":691000000000,"state":"active","ping":99},{"user_id":94,"name":"Lolxdloldx","steam_id":76561198136887125,"connected_time":6047000000000,"state":"active","ping":79},{"user_id":159,"name":"Dentivent","steam_id":76561197971953043,"connected_time":622000000000,"state":"active","ping":95}]},{"server_id":5,"name":"Uncletopia | Frankfurt | 1 | All Maps","name_short":"frk-1","host":"frk-1.de.uncletopia.com","port":27015,"enabled":true,"region":"eu","cc":"de","latitude":50.110924,"longitude":8.682127,"reserved":0,"last_update":"0001-01-01T00:00:00Z","name_a2s":"Uncletopia | Frankfurt | 1 | All Maps","protocol":17,"map":"pl_pier","folder":"tf","game":"Team Fortress","app_id":440,"player_count":23,"max_players":24,"Bots":0,"server_type":"Dedicated","server_os":"Linux","password":true,"vac":true,"version":"7757534","steam_id":85568392924469989,"keywords":["nocrits","nodmgspread","payload","uncletopia"],"game_id":440,"stv_port":27016,"stv_name":"Uncletopia | Frankfurt | 1 | All Maps | STV","players":[{"user_id":631,"name":"Spanns","steam_id":76561197998349793,"connected_time":1331000000000,"state":"active","ping":72},{"user_id":646,"name":"cheddar tf2","steam_id":76561199072919985,"connected_time":212000000000,"state":"active","ping":432},{"user_id":643,"name":"Waffles","steam_id":76561199086942763,"connected_time":602000000000,"state":"active","ping":76},{"user_id":647,"name":"mirankaran03","steam_id":76561199222589451,"connected_time":170000000000,"state":"active","ping":85},{"user_id":651,"name":"happy","steam_id":76561198053141766,"connected_time":87000000000,"state":"active","ping":108},{"user_id":640,"name":"Bottom 1 Johnnii","steam_id":76561198012841225,"connected_time":882000000000,"state":"active","ping":69},{"user_id":622,"name":"Momovsky","steam_id":76561198005738407,"connected_time":2719000000000,"state":"active","ping":81},{"user_id":592,"name":"flora","steam_id":76561197994492154,"connected_time":4631000000000,"state":"active","ping":60},{"user_id":641,"name":"bananabreadisthebest","steam_id":76561199474154775,"connected_time":829000000000,"state":"active","ping":53},{"user_id":644,"name":"Ik4 Dooley","steam_id":76561199244898787,"connected_time":547000000000,"state":"active","ping":51},{"user_id":645,"name":"beamer","steam_id":76561198206037191,"connected_time":274000000000,"state":"active","ping":76},{"user_id":649,"name":"cockwater","steam_id":76561198209101861,"connected_time":153000000000,"state":"active","ping":68},{"user_id":582,"name":"Maythorn","steam_id":76561198049709072,"connected_time":5499000000000,"state":"active","ping":133},{"user_id":652,"name":"Arasey","steam_id":76561198996948426,"connected_time":86000000000,"state":"active","ping":82},{"user_id":578,"name":"kaelan!","steam_id":76561198001425310,"connected_time":6543000000000,"state":"active","ping":75},{"user_id":655,"name":"Oxer","steam_id":76561198055942412,"connected_time":82000000000,"state":"active","ping":81},{"user_id":609,"name":"Farao Ramses II","steam_id":76561198078722712,"connected_time":3665000000000,"state":"active","ping":54},{"user_id":621,"name":"Kitfist","steam_id":76561198048559338,"connected_time":2751000000000,"state":"active","ping":70},{"user_id":654,"name":"Tomfool","steam_id":76561197993256481,"connected_time":84000000000,"state":"active","ping":72},{"user_id":601,"name":"jj","steam_id":76561198079200985,"connected_time":4112000000000,"state":"active","ping":61},{"user_id":633,"name":"Jank","steam_id":76561198251508752,"connected_time":1289000000000,"state":"active","ping":55},{"user_id":619,"name":"Birdseye","steam_id":76561198025852216,"connected_time":2965000000000,"state":"active","ping":64},{"user_id":620,"name":"Space","steam_id":76561198021572167,"connected_time":2955000000000,"state":"active","ping":70}]},{"server_id":110,"name":"Uncletopia | Frankfurt | 2 | All Maps","name_short":"frk-2","host":"frk-1.de.uncletopia.com","port":27025,"enabled":true,"region":"eu","cc":"de","latitude":50.110924,"longitude":8.682127,"reserved":0,"last_update":"0001-01-01T00:00:00Z","name_a2s":"Uncletopia | Frankfurt | 2 | All Maps","protocol":17,"map":"pl_badwater","folder":"tf","game":"Team Fortress","app_id":440,"player_count":24,"max_players":24,"Bots":0,"server_type":"Dedicated","server_os":"Linux","password":true,"vac":true,"version":"7757534","steam_id":85568392924469990,"keywords":["nocrits","nodmgspread","payload","uncletopia"],"game_id":440,"stv_port":27026,"stv_name":"Uncletopia | Frankfurt | 2 | All Maps | STV","players":[{"user_id":1099,"name":"glyph","steam_id":76561197980736364,"connected_time":3636000000000,"state":"active","ping":78},{"user_id":1129,"name":"f0x","steam_id":76561198072921704,"connected_time":1677000000000,"state":"active","ping":51},{"user_id":1138,"name":"harizzment","steam_id":76561198890409949,"connected_time":648000000000,"state":"active","ping":100},{"user_id":1076,"name":"rigel_","steam_id":76561198148640847,"connected_time":6116000000000,"state":"active","ping":75},{"user_id":1098,"name":"fanyul","steam_id":76561198030894721,"connected_time":3692000000000,"state":"active","ping":74},{"user_id":1140,"name":"John","steam_id":76561198089410709,"connected_time":613000000000,"state":"active","ping":87},{"user_id":1142,"name":"✪Kritz","steam_id":76561198110226775,"connected_time":583000000000,"state":"active","ping":79},{"user_id":1135,"name":"Kowalski","steam_id":76561198004218740,"connected_time":816000000000,"state":"active","ping":63},{"user_id":1085,"name":"Floris","steam_id":76561198001717422,"connected_time":5710000000000,"state":"active","ping":65},{"user_id":1091,"name":"Mao Zedong","steam_id":76561198347020945,"connected_time":5342000000000,"state":"active","ping":82},{"user_id":1141,"name":"Dr. Death","steam_id":76561198113987065,"connected_time":609000000000,"state":"active","ping":90},{"user_id":1113,"name":"King Of The Chill","steam_id":76561197971394640,"connected_time":2684000000000,"state":"active","ping":187},{"user_id":1014,"name":"♥ TRANS RIGHTS ♥","steam_id":76561198066258544,"connected_time":8996000000000,"state":"active","ping":53},{"user_id":1143,"name":"I AM DOT","steam_id":76561198354118090,"connected_time":572000000000,"state":"active","ping":93},{"user_id":1127,"name":"Pingutaro","steam_id":76561198112803718,"connected_time":1912000000000,"state":"active","ping":74},{"user_id":1137,"name":"my_ass_bleeds","steam_id":76561198394106564,"connected_time":660000000000,"state":"active","ping":91},{"user_id":1046,"name":"New","steam_id":76561198402195911,"connected_time":7595000000000,"state":"active","ping":112},{"user_id":1134,"name":"Joker⑦⑦⑦³","steam_id":76561197992353350,"connected_time":917000000000,"state":"active","ping":78},{"user_id":1149,"name":"glow","steam_id":76561198086654069,"connected_time":72000000000,"state":"active","ping":73},{"user_id":1148,"name":"lettuce at 58p","steam_id":76561199401283123,"connected_time":207000000000,"state":"active","ping":70},{"user_id":1123,"name":"Scottish Fox","steam_id":76561198052990270,"connected_time":2314000000000,"state":"active","ping":75},{"user_id":1146,"name":"- rick.","steam_id":76561198026699226,"connected_time":526000000000,"state":"active","ping":75},{"user_id":1096,"name":"Carol Olston","steam_id":76561198080257273,"connected_time":4117000000000,"state":"active","ping":64},{"user_id":1136,"name":"Fox","steam_id":76561198052541711,"connected_time":671000000000,"state":"active","ping":62}]},{"server_id":308,"name":"Uncletopia | Frankfurt | 3 | All Maps","name_short":"frk-3","host":"frk-1.de.uncletopia.com","port":27035,"enabled":true,"region":"eu","cc":"de","latitude":50.110924,"longitude":8.682127,"reserved":0,"last_update":"0001-01-01T00:00:00Z","name_a2s":"Uncletopia | Frankfurt | 3 | All Maps","protocol":17,"map":"pl_barnblitz","folder":"tf","game":"Team Fortress","app_id":440,"player_count":24,"max_players":24,"Bots":0,"server_type":"Dedicated","server_os":"Linux","password":true,"vac":true,"version":"7757534","steam_id":85568392924504274,"keywords":["nocrits","nodmgspread","payload","uncletopia"],"game_id":440,"stv_port":27036,"stv_name":"Uncletopia | Frankfurt | 3 | All Maps | STV","players":[{"user_id":469,"name":"minespweper","steam_id":76561199096919345,"connected_time":2151000000000,"state":"active","ping":87},{"user_id":497,"name":"mei","steam_id":76561198028078806,"connected_time":853000000000,"state":"active","ping":57},{"user_id":503,"name":"Regan","steam_id":76561198100631086,"connected_time":639000000000,"state":"active","ping":79},{"user_id":482,"name":"The one who knocks","steam_id":76561198089341471,"connected_time":1900000000000,"state":"active","ping":85},{"user_id":434,"name":"Dr Sex","steam_id":76561198029044617,"connected_time":2849000000000,"state":"active","ping":68},{"user_id":433,"name":"DeCypher [She/Her]","steam_id":76561198171992619,"connected_time":2903000000000,"state":"active","ping":67},{"user_id":506,"name":"Cocoa","steam_id":76561198078438879,"connected_time":327000000000,"state":"active","ping":63},{"user_id":495,"name":"Jude!","steam_id":76561197983597798,"connected_time":1498000000000,"state":"active","ping":61},{"user_id":447,"name":"Cabbch","steam_id":76561198045955679,"connected_time":2622000000000,"state":"active","ping":59},{"user_id":489,"name":"paranoia","steam_id":76561198274105878,"connected_time":1565000000000,"state":"active","ping":88},{"user_id":508,"name":"Cheyaoshi","steam_id":76561198141121996,"connected_time":118000000000,"state":"active","ping":41},{"user_id":418,"name":"Frans","steam_id":76561198362494603,"connected_time":4517000000000,"state":"active","ping":55},{"user_id":507,"name":"Záporák","steam_id":76561198207175503,"connected_time":271000000000,"state":"active","ping":59},{"user_id":384,"name":"Cuthbert","steam_id":76561198204649481,"connected_time":6255000000000,"state":"active","ping":98},{"user_id":504,"name":"Swedish Vegan","steam_id":76561198042775020,"connected_time":509000000000,"state":"active","ping":77},{"user_id":484,"name":"RadialMount","steam_id":76561198063002562,"connected_time":1887000000000,"state":"active","ping":60},{"user_id":502,"name":"R","steam_id":76561199379233899,"connected_time":722000000000,"state":"active","ping":92},{"user_id":505,"name":"Endi","steam_id":76561198914938199,"connected_time":482000000000,"state":"active","ping":101},{"user_id":470,"name":"GuSkand","steam_id":76561198043775605,"connected_time":2149000000000,"state":"active","ping":78},{"user_id":439,"name":"gRocc0","steam_id":76561198283840637,"connected_time":2743000000000,"state":"active","ping":115},{"user_id":445,"name":"Pineapple Okanつ ◕_◕ ༽\ufffd\ufffd","steam_id":76561198069199449,"connected_time":2717000000000,"state":"active","ping":224},{"user_id":453,"name":"Malok","steam_id":76561198371117880,"connected_time":2471000000000,"state":"active","ping":60},{"user_id":417,"name":"kgf","steam_id":76561198181442259,"connected_time":4629000000000,"state":"active","ping":62},{"user_id":443,"name":"Marquis de Hoto","steam_id":76561198080687708,"connected_time":2737000000000,"state":"active","ping":64}]},{"server_id":309,"name":"Uncletopia | Frankfurt | 4 | All Maps","name_short":"frk-4","host":"frk-1.de.uncletopia.com","port":27045,"enabled":true,"region":"eu","cc":"de","latitude":50.110924,"longitude":8.682127,"reserved":0,"last_update":"0001-01-01T00:00:00Z","name_a2s":"Uncletopia | Frankfurt | 4 | All Maps","protocol":17,"map":"koth_lakeside_final","folder":"tf","game":"Team Fortress","app_id":440,"player_count":5,"max_players":24,"Bots":0,"server_type":"Dedicated","server_os":"Linux","password":true,"vac":true,"version":"7757534","steam_id":85568392924504275,"keywords":["cp","nocrits","nodmgspread","uncletopia"],"game_id":440,"stv_port":27046,"stv_name":"Uncletopia | Frankfurt | 4 | All Maps | STV","players":[{"user_id":295,"name":"tiia (cold hends)","steam_id":76561198046196005,"connected_time":1867000000000,"state":"active","ping":39},{"user_id":302,"name":"homar","steam_id":76561198073442109,"connected_time":1198000000000,"state":"active","ping":69},{"user_id":301,"name":"(1)Homar","steam_id":76561198156906497,"connected_time":1276000000000,"state":"active","ping":62},{"user_id":291,"name":"Lukero","steam_id":76561198301594341,"connected_time":2219000000000,"state":"active","ping":68},{"user_id":303,"name":"Rez","steam_id":76561198410598772,"connected_time":1175000000000,"state":"active","ping":59}]},{"server_id":310,"name":"Uncletopia | Frankfurt | 5 | All Maps","name_short":"frk-5","host":"frk-1.de.uncletopia.com","port":27055,"enabled":true,"region":"eu","cc":"de","latitude":50.110924,"longitude":8.682127,"reserved":0,"last_update":"0001-01-01T00:00:00Z","name_a2s":"Uncletopia | Frankfurt | 5 | All Maps","protocol":17,"map":"koth_viaduct","folder":"tf","game":"Team Fortress","app_id":440,"player_count":0,"max_players":24,"Bots":0,"server_type":"Dedicated","server_os":"Linux","password":true,"vac":true,"version":"7757534","steam_id":85568392924504277,"keywords":["cp","nocrits","nodmgspread","uncletopia"],"game_id":440,"stv_port":27056,"stv_name":"Uncletopia | Frankfurt | 5 | All Maps | STV","players":null},{"server_id":311,"name":"Uncletopia | Frankfurt | 6 | All Maps","name_short":"frk-6","host":"frk-1.de.uncletopia.com","port":27065,"enabled":true,"region":"eu","cc":"de","latitude":50.110924,"longitude":8.682127,"reserved":0,"last_update":"0001-01-01T00:00:00Z","name_a2s":"Uncletopia | Frankfurt | 6 | All Maps","protocol":17,"map":"koth_harvest_final","folder":"tf","game":"Team Fortress","app_id":440,"player_count":23,"max_players":24,"Bots":0,"server_type":"Dedicated","server_os":"Linux","password":true,"vac":true,"version":"7757534","steam_id":85568392924504278,"keywords":["cp","nocrits","nodmgspread","uncletopia"],"game_id":440,"stv_port":27066,"stv_name":"Uncletopia | Frankfurt | 6 | All Maps | STV","players":[{"user_id":656,"name":"i n n o","steam_id":76561199230689289,"connected_time":356000000000,"state":"active","ping":78},{"user_id":661,"name":"RAONICALIAS","steam_id":76561198847048146,"connected_time":63000000000,"state":"active","ping":82},{"user_id":647,"name":"Grim the lemon","steam_id":76561199083433988,"connected_time":1113000000000,"state":"active","ping":67},{"user_id":634,"name":"₭ä̷łĐɆ₦","steam_id":76561198166352975,"connected_time":1496000000000,"state":"active","ping":45},{"user_id":616,"name":"Edgy Name","steam_id":76561198378270820,"connected_time":2235000000000,"state":"active","ping":66},{"user_id":632,"name":"=^_^=","steam_id":76561198076494034,"connected_time":1672000000000,"state":"active","ping":54},{"user_id":629,"name":"o_o","steam_id":76561198113045011,"connected_time":1762000000000,"state":"active","ping":90},{"user_id":633,"name":".PNG","steam_id":76561199078987539,"connected_time":1632000000000,"state":"active","ping":89},{"user_id":658,"name":"Ben UFO","steam_id":76561198001648348,"connected_time":327000000000,"state":"active","ping":71},{"user_id":648,"name":"Juiceydough","steam_id":76561197997323419,"connected_time":1077000000000,"state":"active","ping":90},{"user_id":651,"name":".bRdyyy","steam_id":76561198057256978,"connected_time":966000000000,"state":"active","ping":45},{"user_id":662,"name":"Daro","steam_id":76561197998503210,"connected_time":49000000000,"state":"active","ping":80},{"user_id":652,"name":"SantiThePug #ReviveTheCaber","steam_id":76561199049615996,"connected_time":963000000000,"state":"active","ping":71},{"user_id":602,"name":"Kvicha Kvaratskhelia","steam_id":76561198179339326,"connected_time":2804000000000,"state":"active","ping":75},{"user_id":642,"name":"Lukas","steam_id":76561198009118452,"connected_time":1264000000000,"state":"active","ping":56},{"user_id":660,"name":"Furious_Coder QuickSellinG!","steam_id":76561198146046621,"connected_time":287000000000,"state":"active","ping":105},{"user_id":654,"name":"Laru","steam_id":76561197998838438,"connected_time":738000000000,"state":"active","ping":78},{"user_id":555,"name":"CalThePal","steam_id":76561198084842126,"connected_time":6955000000000,"state":"active","ping":65},{"user_id":542,"name":"Vershal Smershal","steam_id":76561198116223995,"connected_time":7536000000000,"state":"active","ping":61},{"user_id":619,"name":"hideki","steam_id":76561198030728517,"connected_time":2172000000000,"state":"active","ping":45},{"user_id":543,"name":"my head + the wall = \u003c3","steam_id":76561198058012525,"connected_time":7529000000000,"state":"active","ping":68},{"user_id":620,"name":"Swedde","steam_id":76561198297296440,"connected_time":2151000000000,"state":"active","ping":85},{"user_id":640,"name":"combine","steam_id":76561198007909007,"connected_time":1368000000000,"state":"active","ping":58}]},{"server_id":23,"name":"Uncletopia | Frankfurt | 7 | Stopwatch Beta","name_short":"frk-7","host":"frk-1.de.uncletopia.com","port":27075,"enabled":true,"region":"eu","cc":"de","latitude":50.110924,"longitude":8.682127,"reserved":0,"last_update":"0001-01-01T00:00:00Z","name_a2s":"Uncletopia | Frankfurt | 7 | Stopwatch Beta","protocol":17,"map":"pl_borneo","folder":"tf","game":"Team Fortress","app_id":440,"player_count":0,"max_players":24,"Bots":0,"server_type":"Dedicated","server_os":"Linux","password":true,"vac":true,"version":"7757534","steam_id":85568392924742827,"keywords":["nocrits","nodmgspread","payload","uncletopia"],"game_id":440,"stv_port":27076,"stv_name":"Uncletopia | Frankfurt | 7 | Stopwatch Beta | STV","players":null},{"server_id":24,"name":"Uncletopia | Frankfurt | 8 | Community","name_short":"frk-8","host":"frk-1.de.uncletopia.com","port":27085,"enabled":true,"region":"eu","cc":"de","latitude":50.110924,"longitude":8.682127,"reserved":0,"last_update":"0001-01-01T00:00:00Z","name_a2s":"Uncletopia | Frankfurt | 8 | Community","protocol":17,"map":"workshop/pl_vigil_rc9.ugc1266210012","folder":"tf","game":"Team Fortress","app_id":440,"player_count":0,"max_players":24,"Bots":0,"server_type":"Dedicated","server_os":"Linux","password":true,"vac":true,"version":"7757534","steam_id":85568392924742828,"keywords":["nocrits","nodmgspread","payload","uncletopia"],"game_id":440,"stv_port":27086,"stv_name":"Uncletopia | Frankfurt | 8 | Community | STV","players":null},{"server_id":202,"name":"Uncletopia | Hong Kong | 1 | All Maps","name_short":"hgk-1","host":"hgk-1.hk.uncletopia.com","port":27015,"enabled":true,"region":"asia","cc":"hk","latitude":22.302711,"longitude":114.177216,"reserved":0,"last_update":"0001-01-01T00:00:00Z","name_a2s":"Uncletopia | Hong Kong | 1 | All Maps","protocol":17,"map":"cp_sunshine","folder":"tf","game":"Team Fortress","app_id":440,"player_count":0,"max_players":24,"Bots":0,"server_type":"Dedicated","server_os":"Linux","password":true,"vac":true,"version":"7757534","steam_id":85568392924494504,"keywords":["cp","nocrits","nodmgspread","uncletopia"],"game_id":440,"stv_port":27016,"stv_name":"Uncletopia | Hong Kong | 1 | All Maps | STV","players":null},{"server_id":1,"name":"Uncletopia | Los Angeles | 1 | All Maps","name_short":"lax-1","host":"lax-1.us.uncletopia.com","port":27015,"enabled":true,"region":"us-west","cc":"us","latitude":33.94279,"longitude":-118.41004,"reserved":0,"last_update":"0001-01-01T00:00:00Z","name_a2s":"Uncletopia | Los Angeles | 1 | All Maps","protocol":17,"map":"pl_badwater","folder":"tf","game":"Team Fortress","app_id":440,"player_count":20,"max_players":24,"Bots":0,"server_type":"Dedicated","server_os":"Linux","password":true,"vac":true,"version":"7757534","steam_id":85568392924469991,"keywords":["nocrits","nodmgspread","payload","uncletopia"],"game_id":440,"stv_port":27016,"stv_name":"Uncletopia | Los Angeles | 1 | All Maps | STV","players":[{"user_id":63,"name":"my palisman would be a polarbea","steam_id":76561199060224916,"connected_time":396000000000,"state":"active","ping":53},{"user_id":52,"name":"Bobby Ray","steam_id":76561198044131188,"connected_time":1235000000000,"state":"active","ping":72},{"user_id":71,"name":"hapi bananuh","steam_id":76561198091547092,"connected_time":62000000000,"state":"spawning","ping":85},{"user_id":72,"name":"pudungo","steam_id":76561198319225424,"connected_time":6000000000,"state":"active","ping":53},{"user_id":41,"name":"agentredx05","steam_id":76561198324962084,"connected_time":1675000000000,"state":"active","ping":88},{"user_id":61,"name":"xlaylowx","steam_id":76561198830237952,"connected_time":442000000000,"state":"active","ping":63},{"user_id":45,"name":"Stapler","steam_id":76561198099295077,"connected_time":1440000000000,"state":"active","ping":46},{"user_id":30,"name":"greens beans","steam_id":76561198153611491,"connected_time":1896000000000,"state":"active","ping":60},{"user_id":22,"name":"Orange Toaster","steam_id":76561198013397599,"connected_time":2466000000000,"state":"active","ping":43},{"user_id":23,"name":"asm_ghost","steam_id":76561199205363547,"connected_time":2383000000000,"state":"active","ping":76},{"user_id":24,"name":"Skullgirls enjoyer","steam_id":76561198077811162,"connected_time":2359000000000,"state":"active","ping":42},{"user_id":68,"name":"American freedom bird","steam_id":76561198366142388,"connected_time":290000000000,"state":"active","ping":55},{"user_id":70,"name":"SpaghettiMaster420","steam_id":76561199024321120,"connected_time":65000000000,"state":"active","ping":66},{"user_id":27,"name":"Greasy_Grime","steam_id":76561199014724973,"connected_time":2181000000000,"state":"active","ping":93},{"user_id":58,"name":"Smerfee","steam_id":76561198170159521,"connected_time":578000000000,"state":"active","ping":136},{"user_id":64,"name":"buysidebarron","steam_id":76561198068672882,"connected_time":370000000000,"state":"active","ping":54},{"user_id":62,"name":"picea","steam_id":76561198134664196,"connected_time":418000000000,"state":"active","ping":63},{"user_id":69,"name":"yellow","steam_id":76561198366474647,"connected_time":185000000000,"state":"active","ping":42},{"user_id":67,"name":"Pinkk","steam_id":76561198989798211,"connected_time":297000000000,"state":"active","ping":51},{"user_id":51,"name":"c49aa4","steam_id":76561199099537250,"connected_time":1328000000000,"state":"active","ping":80}]},{"server_id":112,"name":"Uncletopia | Los Angeles | 2 | All Maps","name_short":"lax-2","host":"lax-1.us.uncletopia.com","port":27025,"enabled":true,"region":"us-west","cc":"us","latitude":33.94279,"longitude":-118.41004,"reserved":0,"last_update":"0001-01-01T00:00:00Z","name_a2s":"Uncletopia | Los Angeles | 2 | All Maps","protocol":17,"map":"koth_highpass","folder":"tf","game":"Team Fortress","app_id":440,"player_count":0,"max_players":24,"Bots":0,"server_type":"Dedicated","server_os":"Linux","password":true,"vac":true,"version":"7757534","steam_id":85568392924469992,"keywords":["cp","nocrits","nodmgspread","uncletopia"],"game_id":440,"stv_port":27026,"stv_name":"Uncletopia | Los Angeles | 2 | All Maps | STV","players":null},{"server_id":324,"name":"Uncletopia | Los Angeles | 3 | All Maps","name_short":"lax-3","host":"lax-1.us.uncletopia.com","port":27035,"enabled":true,"region":"us-west","cc":"us","latitude":33.94279,"longitude":-118.41004,"reserved":0,"last_update":"0001-01-01T00:00:00Z","name_a2s":"Uncletopia | Los Angeles | 3 | All Maps","protocol":17,"map":"koth_highpass","folder":"tf","game":"Team Fortress","app_id":440,"player_count":0,"max_players":24,"Bots":0,"server_type":"Dedicated","server_os":"Linux","password":true,"vac":true,"version":"7757534","steam_id":85568392924510198,"keywords":["cp","nocrits","nodmgspread","uncletopia"],"game_id":440,"stv_port":27036,"stv_name":"Uncletopia | Los Angeles | 3 | All Maps | STV","players":null},{"server_id":25,"name":"Uncletopia | Los Angeles | 4 | Stopwatch Beta","name_short":"lax-4","host":"lax-1.us.uncletopia.com","port":27045,"enabled":true,"region":"us-west","cc":"us","latitude":33.94279,"longitude":-118.41004,"reserved":0,"last_update":"0001-01-01T00:00:00Z","name_a2s":"Uncletopia | Los Angeles | 4 | Stopwatch Beta","protocol":17,"map":"workshop/koth_clearcut_b15.ugc2107050255","folder":"tf","game":"Team Fortress","app_id":440,"player_count":0,"max_players":24,"Bots":0,"server_type":"Dedicated","server_os":"Linux","password":true,"vac":true,"version":"7757534","steam_id":85568392924510199,"keywords":["cp","nocrits","nodmgspread","uncletopia"],"game_id":440,"stv_port":27046,"stv_name":"Uncletopia | Los Angeles | 4 | Stopwatch Beta | STV","players":null},{"server_id":11,"name":"Uncletopia | London | 1 | All Maps","name_short":"lon-1","host":"lon-1.uk.uncletopia.com","port":27015,"enabled":true,"region":"eu","cc":"gb","latitude":51.509865,"longitude":-0.118092,"reserved":0,"last_update":"0001-01-01T00:00:00Z","name_a2s":"Uncletopia | London | 1 | All Maps","protocol":17,"map":"cp_process_final","folder":"tf","game":"Team Fortress","app_id":440,"player_count":24,"max_players":24,"Bots":0,"server_type":"Dedicated","server_os":"Linux","password":true,"vac":true,"version":"7757534","steam_id":85568392924367362,"keywords":["cp","nocrits","nodmgspread","uncletopia"],"game_id":440,"stv_port":27016,"stv_name":"Uncletopia | London | 1 | All Maps | STV","players":[{"user_id":428,"name":"dd","steam_id":76561198257836694,"connected_time":1340000000000,"state":"active","ping":36},{"user_id":416,"name":"trite","steam_id":76561197983765323,"connected_time":3133000000000,"state":"active","ping":49},{"user_id":419,"name":"dominus.","steam_id":76561199065917088,"connected_time":3102000000000,"state":"active","ping":69},{"user_id":424,"name":"MaypulSoyrup","steam_id":76561199213966821,"connected_time":1449000000000,"state":"active","ping":70},{"user_id":444,"name":"Son Goku","steam_id":76561199383437138,"connected_time":372000000000,"state":"active","ping":133},{"user_id":439,"name":"porridge","steam_id":76561198044585737,"connected_time":913000000000,"state":"active","ping":45},{"user_id":437,"name":"Udinese Dion","steam_id":76561198067931573,"connected_time":1025000000000,"state":"active","ping":61},{"user_id":426,"name":"Aaron","steam_id":76561197990046953,"connected_time":1352000000000,"state":"active","ping":72},{"user_id":431,"name":"Fredrick","steam_id":76561197981419964,"connected_time":1314000000000,"state":"active","ping":130},{"user_id":405,"name":"jet fuel cant melt steel beams","steam_id":76561198321676291,"connected_time":3770000000000,"state":"active","ping":88},{"user_id":440,"name":"sora","steam_id":76561198096547662,"connected_time":636000000000,"state":"active","ping":51},{"user_id":422,"name":"[the brotherhood ] ЗаМеня","steam_id":76561198089330547,"connected_time":1854000000000,"state":"active","ping":61},{"user_id":434,"name":"Wedgeridoo","steam_id":76561198082813907,"connected_time":1170000000000,"state":"active","ping":129},{"user_id":436,"name":"Joseph Stalin","steam_id":76561198033199746,"connected_time":1127000000000,"state":"active","ping":60},{"user_id":399,"name":"Big Mac Gaming","steam_id":76561198158209651,"connected_time":3873000000000,"state":"active","ping":62},{"user_id":390,"name":"THE STABILIZER","steam_id":76561198980644010,"connected_time":4275000000000,"state":"active","ping":104},{"user_id":420,"name":"SOPHIIEE","steam_id":76561198443798981,"connected_time":3068000000000,"state":"active","ping":55},{"user_id":445,"name":"dec","steam_id":76561198009660168,"connected_time":368000000000,"state":"active","ping":55},{"user_id":435,"name":"SPONGE","steam_id":76561198040933472,"connected_time":1136000000000,"state":"active","ping":65},{"user_id":407,"name":"etc","steam_id":76561197998394797,"connected_time":3731000000000,"state":"active","ping":63},{"user_id":442,"name":"Robr","steam_id":76561198321723252,"connected_time":409000000000,"state":"active","ping":53},{"user_id":409,"name":"Chloemew","steam_id":76561198042071762,"connected_time":3585000000000,"state":"active","ping":43},{"user_id":443,"name":"[the brotherhood] mr.white :)","steam_id":76561198118407436,"connected_time":373000000000,"state":"active","ping":45},{"user_id":446,"name":"TryX","steam_id":76561199356781475,"connected_time":364000000000,"state":"active","ping":76}]},{"server_id":114,"name":"Uncletopia | London | 2 | All Maps","name_short":"lon-2","host":"lon-1.uk.uncletopia.com","port":27025,"enabled":true,"region":"eu","cc":"gb","latitude":51.509865,"longitude":-0.118092,"reserved":0,"last_update":"0001-01-01T00:00:00Z","name_a2s":"Uncletopia | London | 2 | All Maps","protocol":17,"map":"pl_barnblitz","folder":"tf","game":"Team Fortress","app_id":440,"player_count":3,"max_players":24,"Bots":0,"server_type":"Dedicated","server_os":"Linux","password":true,"vac":true,"version":"7757534","steam_id":85568392924470941,"keywords":["nocrits","nodmgspread","payload","uncletopia"],"game_id":440,"stv_port":27026,"stv_name":"Uncletopia | London | 2 | All Maps | STV","players":[{"user_id":497,"name":"quake 2 hater","steam_id":76561198101451654,"connected_time":3524000000000,"state":"active","ping":43},{"user_id":521,"name":"Cheers Mate!","steam_id":76561198265192382,"connected_time":1818000000000,"state":"active","ping":75},{"user_id":529,"name":"Thalgorock","steam_id":76561198195315022,"connected_time":1073000000000,"state":"active","ping":70}]},{"server_id":320,"name":"Uncletopia | London | 3 | All Maps","name_short":"lon-3","host":"lon-1.uk.uncletopia.com","port":27035,"enabled":true,"region":"eu","cc":"gb","latitude":51.509865,"longitude":-0.118092,"reserved":0,"last_update":"0001-01-01T00:00:00Z","name_a2s":"Uncletopia | London | 3 | All Maps","protocol":17,"map":"pl_borneo","folder":"tf","game":"Team Fortress","app_id":440,"player_count":24,"max_players":24,"Bots":0,"server_type":"Dedicated","server_os":"Linux","password":true,"vac":true,"version":"7757534","steam_id":85568392924510192,"keywords":["nocrits","nodmgspread","payload","uncletopia"],"game_id":440,"stv_port":27036,"stv_name":"Uncletopia | London | 3 | All Maps | STV","players":[{"user_id":820,"name":"Datenegassie","steam_id":76561198089417032,"connected_time":1118000000000,"state":"active","ping":70},{"user_id":821,"name":"Evil weed wizard","steam_id":76561198076137526,"connected_time":965000000000,"state":"active","ping":54},{"user_id":822,"name":"TOG II*","steam_id":76561197993906091,"connected_time":893000000000,"state":"active","ping":57},{"user_id":823,"name":"Sparky","steam_id":76561198036754195,"connected_time":867000000000,"state":"active","ping":51},{"user_id":824,"name":"Zelmor","steam_id":76561197997708311,"connected_time":819000000000,"state":"active","ping":48},{"user_id":839,"name":"Sgreff","steam_id":76561198036304365,"connected_time":227000000000,"state":"active","ping":45},{"user_id":831,"name":"that fat croc from donkey kong","steam_id":76561198159172495,"connected_time":675000000000,"state":"active","ping":80},{"user_id":826,"name":"Hami","steam_id":76561198147799350,"connected_time":802000000000,"state":"active","ping":98},{"user_id":827,"name":"Raulca25","steam_id":76561199068256964,"connected_time":769000000000,"state":"active","ping":90},{"user_id":841,"name":"=PB=","steam_id":76561197999146612,"connected_time":189000000000,"state":"active","ping":44},{"user_id":828,"name":"Slav-matros","steam_id":76561198251977912,"connected_time":755000000000,"state":"active","ping":63},{"user_id":781,"name":"Carrot Arc","steam_id":76561198164957006,"connected_time":3549000000000,"state":"active","ping":89},{"user_id":791,"name":"Team Dim Sun Grunt","steam_id":76561198393596975,"connected_time":3231000000000,"state":"active","ping":60},{"user_id":815,"name":"smoke","steam_id":76561198369002901,"connected_time":1588000000000,"state":"active","ping":51},{"user_id":837,"name":"sork","steam_id":76561198082446459,"connected_time":552000000000,"state":"active","ping":82},{"user_id":840,"name":"tralalaOuiOui","steam_id":76561197963471507,"connected_time":213000000000,"state":"active","ping":52},{"user_id":836,"name":"FADe","steam_id":76561197960400908,"connected_time":625000000000,"state":"active","ping":48},{"user_id":832,"name":"B.den","steam_id":76561199177668753,"connected_time":666000000000,"state":"active","ping":38},{"user_id":833,"name":"Private_tm","steam_id":76561198056281480,"connected_time":664000000000,"state":"active","ping":59},{"user_id":819,"name":"upward enjoyer","steam_id":76561198055389492,"connected_time":1245000000000,"state":"active","ping":38},{"user_id":842,"name":"Hilldog","steam_id":76561198082209322,"connected_time":184000000000,"state":"active","ping":79},{"user_id":838,"name":"Hydnhof","steam_id":76561198120989805,"connected_time":471000000000,"state":"active","ping":70},{"user_id":843,"name":"eduardo","steam_id":76561198014491925,"connected_time":146000000000,"state":"active","ping":89},{"user_id":835,"name":"Murphy","steam_id":76561198179319975,"connected_time":644000000000,"state":"active","ping":78}]},{"server_id":321,"name":"Uncletopia | London | 4 | All Maps","name_short":"lon-4","host":"lon-1.uk.uncletopia.com","port":27045,"enabled":true,"region":"eu","cc":"gb","latitude":51.509865,"longitude":-0.118092,"reserved":0,"last_update":"0001-01-01T00:00:00Z","name_a2s":"Uncletopia | London | 4 | All Maps","protocol":17,"map":"cp_altitude","folder":"tf","game":"Team Fortress","app_id":440,"player_count":0,"max_players":24,"Bots":0,"server_type":"Dedicated","server_os":"Linux","password":true,"vac":true,"version":"7757534","steam_id":85568392924510193,"keywords":["cp","nocrits","nodmgspread","uncletopia"],"game_id":440,"stv_port":27046,"stv_name":"Uncletopia | London | 4 | All Maps | STV","players":null},{"server_id":21,"name":"Uncletopia | London | 5 | All Maps","name_short":"lon-5","host":"lon-1.uk.uncletopia.com","port":27055,"enabled":true,"region":"eu","cc":"gb","latitude":51.509865,"longitude":-0.118092,"reserved":0,"last_update":"0001-01-01T00:00:00Z","name_a2s":"Uncletopia | London | 5 | All Maps","protocol":17,"map":"koth_viaduct","folder":"tf","game":"Team Fortress","app_id":440,"player_count":0,"max_players":24,"Bots":0,"server_type":"Dedicated","server_os":"Linux","password":true,"vac":true,"version":"7757534","steam_id":85568392924742829,"keywords":["cp","nocrits","nodmgspread","uncletopia"],"game_id":440,"stv_port":27056,"stv_name":"Uncletopia | London | 5 | All Maps | STV","players":null},{"server_id":22,"name":"Uncletopia | London | 6 | All Maps","name_short":"lon-6","host":"lon-1.uk.uncletopia.com","port":27065,"enabled":true,"region":"eu","cc":"gb","latitude":51.509865,"longitude":-0.118092,"reserved":0,"last_update":"0001-01-01T00:00:00Z","name_a2s":"Uncletopia | London | 6 | All Maps","protocol":17,"map":"koth_highpass","folder":"tf","game":"Team Fortress","app_id":440,"player_count":0,"max_players":24,"Bots":0,"server_type":"Dedicated","server_os":"Linux","password":true,"vac":true,"version":"7757534","steam_id":85568392924742830,"keywords":["cp","nocrits","nodmgspread","uncletopia"],"game_id":440,"stv_port":27066,"stv_name":"Uncletopia | London | 6 | All Maps | STV","players":null},{"server_id":40,"name":"Uncletopia | London | 7 | No Payload","name_short":"lon-7","host":"lon-1.uk.uncletopia.com","port":27075,"enabled":true,"region":"eu","cc":"gb","latitude":51.509865,"longitude":-0.118092,"reserved":0,"last_update":"0001-01-01T00:00:00Z","name_a2s":"Uncletopia | London | 7 | No Payload","protocol":17,"map":"koth_highpass","folder":"tf","game":"Team Fortress","app_id":440,"player_count":0,"max_players":24,"Bots":0,"server_type":"Dedicated","server_os":"Linux","password":true,"vac":true,"version":"7757534","steam_id":85568392924964314,"keywords":["cp","nocrits","nodmgspread","uncletopia"],"game_id":440,"stv_port":27076,"stv_name":"Uncletopia | London | 7 | No Payload | STV","players":null},{"server_id":41,"name":"Uncletopia | London | 8 | Community","name_short":"lon-8","host":"lon-1.uk.uncletopia.com","port":27085,"enabled":true,"region":"eu","cc":"gb","latitude":51.509865,"longitude":-0.118092,"reserved":0,"last_update":"0001-01-01T00:00:00Z","name_a2s":"Uncletopia | London | 8 | Community","protocol":17,"map":"workshop/koth_trenchfoot_b1a.ugc731436616","folder":"tf","game":"Team Fortress","app_id":440,"player_count":0,"max_players":24,"Bots":0,"server_type":"Dedicated","server_os":"Linux","password":true,"vac":true,"version":"7757534","steam_id":85568392924964315,"keywords":["cp","nocrits","nodmgspread","uncletopia"],"game_id":440,"stv_port":27086,"stv_name":"Uncletopia | London | 8 | Community | STV","players":null},{"server_id":300,"name":"Uncletopia | Montréal | 1 | All Maps","name_short":"mtl-1","host":"mtl-1.ca.uncletopia.com","port":27015,"enabled":true,"region":"us-east","cc":"ca","latitude":45.50889,"longitude":-73.56167,"reserved":0,"last_update":"0001-01-01T00:00:00Z","name_a2s":"Uncletopia | Montréal | 1 | All Maps","protocol":17,"map":"pl_swiftwater_final1","folder":"tf","game":"Team Fortress","app_id":440,"player_count":20,"max_players":24,"Bots":0,"server_type":"Dedicated","server_os":"Linux","password":true,"vac":true,"version":"7757534","steam_id":85568392924500087,"keywords":["nocrits","nodmgspread","payload","uncletopia"],"game_id":440,"stv_port":27016,"stv_name":"Uncletopia | Montréal | 1 | All Maps | STV","players":[{"user_id":4,"name":"Piyono","steam_id":76561197962188504,"connected_time":6864000000000,"state":"active","ping":61},{"user_id":69,"name":"WarpdriveEngineer","steam_id":76561198073530973,"connected_time":952000000000,"state":"active","ping":63},{"user_id":70,"name":"WM1 PYRO","steam_id":76561198045893896,"connected_time":631000000000,"state":"active","ping":115},{"user_id":65,"name":"Bee","steam_id":76561198074681324,"connected_time":1106000000000,"state":"active","ping":51},{"user_id":71,"name":"Player_X_YT","steam_id":76561198377711617,"connected_time":573000000000,"state":"active","ping":70},{"user_id":46,"name":"Gandalf Gaming","steam_id":76561198368151490,"connected_time":2284000000000,"state":"active","ping":59},{"user_id":66,"name":"milk","steam_id":76561198147373844,"connected_time":1104000000000,"state":"active","ping":127},{"user_id":60,"name":"totally not a pile of beans","steam_id":76561198119851931,"connected_time":1576000000000,"state":"active","ping":74},{"user_id":58,"name":"pablo","steam_id":76561198395577807,"connected_time":1777000000000,"state":"active","ping":44},{"user_id":80,"name":"FLORAL COMPUTING","steam_id":76561199056492130,"connected_time":111000000000,"state":"active","ping":55},{"user_id":67,"name":"desk lamp","steam_id":76561198061378833,"connected_time":1103000000000,"state":"active","ping":101},{"user_id":68,"name":"Bobo","steam_id":76561198052308399,"connected_time":1096000000000,"state":"active","ping":159},{"user_id":61,"name":"Lord of the Moon","steam_id":76561198014115769,"connected_time":1558000000000,"state":"active","ping":80},{"user_id":72,"name":"Viper101","steam_id":76561199401726747,"connected_time":521000000000,"state":"active","ping":80},{"user_id":79,"name":"Bubz","steam_id":76561199013499631,"connected_time":262000000000,"state":"active","ping":70},{"user_id":74,"name":"Phillip Jeffries","steam_id":76561198064052174,"connected_time":429000000000,"state":"active","ping":65},{"user_id":63,"name":"JuSTAR_io","steam_id":76561198016095410,"connected_time":1541000000000,"state":"active","ping":59},{"user_id":75,"name":"Ann1ck","steam_id":76561198361129190,"connected_time":423000000000,"state":"active","ping":65},{"user_id":76,"name":"JACOB","steam_id":76561198211874895,"connected_time":414000000000,"state":"active","ping":82},{"user_id":78,"name":"Funny Skeleton Man","steam_id":76561198264262564,"connected_time":392000000000,"state":"active","ping":86}]},{"server_id":301,"name":"Uncletopia | Montréal | 2 | All Maps","name_short":"mtl-2","host":"mtl-1.ca.uncletopia.com","port":27025,"enabled":true,"region":"us-east","cc":"ca","latitude":45.50889,"longitude":-73.56167,"reserved":0,"last_update":"0001-01-01T00:00:00Z","name_a2s":"Uncletopia | Montréal | 2 | All Maps","protocol":17,"map":"cp_sunshine","folder":"tf","game":"Team Fortress","app_id":440,"player_count":0,"max_players":24,"Bots":0,"server_type":"Dedicated","server_os":"Linux","password":true,"vac":true,"version":"7757534","steam_id":85568392924500088,"keywords":["cp","nocrits","nodmgspread","uncletopia"],"game_id":440,"stv_port":27026,"stv_name":"Uncletopia | Montréal | 2 | All Maps | STV","players":null},{"server_id":302,"name":"Uncletopia | Montréal | 3 | All Maps","name_short":"mtl-3","host":"mtl-1.ca.uncletopia.com","port":27035,"enabled":true,"region":"us-east","cc":"ca","latitude":45.50889,"longitude":-73.56167,"reserved":0,"last_update":"0001-01-01T00:00:00Z","name_a2s":"Uncletopia | Montréal | 3 | All Maps","protocol":17,"map":"pl_badwater","folder":"tf","game":"Team Fortress","app_id":440,"player_count":0,"max_players":24,"Bots":0,"server_type":"Dedicated","server_os":"Linux","password":true,"vac":true,"version":"7757534","steam_id":85568392924500089,"keywords":["nocrits","nodmgspread","payload","uncletopia"],"game_id":440,"stv_port":27036,"stv_name":"Uncletopia | Montréal | 3 | All Maps | STV","players":null},{"server_id":303,"name":"Uncletopia | Montréal | 4 | No Payload","name_short":"mtl-4","host":"mtl-1.ca.uncletopia.com","port":27045,"enabled":true,"region":"us-east","cc":"ca","latitude":45.50889,"longitude":-73.56167,"reserved":0,"last_update":"0001-01-01T00:00:00Z","name_a2s":"Uncletopia | Montréal | 4 | No Payload","protocol":17,"map":"pl_pier","folder":"tf","game":"Team Fortress","app_id":440,"player_count":0,"max_players":24,"Bots":0,"server_type":"Dedicated","server_os":"Linux","password":true,"vac":true,"version":"7757534","steam_id":85568392924500090,"keywords":["nocrits","nodmgspread","payload","uncletopia"],"game_id":440,"stv_port":27046,"stv_name":"Uncletopia | Montréal | 4 | No Payload | STV","players":null},{"server_id":13,"name":"Uncletopia | New York City | 1 | All Maps","name_short":"nyc-1","host":"nyc-1.us.uncletopia.com","port":27015,"enabled":true,"region":"us-east","cc":"us","latitude":40.73061,"longitude":-73.93524,"reserved":0,"last_update":"0001-01-01T00:00:00Z","name_a2s":"Uncletopia | New York City | 1 | All Maps","protocol":17,"map":"cp_dustbowl","folder":"tf","game":"Team Fortress","app_id":440,"player_count":0,"max_players":24,"Bots":0,"server_type":"Dedicated","server_os":"Linux","password":true,"vac":true,"version":"7757534","steam_id":85568392924469993,"keywords":["cp","nocrits","nodmgspread","uncletopia"],"game_id":440,"stv_port":27016,"stv_name":"Uncletopia | New York City | 1 | All Maps | STV","players":null},{"server_id":14,"name":"Uncletopia | New York City | 2 | All Maps","name_short":"nyc-2","host":"nyc-1.us.uncletopia.com","port":27025,"enabled":true,"region":"us-east","cc":"us","latitude":40.73061,"longitude":-73.93524,"reserved":0,"last_update":"0001-01-01T00:00:00Z","name_a2s":"Uncletopia | New York City | 2 | All Maps","protocol":17,"map":"pl_badwater","folder":"tf","game":"Team Fortress","app_id":440,"player_count":24,"max_players":24,"Bots":0,"server_type":"Dedicated","server_os":"Linux","password":true,"vac":true,"version":"7757534","steam_id":85568392924469994,"keywords":["nocrits","nodmgspread","payload","uncletopia"],"game_id":440,"stv_port":27026,"stv_name":"Uncletopia | New York City | 2 | All Maps | STV","players":[{"user_id":194,"name":"JacripspyVulcano","steam_id":76561198966980576,"connected_time":2443000000000,"state":"active","ping":45},{"user_id":217,"name":"[AD THE ZEBRA!]","steam_id":76561198084121940,"connected_time":252000000000,"state":"active","ping":89},{"user_id":197,"name":"PunchGhost","steam_id":76561198041668043,"connected_time":2200000000000,"state":"active","ping":67},{"user_id":176,"name":"boat","steam_id":76561198157124609,"connected_time":3954000000000,"state":"active","ping":55},{"user_id":168,"name":"Kaleb","steam_id":76561198331013248,"connected_time":4492000000000,"state":"active","ping":65},{"user_id":132,"name":"🅜🅔🅔🅚🅢🅣🅔\ufffd\ufffd\ufffd","steam_id":76561197999748343,"connected_time":6171000000000,"state":"active","ping":75},{"user_id":191,"name":"M.X 234","steam_id":76561198806937802,"connected_time":2670000000000,"state":"active","ping":62},{"user_id":133,"name":"Blitzy","steam_id":76561198149472890,"connected_time":6169000000000,"state":"active","ping":90},{"user_id":205,"name":"The Land Admiral","steam_id":76561198159356609,"connected_time":1049000000000,"state":"active","ping":55},{"user_id":213,"name":"PERC ANGLE","steam_id":76561198449527009,"connected_time":281000000000,"state":"active","ping":61},{"user_id":161,"name":"Snorty","steam_id":76561198114304454,"connected_time":5318000000000,"state":"active","ping":77},{"user_id":203,"name":"c3RldmVu","steam_id":76561198173047169,"connected_time":1422000000000,"state":"active","ping":49},{"user_id":216,"name":"lyanide","steam_id":76561198311704368,"connected_time":257000000000,"state":"active","ping":63},{"user_id":210,"name":"I kill monkeys","steam_id":76561198271946602,"connected_time":386000000000,"state":"active","ping":105},{"user_id":185,"name":"Cookie","steam_id":76561198047736899,"connected_time":3422000000000,"state":"active","ping":37},{"user_id":144,"name":"Rockguy21","steam_id":76561198121303359,"connected_time":6019000000000,"state":"active","ping":59},{"user_id":201,"name":"WiggleJigglez","steam_id":76561198102931991,"connected_time":2055000000000,"state":"active","ping":58},{"user_id":215,"name":"Spunk(Y)","steam_id":76561198381153658,"connected_time":265000000000,"state":"active","ping":105},{"user_id":151,"name":"ttv/Muenstier","steam_id":76561198312153623,"connected_time":5962000000000,"state":"active","ping":45},{"user_id":207,"name":"crabapples","steam_id":76561198075818655,"connected_time":988000000000,"state":"active","ping":68},{"user_id":208,"name":"Bingus Floppa","steam_id":76561198318970846,"connected_time":927000000000,"state":"active","ping":51},{"user_id":204,"name":"Chemo","steam_id":76561197961308370,"connected_time":1257000000000,"state":"active","ping":53},{"user_id":199,"name":"theghazinator","steam_id":76561198188027695,"connected_time":2069000000000,"state":"active","ping":60},{"user_id":212,"name":"RaixaR","steam_id":76561198025289430,"connected_time":385000000000,"state":"active","ping":100}]},{"server_id":15,"name":"Uncletopia | New York City | 3 | Stopwatch Beta","name_short":"nyc-3","host":"nyc-1.us.uncletopia.com","port":27035,"enabled":true,"region":"us-east","cc":"us","latitude":40.73061,"longitude":-73.93524,"reserved":0,"last_update":"0001-01-01T00:00:00Z","name_a2s":"Uncletopia | New York City | 3 | Stopwatch Beta","protocol":17,"map":"workshop/pl_summercoast_rc8e.ugc1761528829","folder":"tf","game":"Team Fortress","app_id":440,"player_count":0,"max_players":24,"Bots":0,"server_type":"Dedicated","server_os":"Linux","password":true,"vac":true,"version":"7757534","steam_id":85568392924742820,"keywords":["nocrits","nodmgspread","payload","uncletopia"],"game_id":440,"stv_port":27036,"stv_name":"Uncletopia | New York City | 3 | Stopwatch Beta | STV","players":null},{"server_id":16,"name":"Uncletopia | New York City | 4 | Community","name_short":"nyc-4","host":"nyc-1.us.uncletopia.com","port":27045,"enabled":true,"region":"us-east","cc":"us","latitude":40.73061,"longitude":-73.93524,"reserved":0,"last_update":"0001-01-01T00:00:00Z","name_a2s":"Uncletopia | New York City | 4 | Community","protocol":17,"map":"workshop/koth_slaughter_rc1.ugc1712845210","folder":"tf","game":"Team Fortress","app_id":440,"player_count":3,"max_players":24,"Bots":0,"server_type":"Dedicated","server_os":"Linux","password":true,"vac":true,"version":"7757534","steam_id":85568392924742821,"keywords":["cp","nocrits","nodmgspread","uncletopia"],"game_id":440,"stv_port":27046,"stv_name":"Uncletopia | New York City | 4 | Community | STV","players":[{"user_id":9,"name":"Meatpacking Health Inspector","steam_id":76561199027981643,"connected_time":1302000000000,"state":"active","ping":64},{"user_id":10,"name":"cal080","steam_id":76561199406011394,"connected_time":336000000000,"state":"active","ping":56},{"user_id":12,"name":"devium","steam_id":76561199470217053,"connected_time":198000000000,"state":"active","ping":53}]},{"server_id":142,"name":"Uncletopia | São Paulo | 1 | All Maps","name_short":"sao-1","host":"sao-1.br.uncletopia.com","port":27015,"enabled":true,"region":"sa","cc":"br","latitude":-23.533773,"longitude":-46.62529,"reserved":0,"last_update":"0001-01-01T00:00:00Z","name_a2s":"Uncletopia | São Paulo | 1 | All Maps","protocol":17,"map":"cp_snakewater_final1","folder":"tf","game":"Team Fortress","app_id":440,"player_count":0,"max_players":24,"Bots":0,"server_type":"Dedicated","server_os":"Linux","password":true,"vac":true,"version":"7757534","steam_id":85568392924469996,"keywords":["cp","nocrits","nodmgspread","uncletopia"],"game_id":440,"stv_port":27016,"stv_name":"Uncletopia | São Paulo | 1 | All Maps | STV","players":null},{"server_id":143,"name":"Uncletopia | São Paulo | 2 | All Maps","name_short":"sao-2","host":"sao-2.br.uncletopia.com","port":27015,"enabled":true,"region":"sa","cc":"br","latitude":-23.533773,"longitude":-46.62529,"reserved":0,"last_update":"0001-01-01T00:00:00Z","name_a2s":"Uncletopia | São Paulo | 2 | All Maps","protocol":17,"map":"cp_sunshine","folder":"tf","game":"Team Fortress","app_id":440,"player_count":0,"max_players":24,"Bots":0,"server_type":"Dedicated","server_os":"Linux","password":true,"vac":true,"version":"7757534","steam_id":85568392924485349,"keywords":["cp","nocrits","nodmgspread","uncletopia"],"game_id":440,"stv_port":27016,"stv_name":"Uncletopia | São Paulo | 2 | All Maps | STV","players":null},{"server_id":7,"name":"Uncletopia | Seattle | 1 | All Maps","name_short":"sea-1","host":"sea-1.us.uncletopia.com","port":27015,"enabled":true,"region":"us-west","cc":"us","latitude":47.608013,"longitude":-122.33517,"reserved":0,"last_update":"0001-01-01T00:00:00Z","name_a2s":"Uncletopia | Seattle | 1 | All Maps","protocol":17,"map":"pl_upward","folder":"tf","game":"Team Fortress","app_id":440,"player_count":24,"max_players":24,"Bots":0,"server_type":"Dedicated","server_os":"Linux","password":true,"vac":true,"version":"7757534","steam_id":85568392924469997,"keywords":["nocrits","nodmgspread","payload","uncletopia"],"game_id":440,"stv_port":27016,"stv_name":"Uncletopia | Seattle | 1 | All Maps | STV","players":[{"user_id":403,"name":"BoeingBomb","steam_id":76561198326789339,"connected_time":712000000000,"state":"active","ping":146},{"user_id":404,"name":"Killer Fish From San Diego","steam_id":76561199037594575,"connected_time":566000000000,"state":"active","ping":63},{"user_id":392,"name":"WinningRook","steam_id":76561198058963854,"connected_time":1161000000000,"state":"active","ping":86},{"user_id":402,"name":"Melon","steam_id":76561198086844531,"connected_time":757000000000,"state":"active","ping":112},{"user_id":386,"name":"ryleebillie","steam_id":76561198395151840,"connected_time":1722000000000,"state":"active","ping":100},{"user_id":379,"name":"Pasta","steam_id":76561198967200587,"connected_time":2149000000000,"state":"active","ping":131},{"user_id":408,"name":"gNarNar","steam_id":76561197994505205,"connected_time":388000000000,"state":"active","ping":125},{"user_id":291,"name":"Mignyanne :3","steam_id":76561198048754056,"connected_time":7611000000000,"state":"active","ping":61},{"user_id":409,"name":"♥ President Shitfart ♥","steam_id":76561198141819053,"connected_time":128000000000,"state":"active","ping":64},{"user_id":383,"name":"Cayman","steam_id":76561198202668056,"connected_time":1790000000000,"state":"active","ping":48},{"user_id":393,"name":"AKconner","steam_id":76561198312569787,"connected_time":1152000000000,"state":"active","ping":114},{"user_id":394,"name":"old birb man","steam_id":76561199410269097,"connected_time":1138000000000,"state":"active","ping":92},{"user_id":287,"name":"Eris","steam_id":76561199471434875,"connected_time":8337000000000,"state":"active","ping":37},{"user_id":373,"name":"Korey","steam_id":76561198210734407,"connected_time":2802000000000,"state":"active","ping":114},{"user_id":396,"name":"Spike","steam_id":76561198072998972,"connected_time":982000000000,"state":"active","ping":86},{"user_id":406,"name":"Florence Jenkins","steam_id":76561198023894049,"connected_time":406000000000,"state":"active","ping":56},{"user_id":401,"name":"Bing Soy","steam_id":76561199091381775,"connected_time":849000000000,"state":"active","ping":96},{"user_id":345,"name":"oo","steam_id":76561198119626492,"connected_time":6060000000000,"state":"active","ping":88},{"user_id":281,"name":"Luca","steam_id":76561198125087140,"connected_time":8817000000000,"state":"active","ping":46},{"user_id":380,"name":"Themasterman75","steam_id":76561199385573293,"connected_time":2097000000000,"state":"active","ping":78},{"user_id":333,"name":"jungus","steam_id":76561198129862008,"connected_time":6406000000000,"state":"active","ping":77},{"user_id":371,"name":"mu","steam_id":76561197997530228,"connected_time":3006000000000,"state":"active","ping":54},{"user_id":364,"name":"mcdonal poptart","steam_id":76561198206922028,"connected_time":3900000000000,"state":"active","ping":82},{"user_id":405,"name":"lavender","steam_id":76561199069518286,"connected_time":424000000000,"state":"active","ping":75}]},{"server_id":119,"name":"Uncletopia | Seattle | 2 | All Maps","name_short":"sea-2","host":"sea-1.us.uncletopia.com","port":27025,"enabled":true,"region":"us-west","cc":"us","latitude":47.608013,"longitude":-122.33517,"reserved":0,"last_update":"0001-01-01T00:00:00Z","name_a2s":"Uncletopia | Seattle | 2 | All Maps","protocol":17,"map":"pl_upward","folder":"tf","game":"Team Fortress","app_id":440,"player_count":24,"max_players":24,"Bots":0,"server_type":"Dedicated","server_os":"Linux","password":true,"vac":true,"version":"7757534","steam_id":85568392924469998,"keywords":["nocrits","nodmgspread","payload","uncletopia"],"game_id":440,"stv_port":27026,"stv_name":"Uncletopia | Seattle | 2 | All Maps | STV","players":[{"user_id":184,"name":"Giantbob","steam_id":76561199043760220,"connected_time":3831000000000,"state":"active","ping":98},{"user_id":151,"name":"H4V0C","steam_id":76561199129350925,"connected_time":6050000000000,"state":"active","ping":56},{"user_id":208,"name":"jawnymac","steam_id":76561198179529599,"connected_time":907000000000,"state":"active","ping":74},{"user_id":187,"name":"Vimh","steam_id":76561198384938589,"connected_time":3371000000000,"state":"active","ping":38},{"user_id":192,"name":"Court Wizard, Sir Dr. Clydesdal","steam_id":76561198149267697,"connected_time":2198000000000,"state":"active","ping":66},{"user_id":209,"name":"R5-D4","steam_id":76561198025196439,"connected_time":839000000000,"state":"active","ping":55},{"user_id":193,"name":"DEMO PAN TF2","steam_id":76561199152778243,"connected_time":2196000000000,"state":"active","ping":42},{"user_id":210,"name":"sock","steam_id":76561199117597830,"connected_time":830000000000,"state":"active","ping":112},{"user_id":195,"name":"Papa Panda","steam_id":76561198159061475,"connected_time":2169000000000,"state":"active","ping":79},{"user_id":194,"name":"MonteJT","steam_id":76561198055409360,"connected_time":2193000000000,"state":"active","ping":40},{"user_id":197,"name":"SneakyRocks","steam_id":76561198201694213,"connected_time":2140000000000,"state":"active","ping":85},{"user_id":203,"name":"armpit fetishist","steam_id":76561199008452637,"connected_time":1703000000000,"state":"active","ping":31},{"user_id":80,"name":"ejschild745","steam_id":76561199013388867,"connected_time":11359000000000,"state":"active","ping":74},{"user_id":189,"name":"Zeke McGeeks","steam_id":76561198067050258,"connected_time":3349000000000,"state":"active","ping":44},{"user_id":211,"name":"Unsupervised kid","steam_id":76561199098230670,"connected_time":782000000000,"state":"active","ping":112},{"user_id":207,"name":"Strikerbolt","steam_id":76561199095622897,"connected_time":972000000000,"state":"active","ping":84},{"user_id":149,"name":"worker","steam_id":76561198039608940,"connected_time":6141000000000,"state":"active","ping":77},{"user_id":174,"name":"bepsu","steam_id":76561198826566231,"connected_time":4609000000000,"state":"active","ping":91},{"user_id":212,"name":"PzVIIIMaus","steam_id":76561198346559365,"connected_time":674000000000,"state":"active","ping":96},{"user_id":190,"name":"Gary, 40, soul sucking 9-5","steam_id":76561198073812888,"connected_time":3301000000000,"state":"active","ping":45},{"user_id":213,"name":"The Super Mario Bros. Movie","steam_id":76561198871692156,"connected_time":209000000000,"state":"active","ping":47},{"user_id":202,"name":"OBS","steam_id":76561199226941302,"connected_time":1954000000000,"state":"active","ping":90},{"user_id":152,"name":"Omnoman","steam_id":76561198006258213,"connected_time":6014000000000,"state":"active","ping":136},{"user_id":206,"name":"The Pepsi® Superbowl®!","steam_id":76561198080828981,"connected_time":1184000000000,"state":"active","ping":83}]},{"server_id":406,"name":"Uncletopia | Seattle | 3 | Stopwatch Beta","name_short":"sea-3","host":"sea-1.us.uncletopia.com","port":27035,"enabled":true,"region":"us-west","cc":"us","latitude":47.608013,"longitude":-122.33517,"reserved":0,"last_update":"0001-01-01T00:00:00Z","name_a2s":"Uncletopia | Seattle | 3 | Stopwatch Beta","protocol":17,"map":"koth_highpass","folder":"tf","game":"Team Fortress","app_id":440,"player_count":1,"max_players":24,"Bots":0,"server_type":"Dedicated","server_os":"Linux","password":true,"vac":true,"version":"7757534","steam_id":85568392924515217,"keywords":["cp","nocrits","nodmgspread","uncletopia"],"game_id":440,"stv_port":27036,"stv_name":"Uncletopia | Seattle | 3 | Stopwatch Beta | STV","players":[{"user_id":15,"name":"Lesbian Futa Mommy","steam_id":76561198130479030,"connected_time":68000000000,"state":"active","ping":56}]},{"server_id":17,"name":"Uncletopia | San Francisco | 1 | All Maps","name_short":"sfo-1","host":"sfo-1.us.uncletopia.com","port":27015,"enabled":true,"region":"us-west","cc":"us","latitude":37.77397,"longitude":-122.4313,"reserved":0,"last_update":"0001-01-01T00:00:00Z","name_a2s":"Uncletopia | San Francisco | 1 | All Maps","protocol":17,"map":"pl_pier","folder":"tf","game":"Team Fortress","app_id":440,"player_count":23,"max_players":24,"Bots":0,"server_type":"Dedicated","server_os":"Linux","password":true,"vac":true,"version":"7757534","steam_id":85568392924469999,"keywords":["nocrits","nodmgspread","payload","uncletopia"],"game_id":440,"stv_port":27016,"stv_name":"Uncletopia | San Francisco | 1 | All Maps | STV","players":[{"user_id":337,"name":"Greskrendtregk","steam_id":76561197969553142,"connected_time":181000000000,"state":"active","ping":58},{"user_id":305,"name":"Coolshroomish","steam_id":76561199109440924,"connected_time":3199000000000,"state":"active","ping":72},{"user_id":267,"name":"Pine Tree","steam_id":76561198112323877,"connected_time":7407000000000,"state":"active","ping":137},{"user_id":336,"name":"shy guy","steam_id":76561198151246059,"connected_time":517000000000,"state":"active","ping":50},{"user_id":331,"name":"InterplanetaryGentlemann","steam_id":76561198146559390,"connected_time":1076000000000,"state":"active","ping":61},{"user_id":342,"name":"A Random Guy","steam_id":76561198052725191,"connected_time":17000000000,"state":"spawning","ping":55},{"user_id":340,"name":"K2f","steam_id":76561198049600563,"connected_time":133000000000,"state":"active","ping":46},{"user_id":292,"name":"spacetoven","steam_id":76561198115821131,"connected_time":4803000000000,"state":"active","ping":45},{"user_id":263,"name":"DavisE","steam_id":76561198075504309,"connected_time":7457000000000,"state":"active","ping":91},{"user_id":341,"name":"Homunculus Humphrey","steam_id":76561198079797048,"connected_time":89000000000,"state":"active","ping":123},{"user_id":338,"name":"Mr War Crimes","steam_id":76561199115766913,"connected_time":164000000000,"state":"active","ping":184},{"user_id":268,"name":"MrHope","steam_id":76561197970434154,"connected_time":7374000000000,"state":"active","ping":84},{"user_id":319,"name":"legalizme223","steam_id":76561198051698391,"connected_time":1842000000000,"state":"active","ping":115},{"user_id":335,"name":"loyaldandan0764","steam_id":76561199231020424,"connected_time":568000000000,"state":"active","ping":79},{"user_id":312,"name":"cuppo","steam_id":76561198022008901,"connected_time":2944000000000,"state":"active","ping":82},{"user_id":239,"name":"rmbl","steam_id":76561198150137369,"connected_time":8844000000000,"state":"active","ping":55},{"user_id":322,"name":"PeptoBismol","steam_id":76561198082669076,"connected_time":1513000000000,"state":"active","ping":62},{"user_id":317,"name":"pt","steam_id":76561198143023330,"connected_time":2194000000000,"state":"active","ping":59},{"user_id":320,"name":".9 lg","steam_id":76561198092238353,"connected_time":1748000000000,"state":"active","ping":74},{"user_id":327,"name":"Soda Popinski","steam_id":76561198014042767,"connected_time":1373000000000,"state":"active","ping":130},{"user_id":339,"name":"DaBeatGoOff?","steam_id":76561198106507400,"connected_time":158000000000,"state":"active","ping":55},{"user_id":326,"name":"AFunkyPigeon","steam_id":76561199350099870,"connected_time":1450000000000,"state":"active","ping":82},{"user_id":285,"name":"griddy","steam_id":76561198825658971,"connected_time":5462000000000,"state":"active","ping":60}]},{"server_id":18,"name":"Uncletopia | San Francisco | 2 | All Maps","name_short":"sfo-2","host":"sfo-1.us.uncletopia.com","port":27025,"enabled":true,"region":"us-west","cc":"us","latitude":37.77397,"longitude":-122.4313,"reserved":0,"last_update":"0001-01-01T00:00:00Z","name_a2s":"Uncletopia | San Francisco | 2 | All Maps","protocol":17,"map":"koth_viaduct","folder":"tf","game":"Team Fortress","app_id":440,"player_count":0,"max_players":24,"Bots":0,"server_type":"Dedicated","server_os":"Linux","password":true,"vac":true,"version":"7757534","steam_id":85568392924470000,"keywords":["cp","nocrits","nodmgspread","uncletopia"],"game_id":440,"stv_port":27026,"stv_name":"Uncletopia | San Francisco | 2 | All Maps | STV","players":null},{"server_id":19,"name":"Uncletopia | San Francisco | 3 | Stopwatch Beta","name_short":"sfo-3","host":"sfo-1.us.uncletopia.com","port":27035,"enabled":true,"region":"us-west","cc":"us","latitude":37.77397,"longitude":-122.4313,"reserved":0,"last_update":"0001-01-01T00:00:00Z","name_a2s":"Uncletopia | San Francisco | 3 | Stopwatch Beta","protocol":17,"map":"workshop/pl_barnblitz_pro7.ugc582280235","folder":"tf","game":"Team Fortress","app_id":440,"player_count":0,"max_players":24,"Bots":0,"server_type":"Dedicated","server_os":"Linux","password":true,"vac":true,"version":"7757534","steam_id":85568392924742824,"keywords":["nocrits","nodmgspread","payload","uncletopia"],"game_id":440,"stv_port":27036,"stv_name":"Uncletopia | San Francisco | 3 | Stopwatch Beta | STV","players":null},{"server_id":20,"name":"Uncletopia | San Francisco | 4 | Community","name_short":"sfo-4","host":"sfo-1.us.uncletopia.com","port":27045,"enabled":true,"region":"us-west","cc":"us","latitude":37.77397,"longitude":-122.4313,"reserved":0,"last_update":"0001-01-01T00:00:00Z","name_a2s":"Uncletopia | San Francisco | 4 | Community","protocol":17,"map":"workshop/pl_barnblitz_pro7.ugc582280235","folder":"tf","game":"Team Fortress","app_id":440,"player_count":4,"max_players":24,"Bots":0,"server_type":"Dedicated","server_os":"Linux","password":true,"vac":true,"version":"7757534","steam_id":85568392924742826,"keywords":["nocrits","nodmgspread","payload","uncletopia"],"game_id":440,"stv_port":27046,"stv_name":"Uncletopia | San Francisco | 4 | Community | STV","players":[{"user_id":65,"name":"goopsnatch","steam_id":76561198143877682,"connected_time":2042000000000,"state":"active","ping":84},{"user_id":67,"name":"jayzak24","steam_id":76561198354267509,"connected_time":1906000000000,"state":"active","ping":60},{"user_id":75,"name":"Seanvich","steam_id":76561198065805500,"connected_time":1442000000000,"state":"active","ping":101},{"user_id":88,"name":"GඞMER","steam_id":76561198340389876,"connected_time":809000000000,"state":"active","ping":66}]},{"server_id":141,"name":"Uncletopia | Sydney | 1 | All Maps","name_short":"syd-1","host":"syd-1.au.uncletopia.com","port":27015,"enabled":true,"region":"au","cc":"au","latitude":-33.865143,"longitude":151.2099,"reserved":0,"last_update":"0001-01-01T00:00:00Z","name_a2s":"Uncletopia | Sydney | 1 | All Maps","protocol":17,"map":"cp_mountainlab","folder":"tf","game":"Team Fortress","app_id":440,"player_count":0,"max_players":24,"Bots":0,"server_type":"Dedicated","server_os":"Linux","password":true,"vac":true,"version":"7757534","steam_id":85568392924470001,"keywords":["cp","nocrits","nodmgspread","uncletopia"],"game_id":440,"stv_port":27016,"stv_name":"Uncletopia | Sydney | 1 | All Maps | STV","players":null},{"server_id":123,"name":"Uncletopia | Sydney | 2 | All Maps","name_short":"syd-2","host":"syd-1.au.uncletopia.com","port":27025,"enabled":true,"region":"au","cc":"au","latitude":-33.865143,"longitude":151.2099,"reserved":0,"last_update":"0001-01-01T00:00:00Z","name_a2s":"Uncletopia | Sydney | 2 | All Maps","protocol":17,"map":"cp_snakewater_final1","folder":"tf","game":"Team Fortress","app_id":440,"player_count":0,"max_players":24,"Bots":0,"server_type":"Dedicated","server_os":"Linux","password":true,"vac":true,"version":"7757534","steam_id":85568392924470002,"keywords":["cp","nocrits","nodmgspread","uncletopia"],"game_id":440,"stv_port":27026,"stv_name":"Uncletopia | Sydney | 2 | All Maps | STV","players":null},{"server_id":395,"name":"Uncletopia | Sydney | 3 | All Maps","name_short":"syd-3","host":"syd-1.au.uncletopia.com","port":27035,"enabled":true,"region":"au","cc":"au","latitude":-33.865143,"longitude":151.2099,"reserved":0,"last_update":"0001-01-01T00:00:00Z","name_a2s":"Uncletopia | Sydney | 3 | All Maps","protocol":17,"map":"koth_highpass","folder":"tf","game":"Team Fortress","app_id":440,"player_count":0,"max_players":24,"Bots":0,"server_type":"Dedicated","server_os":"Linux","password":true,"vac":true,"version":"7757534","steam_id":85568392925194467,"keywords":["cp","nocrits","nodmgspread","uncletopia"],"game_id":440,"stv_port":27036,"stv_name":"Uncletopia | Sydney | 3 | All Maps | STV","players":null},{"server_id":396,"name":"Uncletopia | Sydney | 4 | All Maps","name_short":"syd-4","host":"syd-1.au.uncletopia.com","port":27045,"enabled":true,"region":"au","cc":"au","latitude":-33.865143,"longitude":151.2099,"reserved":0,"last_update":"0001-01-01T00:00:00Z","name_a2s":"Uncletopia | Sydney | 4 | All Maps","protocol":17,"map":"pl_snowycoast","folder":"tf","game":"Team Fortress","app_id":440,"player_count":0,"max_players":24,"Bots":0,"server_type":"Dedicated","server_os":"Linux","password":true,"vac":true,"version":"7757534","steam_id":85568392925397958,"keywords":["nocrits","nodmgspread","payload","uncletopia"],"game_id":440,"stv_port":27046,"stv_name":"Uncletopia | Sydney | 4 | All Maps | STV","players":null},{"server_id":58,"name":"Uncletopia | Sydney | 5 | Stopwatch Beta","name_short":"syd-5","host":"syd-1.au.uncletopia.com","port":27055,"enabled":true,"region":"au","cc":"au","latitude":-33.865143,"longitude":151.2099,"reserved":0,"last_update":"0001-01-01T00:00:00Z","name_a2s":"Uncletopia | Sydney | 5 | Stopwatch Beta","protocol":17,"map":"koth_cascade","folder":"tf","game":"Team Fortress","app_id":440,"player_count":0,"max_players":24,"Bots":0,"server_type":"Dedicated","server_os":"Linux","password":true,"vac":true,"version":"7757534","steam_id":85568392925397959,"keywords":["cp","nocrits","nodmgspread","uncletopia"],"game_id":440,"stv_port":27056,"stv_name":"Uncletopia | Sydney | 5 | Stopwatch Beta | STV","players":null},{"server_id":59,"name":"Uncletopia | Sydney | 6 | Community","name_short":"syd-6","host":"syd-1.au.uncletopia.com","port":27065,"enabled":true,"region":"au","cc":"au","latitude":-33.865143,"longitude":151.2099,"reserved":0,"last_update":"0001-01-01T00:00:00Z","name_a2s":"Uncletopia | Sydney | 6 | Community","protocol":17,"map":"pl_badwater","folder":"tf","game":"Team Fortress","app_id":440,"player_count":0,"max_players":24,"Bots":0,"server_type":"Dedicated","server_os":"Linux","password":true,"vac":true,"version":"7757534","steam_id":85568392925397960,"keywords":["nocrits","nodmgspread","payload","uncletopia"],"game_id":440,"stv_port":27066,"stv_name":"Uncletopia | Sydney | 6 | Community | STV","players":null},{"server_id":49,"name":"Uncletopia | Warsaw | 1 | All Maps","name_short":"waw-1","host":"waw-1.pl.uncletopia.com","port":27015,"enabled":true,"region":"eu","cc":"pl","latitude":52.2297,"longitude":21.017532,"reserved":0,"last_update":"0001-01-01T00:00:00Z","name_a2s":"","protocol":0,"map":"","folder":"","game":"","app_id":0,"player_count":0,"max_players":0,"Bots":0,"server_type":"","server_os":"","password":false,"vac":false,"version":"","steam_id":0,"keywords":null,"game_id":0,"stv_port":0,"stv_name":"","players":null},{"server_id":50,"name":"Uncletopia | Warsaw | 2 | All Maps","name_short":"waw-2","host":"waw-1.pl.uncletopia.com","port":27025,"enabled":true,"region":"eu","cc":"pl","latitude":52.2297,"longitude":21.017532,"reserved":0,"last_update":"0001-01-01T00:00:00Z","name_a2s":"Uncletopia | Warsaw | 2 | All Maps","protocol":17,"map":"koth_highpass","folder":"tf","game":"Team Fortress","app_id":440,"player_count":1,"max_players":24,"Bots":0,"server_type":"Dedicated","server_os":"Linux","password":true,"vac":true,"version":"7757534","steam_id":85568392925397851,"keywords":["cp","nocrits","nodmgspread","uncletopia"],"game_id":440,"stv_port":27026,"stv_name":"Uncletopia | Warsaw | 2 | All Maps | STV","players":[{"user_id":38,"name":"fifionet","steam_id":76561198026618085,"connected_time":9000000000,"state":"active","ping":43}]},{"server_id":51,"name":"Uncletopia | Warsaw | 3 | All Maps","name_short":"waw-3","host":"waw-1.pl.uncletopia.com","port":27035,"enabled":true,"region":"eu","cc":"pl","latitude":52.2297,"longitude":21.017532,"reserved":0,"last_update":"0001-01-01T00:00:00Z","name_a2s":"Uncletopia | Warsaw | 3 | All Maps","protocol":17,"map":"koth_lakeside_final","folder":"tf","game":"Team Fortress","app_id":440,"player_count":0,"max_players":24,"Bots":0,"server_type":"Dedicated","server_os":"Linux","password":true,"vac":true,"version":"7757534","steam_id":85568392925397852,"keywords":["cp","nocrits","nodmgspread","uncletopia"],"game_id":440,"stv_port":27036,"stv_name":"Uncletopia | Warsaw | 3 | All Maps | STV","players":null},{"server_id":52,"name":"Uncletopia | Warsaw | 4 | All Maps","name_short":"waw-4","host":"waw-1.pl.uncletopia.com","port":27045,"enabled":true,"region":"eu","cc":"pl","latitude":52.2297,"longitude":21.017532,"reserved":0,"last_update":"0001-01-01T00:00:00Z","name_a2s":"Uncletopia | Warsaw | 4 | All Maps","protocol":17,"map":"cp_process_final","folder":"tf","game":"Team Fortress","app_id":440,"player_count":0,"max_players":24,"Bots":0,"server_type":"Dedicated","server_os":"Linux","password":true,"vac":true,"version":"7757534","steam_id":85568392925397853,"keywords":["cp","nocrits","nodmgspread","uncletopia"],"game_id":440,"stv_port":27046,"stv_name":"Uncletopia | Warsaw | 4 | All Maps | STV","players":null},{"server_id":53,"name":"Uncletopia | Warsaw | 5 | Stopwatch Beta","name_short":"waw-5","host":"waw-1.pl.uncletopia.com","port":27055,"enabled":true,"region":"eu","cc":"pl","latitude":52.2297,"longitude":21.017532,"reserved":0,"last_update":"0001-01-01T00:00:00Z","name_a2s":"Uncletopia | Warsaw | 5 | Stopwatch Beta","protocol":17,"map":"pl_pier","folder":"tf","game":"Team Fortress","app_id":440,"player_count":0,"max_players":24,"Bots":0,"server_type":"Dedicated","server_os":"Linux","password":true,"vac":true,"version":"7757534","steam_id":85568392925397854,"keywords":["nocrits","nodmgspread","payload","uncletopia"],"game_id":440,"stv_port":27056,"stv_name":"Uncletopia | Warsaw | 5 | Stopwatch Beta | STV","players":null},{"server_id":54,"name":"Uncletopia | Warsaw | 6 | Community","name_short":"waw-6","host":"waw-1.pl.uncletopia.com","port":27065,"enabled":true,"region":"eu","cc":"pl","latitude":52.2297,"longitude":21.017532,"reserved":0,"last_update":"0001-01-01T00:00:00Z","name_a2s":"Uncletopia | Warsaw | 6 | Community","protocol":17,"map":"koth_highpass","folder":"tf","game":"Team Fortress","app_id":440,"player_count":0,"max_players":24,"Bots":0,"server_type":"Dedicated","server_os":"Linux","password":true,"vac":true,"version":"7757534","steam_id":85568392925397856,"keywords":["cp","nocrits","nodmgspread","uncletopia"],"game_id":440,"stv_port":27066,"stv_name":"Uncletopia | Warsaw | 6 | Community | STV","players":null}]}