{"status":true,"message":"","result":[{"server_id":9,"name":"Uncletopia | Atlanta | 1 | All Maps","name_short":"atl-1","host":"atl-1.us.uncletopia.com","port":27015,"enabled":true,"region":"us-east","cc":"us","latitude":33.753746,"longitude":-84.38633,"reserved":0,"last_update":"0001-01-01T00:00:00Z","name_a2s":"Uncletopia | Atlanta | 1 | All Maps","protocol":17,"map":"cp_sunshine","folder":"tf","game":"Team Fortress","app_id":440,"player_count":24,"max_players":24,"Bots":0,"server_type":"Dedicated","server_os":"Linux","password":true,"vac":true,"version":"7961495","steam_id":85568392924469982,"keywords":["cp","nocrits","nodmgspread","uncletopia"],"game_id":440,"stv_port":27016,"stv_name":"Uncletopia | Atlanta | 1 | All Maps | STV","players":null},{"server_id":104,"name":"Uncletopia | Atlanta | 2 | All Maps","name_short":"atl-2","host":"atl-1.us.uncletopia.com","port":27025,"enabled":true,"region":"us-east","cc":"us","latitude":33.753746,"longitude":-84.38633,"reserved":0,"last_update":"0001-01-01T00:00:00Z","name_a2s":"Uncletopia | Atlanta | 2 | All Maps","protocol":17,"map":"pl_barnblitz","folder":"tf","game":"Team Fortress","app_id":440,"player_count":0,"max_players":24,"Bots":0,"server_type":"Dedicated","server_os":"Linux","password":true,"vac":true,"version":"7961495","steam_id":85568392924469983,"keywords":["nocrits","nodmgspread","payload","uncletopia"],"game_id":440,"stv_port":27026,"stv_name":"Uncletopia | Atlanta | 2 | All Maps | STV","players":null},{"server_id":400,"name":"Uncletopia | Atlanta | 3 | Stopwatch","name_short":"atl-3","host":"atl-1.us.uncletopia.com","port":27035,"enabled":true,"region":"us-east","cc":"us","latitude":33.753746,"longitude":-84.38633,"reserved":0,"last_update":"0001-01-01T00:00:00Z","name_a2s":"Uncletopia | Atlanta | 3 | Stopwatch","protocol":17,"map":"koth_bagel_rc6","folder":"tf","game":"Team Fortress","app_id":440,"player_count":0,"max_players":24,"Bots":0,"server_type":"Dedicated","server_os":"Linux","password":true,"vac":true,"version":"7961495","steam_id":85568392924515187,"keywords":["cp","nocrits","nodmgspread","uncletopia"],"game_id":440,"stv_port":27036,"stv_name":"Uncletopia | Atlanta | 3 | Stopwatch | STV","players":null},{"server_id":401,"name":"Uncletopia | Atlanta | 4 | Community","name_short":"atl-4","host":"atl-1.us.uncletopia.com","port":27045,"enabled":true,"region":"us-east","cc":"us","latitude":33.753746,"longitude":-84.38633,"reserved":0,"last_update":"0001-01-01T00:00:00Z","name_a2s":"Uncletopia | Atlanta | 4 | Community","protocol":17,"map":"koth_ashville_final","folder":"tf","game":"Team Fortress","app_id":440,"player_count":0,"max_players":24,"Bots":0,"server_type":"Dedicated","server_os":"Linux","password":true,"vac":true,"version":"7961495","steam_id":85568392924515188,"keywords":["cp","nocrits","nodmgspread","uncletopia"],"game_id":440,"stv_port":27046,"stv_name":"Uncletopia | Atlanta | 4 | Community | STV","players":null},{"server_id":2,"name":"Uncletopia | Chicago | 1 | All Maps","name_short":"chi-1","host":"chi-1.us.uncletopia.com","port":27015,"enabled":true,"region":"us-central","cc":"us","latitude":41.881832,"longitude":-87.62318,"reserved":0,"last_update":"0001-01-01T00:00:00Z","name_a2s":"Uncletopia | Chicago | 1 | All Maps","protocol":17,"map":"koth_lakeside_final","folder":"tf","game":"Team Fortress","app_id":440,"player_count":24,"max_players":24,"Bots":0,"server_type":"Dedicated","server_os":"Linux","password":true,"vac":true,"version":"7961495","steam_id":85568392924469984,"keywords":["cp","nocrits","nodmgspread","uncletopia"],"game_id":440,"stv_port":27016,"stv_name":"Uncletopia | Chicago | 1 | All Maps | STV","players":[{"user_id":924,"name":"Rambly Dambly","steam_id":76561198844496567,"connected_time":1815000000000,"state":"active","ping":59},{"user_id":913,"name":"Bullahorns","steam_id":76561197997138052,"connected_time":2618000000000,"state":"active","ping":61},{"user_id":811,"name":"loser","steam_id":76561198259380127,"connected_time":11248000000000,"state":"active","ping":60},{"user_id":884,"name":"Cooler Ye","steam_id":76561198068830312,"connected_time":5149000000000,"state":"active","ping":45},{"user_id":904,"name":"dunk","steam_id":76561198132476501,"connected_time":3550000000000,"state":"active","ping":47},{"user_id":914,"name":"Ducter","steam_id":76561198085369908,"connected_time":2607000000000,"state":"active","ping":63},{"user_id":837,"name":"mwee machine","steam_id":76561198047126327,"connected_time":8793000000000,"state":"active","ping":75},{"user_id":920,"name":"Fanatic","steam_id":76561198036960509,"connected_time":2221000000000,"state":"active","ping":61},{"user_id":917,"name":"Top Quacker","steam_id":76561198261316128,"connected_time":2474000000000,"state":"active","ping":55},{"user_id":927,"name":"ItsTheNebula","steam_id":76561198120576195,"connected_time":1390000000000,"state":"active","ping":93},{"user_id":910,"name":"Major Woody","steam_id":76561198835541533,"connected_time":3187000000000,"state":"active","ping":76},{"user_id":936,"name":"wroh2801","steam_id":76561199103292218,"connected_time":294000000000,"state":"active","ping":115},{"user_id":935,"name":"tgirl swag","steam_id":76561198128164970,"connected_time":794000000000,"state":"active","ping":108},{"user_id":930,"name":"Yummy Kabobz","steam_id":76561198067661705,"connected_time":1268000000000,"state":"active","ping":66},{"user_id":937,"name":"Cdesmondd","steam_id":76561198072774462,"connected_time":169000000000,"state":"active","ping":61},{"user_id":919,"name":"debin","steam_id":76561198070711217,"connected_time":2324000000000,"state":"active","ping":52},{"user_id":926,"name":"Raccoon Wizard","steam_id":76561198072562591,"connected_time":1426000000000,"state":"active","ping":86},{"user_id":898,"name":"Mellow Yellow","steam_id":76561198406276981,"connected_time":3943000000000,"state":"active","ping":46},{"user_id":932,"name":"dota player 74712","steam_id":76561198193746389,"connected_time":1244000000000,"state":"active","ping":81},{"user_id":911,"name":"Acheo","steam_id":76561198068228498,"connected_time":2885000000000,"state":"active","ping":70},{"user_id":852,"name":"stevie ape-shit","steam_id":76561198243965308,"connected_time":8212000000000,"state":"active","ping":73},{"user_id":830,"name":"HOMIE","steam_id":76561198057325155,"connected_time":9524000000000,"state":"active","ping":60},{"user_id":903,"name":"cotton candy ghooost","steam_id":76561198058998371,"connected_time":3594000000000,"state":"active","ping":69},{"user_id":934,"name":"toasty weber","steam_id":76561198037746805,"connected_time":1172000000000,"state":"active","ping":74}]},{"server_id":106,"name":"Uncletopia | Chicago | 2 | All Maps","name_short":"chi-2","host":"chi-1.us.uncletopia.com","port":27025,"enabled":true,"region":"us-central","cc":"us","latitude":41.881832,"longitude":-87.62318,"reserved":0,"last_update":"0001-01-01T00:00:00Z","name_a2s":"Uncletopia | Chicago | 2 | All Maps","protocol":17,"map":"koth_cascade","folder":"tf","game":"Team Fortress","app_id":440,"player_count":0,"max_players":24,"Bots":0,"server_type":"Dedicated","server_os":"Linux","password":true,"vac":true,"version":"7961495","steam_id":85568392924469985,"keywords":["cp","nocrits","nodmgspread","uncletopia"],"game_id":440,"stv_port":27026,"stv_name":"Uncletopia | Chicago | 2 | All Maps | STV","players":null},{"server_id":402,"name":"Uncletopia | Chicago | 3 | All Maps","name_short":"chi-3","host":"chi-1.us.uncletopia.com","port":27035,"enabled":true,"region":"us-central","cc":"us","latitude":41.881832,"longitude":-87.62318,"reserved":0,"last_update":"0001-01-01T00:00:00Z","name_a2s":"Uncletopia | Chicago | 3 | All Maps","protocol":17,"map":"cp_altitude","folder":"tf","game":"Team Fortress","app_id":440,"player_count":0,"max_players":24,"Bots":0,"server_type":"Dedicated","server_os":"Linux","password":true,"vac":true,"version":"7961495","steam_id":85568392924515191,"keywords":["cp","nocrits","nodmgspread","uncletopia"],"game_id":440,"stv_port":27036,"stv_name":"Uncletopia | Chicago | 3 | All Maps | STV","players":null},{"server_id":403,"name":"Uncletopia | Chicago | 4 | All Maps","name_short":"chi-4","host":"chi-1.us.uncletopia.com","port":27045,"enabled":true,"region":"us-central","cc":"us","latitude":41.881832,"longitude":-87.62318,"reserved":0,"last_update":"0001-01-01T00:00:00Z","name_a2s":"Uncletopia | Chicago | 4 | All Maps","protocol":17,"map":"cp_sunshine","folder":"tf","game":"Team Fortress","app_id":440,"player_count":24,"max_players":24,"Bots":0,"server_type":"Dedicated","server_os":"Linux","password":true,"vac":true,"version":"7961495","steam_id":85568392924515193,"keywords":["cp","nocrits","nodmgspread","uncletopia"],"game_id":440,"stv_port":27046,"stv_name":"Uncletopia | Chicago | 4 | All Maps | STV","players":[{"user_id":608,"name":"local man","steam_id":76561198074946673,"connected_time":408000000000,"state":"active","ping":60},{"user_id":554,"name":"caption cool","steam_id":76561197990612056,"connected_time":3176000000000,"state":"active","ping":45},{"user_id":577,"name":"WAKEUP☻","steam_id":76561198254479725,"connected_time":1481000000000,"state":"active","ping":45},{"user_id":605,"name":"Sovulous","steam_id":76561198045389233,"connected_time":470000000000,"state":"active","ping":70},{"user_id":448,"name":"Stosh on Jream","steam_id":76561198043256782,"connected_time":9050000000000,"state":"active","ping":82},{"user_id":556,"name":"ShadowBolt","steam_id":76561198061610985,"connected_time":3056000000000,"state":"active","ping":100},{"user_id":606,"name":"hashmap","steam_id":76561198043794014,"connected_time":463000000000,"state":"active","ping":47},{"user_id":613,"name":"Retro Phoenix","steam_id":76561198077176271,"connected_time":246000000000,"state":"active","ping":57},{"user_id":607,"name":"max.b1110","steam_id":76561199454065196,"connected_time":456000000000,"state":"active","ping":146},{"user_id":609,"name":"NexFrost","steam_id":76561197985774837,"connected_time":397000000000,"state":"active","ping":60},{"user_id":580,"name":"zpalmtree","steam_id":76561198134307620,"connected_time":1408000000000,"state":"active","ping":53},{"user_id":523,"name":"TheDwellerFrom13","steam_id":76561198269640574,"connected_time":5446000000000,"state":"active","ping":83},{"user_id":582,"name":"for the king","steam_id":76561197973488858,"connected_time":1356000000000,"state":"active","ping":60},{"user_id":610,"name":"St. Michael","steam_id":76561198037611052,"connected_time":334000000000,"state":"active","ping":64},{"user_id":571,"name":"big sump","steam_id":76561198113364714,"connected_time":2183000000000,"state":"active","ping":57},{"user_id":584,"name":"The Juice","steam_id":76561198065307144,"connected_time":1339000000000,"state":"active","ping":72},{"user_id":611,"name":"Tenzin Gyatso","steam_id":76561198258980884,"connected_time":296000000000,"state":"active","ping":99},{"user_id":551,"name":"whitr","steam_id":76561198043981478,"connected_time":3796000000000,"state":"active","ping":111},{"user_id":599,"name":"ManicButtonMasher","steam_id":76561198026725131,"connected_time":676000000000,"state":"active","ping":100},{"user_id":601,"name":"Cassius","steam_id":76561199181383832,"connected_time":644000000000,"state":"active","ping":87},{"user_id":612,"name":"do nothing and leave","steam_id":76561198073630276,"connected_time":284000000000,"state":"active","ping":52},{"user_id":602,"name":"Lumi","steam_id":76561198089978036,"connected_time":592000000000,"state":"active","ping":65},{"user_id":552,"name":"shoobs","steam_id":76561198042507255,"connected_time":3536000000000,"state":"active","ping":86},{"user_id":614,"name":"Tyth","steam_id":76561198062543298,"connected_time":223000000000,"state":"active","ping":91}]},{"server_id":36,"name":"Uncletopia | Chicago | 5 | All Maps","name_short":"chi-5","host":"chi-2.us.uncletopia.com","port":27015,"enabled":true,"region":"us-central","cc":"us","latitude":41.881832,"longitude":-87.62318,"reserved":0,"last_update":"0001-01-01T00:00:00Z","name_a2s":"Uncletopia | Chicago | 5 | All Maps","protocol":17,"map":"koth_highpass","folder":"tf","game":"Team Fortress","app_id":440,"player_count":0,"max_players":24,"Bots":0,"server_type":"Dedicated","server_os":"Linux","password":true,"vac":true,"version":"7961495","steam_id":85568392924866362,"keywords":["cp","nocrits","nodmgspread","uncletopia"],"game_id":440,"stv_port":27016,"stv_name":"Uncletopia | Chicago | 5 | All Maps | STV","players":null},{"server_id":37,"name":"Uncletopia | Chicago | 6 | All Maps","name_short":"chi-6","host":"chi-2.us.uncletopia.com","port":27025,"enabled":true,"region":"us-central","cc":"us","latitude":41.881832,"longitude":-87.62318,"reserved":0,"last_update":"0001-01-01T00:00:00Z","name_a2s":"Uncletopia | Chicago | 6 | All Maps","protocol":17,"map":"cp_mountainlab","folder":"tf","game":"Team Fortress","app_id":440,"player_count":23,"max_players":24,"Bots":0,"server_type":"Dedicated","server_os":"Linux","password":true,"vac":true,"version":"7961495","steam_id":85568392924866363,"keywords":["cp","nocrits","nodmgspread","uncletopia"],"game_id":440,"stv_port":27026,"stv_name":"Uncletopia | Chicago | 6 | All Maps | STV","players":[{"user_id":873,"name":"Missing Minus","steam_id":76561198120822928,"connected_time":2000000000,"state":"spawning","ping":52},{"user_id":857,"name":"Seojer","steam_id":76561198234965408,"connected_time":1711000000000,"state":"active","ping":125},{"user_id":845,"name":"GuyGoom","steam_id":76561198254522178,"connected_time":2537000000000,"state":"active","ping":55},{"user_id":870,"name":"Dwanor","steam_id":76561198039571887,"connected_time":495000000000,"state":"active","ping":61},{"user_id":871,"name":"BlazingWaters","steam_id":76561198136322660,"connected_time":261000000000,"state":"active","ping":81},{"user_id":854,"name":"aversa","steam_id":76561198840460101,"connected_time":2042000000000,"state":"active","ping":68},{"user_id":863,"name":"Saul Goodman","steam_id":76561198958881101,"connected_time":973000000000,"state":"active","ping":81},{"user_id":846,"name":"saucy jack","steam_id":76561198307012859,"connected_time":2437000000000,"state":"active","ping":78},{"user_id":847,"name":"robot with human hair","steam_id":76561198018691308,"connected_time":2401000000000,"state":"active","ping":75},{"user_id":864,"name":"Draugluin","steam_id":76561199219965276,"connected_time":972000000000,"state":"active","ping":163},{"user_id":848,"name":"frank","steam_id":76561198137777483,"connected_time":2400000000000,"state":"active","ping":61},{"user_id":861,"name":"Smiley Fries","steam_id":76561198052763637,"connected_time":1133000000000,"state":"active","ping":56},{"user_id":872,"name":"lobotomized","steam_id":76561198135559825,"connected_time":81000000000,"state":"active","ping":62},{"user_id":859,"name":"Person","steam_id":76561198093244204,"connected_time":1352000000000,"state":"active","ping":75},{"user_id":866,"name":"___Dogma___","steam_id":76561198879961615,"connected_time":906000000000,"state":"active","ping":59},{"user_id":856,"name":"hej","steam_id":76561198110530761,"connected_time":1863000000000,"state":"active","ping":137},{"user_id":869,"name":"Iron Sheik","steam_id":76561198069980923,"connected_time":605000000000,"state":"active","ping":63},{"user_id":836,"name":"Octovaitor","steam_id":76561198004658451,"connected_time":3793000000000,"state":"active","ping":61},{"user_id":850,"name":"The Foolish Samurai","steam_id":76561198094494945,"connected_time":2276000000000,"state":"active","ping":105},{"user_id":839,"name":"9gon Danmar33","steam_id":76561198056453091,"connected_time":3422000000000,"state":"active","ping":59},{"user_id":715,"name":"Hindmost","steam_id":76561199081837220,"connected_time":11942000000000,"state":"active","ping":76},{"user_id":867,"name":"Joe Nathan","steam_id":76561198041030399,"connected_time":881000000000,"state":"active","ping":74},{"user_id":852,"name":"aphip","steam_id":76561198084621244,"connected_time":2237000000000,"state":"active","ping":107}]},{"server_id":38,"name":"Uncletopia | Chicago | 7 | Stopwatch","name_short":"chi-7","host":"chi-2.us.uncletopia.com","port":27035,"enabled":true,"region":"us-central","cc":"us","latitude":41.881832,"longitude":-87.62318,"reserved":0,"last_update":"0001-01-01T00:00:00Z","name_a2s":"Uncletopia | Chicago | 7 | Stopwatch","protocol":17,"map":"workshop/koth_ashville_final.ugc2130459942","folder":"tf","game":"Team Fortress","app_id":440,"player_count":0,"max_players":24,"Bots":0,"server_type":"Dedicated","server_os":"Linux","password":true,"vac":true,"version":"7961495","steam_id":85568392924866364,"keywords":["cp","nocrits","nodmgspread","uncletopia"],"game_id":440,"stv_port":27036,"stv_name":"Uncletopia | Chicago | 7 | Stopwatch | STV","players":null},{"server_id":39,"name":"Uncletopia | Chicago | 8 | Community","name_short":"chi-8","host":"chi-2.us.uncletopia.com","port":27045,"enabled":true,"region":"us-central","cc":"us","latitude":41.881832,"longitude":-87.62318,"reserved":0,"last_update":"0001-01-01T00:00:00Z","name_a2s":"Uncletopia | Chicago | 8 | Community","protocol":17,"map":"workshop/rd_asteroid_redux_b1.ugc2154902912","folder":"tf","game":"Team Fortress","app_id":440,"player_count":0,"max_players":24,"Bots":0,"server_type":"Dedicated","server_os":"Linux","password":true,"vac":true,"version":"7961495","steam_id":85568392924866365,"keywords":["beta","nocrits","nodmgspread","rd","uncletopia"],"game_id":440,"stv_port":27046,"stv_name":"Uncletopia | Chicago | 8 | Community | STV","players":null},{"server_id":8,"name":"Uncletopia | Dallas | 1 | All Maps","name_short":"dal-1","host":"dal-1.us.uncletopia.com","port":27015,"enabled":true,"region":"us-central","cc":"us","latitude":32.779167,"longitude":-96.80889,"reserved":0,"last_update":"0001-01-01T00:00:00Z","name_a2s":"Uncletopia | Dallas | 1 | All Maps","protocol":17,"map":"pl_badwater","folder":"tf","game":"Team Fortress","app_id":440,"player_count":24,"max_players":24,"Bots":0,"server_type":"Dedicated","server_os":"Linux","password":true,"vac":true,"version":"7961495","steam_id":85568392924469986,"keywords":["nocrits","nodmgspread","payload","uncletopia"],"game_id":440,"stv_port":27016,"stv_name":"Uncletopia | Dallas | 1 | All Maps | STV","players":[{"user_id":654,"name":"Withered Bonnie (Real)","steam_id":76561198423310113,"connected_time":319000000000,"state":"active","ping":55},{"user_id":622,"name":"AntiCapitalist","steam_id":76561198055447355,"connected_time":1802000000000,"state":"active","ping":66},{"user_id":635,"name":"Dr.Toasty","steam_id":76561198976050095,"connected_time":1509000000000,"state":"active","ping":88},{"user_id":655,"name":"Vitae Kakon","steam_id":76561198307440313,"connected_time":288000000000,"state":"active","ping":89},{"user_id":649,"name":"cnoisy","steam_id":76561198043018600,"connected_time":508000000000,"state":"active","ping":87},{"user_id":587,"name":"[S]Mr. X [No Monitor]","steam_id":76561197963746035,"connected_time":5403000000000,"state":"active","ping":120},{"user_id":623,"name":"Tweek Tweak","steam_id":76561198445739792,"connected_time":1744000000000,"state":"active","ping":97},{"user_id":656,"name":"PizzaFratello","steam_id":76561199059951970,"connected_time":277000000000,"state":"active","ping":68},{"user_id":657,"name":"the12xu","steam_id":76561198197086561,"connected_time":274000000000,"state":"active","ping":97},{"user_id":658,"name":"Voodoo","steam_id":76561199082256740,"connected_time":272000000000,"state":"active","ping":108},{"user_id":647,"name":"High Roller","steam_id":76561198034467781,"connected_time":964000000000,"state":"active","ping":79},{"user_id":637,"name":"Wessle T","steam_id":76561198295353875,"connected_time":1470000000000,"state":"active","ping":93},{"user_id":650,"name":"Jauri","steam_id":76561197994448995,"connected_time":497000000000,"state":"active","ping":51},{"user_id":642,"name":"Olitude","steam_id":76561199238964574,"connected_time":1427000000000,"state":"active","ping":75},{"user_id":638,"name":"scrapheap","steam_id":76561198202407087,"connected_time":1460000000000,"state":"active","ping":99},{"user_id":659,"name":"Brad Goodman","steam_id":76561198138465052,"connected_time":255000000000,"state":"active","ping":52},{"user_id":630,"name":"Do No Harm","steam_id":76561199264073138,"connected_time":1623000000000,"state":"active","ping":66},{"user_id":660,"name":"KingSteve42","steam_id":76561198409455888,"connected_time":234000000000,"state":"active","ping":113},{"user_id":652,"name":"BADWOLF42","steam_id":76561198055447523,"connected_time":459000000000,"state":"active","ping":51},{"user_id":632,"name":"d1 bound instigator","steam_id":76561198113990147,"connected_time":1588000000000,"state":"active","ping":90},{"user_id":633,"name":"Ping","steam_id":76561198072947773,"connected_time":1582000000000,"state":"active","ping":74},{"user_id":648,"name":"Deathsorn","steam_id":76561198120578086,"connected_time":781000000000,"state":"active","ping":57},{"user_id":653,"name":"TeriyakiDynamite","steam_id":76561198050049346,"connected_time":456000000000,"state":"active","ping":92},{"user_id":634,"name":"on that zaza?","steam_id":76561198038713198,"connected_time":1571000000000,"state":"active","ping":90}]},{"server_id":108,"name":"Uncletopia | Dallas | 2 | All Maps","name_short":"dal-2","host":"dal-1.us.uncletopia.com","port":27025,"enabled":true,"region":"us-central","cc":"us","latitude":32.779167,"longitude":-96.80889,"reserved":0,"last_update":"0001-01-01T00:00:00Z","name_a2s":"Uncletopia | Dallas | 2 | All Maps","protocol":17,"map":"pl_barnblitz","folder":"tf","game":"Team Fortress","app_id":440,"player_count":24,"max_players":24,"Bots":0,"server_type":"Dedicated","server_os":"Linux","password":true,"vac":true,"version":"7961495","steam_id":85568392924469988,"keywords":["nocrits","nodmgspread","payload","uncletopia"],"game_id":440,"stv_port":27026,"stv_name":"Uncletopia | Dallas | 2 | All Maps | STV","players":[{"user_id":611,"name":"Foolie","steam_id":76561198291741747,"connected_time":1887000000000,"state":"active","ping":81},{"user_id":619,"name":"Voodo133","steam_id":76561198042670351,"connected_time":1389000000000,"state":"active","ping":103},{"user_id":616,"name":"beats nan annan na","steam_id":76561199245717718,"connected_time":1661000000000,"state":"active","ping":87},{"user_id":597,"name":"The Caretaker","steam_id":76561198125241411,"connected_time":2875000000000,"state":"active","ping":102},{"user_id":628,"name":"HalfDead","steam_id":76561198049700226,"connected_time":402000000000,"state":"active","ping":103},{"user_id":558,"name":"euphoricfilth","steam_id":76561198100160865,"connected_time":5657000000000,"state":"active","ping":62},{"user_id":593,"name":"Nez","steam_id":76561197963109059,"connected_time":3153000000000,"state":"active","ping":82},{"user_id":618,"name":"villain","steam_id":76561198083127707,"connected_time":1559000000000,"state":"active","ping":55},{"user_id":607,"name":"AHotdogVendor","steam_id":76561199211436683,"connected_time":2236000000000,"state":"active","ping":47},{"user_id":620,"name":"Jesus","steam_id":76561198391625669,"connected_time":1333000000000,"state":"active","ping":79},{"user_id":603,"name":"AndyIsVeryHandy","steam_id":76561198120561470,"connected_time":2350000000000,"state":"active","ping":62},{"user_id":585,"name":"All 579 Hawaiians in Wyoming","steam_id":76561199361622525,"connected_time":3996000000000,"state":"active","ping":80},{"user_id":614,"name":"MrMind","steam_id":76561199321657653,"connected_time":1816000000000,"state":"active","ping":70},{"user_id":617,"name":"Starkiller","steam_id":76561198101643120,"connected_time":1606000000000,"state":"active","ping":100},{"user_id":588,"name":"Bigchungass","steam_id":76561198835394693,"connected_time":3702000000000,"state":"active","ping":67},{"user_id":601,"name":"Nut Bustray","steam_id":76561198092403883,"connected_time":2414000000000,"state":"active","ping":84},{"user_id":604,"name":"Gwando","steam_id":76561198294629124,"connected_time":2332000000000,"state":"active","ping":45},{"user_id":605,"name":"Zorlovo","steam_id":76561198006443283,"connected_time":2275000000000,"state":"active","ping":69},{"user_id":576,"name":"aisu","steam_id":76561198043768507,"connected_time":4760000000000,"state":"active","ping":94},{"user_id":621,"name":"Not Slavoj Žižek","steam_id":76561198004619616,"connected_time":1249000000000,"state":"active","ping":92},{"user_id":615,"name":"MasterGeek.MX","steam_id":76561198063355220,"connected_time":1812000000000,"state":"active","ping":93},{"user_id":586,"name":"shnowshner","steam_id":76561198066450438,"connected_time":3954000000000,"state":"active","ping":98},{"user_id":623,"name":"EvilPi99let","steam_id":76561197987243470,"connected_time":971000000000,"state":"active","ping":79},{"user_id":626,"name":"meggie","steam_id":76561198038291026,"connected_time":535000000000,"state":"active","ping":44}]},{"server_id":404,"name":"Uncletopia | Dallas | 3 | All Maps","name_short":"dal-3","host":"dal-1.us.uncletopia.com","port":27035,"enabled":true,"region":"us-central","cc":"us","latitude":32.779167,"longitude":-96.80889,"reserved":0,"last_update":"0001-01-01T00:00:00Z","name_a2s":"Uncletopia | Dallas | 3 | All Maps","protocol":17,"map":"cp_dustbowl","folder":"tf","game":"Team Fortress","app_id":440,"player_count":0,"max_players":24,"Bots":0,"server_type":"Dedicated","server_os":"Linux","password":true,"vac":true,"version":"7961495","steam_id":85568392924515219,"keywords":["cp","nocrits","nodmgspread","uncletopia"],"game_id":440,"stv_port":27036,"stv_name":"Uncletopia | Dallas | 3 | All Maps | STV","players":null},{"server_id":405,"name":"Uncletopia | Dallas | 4 | Community","name_short":"dal-4","host":"dal-1.us.uncletopia.com","port":27045,"enabled":true,"region":"us-central","cc":"us","latitude":32.779167,"longitude":-96.80889,"reserved":0,"last_update":"0001-01-01T00:00:00Z","name_a2s":"Uncletopia | Dallas | 4 | Community","protocol":17,"map":"workshop/koth_product_final.ugc454272353","folder":"tf","game":"Team Fortress","app_id":440,"player_count":0,"max_players":24,"Bots":0,"server_type":"Dedicated","server_os":"Linux","password":true,"vac":true,"version":"7961495","steam_id":85568392924515220,"keywords":["cp","nocrits","nodmgspread","uncletopia"],"game_id":440,"stv_port":27046,"stv_name":"Uncletopia | Dallas | 4 | Community | STV","players":null},{"server_id":5,"name":"Uncletopia | Frankfurt | 1 | All Maps","name_short":"frk-1","host":"frk-1.de.uncletopia.com","port":27015,"enabled":true,"region":"eu","cc":"de","latitude":50.110924,"longitude":8.682127,"reserved":0,"last_update":"0001-01-01T00:00:00Z","name_a2s":"Uncletopia | Frankfurt | 1 | All Maps","protocol":17,"map":"koth_highpass","folder":"tf","game":"Team Fortress","app_id":440,"player_count":0,"max_players":24,"Bots":0,"server_type":"Dedicated","server_os":"Linux","password":true,"vac":true,"version":"7961495","steam_id":85568392924469989,"keywords":["cp","nocrits","nodmgspread","uncletopia"],"game_id":440,"stv_port":27016,"stv_name":"Uncletopia | Frankfurt | 1 | All Maps | STV","players":null},{"server_id":110,"name":"Uncletopia | Frankfurt | 2 | All Maps","name_short":"frk-2","host":"frk-1.de.uncletopia.com","port":27025,"enabled":true,"region":"eu","cc":"de","latitude":50.110924,"longitude":8.682127,"reserved":0,"last_update":"0001-01-01T00:00:00Z","name_a2s":"Uncletopia | Frankfurt | 2 | All Maps","protocol":17,"map":"pl_badwater","folder":"tf","game":"Team Fortress","app_id":440,"player_count":0,"max_players":24,"Bots":0,"server_type":"Dedicated","server_os":"Linux","password":true,"vac":true,"version":"7961495","steam_id":85568392924469990,"keywords":["nocrits","nodmgspread","payload","uncletopia"],"game_id":440,"stv_port":27026,"stv_name":"Uncletopia | Frankfurt | 2 | All Maps | STV","players":null},{"server_id":308,"name":"Uncletopia | Frankfurt | 3 | All Maps","name_short":"frk-3","host":"frk-1.de.uncletopia.com","port":27035,"enabled":true,"region":"eu","cc":"de","latitude":50.110924,"longitude":8.682127,"reserved":0,"last_update":"0001-01-01T00:00:00Z","name_a2s":"Uncletopia | Frankfurt | 3 | All Maps","protocol":17,"map":"pl_barnblitz","folder":"tf","game":"Team Fortress","app_id":440,"player_count":0,"max_players":24,"Bots":0,"server_type":"Dedicated","server_os":"Linux","password":true,"vac":true,"version":"7961495","steam_id":85568392924504274,"keywords":["nocrits","nodmgspread","payload","uncletopia"],"game_id":440,"stv_port":27036,"stv_name":"Uncletopia | Frankfurt | 3 | All Maps | STV","players":null},{"server_id":309,"name":"Uncletopia | Frankfurt | 4 | All Maps","name_short":"frk-4","host":"frk-1.de.uncletopia.com","port":27045,"enabled":true,"region":"eu","cc":"de","latitude":50.110924,"longitude":8.682127,"reserved":0,"last_update":"0001-01-01T00:00:00Z","name_a2s":"Uncletopia | Frankfurt | 4 | All Maps","protocol":17,"map":"koth_highpass","folder":"tf","game":"Team Fortress","app_id":440,"player_count":0,"max_players":24,"Bots":0,"server_type":"Dedicated","server_os":"Linux","password":true,"vac":true,"version":"7961495","steam_id":85568392924504275,"keywords":["cp","nocrits","nodmgspread","uncletopia"],"game_id":440,"stv_port":27046,"stv_name":"Uncletopia | Frankfurt | 4 | All Maps | STV","players":null},{"server_id":310,"name":"Uncletopia | Frankfurt | 5 | All Maps","name_short":"frk-5","host":"frk-1.de.uncletopia.com","port":27055,"enabled":true,"region":"eu","cc":"de","latitude":50.110924,"longitude":8.682127,"reserved":0,"last_update":"0001-01-01T00:00:00Z","name_a2s":"Uncletopia | Frankfurt | 5 | All Maps","protocol":17,"map":"pl_badwater","folder":"tf","game":"Team Fortress","app_id":440,"player_count":0,"max_players":24,"Bots":0,"server_type":"Dedicated","server_os":"Linux","password":true,"vac":true,"version":"7961495","steam_id":85568392924504277,"keywords":["nocrits","nodmgspread","payload","uncletopia"],"game_id":440,"stv_port":27056,"stv_name":"Uncletopia | Frankfurt | 5 | All Maps | STV","players":null},{"server_id":311,"name":"Uncletopia | Frankfurt | 6 | All Maps","name_short":"frk-6","host":"frk-1.de.uncletopia.com","port":27065,"enabled":true,"region":"eu","cc":"de","latitude":50.110924,"longitude":8.682127,"reserved":0,"last_update":"0001-01-01T00:00:00Z","name_a2s":"Uncletopia | Frankfurt | 6 | All Maps","protocol":17,"map":"cp_altitude","folder":"tf","game":"Team Fortress","app_id":440,"player_count":0,"max_players":24,"Bots":0,"server_type":"Dedicated","server_os":"Linux","password":true,"vac":true,"version":"7961495","steam_id":85568392924504278,"keywords":["cp","nocrits","nodmgspread","uncletopia"],"game_id":440,"stv_port":27066,"stv_name":"Uncletopia | Frankfurt | 6 | All Maps | STV","players":null},{"server_id":23,"name":"Uncletopia | Frankfurt | 7 | Stopwatch","name_short":"frk-7","host":"frk-1.de.uncletopia.com","port":27075,"enabled":true,"region":"eu","cc":"de","latitude":50.110924,"longitude":8.682127,"reserved":0,"last_update":"0001-01-01T00:00:00Z","name_a2s":"Uncletopia | Frankfurt | 7 | Stopwatch","protocol":17,"map":"pl_frontier_final","folder":"tf","game":"Team Fortress","app_id":440,"player_count":0,"max_players":24,"Bots":0,"server_type":"Dedicated","server_os":"Linux","password":true,"vac":true,"version":"7961495","steam_id":85568392924742827,"keywords":["nocrits","nodmgspread","payload","uncletopia"],"game_id":440,"stv_port":27076,"stv_name":"Uncletopia | Frankfurt | 7 | Stopwatch | STV","players":null},{"server_id":24,"name":"Uncletopia | Frankfurt | 8 | Community","name_short":"frk-8","host":"frk-1.de.uncletopia.com","port":27085,"enabled":true,"region":"eu","cc":"de","latitude":50.110924,"longitude":8.682127,"reserved":0,"last_update":"0001-01-01T00:00:00Z","name_a2s":"Uncletopia | Frankfurt | 8 | Community","protocol":17,"map":"cp_mountainlab","folder":"tf","game":"Team Fortress","app_id":440,"player_count":0,"max_players":24,"Bots":0,"server_type":"Dedicated","server_os":"Linux","password":true,"vac":true,"version":"7961495","steam_id":85568392924742828,"keywords":["cp","nocrits","nodmgspread","uncletopia"],"game_id":440,"stv_port":27086,"stv_name":"Uncletopia | Frankfurt | 8 | Community | STV","players":null},{"server_id":202,"name":"Uncletopia | Hong Kong | 1 | All Maps","name_short":"hgk-1","host":"hgk-1.hk.uncletopia.com","port":27015,"enabled":true,"region":"asia","cc":"hk","latitude":22.302711,"longitude":114.177216,"reserved":0,"last_update":"0001-01-01T00:00:00Z","name_a2s":"Uncletopia | Hong Kong | 1 | All Maps","protocol":17,"map":"koth_harvest_final","folder":"tf","game":"Team Fortress","app_id":440,"player_count":5,"max_players":24,"Bots":0,"server_type":"Dedicated","server_os":"Linux","password":true,"vac":true,"version":"7961495","steam_id":85568392924494504,"keywords":["cp","nocrits","nodmgspread","uncletopia"],"game_id":440,"stv_port":27016,"stv_name":"Uncletopia | Hong Kong | 1 | All Maps | STV","players":[{"user_id":66,"name":"Jeffe","steam_id":76561198071317211,"connected_time":38000000000,"state":"active","ping":100},{"user_id":59,"name":"timothylmao38","steam_id":76561199348861599,"connected_time":622000000000,"state":"active","ping":94},{"user_id":61,"name":"花生","steam_id":76561198153885012,"connected_time":409000000000,"state":"active","ping":128},{"user_id":62,"name":"ArcticDolphin","steam_id":76561198203626319,"connected_time":329000000000,"state":"active","ping":125},{"user_id":63,"name":"wavy","steam_id":76561198879775635,"connected_time":281000000000,"state":"active","ping":96}]},{"server_id":1,"name":"Uncletopia | Los Angeles | 1 | All Maps","name_short":"lax-1","host":"lax-1.us.uncletopia.com","port":27015,"enabled":true,"region":"us-west","cc":"us","latitude":33.94279,"longitude":-118.41004,"reserved":0,"last_update":"0001-01-01T00:00:00Z","name_a2s":"Uncletopia | Los Angeles | 1 | All Maps","protocol":17,"map":"pl_badwater","folder":"tf","game":"Team Fortress","app_id":440,"player_count":24,"max_players":24,"Bots":0,"server_type":"Dedicated","server_os":"Linux","password":true,"vac":true,"version":"7961495","steam_id":85568392924469991,"keywords":["nocrits","nodmgspread","payload","uncletopia"],"game_id":440,"stv_port":27016,"stv_name":"Uncletopia | Los Angeles | 1 | All Maps | STV","players":[{"user_id":373,"name":"awesome","steam_id":76561198338739253,"connected_time":1420000000000,"state":"active","ping":60},{"user_id":394,"name":"Tideflat","steam_id":76561198179850851,"connected_time":146000000000,"state":"active","ping":85},{"user_id":393,"name":"Stupid dumb orange idiot","steam_id":76561198046266326,"connected_time":159000000000,"state":"active","ping":50},{"user_id":399,"name":"Trips","steam_id":76561198054581597,"connected_time":50000000000,"state":"active","ping":52},{"user_id":366,"name":"Seskova","steam_id":76561198090207032,"connected_time":1830000000000,"state":"active","ping":88},{"user_id":395,"name":"FI LO","steam_id":76561198976530881,"connected_time":134000000000,"state":"active","ping":44},{"user_id":400,"name":"DOPEam1ne","steam_id":76561198112204774,"connected_time":13000000000,"state":"spawning","ping":58},{"user_id":370,"name":"Meso","steam_id":76561199088153190,"connected_time":1557000000000,"state":"active","ping":80},{"user_id":363,"name":"ReDiculous22","steam_id":76561198038391383,"connected_time":1873000000000,"state":"active","ping":72},{"user_id":356,"name":"Gerbias","steam_id":76561198001002427,"connected_time":3278000000000,"state":"active","ping":60},{"user_id":396,"name":"buhn","steam_id":76561198106117196,"connected_time":114000000000,"state":"active","ping":60},{"user_id":364,"name":"DAWNZY","steam_id":76561198207924905,"connected_time":1865000000000,"state":"active","ping":50},{"user_id":334,"name":"Dirtbomb","steam_id":76561198002403301,"connected_time":4357000000000,"state":"active","ping":75},{"user_id":390,"name":"Throat Goat","steam_id":76561198132532519,"connected_time":174000000000,"state":"active","ping":70},{"user_id":381,"name":"nella","steam_id":76561198079349621,"connected_time":975000000000,"state":"active","ping":59},{"user_id":401,"name":"ʕっ•ᴥ•ʔっ","steam_id":76561198010392559,"connected_time":12000000000,"state":"active","ping":34},{"user_id":385,"name":"cool beans","steam_id":76561198045758072,"connected_time":620000000000,"state":"active","ping":51},{"user_id":375,"name":"Monke","steam_id":76561199092090573,"connected_time":1410000000000,"state":"active","ping":93},{"user_id":380,"name":"GLXy","steam_id":76561198207551544,"connected_time":1018000000000,"state":"active","ping":97},{"user_id":386,"name":"j0NESY","steam_id":76561198292026612,"connected_time":587000000000,"state":"active","ping":56},{"user_id":397,"name":"Andy","steam_id":76561198043115724,"connected_time":102000000000,"state":"active","ping":113},{"user_id":398,"name":"SalsaDaddy","steam_id":76561198358869108,"connected_time":90000000000,"state":"active","ping":131},{"user_id":369,"name":"M_Zuy","steam_id":76561199005898955,"connected_time":1748000000000,"state":"active","ping":68},{"user_id":389,"name":"sola venereum","steam_id":76561198368179166,"connected_time":185000000000,"state":"active","ping":51}]},{"server_id":112,"name":"Uncletopia | Los Angeles | 2 | All Maps","name_short":"lax-2","host":"lax-1.us.uncletopia.com","port":27025,"enabled":true,"region":"us-west","cc":"us","latitude":33.94279,"longitude":-118.41004,"reserved":0,"last_update":"0001-01-01T00:00:00Z","name_a2s":"Uncletopia | Los Angeles | 2 | All Maps","protocol":17,"map":"cp_mercenarypark","folder":"tf","game":"Team Fortress","app_id":440,"player_count":22,"max_players":24,"Bots":0,"server_type":"Dedicated","server_os":"Linux","password":true,"vac":true,"version":"7961495","steam_id":85568392924469992,"keywords":["cp","nocrits","nodmgspread","uncletopia"],"game_id":440,"stv_port":27026,"stv_name":"Uncletopia | Los Angeles | 2 | All Maps | STV","players":[{"user_id":496,"name":"Motobono9","steam_id":76561198032403516,"connected_time":1879000000000,"state":"active","ping":79},{"user_id":498,"name":"DragonJimmy","steam_id":76561198272966565,"connected_time":1877000000000,"state":"active","ping":75},{"user_id":531,"name":"raspberry sorbet","steam_id":76561198143371128,"connected_time":245000000000,"state":"active","ping":72},{"user_id":538,"name":"Slope115117","steam_id":76561199028794627,"connected_time":73000000000,"state":"active","ping":85},{"user_id":530,"name":"_Miniature_","steam_id":76561199075378102,"connected_time":555000000000,"state":"active","ping":76},{"user_id":532,"name":"cornelius","steam_id":76561198041863231,"connected_time":238000000000,"state":"active","ping":72},{"user_id":533,"name":"Jodi","steam_id":76561198131833567,"connected_time":234000000000,"state":"active","ping":75},{"user_id":486,"name":"LogicalFurret","steam_id":76561198350604657,"connected_time":2404000000000,"state":"active","ping":47},{"user_id":528,"name":"usedhalfcart","steam_id":76561198072621852,"connected_time":782000000000,"state":"active","ping":81},{"user_id":502,"name":"PikaJW","steam_id":76561198079831429,"connected_time":1847000000000,"state":"active","ping":89},{"user_id":534,"name":"Quetzalcoatl","steam_id":76561198094826250,"connected_time":219000000000,"state":"active","ping":64},{"user_id":527,"name":"RoastyToast408","steam_id":76561198273018783,"connected_time":874000000000,"state":"active","ping":60},{"user_id":505,"name":"Randle of John","steam_id":76561198328210524,"connected_time":1828000000000,"state":"active","ping":48},{"user_id":520,"name":"esoobac","steam_id":76561198010370396,"connected_time":1417000000000,"state":"active","ping":94},{"user_id":539,"name":"Dingmoth","steam_id":76561199184592280,"connected_time":60000000000,"state":"spawning","ping":180},{"user_id":536,"name":"Random","steam_id":76561199116602799,"connected_time":207000000000,"state":"active","ping":194},{"user_id":540,"name":"Granny from Hoodwinked","steam_id":76561198116389072,"connected_time":46000000000,"state":"active","ping":92},{"user_id":541,"name":"tomat","steam_id":76561199070619761,"connected_time":32000000000,"state":"spawning","ping":100},{"user_id":542,"name":"O-mega","steam_id":76561199175970696,"connected_time":31000000000,"state":"active","ping":144},{"user_id":543,"name":"Medic Mommy","steam_id":76561199487326947,"connected_time":3000000000,"state":"spawning","ping":74},{"user_id":472,"name":"shoes","steam_id":76561198044104086,"connected_time":2835000000000,"state":"active","ping":75},{"user_id":515,"name":"Cunt Force Trauma","steam_id":76561198086121413,"connected_time":1579000000000,"state":"active","ping":114}]},{"server_id":324,"name":"Uncletopia | Los Angeles | 3 | All Maps","name_short":"lax-3","host":"lax-1.us.uncletopia.com","port":27035,"enabled":true,"region":"us-west","cc":"us","latitude":33.94279,"longitude":-118.41004,"reserved":0,"last_update":"0001-01-01T00:00:00Z","name_a2s":"Uncletopia | Los Angeles | 3 | All Maps","protocol":17,"map":"pl_pier","folder":"tf","game":"Team Fortress","app_id":440,"player_count":0,"max_players":24,"Bots":0,"server_type":"Dedicated","server_os":"Linux","password":true,"vac":true,"version":"7961495","steam_id":85568392924510198,"keywords":["nocrits","nodmgspread","payload","uncletopia"],"game_id":440,"stv_port":27036,"stv_name":"Uncletopia | Los Angeles | 3 | All Maps | STV","players":null},{"server_id":25,"name":"Uncletopia | Los Angeles | 4 | Stopwatch","name_short":"lax-4","host":"lax-1.us.uncletopia.com","port":27045,"enabled":true,"region":"us-west","cc":"us","latitude":33.94279,"longitude":-118.41004,"reserved":0,"last_update":"0001-01-01T00:00:00Z","name_a2s":"Uncletopia | Los Angeles | 4 | Stopwatch","protocol":17,"map":"workshop/koth_ramjam_rc1.ugc459778887","folder":"tf","game":"Team Fortress","app_id":440,"player_count":0,"max_players":24,"Bots":0,"server_type":"Dedicated","server_os":"Linux","password":true,"vac":true,"version":"7961495","steam_id":85568392924510199,"keywords":["cp","nocrits","nodmgspread","uncletopia"],"game_id":440,"stv_port":27046,"stv_name":"Uncletopia | Los Angeles | 4 | Stopwatch | STV","players":null},{"server_id":11,"name":"Uncletopia | London | 1 | All Maps","name_short":"lon-1","host":"lon-1.uk.uncletopia.com","port":27015,"enabled":true,"region":"eu","cc":"gb","latitude":51.509865,"longitude":-0.118092,"reserved":0,"last_update":"0001-01-01T00:00:00Z","name_a2s":"Uncletopia | London | 1 | All Maps","protocol":17,"map":"pl_borneo","folder":"tf","game":"Team Fortress","app_id":440,"player_count":24,"max_players":24,"Bots":0,"server_type":"Dedicated","server_os":"Linux","password":true,"vac":true,"version":"7961495","steam_id":85568392924367362,"keywords":["nocrits","nodmgspread","payload","uncletopia"],"game_id":440,"stv_port":27016,"stv_name":"Uncletopia | London | 1 | All Maps | STV","players":[{"user_id":49,"name":"Rogue","steam_id":76561199143593182,"connected_time":1480000000000,"state":"active","ping":42},{"user_id":61,"name":"happyrain TF2.LT","steam_id":76561198216693185,"connected_time":563000000000,"state":"active","ping":75},{"user_id":54,"name":"Marcus","steam_id":76561198205027963,"connected_time":1326000000000,"state":"active","ping":62},{"user_id":6,"name":"lagzer","steam_id":76561198029295449,"connected_time":4581000000000,"state":"active","ping":83},{"user_id":7,"name":"SmolJak","steam_id":76561199057045168,"connected_time":4569000000000,"state":"active","ping":57},{"user_id":55,"name":"thog","steam_id":76561198219901556,"connected_time":1323000000000,"state":"active","ping":106},{"user_id":38,"name":"Xanics","steam_id":76561198187813929,"connected_time":2862000000000,"state":"active","ping":71},{"user_id":51,"name":"Basinox","steam_id":76561198019628384,"connected_time":1443000000000,"state":"active","ping":56},{"user_id":11,"name":"king k rool","steam_id":76561199179040672,"connected_time":4564000000000,"state":"active","ping":56},{"user_id":52,"name":"Not Sussy Tanuki","steam_id":76561198137289375,"connected_time":1440000000000,"state":"active","ping":106},{"user_id":39,"name":"yodel","steam_id":76561198138777659,"connected_time":2859000000000,"state":"active","ping":53},{"user_id":43,"name":"The Wolf Leader","steam_id":76561198038007462,"connected_time":2466000000000,"state":"active","ping":101},{"user_id":26,"name":"㋡ BLIND DEATH ㋡","steam_id":76561198965998351,"connected_time":3797000000000,"state":"active","ping":88},{"user_id":41,"name":"Golden Boy","steam_id":76561198987866839,"connected_time":2717000000000,"state":"active","ping":70},{"user_id":58,"name":"Enjoyer","steam_id":76561198147399855,"connected_time":770000000000,"state":"active","ping":128},{"user_id":48,"name":"Kokos","steam_id":76561198085501501,"connected_time":2103000000000,"state":"active","ping":99},{"user_id":63,"name":"DwarfInYou","steam_id":76561198966341795,"connected_time":269000000000,"state":"active","ping":71},{"user_id":21,"name":"nelom lulp","steam_id":76561198998684199,"connected_time":4168000000000,"state":"active","ping":158},{"user_id":44,"name":"Alice (real)","steam_id":76561198052410860,"connected_time":2430000000000,"state":"active","ping":160},{"user_id":50,"name":"loko","steam_id":76561198258675383,"connected_time":1479000000000,"state":"active","ping":75},{"user_id":32,"name":"vivid","steam_id":76561198346546144,"connected_time":3408000000000,"state":"active","ping":54},{"user_id":33,"name":"Jmciano24","steam_id":76561198050723212,"connected_time":3351000000000,"state":"active","ping":110},{"user_id":35,"name":"lilac brooch...","steam_id":76561198333718916,"connected_time":3281000000000,"state":"active","ping":142},{"user_id":46,"name":"chinese big mac","steam_id":76561199060478662,"connected_time":2326000000000,"state":"active","ping":75}]},{"server_id":114,"name":"Uncletopia | London | 2 | All Maps","name_short":"lon-2","host":"lon-1.uk.uncletopia.com","port":27025,"enabled":true,"region":"eu","cc":"gb","latitude":51.509865,"longitude":-0.118092,"reserved":0,"last_update":"0001-01-01T00:00:00Z","name_a2s":"Uncletopia | London | 2 | All Maps","protocol":17,"map":"koth_lakeside_final","folder":"tf","game":"Team Fortress","app_id":440,"player_count":0,"max_players":24,"Bots":0,"server_type":"Dedicated","server_os":"Linux","password":true,"vac":true,"version":"7961495","steam_id":85568392924470941,"keywords":["cp","nocrits","nodmgspread","uncletopia"],"game_id":440,"stv_port":27026,"stv_name":"Uncletopia | London | 2 | All Maps | STV","players":null},{"server_id":320,"name":"Uncletopia | London | 3 | All Maps","name_short":"lon-3","host":"lon-1.uk.uncletopia.com","port":27035,"enabled":true,"region":"eu","cc":"gb","latitude":51.509865,"longitude":-0.118092,"reserved":0,"last_update":"0001-01-01T00:00:00Z","name_a2s":"Uncletopia | London | 3 | All Maps","protocol":17,"map":"cp_process_final","folder":"tf","game":"Team Fortress","app_id":440,"player_count":0,"max_players":24,"Bots":0,"server_type":"Dedicated","server_os":"Linux","password":true,"vac":true,"version":"7961495","steam_id":85568392924510192,"keywords":["cp","nocrits","nodmgspread","uncletopia"],"game_id":440,"stv_port":27036,"stv_name":"Uncletopia | London | 3 | All Maps | STV","players":null},{"server_id":321,"name":"Uncletopia | London | 4 | All Maps","name_short":"lon-4","host":"lon-1.uk.uncletopia.com","port":27045,"enabled":true,"region":"eu","cc":"gb","latitude":51.509865,"longitude":-0.118092,"reserved":0,"last_update":"0001-01-01T00:00:00Z","name_a2s":"Uncletopia | London | 4 | All Maps","protocol":17,"map":"koth_cascade","folder":"tf","game":"Team Fortress","app_id":440,"player_count":0,"max_players":24,"Bots":0,"server_type":"Dedicated","server_os":"Linux","password":true,"vac":true,"version":"7961495","steam_id":85568392924510193,"keywords":["cp","nocrits","nodmgspread","uncletopia"],"game_id":440,"stv_port":27046,"stv_name":"Uncletopia | London | 4 | All Maps | STV","players":null},{"server_id":21,"name":"Uncletopia | London | 5 | All Maps","name_short":"lon-5","host":"lon-1.uk.uncletopia.com","port":27055,"enabled":true,"region":"eu","cc":"gb","latitude":51.509865,"longitude":-0.118092,"reserved":0,"last_update":"0001-01-01T00:00:00Z","name_a2s":"Uncletopia | London | 5 | All Maps","protocol":17,"map":"koth_lakeside_final","folder":"tf","game":"Team Fortress","app_id":440,"player_count":0,"max_players":24,"Bots":0,"server_type":"Dedicated","server_os":"Linux","password":true,"vac":true,"version":"7961495","steam_id":85568392924742829,"keywords":["cp","nocrits","nodmgspread","uncletopia"],"game_id":440,"stv_port":27056,"stv_name":"Uncletopia | London | 5 | All Maps | STV","players":null},{"server_id":22,"name":"Uncletopia | London | 6 | All Maps","name_short":"lon-6","host":"lon-1.uk.uncletopia.com","port":27065,"enabled":true,"region":"eu","cc":"gb","latitude":51.509865,"longitude":-0.118092,"reserved":0,"last_update":"0001-01-01T00:00:00Z","name_a2s":"Uncletopia | London | 6 | All Maps","protocol":17,"map":"cp_dustbowl","folder":"tf","game":"Team Fortress","app_id":440,"player_count":0,"max_players":24,"Bots":0,"server_type":"Dedicated","server_os":"Linux","password":true,"vac":true,"version":"7961495","steam_id":85568392924742830,"keywords":["cp","nocrits","nodmgspread","uncletopia"],"game_id":440,"stv_port":27066,"stv_name":"Uncletopia | London | 6 | All Maps | STV","players":null},{"server_id":40,"name":"Uncletopia | London | 7 | Stopwatch","name_short":"lon-7","host":"lon-1.uk.uncletopia.com","port":27075,"enabled":true,"region":"eu","cc":"gb","latitude":51.509865,"longitude":-0.118092,"reserved":0,"last_update":"0001-01-01T00:00:00Z","name_a2s":"Uncletopia | London | 7 | Stopwatch","protocol":17,"map":"koth_lakeside_final","folder":"tf","game":"Team Fortress","app_id":440,"player_count":0,"max_players":24,"Bots":0,"server_type":"Dedicated","server_os":"Linux","password":true,"vac":true,"version":"7961495","steam_id":85568392924964314,"keywords":["cp","nocrits","nodmgspread","uncletopia"],"game_id":440,"stv_port":27076,"stv_name":"Uncletopia | London | 7 | Stopwatch | STV","players":null},{"server_id":41,"name":"Uncletopia | London | 8 | Community","name_short":"lon-8","host":"lon-1.uk.uncletopia.com","port":27085,"enabled":true,"region":"eu","cc":"gb","latitude":51.509865,"longitude":-0.118092,"reserved":0,"last_update":"0001-01-01T00:00:00Z","name_a2s":"Uncletopia | London | 8 | Community","protocol":17,"map":"cp_snakewater_final1","folder":"tf","game":"Team Fortress","app_id":440,"player_count":0,"max_players":24,"Bots":0,"server_type":"Dedicated","server_os":"Linux","password":true,"vac":true,"version":"7961495","steam_id":85568392924964315,"keywords":["cp","nocrits","nodmgspread","uncletopia"],"game_id":440,"stv_port":27086,"stv_name":"Uncletopia | London | 8 | Community | STV","players":null},{"server_id":300,"name":"Uncletopia | Montréal | 1 | One Thousand Uncles","name_short":"mtl-1","host":"mtl-1.ca.uncletopia.com","port":27015,"enabled":true,"region":"us-east","cc":"ca","latitude":45.50889,"longitude":-73.56167,"reserved":0,"last_update":"0001-01-01T00:00:00Z","name_a2s":"","protocol":0,"map":"","folder":"","game":"","app_id":0,"player_count":0,"max_players":0,"Bots":0,"server_type":"","server_os":"","password":false,"vac":false,"version":"","steam_id":0,"keywords":null,"game_id":0,"stv_port":0,"stv_name":"","players":null},{"server_id":301,"name":"Uncletopia | Montréal | 2 | One Thousand Uncles","name_short":"mtl-2","host":"mtl-1.ca.uncletopia.com","port":27025,"enabled":true,"region":"us-east","cc":"ca","latitude":45.50889,"longitude":-73.56167,"reserved":0,"last_update":"0001-01-01T00:00:00Z","name_a2s":"","protocol":0,"map":"","folder":"","game":"","app_id":0,"player_count":0,"max_players":0,"Bots":0,"server_type":"","server_os":"","password":false,"vac":false,"version":"","steam_id":0,"keywords":null,"game_id":0,"stv_port":0,"stv_name":"","players":null},{"server_id":302,"name":"Uncletopia | Montréal | 3 | One Thousand Uncles","name_short":"mtl-3","host":"mtl-1.ca.uncletopia.com","port":27035,"enabled":true,"region":"us-east","cc":"ca","latitude":45.50889,"longitude":-73.56167,"reserved":0,"last_update":"0001-01-01T00:00:00Z","name_a2s":"","protocol":0,"map":"","folder":"","game":"","app_id":0,"player_count":0,"max_players":0,"Bots":0,"server_type":"","server_os":"","password":false,"vac":false,"version":"","steam_id":0,"keywords":null,"game_id":0,"stv_port":0,"stv_name":"","players":null},{"server_id":13,"name":"Uncletopia | New York City | 1 | All Maps","name_short":"nyc-1","host":"nyc-1.us.uncletopia.com","port":27015,"enabled":true,"region":"us-east","cc":"us","latitude":40.73061,"longitude":-73.93524,"reserved":0,"last_update":"0001-01-01T00:00:00Z","name_a2s":"Uncletopia | New York City | 1 | All Maps","protocol":17,"map":"pl_barnblitz","folder":"tf","game":"Team Fortress","app_id":440,"player_count":0,"max_players":24,"Bots":0,"server_type":"Dedicated","server_os":"Linux","password":true,"vac":true,"version":"7961495","steam_id":85568392924469993,"keywords":["nocrits","nodmgspread","payload","uncletopia"],"game_id":440,"stv_port":27016,"stv_name":"Uncletopia | New York City | 1 | All Maps | STV","players":null},{"server_id":14,"name":"Uncletopia | New York City | 2 | All Maps","name_short":"nyc-2","host":"nyc-1.us.uncletopia.com","port":27025,"enabled":true,"region":"us-east","cc":"us","latitude":40.73061,"longitude":-73.93524,"reserved":0,"last_update":"0001-01-01T00:00:00Z","name_a2s":"Uncletopia | New York City | 2 | All Maps","protocol":17,"map":"pl_badwater","folder":"tf","game":"Team Fortress","app_id":440,"player_count":2,"max_players":24,"Bots":0,"server_type":"Dedicated","server_os":"Linux","password":true,"vac":true,"version":"7961495","steam_id":85568392924469994,"keywords":["nocrits","nodmgspread","payload","uncletopia"],"game_id":440,"stv_port":27026,"stv_name":"Uncletopia | New York City | 2 | All Maps | STV","players":[{"user_id":405,"name":"valenz lé","steam_id":76561198133974928,"connected_time":261000000000,"state":"active","ping":88},{"user_id":406,"name":"DatWingMan","steam_id":76561198320117032,"connected_time":24000000000,"state":"active","ping":95}]},{"server_id":15,"name":"Uncletopia | New York City | 3 | Stopwatch","name_short":"nyc-3","host":"nyc-1.us.uncletopia.com","port":27035,"enabled":true,"region":"us-east","cc":"us","latitude":40.73061,"longitude":-73.93524,"reserved":0,"last_update":"0001-01-01T00:00:00Z","name_a2s":"Uncletopia | New York City | 3 | Stopwatch","protocol":17,"map":"workshop/cp_process_f12.ugc2302948105","folder":"tf","game":"Team Fortress","app_id":440,"player_count":0,"max_players":24,"Bots":0,"server_type":"Dedicated","server_os":"Linux","password":true,"vac":true,"version":"7961495","steam_id":85568392924742820,"keywords":["cp","nocrits","nodmgspread","uncletopia"],"game_id":440,"stv_port":27036,"stv_name":"Uncletopia | New York City | 3 | Stopwatch | STV","players":null},{"server_id":16,"name":"Uncletopia | New York City | 4 | Community","name_short":"nyc-4","host":"nyc-1.us.uncletopia.com","port":27045,"enabled":true,"region":"us-east","cc":"us","latitude":40.73061,"longitude":-73.93524,"reserved":0,"last_update":"0001-01-01T00:00:00Z","name_a2s":"Uncletopia | New York City | 4 | Community","protocol":17,"map":"workshop/koth_product_final.ugc454272353","folder":"tf","game":"Team Fortress","app_id":440,"player_count":0,"max_players":24,"Bots":0,"server_type":"Dedicated","server_os":"Linux","password":true,"vac":true,"version":"7961495","steam_id":85568392924742821,"keywords":["cp","nocrits","nodmgspread","uncletopia"],"game_id":440,"stv_port":27046,"stv_name":"Uncletopia | New York City | 4 | Community | STV","players":null},{"server_id":142,"name":"Uncletopia | São Paulo | 1 | All Maps","name_short":"sao-1","host":"sao-1.br.uncletopia.com","port":27015,"enabled":true,"region":"sa","cc":"br","latitude":-23.533773,"longitude":-46.62529,"reserved":0,"last_update":"0001-01-01T00:00:00Z","name_a2s":"Uncletopia | São Paulo | 1 | All Maps","protocol":17,"map":"koth_viaduct","folder":"tf","game":"Team Fortress","app_id":440,"player_count":0,"max_players":24,"Bots":0,"server_type":"Dedicated","server_os":"Linux","password":true,"vac":true,"version":"7961495","steam_id":85568392924469996,"keywords":["cp","nocrits","nodmgspread","uncletopia"],"game_id":440,"stv_port":27016,"stv_name":"Uncletopia | São Paulo | 1 | All Maps | STV","players":null},{"server_id":143,"name":"Uncletopia | São Paulo | 2 | Community","name_short":"sao-2","host":"sao-2.br.uncletopia.com","port":27015,"enabled":true,"region":"sa","cc":"br","latitude":-23.533773,"longitude":-46.62529,"reserved":0,"last_update":"0001-01-01T00:00:00Z","name_a2s":"Uncletopia | São Paulo | 2 | Community","protocol":17,"map":"workshop/koth_product_final.ugc454272353","folder":"tf","game":"Team Fortress","app_id":440,"player_count":0,"max_players":24,"Bots":0,"server_type":"Dedicated","server_os":"Linux","password":true,"vac":true,"version":"7961495","steam_id":85568392924485349,"keywords":["cp","nocrits","nodmgspread","uncletopia"],"game_id":440,"stv_port":27016,"stv_name":"Uncletopia | São Paulo | 2 | Community | STV","players":null},{"server_id":7,"name":"Uncletopia | Seattle | 1 | All Maps","name_short":"sea-1","host":"sea-1.us.uncletopia.com","port":27015,"enabled":true,"region":"us-west","cc":"us","latitude":47.608013,"longitude":-122.33517,"reserved":0,"last_update":"0001-01-01T00:00:00Z","name_a2s":"Uncletopia | Seattle | 1 | All Maps","protocol":17,"map":"pl_snowycoast","folder":"tf","game":"Team Fortress","app_id":440,"player_count":24,"max_players":24,"Bots":0,"server_type":"Dedicated","server_os":"Linux","password":true,"vac":true,"version":"7961495","steam_id":85568392924469997,"keywords":["nocrits","nodmgspread","payload","uncletopia"],"game_id":440,"stv_port":27016,"stv_name":"Uncletopia | Seattle | 1 | All Maps | STV","players":[{"user_id":701,"name":"weed boner","steam_id":76561198034131572,"connected_time":1129000000000,"state":"active","ping":44},{"user_id":677,"name":"fungi","steam_id":76561198169755734,"connected_time":4483000000000,"state":"active","ping":60},{"user_id":698,"name":"Pingu","steam_id":76561198170716714,"connected_time":1175000000000,"state":"active","ping":78},{"user_id":700,"name":"doodoo bing","steam_id":76561198099980149,"connected_time":1159000000000,"state":"active","ping":77},{"user_id":681,"name":"Lord Hater","steam_id":76561199158148782,"connected_time":4027000000000,"state":"active","ping":60},{"user_id":670,"name":"Lily Thorn","steam_id":76561198305488625,"connected_time":5486000000000,"state":"active","ping":49},{"user_id":630,"name":"lavender","steam_id":76561199069518286,"connected_time":8850000000000,"state":"active","ping":73},{"user_id":694,"name":"Mak","steam_id":76561198089197922,"connected_time":2687000000000,"state":"active","ping":59},{"user_id":648,"name":"Daz","steam_id":76561198041431938,"connected_time":7903000000000,"state":"active","ping":51},{"user_id":695,"name":"The King of Piss World","steam_id":76561198082806956,"connected_time":2217000000000,"state":"active","ping":132},{"user_id":669,"name":"soup","steam_id":76561198043209046,"connected_time":5640000000000,"state":"active","ping":71},{"user_id":655,"name":"ShiningForce","steam_id":76561198026039048,"connected_time":6800000000000,"state":"active","ping":73},{"user_id":691,"name":"Havi","steam_id":76561198197832829,"connected_time":3030000000000,"state":"active","ping":50},{"user_id":661,"name":"ismellgood","steam_id":76561199005142939,"connected_time":6616000000000,"state":"active","ping":56},{"user_id":663,"name":"Cheezbeargur","steam_id":76561198164702899,"connected_time":6390000000000,"state":"active","ping":76},{"user_id":612,"name":"Sweets","steam_id":76561198998446307,"connected_time":10527000000000,"state":"active","ping":66},{"user_id":702,"name":"sleepy","steam_id":76561198288663776,"connected_time":1129000000000,"state":"active","ping":60},{"user_id":703,"name":"Cam","steam_id":76561198285054047,"connected_time":1114000000000,"state":"active","ping":70},{"user_id":696,"name":"CorruptStatus","steam_id":76561198012722592,"connected_time":2065000000000,"state":"active","ping":84},{"user_id":684,"name":"Brathic","steam_id":76561198966232163,"connected_time":3592000000000,"state":"active","ping":86},{"user_id":697,"name":"rushy :))","steam_id":76561198065825165,"connected_time":1784000000000,"state":"active","ping":95},{"user_id":672,"name":"Dog","steam_id":76561198041841128,"connected_time":5088000000000,"state":"active","ping":85},{"user_id":685,"name":"rat gets the cheese","steam_id":76561198031234032,"connected_time":3591000000000,"state":"active","ping":99},{"user_id":705,"name":"jorts (zoot)","steam_id":76561199041179985,"connected_time":761000000000,"state":"active","ping":53}]},{"server_id":119,"name":"Uncletopia | Seattle | 2 | All Maps","name_short":"sea-2","host":"sea-1.us.uncletopia.com","port":27025,"enabled":true,"region":"us-west","cc":"us","latitude":47.608013,"longitude":-122.33517,"reserved":0,"last_update":"0001-01-01T00:00:00Z","name_a2s":"Uncletopia | Seattle | 2 | All Maps","protocol":17,"map":"pl_barnblitz","folder":"tf","game":"Team Fortress","app_id":440,"player_count":24,"max_players":24,"Bots":0,"server_type":"Dedicated","server_os":"Linux","password":true,"vac":true,"version":"7961495","steam_id":85568392924469998,"keywords":["nocrits","nodmgspread","payload","uncletopia"],"game_id":440,"stv_port":27026,"stv_name":"Uncletopia | Seattle | 2 | All Maps | STV","players":[{"user_id":263,"name":"fuck it, we ball","steam_id":76561198451812135,"connected_time":1943000000000,"state":"active","ping":76},{"user_id":274,"name":"TTVPlumSmug","steam_id":76561198103960265,"connected_time":827000000000,"state":"active","ping":108},{"user_id":269,"name":"Mayo_","steam_id":76561198289375121,"connected_time":1106000000000,"state":"active","ping":109},{"user_id":215,"name":"Poundcake","steam_id":76561198042196918,"connected_time":6146000000000,"state":"active","ping":47},{"user_id":239,"name":"S Q U I S H E  T H A T  C A T","steam_id":76561198293865429,"connected_time":3841000000000,"state":"active","ping":45},{"user_id":232,"name":"TRASHMASTER3000","steam_id":76561198118546107,"connected_time":3961000000000,"state":"active","ping":69},{"user_id":282,"name":"Kamin","steam_id":76561198255299559,"connected_time":186000000000,"state":"active","ping":122},{"user_id":275,"name":"[Industrial] A_HUMBLEBUMBLED","steam_id":76561198064771878,"connected_time":768000000000,"state":"active","ping":35},{"user_id":233,"name":"ISA-17","steam_id":76561198202263501,"connected_time":3960000000000,"state":"active","ping":74},{"user_id":257,"name":"C^a^L","steam_id":76561198241124222,"connected_time":2348000000000,"state":"active","ping":71},{"user_id":268,"name":"wendigo","steam_id":76561197994528974,"connected_time":1447000000000,"state":"active","ping":85},{"user_id":280,"name":"psychosis.centipede.2931","steam_id":76561198065347016,"connected_time":618000000000,"state":"active","ping":74},{"user_id":272,"name":"Cosmo","steam_id":76561198042147273,"connected_time":996000000000,"state":"active","ping":111},{"user_id":252,"name":"riSygneD","steam_id":76561198331618687,"connected_time":3041000000000,"state":"active","ping":67},{"user_id":273,"name":"Spicy Chicken","steam_id":76561198074209737,"connected_time":944000000000,"state":"active","ping":93},{"user_id":259,"name":"Son Heung Min","steam_id":76561198363181742,"connected_time":2299000000000,"state":"active","ping":101},{"user_id":238,"name":"THAT CAT","steam_id":76561198010828625,"connected_time":3855000000000,"state":"active","ping":44},{"user_id":281,"name":"shtummy","steam_id":76561198271940610,"connected_time":617000000000,"state":"active","ping":74},{"user_id":246,"name":"HAT-WEARING™ Maggot Gamer Cat","steam_id":76561197973992705,"connected_time":3662000000000,"state":"active","ping":69},{"user_id":276,"name":"WillowWisp","steam_id":76561198049104842,"connected_time":694000000000,"state":"active","ping":45},{"user_id":277,"name":"Sushiiii_","steam_id":76561198081110786,"connected_time":650000000000,"state":"active","ping":57},{"user_id":278,"name":"Tommy da bird","steam_id":76561198136340711,"connected_time":645000000000,"state":"active","ping":89},{"user_id":204,"name":"IRUMBLERI","steam_id":76561198285541599,"connected_time":7497000000000,"state":"active","ping":60},{"user_id":279,"name":"unit","steam_id":76561198058033361,"connected_time":639000000000,"state":"active","ping":69}]},{"server_id":406,"name":"Uncletopia | Seattle | 3 | Stopwatch","name_short":"sea-3","host":"sea-1.us.uncletopia.com","port":27035,"enabled":true,"region":"us-west","cc":"us","latitude":47.608013,"longitude":-122.33517,"reserved":0,"last_update":"0001-01-01T00:00:00Z","name_a2s":"Uncletopia | Seattle | 3 | Stopwatch","protocol":17,"map":"workshop/pl_summercoast_rc8e.ugc1761528829","folder":"tf","game":"Team Fortress","app_id":440,"player_count":0,"max_players":24,"Bots":0,"server_type":"Dedicated","server_os":"Linux","password":true,"vac":true,"version":"7961495","steam_id":85568392924515217,"keywords":["nocrits","nodmgspread","payload","uncletopia"],"game_id":440,"stv_port":27036,"stv_name":"Uncletopia | Seattle | 3 | Stopwatch | STV","players":null},{"server_id":17,"name":"Uncletopia | San Francisco | 1 | All Maps","name_short":"sfo-1","host":"sfo-1.us.uncletopia.com","port":27015,"enabled":true,"region":"us-west","cc":"us","latitude":37.77397,"longitude":-122.4313,"reserved":0,"last_update":"0001-01-01T00:00:00Z","name_a2s":"Uncletopia | San Francisco | 1 | All Maps","protocol":17,"map":"pl_borneo","folder":"tf","game":"Team Fortress","app_id":440,"player_count":24,"max_players":24,"Bots":0,"server_type":"Dedicated","server_os":"Linux","password":true,"vac":true,"version":"7961495","steam_id":85568392924469999,"keywords":["nocrits","nodmgspread","payload","uncletopia"],"game_id":440,"stv_port":27016,"stv_name":"Uncletopia | San Francisco | 1 | All Maps | STV","players":[{"user_id":261,"name":"bad spy player","steam_id":76561198873699671,"connected_time":1526000000000,"state":"active","ping":72},{"user_id":232,"name":"Choctoling","steam_id":76561198351622498,"connected_time":3818000000000,"state":"active","ping":57},{"user_id":229,"name":"SK","steam_id":76561198133360797,"connected_time":4176000000000,"state":"active","ping":66},{"user_id":272,"name":"Schully__ - New Vid Out","steam_id":76561198041329791,"connected_time":164000000000,"state":"active","ping":52},{"user_id":164,"name":"Megatron G","steam_id":76561198168864083,"connected_time":9432000000000,"state":"active","ping":64},{"user_id":269,"name":"Nine Inch Иipples","steam_id":76561198149413947,"connected_time":698000000000,"state":"active","ping":58},{"user_id":263,"name":"Über","steam_id":76561198026913053,"connected_time":1492000000000,"state":"active","ping":93},{"user_id":227,"name":"Optimore","steam_id":76561198047662990,"connected_time":4411000000000,"state":"active","ping":51},{"user_id":235,"name":"Moe Fugga","steam_id":76561198102044366,"connected_time":3576000000000,"state":"active","ping":71},{"user_id":251,"name":"Assassin","steam_id":76561198321410235,"connected_time":2682000000000,"state":"active","ping":56},{"user_id":262,"name":"Halo","steam_id":76561198144909435,"connected_time":1512000000000,"state":"active","ping":62},{"user_id":252,"name":"Thequirka","steam_id":76561198968058652,"connected_time":2672000000000,"state":"active","ping":67},{"user_id":224,"name":"metrocity napalm","steam_id":76561197998630223,"connected_time":4614000000000,"state":"active","ping":125},{"user_id":210,"name":"bombs away!","steam_id":76561198140305247,"connected_time":4868000000000,"state":"active","ping":116},{"user_id":264,"name":"turn around","steam_id":76561198046526036,"connected_time":1491000000000,"state":"active","ping":59},{"user_id":238,"name":"happer","steam_id":76561198018252253,"connected_time":3383000000000,"state":"active","ping":54},{"user_id":270,"name":"skyking","steam_id":76561198092703501,"connected_time":582000000000,"state":"active","ping":69},{"user_id":239,"name":"Weed Dealer","steam_id":76561198418604400,"connected_time":3345000000000,"state":"active","ping":70},{"user_id":240,"name":"Creature","steam_id":76561198194585781,"connected_time":3338000000000,"state":"active","ping":97},{"user_id":241,"name":"Phoenix","steam_id":76561199465534945,"connected_time":3333000000000,"state":"active","ping":91},{"user_id":260,"name":"Canned Bread","steam_id":76561198354916213,"connected_time":2047000000000,"state":"active","ping":68},{"user_id":242,"name":"SirEverything","steam_id":76561199152393848,"connected_time":3310000000000,"state":"active","ping":99},{"user_id":218,"name":"Kingboo93","steam_id":76561198330676290,"connected_time":4713000000000,"state":"active","ping":105},{"user_id":268,"name":"RC","steam_id":76561198048127881,"connected_time":934000000000,"state":"active","ping":53}]},{"server_id":18,"name":"Uncletopia | San Francisco | 2 | All Maps","name_short":"sfo-2","host":"sfo-1.us.uncletopia.com","port":27025,"enabled":true,"region":"us-west","cc":"us","latitude":37.77397,"longitude":-122.4313,"reserved":0,"last_update":"0001-01-01T00:00:00Z","name_a2s":"Uncletopia | San Francisco | 2 | All Maps","protocol":17,"map":"pl_badwater","folder":"tf","game":"Team Fortress","app_id":440,"player_count":24,"max_players":24,"Bots":0,"server_type":"Dedicated","server_os":"Linux","password":true,"vac":true,"version":"7961495","steam_id":85568392924470000,"keywords":["nocrits","nodmgspread","payload","uncletopia"],"game_id":440,"stv_port":27026,"stv_name":"Uncletopia | San Francisco | 2 | All Maps | STV","players":[{"user_id":137,"name":"Hoovy","steam_id":76561198409907417,"connected_time":3000000000,"state":"spawning","ping":44},{"user_id":121,"name":"jasus","steam_id":76561198088035919,"connected_time":1274000000000,"state":"active","ping":55},{"user_id":102,"name":"WillieMakit","steam_id":76561197985391684,"connected_time":3632000000000,"state":"active","ping":71},{"user_id":112,"name":"BitPieStudios","steam_id":76561198059216393,"connected_time":2348000000000,"state":"active","ping":45},{"user_id":128,"name":"Elibum","steam_id":76561198990301632,"connected_time":919000000000,"state":"active","ping":68},{"user_id":129,"name":"i need to see your balls","steam_id":76561198168492250,"connected_time":875000000000,"state":"active","ping":60},{"user_id":113,"name":"Dreamzapp","steam_id":76561199084936632,"connected_time":2237000000000,"state":"active","ping":75},{"user_id":91,"name":"GallusVarius","steam_id":76561199467334502,"connected_time":4214000000000,"state":"active","ping":45},{"user_id":120,"name":"Action-Flash","steam_id":76561198042438122,"connected_time":1442000000000,"state":"active","ping":98},{"user_id":97,"name":"BroBoss64","steam_id":76561198995865904,"connected_time":4104000000000,"state":"active","ping":106},{"user_id":122,"name":"cofferhead","steam_id":76561199191108449,"connected_time":1273000000000,"state":"active","ping":68},{"user_id":72,"name":"Szaint","steam_id":76561198165050614,"connected_time":5705000000000,"state":"active","ping":63},{"user_id":130,"name":"Isa","steam_id":76561199497669852,"connected_time":868000000000,"state":"active","ping":40},{"user_id":134,"name":"H.","steam_id":76561198074951179,"connected_time":566000000000,"state":"active","ping":70},{"user_id":132,"name":"Big Floppa Gaming","steam_id":76561198151258264,"connected_time":806000000000,"state":"active","ping":71},{"user_id":73,"name":"Fungal","steam_id":76561198078973439,"connected_time":5698000000000,"state":"active","ping":73},{"user_id":136,"name":"Kaeo","steam_id":76561198066244086,"connected_time":494000000000,"state":"active","ping":78},{"user_id":118,"name":"FunnyGoomba","steam_id":76561198279865229,"connected_time":2132000000000,"state":"active","ping":66},{"user_id":74,"name":"Haven","steam_id":76561198087584756,"connected_time":5530000000000,"state":"active","ping":82},{"user_id":111,"name":"SHADOW","steam_id":76561198207768148,"connected_time":2410000000000,"state":"active","ping":65},{"user_id":135,"name":"J.C. Leyendenton","steam_id":76561198096306325,"connected_time":506000000000,"state":"active","ping":111},{"user_id":76,"name":"firestabber","steam_id":76561198057055577,"connected_time":5492000000000,"state":"active","ping":61},{"user_id":119,"name":"Pip","steam_id":76561198044944326,"connected_time":1939000000000,"state":"active","ping":65},{"user_id":125,"name":"Taskrabbits","steam_id":76561198366682546,"connected_time":1191000000000,"state":"active","ping":163}]},{"server_id":19,"name":"Uncletopia | San Francisco | 3 | Stopwatch","name_short":"sfo-3","host":"sfo-1.us.uncletopia.com","port":27035,"enabled":true,"region":"us-west","cc":"us","latitude":37.77397,"longitude":-122.4313,"reserved":0,"last_update":"0001-01-01T00:00:00Z","name_a2s":"Uncletopia | San Francisco | 3 | Stopwatch","protocol":17,"map":"cp_sunshine","folder":"tf","game":"Team Fortress","app_id":440,"player_count":0,"max_players":24,"Bots":0,"server_type":"Dedicated","server_os":"Linux","password":true,"vac":true,"version":"7961495","steam_id":85568392924742824,"keywords":["cp","nocrits","nodmgspread","uncletopia"],"game_id":440,"stv_port":27036,"stv_name":"Uncletopia | San Francisco | 3 | Stopwatch | STV","players":null},{"server_id":20,"name":"Uncletopia | San Francisco | 4 | Community","name_short":"sfo-4","host":"sfo-1.us.uncletopia.com","port":27045,"enabled":true,"region":"us-west","cc":"us","latitude":37.77397,"longitude":-122.4313,"reserved":0,"last_update":"0001-01-01T00:00:00Z","name_a2s":"Uncletopia | San Francisco | 4 | Community","protocol":17,"map":"workshop/rd_asteroid_redux_b1.ugc2154902912","folder":"tf","game":"Team Fortress","app_id":440,"player_count":0,"max_players":24,"Bots":0,"server_type":"Dedicated","server_os":"Linux","password":true,"vac":true,"version":"7961495","steam_id":85568392924742826,"keywords":["beta","nocrits","nodmgspread","rd","uncletopia"],"game_id":440,"stv_port":27046,"stv_name":"Uncletopia | San Francisco | 4 | Community | STV","players":null},{"server_id":141,"name":"Uncletopia | Sydney | 1 | All Maps","name_short":"syd-1","host":"syd-1.au.uncletopia.com","port":27015,"enabled":true,"region":"au","cc":"au","latitude":-33.865143,"longitude":151.2099,"reserved":0,"last_update":"0001-01-01T00:00:00Z","name_a2s":"Uncletopia | Sydney | 1 | All Maps","protocol":17,"map":"cp_steel","folder":"tf","game":"Team Fortress","app_id":440,"player_count":24,"max_players":24,"Bots":0,"server_type":"Dedicated","server_os":"Linux","password":true,"vac":true,"version":"7961495","steam_id":85568392924470001,"keywords":["cp","nocrits","nodmgspread","uncletopia"],"game_id":440,"stv_port":27016,"stv_name":"Uncletopia | Sydney | 1 | All Maps | STV","players":[{"user_id":119,"name":"ANML","steam_id":76561198260039591,"connected_time":88000000000,"state":"active","ping":58},{"user_id":106,"name":"Reefo","steam_id":76561198161626796,"connected_time":801000000000,"state":"active","ping":65},{"user_id":87,"name":"mailman theodore","steam_id":76561198067733319,"connected_time":1989000000000,"state":"active","ping":63},{"user_id":65,"name":"moo","steam_id":76561198041907885,"connected_time":3856000000000,"state":"active","ping":69},{"user_id":110,"name":"krandlez` (Any/All)","steam_id":76561198044839726,"connected_time":348000000000,"state":"active","ping":43},{"user_id":109,"name":"Almighty Tuna","steam_id":76561198010173027,"connected_time":529000000000,"state":"active","ping":77},{"user_id":108,"name":"Flak","steam_id":76561198205833232,"connected_time":570000000000,"state":"active","ping":53},{"user_id":91,"name":"(1)moo","steam_id":76561198031076841,"connected_time":1894000000000,"state":"active","ping":43},{"user_id":69,"name":"Mooty","steam_id":76561198301293435,"connected_time":3522000000000,"state":"active","ping":50},{"user_id":107,"name":"Donlon McGee","steam_id":76561197969800840,"connected_time":660000000000,"state":"active","ping":75},{"user_id":73,"name":"Snowy","steam_id":76561198255720598,"connected_time":3145000000000,"state":"active","ping":48},{"user_id":112,"name":"AsianSpy","steam_id":76561198374762549,"connected_time":301000000000,"state":"active","ping":52},{"user_id":116,"name":"Fizzpig","steam_id":76561199140102415,"connected_time":254000000000,"state":"active","ping":74},{"user_id":89,"name":"Gaunern","steam_id":76561198075411902,"connected_time":1937000000000,"state":"active","ping":59},{"user_id":113,"name":"King Stan II","steam_id":76561198890742309,"connected_time":298000000000,"state":"active","ping":71},{"user_id":90,"name":"Ok Mate","steam_id":76561198254922035,"connected_time":1929000000000,"state":"active","ping":54},{"user_id":77,"name":"Sentry Gun (EpicGuy4227)","steam_id":76561198094132328,"connected_time":2509000000000,"state":"active","ping":52},{"user_id":43,"name":"Tetch","steam_id":76561198259803540,"connected_time":5022000000000,"state":"active","ping":70},{"user_id":114,"name":"Connor","steam_id":76561198088318589,"connected_time":298000000000,"state":"active","ping":49},{"user_id":86,"name":"the lightning guy","steam_id":76561199222027878,"connected_time":2035000000000,"state":"active","ping":67},{"user_id":117,"name":"HYPER","steam_id":76561198302487295,"connected_time":208000000000,"state":"active","ping":40},{"user_id":81,"name":"Level 20 Commoner","steam_id":76561198020401609,"connected_time":2307000000000,"state":"active","ping":62},{"user_id":118,"name":"CypressFluff (she/her)","steam_id":76561198174667818,"connected_time":116000000000,"state":"active","ping":60},{"user_id":63,"name":"Selling Anti-Matter for $543","steam_id":76561198070708382,"connected_time":4227000000000,"state":"active","ping":48}]},{"server_id":123,"name":"Uncletopia | Sydney | 2 | All Maps","name_short":"syd-2","host":"syd-1.au.uncletopia.com","port":27025,"enabled":true,"region":"au","cc":"au","latitude":-33.865143,"longitude":151.2099,"reserved":0,"last_update":"0001-01-01T00:00:00Z","name_a2s":"Uncletopia | Sydney | 2 | All Maps","protocol":17,"map":"koth_lakeside_final","folder":"tf","game":"Team Fortress","app_id":440,"player_count":0,"max_players":24,"Bots":0,"server_type":"Dedicated","server_os":"Linux","password":true,"vac":true,"version":"7961495","steam_id":85568392924470002,"keywords":["cp","nocrits","nodmgspread","uncletopia"],"game_id":440,"stv_port":27026,"stv_name":"Uncletopia | Sydney | 2 | All Maps | STV","players":null},{"server_id":395,"name":"Uncletopia | Sydney | 3 | All Maps","name_short":"syd-3","host":"syd-1.au.uncletopia.com","port":27035,"enabled":true,"region":"au","cc":"au","latitude":-33.865143,"longitude":151.2099,"reserved":0,"last_update":"0001-01-01T00:00:00Z","name_a2s":"Uncletopia | Sydney | 3 | All Maps","protocol":17,"map":"pl_barnblitz","folder":"tf","game":"Team Fortress","app_id":440,"player_count":0,"max_players":24,"Bots":0,"server_type":"Dedicated","server_os":"Linux","password":true,"vac":true,"version":"7961495","steam_id":85568392925194467,"keywords":["nocrits","nodmgspread","payload","uncletopia"],"game_id":440,"stv_port":27036,"stv_name":"Uncletopia | Sydney | 3 | All Maps | STV","players":null},{"server_id":396,"name":"Uncletopia | Sydney | 4 | All Maps","name_short":"syd-4","host":"syd-1.au.uncletopia.com","port":27045,"enabled":true,"region":"au","cc":"au","latitude":-33.865143,"longitude":151.2099,"reserved":0,"last_update":"0001-01-01T00:00:00Z","name_a2s":"Uncletopia | Sydney | 4 | All Maps","protocol":17,"map":"cp_process_final","folder":"tf","game":"Team Fortress","app_id":440,"player_count":0,"max_players":24,"Bots":0,"server_type":"Dedicated","server_os":"Linux","password":true,"vac":true,"version":"7961495","steam_id":85568392925397958,"keywords":["cp","nocrits","nodmgspread","uncletopia"],"game_id":440,"stv_port":27046,"stv_name":"Uncletopia | Sydney | 4 | All Maps | STV","players":null},{"server_id":58,"name":"Uncletopia | Sydney | 5 | Stopwatch","name_short":"syd-5","host":"syd-1.au.uncletopia.com","port":27055,"enabled":true,"region":"au","cc":"au","latitude":-33.865143,"longitude":151.2099,"reserved":0,"last_update":"0001-01-01T00:00:00Z","name_a2s":"Uncletopia | Sydney | 5 | Stopwatch","protocol":17,"map":"pl_frontier_final","folder":"tf","game":"Team Fortress","app_id":440,"player_count":0,"max_players":24,"Bots":0,"server_type":"Dedicated","server_os":"Linux","password":true,"vac":true,"version":"7961495","steam_id":85568392925397959,"keywords":["nocrits","nodmgspread","payload","uncletopia"],"game_id":440,"stv_port":27056,"stv_name":"Uncletopia | Sydney | 5 | Stopwatch | STV","players":null},{"server_id":59,"name":"Uncletopia | Sydney | 6 | Community","name_short":"syd-6","host":"syd-1.au.uncletopia.com","port":27065,"enabled":true,"region":"au","cc":"au","latitude":-33.865143,"longitude":151.2099,"reserved":0,"last_update":"0001-01-01T00:00:00Z","name_a2s":"Uncletopia | Sydney | 6 | Community","protocol":17,"map":"workshop/rd_asteroid_redux_b1.ugc2154902912","folder":"tf","game":"Team Fortress","app_id":440,"player_count":0,"max_players":24,"Bots":0,"server_type":"Dedicated","server_os":"Linux","password":true,"vac":true,"version":"7961495","steam_id":85568392925397960,"keywords":["beta","nocrits","nodmgspread","rd","uncletopia"],"game_id":440,"stv_port":27066,"stv_name":"Uncletopia | Sydney | 6 | Community | STV","players":null},{"server_id":49,"name":"Uncletopia | Warsaw | 1 | One Thousand Uncles","name_short":"waw-1","host":"waw-1.pl.uncletopia.com","port":27015,"enabled":true,"region":"eu","cc":"pl","latitude":52.2297,"longitude":21.017532,"reserved":0,"last_update":"0001-01-01T00:00:00Z","name_a2s":"Uncletopia | Warsaw | 1 | One Thousand Uncles","protocol":17,"map":"koth_highpass","folder":"tf","game":"Team Fortress","app_id":440,"player_count":0,"max_players":32,"Bots":0,"server_type":"Dedicated","server_os":"Linux","password":true,"vac":true,"version":"7961495","steam_id":85568392925397850,"keywords":["alltalk","cp","danepve","increased_maxplayers","nocrits","norespawntime","uncletopia"],"game_id":440,"stv_port":0,"stv_name":"","players":null},{"server_id":50,"name":"Uncletopia | Warsaw | 2 | One Thousand Uncles","name_short":"waw-2","host":"waw-1.pl.uncletopia.com","port":27025,"enabled":true,"region":"eu","cc":"pl","latitude":52.2297,"longitude":21.017532,"reserved":0,"last_update":"0001-01-01T00:00:00Z","name_a2s":"Uncletopia | Warsaw | 2 | One Thousand Uncles","protocol":17,"map":"pl_goldrush","folder":"tf","game":"Team Fortress","app_id":440,"player_count":0,"max_players":32,"Bots":0,"server_type":"Dedicated","server_os":"Linux","password":true,"vac":true,"version":"7961495","steam_id":85568392925397851,"keywords":["alltalk","danepve","increased_maxplayers","nocrits","norespawntime","payload","uncletopia"],"game_id":440,"stv_port":0,"stv_name":"","players":null},{"server_id":51,"name":"Uncletopia | Warsaw | 3 | All Maps","name_short":"waw-3","host":"waw-1.pl.uncletopia.com","port":27035,"enabled":true,"region":"eu","cc":"pl","latitude":52.2297,"longitude":21.017532,"reserved":0,"last_update":"0001-01-01T00:00:00Z","name_a2s":"Uncletopia | Warsaw | 3 | All Maps","protocol":17,"map":"plr_pipeline","folder":"tf","game":"Team Fortress","app_id":440,"player_count":0,"max_players":24,"Bots":0,"server_type":"Dedicated","server_os":"Linux","password":true,"vac":true,"version":"7961495","steam_id":85568392925397852,"keywords":["nocrits","nodmgspread","payload","uncletopia"],"game_id":440,"stv_port":27036,"stv_name":"Uncletopia | Warsaw | 3 | All Maps | STV","players":null},{"server_id":52,"name":"Uncletopia | Warsaw | 4 | All Maps","name_short":"waw-4","host":"waw-1.pl.uncletopia.com","port":27045,"enabled":true,"region":"eu","cc":"pl","latitude":52.2297,"longitude":21.017532,"reserved":0,"last_update":"0001-01-01T00:00:00Z","name_a2s":"Uncletopia | Warsaw | 4 | All Maps","protocol":17,"map":"cp_coldfront","folder":"tf","game":"Team Fortress","app_id":440,"player_count":0,"max_players":24,"Bots":0,"server_type":"Dedicated","server_os":"Linux","password":true,"vac":true,"version":"7961495","steam_id":85568392925397853,"keywords":["cp","nocrits","nodmgspread","uncletopia"],"game_id":440,"stv_port":27046,"stv_name":"Uncletopia | Warsaw | 4 | All Maps | STV","players":null},{"server_id":53,"name":"Uncletopia | Warsaw | 5 | Stopwatch","name_short":"waw-5","host":"waw-1.pl.uncletopia.com","port":27055,"enabled":true,"region":"eu","cc":"pl","latitude":52.2297,"longitude":21.017532,"reserved":0,"last_update":"0001-01-01T00:00:00Z","name_a2s":"Uncletopia | Warsaw | 5 | Stopwatch","protocol":17,"map":"workshop/koth_bagel_rc6.ugc2514036946","folder":"tf","game":"Team Fortress","app_id":440,"player_count":0,"max_players":24,"Bots":0,"server_type":"Dedicated","server_os":"Linux","password":true,"vac":true,"version":"7961495","steam_id":85568392925397854,"keywords":["cp","nocrits","nodmgspread","uncletopia"],"game_id":440,"stv_port":27056,"stv_name":"Uncletopia | Warsaw | 5 | Stopwatch | STV","players":null},{"server_id":54,"name":"Uncletopia | Warsaw | 6 | Community","name_short":"waw-6","host":"waw-1.pl.uncletopia.com","port":27065,"enabled":true,"region":"eu","cc":"pl","latitude":52.2297,"longitude":21.017532,"reserved":0,"last_update":"0001-01-01T00:00:00Z","name_a2s":"Uncletopia | Warsaw | 6 | Community","protocol":17,"map":"workshop/pl_badwater_pro_v12.ugc2142942074","folder":"tf","game":"Team Fortress","app_id":440,"player_count":0,"max_players":24,"Bots":0,"server_type":"Dedicated","server_os":"Linux","password":true,"vac":true,"version":"7961495","steam_id":85568392925397856,"keywords":["nocrits","nodmgspread","payload","uncletopia"],"game_id":440,"stv_port":27066,"stv_name":"Uncletopia | Warsaw | 6 | Community | STV","players":null}]}