{"status":true,"message":"","result":[{"server_id":9,"name":"Uncletopia | Atlanta | 1 | All Maps","name_short":"atl-1","host":"atl-1.us.uncletopia.com","port":27015,"enabled":true,"region":"us-east","cc":"us","latitude":33.753746,"longitude":-84.38633,"reserved":0,"last_update":"0001-01-01T00:00:00Z","name_a2s":"Uncletopia | Atlanta | 1 | All Maps","protocol":17,"map":"pl_pier","folder":"tf","game":"Team Fortress","app_id":440,"player_count":24,"max_players":24,"Bots":0,"server_type":"Dedicated","server_os":"Linux","password":true,"vac":true,"version":"7695204","steam_id":85568392924469982,"keywords":["nocrits","nodmgspread","payload","uncletopia"],"game_id":440,"stv_port":27016,"stv_name":"Uncletopia | Atlanta | 1 | All Maps | STV","players":[{"user_id":9,"name":"William Wallace","steam_id":76561199343316814,"connected_time":3564000000000,"state":"active","ping":61},{"user_id":28,"name":"phone click","steam_id":76561198133360797,"connected_time":2290000000000,"state":"active","ping":97},{"user_id":13,"name":"ATL1 | on my hunting trip","steam_id":76561198315341646,"connected_time":3483000000000,"state":"active","ping":68},{"user_id":75,"name":"fi_ji","steam_id":76561198126087725,"connected_time":78000000000,"state":"active","ping":60},{"user_id":17,"name":"Jin Gulilo","steam_id":76561198065151242,"connected_time":2827000000000,"state":"active","ping":62},{"user_id":72,"name":"walrusmash","steam_id":76561198117955845,"connected_time":83000000000,"state":"active","ping":59},{"user_id":66,"name":"Mr. Ruckus","steam_id":76561198339566190,"connected_time":361000000000,"state":"active","ping":78},{"user_id":39,"name":"MayaBon","steam_id":76561198797968261,"connected_time":1894000000000,"state":"active","ping":107},{"user_id":68,"name":"Zeek","steam_id":76561197987204351,"connected_time":271000000000,"state":"active","ping":47},{"user_id":22,"name":"Adán Negro","steam_id":76561198151256410,"connected_time":2575000000000,"state":"active","ping":134},{"user_id":47,"name":"Furi","steam_id":76561198139927408,"connected_time":1331000000000,"state":"active","ping":63},{"user_id":63,"name":"HALO 3","steam_id":76561198020825795,"connected_time":549000000000,"state":"active","ping":61},{"user_id":33,"name":"Kuyumiester","steam_id":76561198126835302,"connected_time":2142000000000,"state":"active","ping":75},{"user_id":41,"name":"Bashirider","steam_id":76561198260522253,"connected_time":1679000000000,"state":"active","ping":66},{"user_id":70,"name":"Luucyf3r","steam_id":76561198141820085,"connected_time":199000000000,"state":"active","ping":55},{"user_id":67,"name":"Eightyy  Fourr","steam_id":76561197960374225,"connected_time":342000000000,"state":"active","ping":70},{"user_id":42,"name":"im mean","steam_id":76561199209403512,"connected_time":1661000000000,"state":"active","ping":60},{"user_id":76,"name":"Mads Mikkelsen","steam_id":76561198083482001,"connected_time":14000000000,"state":"spawning","ping":178},{"user_id":73,"name":"Wangel","steam_id":76561199116413509,"connected_time":81000000000,"state":"active","ping":175},{"user_id":44,"name":"StickyWicket","steam_id":76561198000155177,"connected_time":1596000000000,"state":"active","ping":63},{"user_id":58,"name":"SilentAspect878","steam_id":76561199078816789,"connected_time":1138000000000,"state":"active","ping":60},{"user_id":51,"name":"JustSomeInternetGuy","steam_id":76561199066037843,"connected_time":1293000000000,"state":"active","ping":75},{"user_id":60,"name":"Infinitee","steam_id":76561198125409130,"connected_time":857000000000,"state":"active","ping":31},{"user_id":74,"name":"hurb","steam_id":76561198192113097,"connected_time":81000000000,"state":"active","ping":77}]},{"server_id":400,"name":"Uncletopia | Atlanta | 3 | All Maps","name_short":"atl-3","host":"atl-1.us.uncletopia.com","port":27035,"enabled":true,"region":"us-east","cc":"us","latitude":33.753746,"longitude":-84.38633,"reserved":0,"last_update":"0001-01-01T00:00:00Z","name_a2s":"Uncletopia | Atlanta | 3 | All Maps","protocol":17,"map":"pl_frontier_final","folder":"tf","game":"Team Fortress","app_id":440,"player_count":0,"max_players":24,"Bots":0,"server_type":"Dedicated","server_os":"Linux","password":true,"vac":true,"version":"7695204","steam_id":85568392924515187,"keywords":["nocrits","nodmgspread","payload","uncletopia"],"game_id":440,"stv_port":0,"stv_name":"","players":null},{"server_id":401,"name":"Uncletopia | Atlanta | 4 | No Payload","name_short":"atl-4","host":"atl-1.us.uncletopia.com","port":27045,"enabled":true,"region":"us-east","cc":"us","latitude":33.753746,"longitude":-84.38633,"reserved":0,"last_update":"0001-01-01T00:00:00Z","name_a2s":"Uncletopia | Atlanta | 4 | No Payload","protocol":17,"map":"cp_snakewater_final1","folder":"tf","game":"Team Fortress","app_id":440,"player_count":0,"max_players":24,"Bots":0,"server_type":"Dedicated","server_os":"Linux","password":true,"vac":true,"version":"7695204","steam_id":85568392924515188,"keywords":["cp","nocrits","nodmgspread","uncletopia"],"game_id":440,"stv_port":0,"stv_name":"","players":null},{"server_id":2,"name":"Uncletopia | Chicago | 1 | All Maps","name_short":"chi-1","host":"chi-1.us.uncletopia.com","port":27015,"enabled":true,"region":"us-central","cc":"us","latitude":41.881832,"longitude":-87.62318,"reserved":0,"last_update":"0001-01-01T00:00:00Z","name_a2s":"Uncletopia | Chicago | 1 | All Maps","protocol":17,"map":"pl_upward","folder":"tf","game":"Team Fortress","app_id":440,"player_count":24,"max_players":24,"Bots":0,"server_type":"Dedicated","server_os":"Linux","password":true,"vac":true,"version":"7695204","steam_id":85568392924469984,"keywords":["nocrits","nodmgspread","payload","uncletopia"],"game_id":440,"stv_port":27016,"stv_name":"Uncletopia | Chicago | 1 | All Maps | STV","players":[{"user_id":253,"name":"roffy","steam_id":76561198008869402,"connected_time":979000000000,"state":"active","ping":128},{"user_id":262,"name":"soldiertf2","steam_id":76561198031861286,"connected_time":293000000000,"state":"active","ping":82},{"user_id":245,"name":"A Can of Arizona Green Tea","steam_id":76561198062481133,"connected_time":1151000000000,"state":"active","ping":58},{"user_id":228,"name":"Catbread","steam_id":76561198145023711,"connected_time":2191000000000,"state":"active","ping":53},{"user_id":260,"name":"highWayy","steam_id":76561198042844908,"connected_time":409000000000,"state":"active","ping":62},{"user_id":254,"name":"pinglefingle","steam_id":76561198216580197,"connected_time":954000000000,"state":"active","ping":75},{"user_id":248,"name":"nohbody","steam_id":76561197996877881,"connected_time":1065000000000,"state":"active","ping":76},{"user_id":192,"name":"Nic","steam_id":76561198333983754,"connected_time":4155000000000,"state":"active","ping":73},{"user_id":249,"name":"safeway farm peeled baby carrot","steam_id":76561198022379886,"connected_time":1063000000000,"state":"active","ping":75},{"user_id":234,"name":"lostos","steam_id":76561197983869145,"connected_time":1523000000000,"state":"active","ping":134},{"user_id":252,"name":"Ta5K","steam_id":76561198939558155,"connected_time":1021000000000,"state":"active","ping":45},{"user_id":193,"name":"motorized bar of soap","steam_id":76561198882404753,"connected_time":4153000000000,"state":"active","ping":75},{"user_id":266,"name":"graylie","steam_id":76561198108685037,"connected_time":152000000000,"state":"active","ping":66},{"user_id":264,"name":"A tree","steam_id":76561198309065247,"connected_time":208000000000,"state":"active","ping":60},{"user_id":256,"name":"Greencoffee","steam_id":76561198842090589,"connected_time":916000000000,"state":"active","ping":155},{"user_id":261,"name":"Bleok","steam_id":76561198078212322,"connected_time":310000000000,"state":"active","ping":123},{"user_id":250,"name":"BIG HOG","steam_id":76561198079923652,"connected_time":1056000000000,"state":"active","ping":76},{"user_id":247,"name":"BlueZombieBlood","steam_id":76561198123590661,"connected_time":1133000000000,"state":"active","ping":117},{"user_id":268,"name":"PeptoBismol135","steam_id":76561198135387121,"connected_time":26000000000,"state":"active","ping":81},{"user_id":259,"name":"Ogre Tele Co","steam_id":76561198041909269,"connected_time":413000000000,"state":"active","ping":92},{"user_id":226,"name":"Eternal","steam_id":76561197990721868,"connected_time":2340000000000,"state":"active","ping":83},{"user_id":257,"name":"Tyler\u0026Fingers","steam_id":76561198085154485,"connected_time":901000000000,"state":"active","ping":82},{"user_id":267,"name":"Bee","steam_id":76561198074681324,"connected_time":117000000000,"state":"active","ping":64},{"user_id":244,"name":"Drakon","steam_id":76561198078210822,"connected_time":1164000000000,"state":"active","ping":112}]},{"server_id":106,"name":"Uncletopia | Chicago | 2 | All Maps","name_short":"chi-2","host":"chi-1.us.uncletopia.com","port":27025,"enabled":true,"region":"us-central","cc":"us","latitude":41.881832,"longitude":-87.62318,"reserved":0,"last_update":"0001-01-01T00:00:00Z","name_a2s":"Uncletopia | Chicago | 2 | All Maps","protocol":17,"map":"cp_steel","folder":"tf","game":"Team Fortress","app_id":440,"player_count":24,"max_players":24,"Bots":0,"server_type":"Dedicated","server_os":"Linux","password":true,"vac":true,"version":"7695204","steam_id":85568392924469985,"keywords":["cp","nocrits","nodmgspread","uncletopia"],"game_id":440,"stv_port":27026,"stv_name":"Uncletopia | Chicago | 2 | All Maps | STV","players":[{"user_id":169,"name":"giura","steam_id":76561197986794525,"connected_time":1039000000000,"state":"active","ping":85},{"user_id":182,"name":"Kamin","steam_id":76561198255299559,"connected_time":648000000000,"state":"active","ping":78},{"user_id":173,"name":"StupidStuff","steam_id":76561198850565003,"connected_time":854000000000,"state":"active","ping":54},{"user_id":125,"name":"amagicowl","steam_id":76561199060487814,"connected_time":5208000000000,"state":"active","ping":75},{"user_id":133,"name":"Dude Named Bob","steam_id":76561198310448093,"connected_time":4543000000000,"state":"active","ping":45},{"user_id":148,"name":"Walmart Employee","steam_id":76561198840373909,"connected_time":3107000000000,"state":"active","ping":97},{"user_id":120,"name":"miles","steam_id":76561198006838401,"connected_time":6005000000000,"state":"active","ping":79},{"user_id":30,"name":"joshmamamia","steam_id":76561199099500101,"connected_time":10485000000000,"state":"active","ping":130},{"user_id":89,"name":"santas.secret.sauce","steam_id":76561198042464635,"connected_time":7711000000000,"state":"active","ping":77},{"user_id":157,"name":"id rather you not","steam_id":76561198161824724,"connected_time":2595000000000,"state":"active","ping":79},{"user_id":152,"name":"Rornir","steam_id":76561198081829615,"connected_time":2949000000000,"state":"active","ping":32},{"user_id":188,"name":"Alkahest","steam_id":76561199112346658,"connected_time":193000000000,"state":"active","ping":60},{"user_id":187,"name":"mrs. business","steam_id":76561198025454291,"connected_time":307000000000,"state":"active","ping":83},{"user_id":132,"name":"Chol","steam_id":76561198122054259,"connected_time":4554000000000,"state":"active","ping":73},{"user_id":165,"name":"Fiammetta","steam_id":76561198044183173,"connected_time":1344000000000,"state":"active","ping":68},{"user_id":175,"name":"SaucyMcFrosty","steam_id":76561198036218608,"connected_time":769000000000,"state":"active","ping":49},{"user_id":192,"name":"Audiphon","steam_id":76561198051340300,"connected_time":101000000000,"state":"active","ping":166},{"user_id":179,"name":"nhstefanov","steam_id":76561198811811405,"connected_time":756000000000,"state":"active","ping":157},{"user_id":185,"name":"dust","steam_id":76561198045218909,"connected_time":552000000000,"state":"active","ping":84},{"user_id":178,"name":"Shark Sandwich","steam_id":76561198025007938,"connected_time":759000000000,"state":"active","ping":133},{"user_id":186,"name":"Slondermin","steam_id":76561198320301349,"connected_time":383000000000,"state":"active","ping":83},{"user_id":190,"name":"zinnk","steam_id":76561198092081825,"connected_time":171000000000,"state":"active","ping":120},{"user_id":159,"name":"Geloman","steam_id":76561198005501322,"connected_time":1979000000000,"state":"active","ping":81},{"user_id":191,"name":"Potato","steam_id":76561199095850317,"connected_time":124000000000,"state":"active","ping":75}]},{"server_id":402,"name":"Uncletopia | Chicago | 3 | All Maps","name_short":"chi-3","host":"chi-1.us.uncletopia.com","port":27035,"enabled":true,"region":"us-central","cc":"us","latitude":41.881832,"longitude":-87.62318,"reserved":0,"last_update":"0001-01-01T00:00:00Z","name_a2s":"Uncletopia | Chicago | 3 | All Maps","protocol":17,"map":"cp_mountainlab","folder":"tf","game":"Team Fortress","app_id":440,"player_count":0,"max_players":24,"Bots":0,"server_type":"Dedicated","server_os":"Linux","password":true,"vac":true,"version":"7695204","steam_id":85568392924515191,"keywords":["cp","nocrits","nodmgspread","uncletopia"],"game_id":440,"stv_port":27036,"stv_name":"Uncletopia | Chicago | 3 | All Maps | STV","players":null},{"server_id":403,"name":"Uncletopia | Chicago | 4 | All Maps","name_short":"chi-4","host":"chi-1.us.uncletopia.com","port":27045,"enabled":true,"region":"us-central","cc":"us","latitude":41.881832,"longitude":-87.62318,"reserved":0,"last_update":"0001-01-01T00:00:00Z","name_a2s":"Uncletopia | Chicago | 4 | All Maps","protocol":17,"map":"koth_highpass","folder":"tf","game":"Team Fortress","app_id":440,"player_count":0,"max_players":24,"Bots":0,"server_type":"Dedicated","server_os":"Linux","password":true,"vac":true,"version":"7695204","steam_id":85568392924515193,"keywords":["cp","nocrits","nodmgspread","uncletopia"],"game_id":440,"stv_port":0,"stv_name":"","players":null},{"server_id":36,"name":"Uncletopia | Chicago | 5 | All Maps","name_short":"chi-5","host":"chi-2.us.uncletopia.com","port":27015,"enabled":true,"region":"us-central","cc":"us","latitude":41.881832,"longitude":-87.62318,"reserved":0,"last_update":"0001-01-01T00:00:00Z","name_a2s":"Uncletopia | Chicago | 5 | All Maps","protocol":17,"map":"pl_goldrush","folder":"tf","game":"Team Fortress","app_id":440,"player_count":24,"max_players":24,"Bots":0,"server_type":"Dedicated","server_os":"Linux","password":true,"vac":true,"version":"7695204","steam_id":85568392924866362,"keywords":["nocrits","nodmgspread","payload","uncletopia"],"game_id":440,"stv_port":27016,"stv_name":"Uncletopia | Chicago | 5 | All Maps | STV","players":[{"user_id":101,"name":"6t26j","steam_id":76561198278282836,"connected_time":3440000000000,"state":"active","ping":57},{"user_id":136,"name":"nobody","steam_id":76561198217121725,"connected_time":919000000000,"state":"active","ping":94},{"user_id":150,"name":"LeBron James","steam_id":76561198097160898,"connected_time":143000000000,"state":"active","ping":49},{"user_id":124,"name":"Zon","steam_id":76561198819789573,"connected_time":1781000000000,"state":"active","ping":45},{"user_id":122,"name":"passa passa","steam_id":76561199238923581,"connected_time":2003000000000,"state":"active","ping":115},{"user_id":118,"name":"spaaaaace","steam_id":76561199085974120,"connected_time":2470000000000,"state":"active","ping":65},{"user_id":152,"name":"t4rkus","steam_id":76561198233984300,"connected_time":105000000000,"state":"active","ping":55},{"user_id":39,"name":"AhoyK","steam_id":76561198274742715,"connected_time":7846000000000,"state":"active","ping":59},{"user_id":149,"name":"McNamJam","steam_id":76561198028128686,"connected_time":153000000000,"state":"active","ping":93},{"user_id":131,"name":"Carl, Good to see you","steam_id":76561198070574075,"connected_time":1203000000000,"state":"active","ping":65},{"user_id":103,"name":"hi","steam_id":76561198809577048,"connected_time":2933000000000,"state":"active","ping":104},{"user_id":141,"name":"Derppinater_","steam_id":76561198093450915,"connected_time":756000000000,"state":"active","ping":68},{"user_id":147,"name":"floppy muppet","steam_id":76561198003076261,"connected_time":308000000000,"state":"active","ping":83},{"user_id":91,"name":"JimmySquid","steam_id":76561198254242530,"connected_time":4222000000000,"state":"active","ping":53},{"user_id":151,"name":"Callawe","steam_id":76561198129785792,"connected_time":138000000000,"state":"active","ping":141},{"user_id":140,"name":"themankeys","steam_id":76561198149339536,"connected_time":831000000000,"state":"active","ping":62},{"user_id":128,"name":"ThePriceIsRice","steam_id":76561198079069543,"connected_time":1232000000000,"state":"active","ping":113},{"user_id":153,"name":"RUSSELL","steam_id":76561197984579630,"connected_time":49000000000,"state":"active","ping":127},{"user_id":78,"name":"Kritzburgh","steam_id":76561198149466938,"connected_time":5151000000000,"state":"active","ping":64},{"user_id":144,"name":"Hungry Hare","steam_id":76561198158646310,"connected_time":653000000000,"state":"active","ping":114},{"user_id":127,"name":"jimmybones06@yahoo.com","steam_id":76561198229850516,"connected_time":1245000000000,"state":"active","ping":89},{"user_id":148,"name":"pt","steam_id":76561198143023330,"connected_time":206000000000,"state":"active","ping":100},{"user_id":129,"name":"Capt on PC","steam_id":76561198396814154,"connected_time":1231000000000,"state":"active","ping":111},{"user_id":154,"name":"Jookson","steam_id":76561198413604994,"connected_time":47000000000,"state":"spawning","ping":59}]},{"server_id":37,"name":"Uncletopia | Chicago | 6 | All Maps","name_short":"chi-6","host":"chi-2.us.uncletopia.com","port":27025,"enabled":true,"region":"us-central","cc":"us","latitude":41.881832,"longitude":-87.62318,"reserved":0,"last_update":"0001-01-01T00:00:00Z","name_a2s":"Uncletopia | Chicago | 6 | All Maps","protocol":17,"map":"cp_snakewater_final1","folder":"tf","game":"Team Fortress","app_id":440,"player_count":0,"max_players":24,"Bots":0,"server_type":"Dedicated","server_os":"Linux","password":true,"vac":true,"version":"7695204","steam_id":85568392924866363,"keywords":["cp","nocrits","nodmgspread","uncletopia"],"game_id":440,"stv_port":0,"stv_name":"","players":null},{"server_id":38,"name":"Uncletopia | Chicago | 7 | No Payload","name_short":"chi-7","host":"chi-2.us.uncletopia.com","port":27035,"enabled":true,"region":"us-central","cc":"us","latitude":41.881832,"longitude":-87.62318,"reserved":0,"last_update":"0001-01-01T00:00:00Z","name_a2s":"Uncletopia | Chicago | 7 | No Payload","protocol":17,"map":"ctf_landfall","folder":"tf","game":"Team Fortress","app_id":440,"player_count":0,"max_players":24,"Bots":0,"server_type":"Dedicated","server_os":"Linux","password":true,"vac":true,"version":"7695204","steam_id":85568392924866364,"keywords":["ctf","nocrits","nodmgspread","uncletopia"],"game_id":440,"stv_port":27036,"stv_name":"Uncletopia | Chicago | 7 | No Payload | STV","players":null},{"server_id":39,"name":"Uncletopia | Chicago | 8 | Community","name_short":"chi-8","host":"chi-2.us.uncletopia.com","port":27045,"enabled":true,"region":"us-central","cc":"us","latitude":41.881832,"longitude":-87.62318,"reserved":0,"last_update":"0001-01-01T00:00:00Z","name_a2s":"Uncletopia | Chicago | 8 | Community","protocol":17,"map":"cp_altitude","folder":"tf","game":"Team Fortress","app_id":440,"player_count":0,"max_players":24,"Bots":0,"server_type":"Dedicated","server_os":"Linux","password":true,"vac":true,"version":"7695204","steam_id":85568392924866365,"keywords":["cp","nocrits","nodmgspread","uncletopia"],"game_id":440,"stv_port":0,"stv_name":"","players":null},{"server_id":8,"name":"Uncletopia | Dallas | 1 | All Maps","name_short":"dal-1","host":"dal-1.us.uncletopia.com","port":27015,"enabled":true,"region":"us-central","cc":"us","latitude":32.779167,"longitude":-96.80889,"reserved":0,"last_update":"0001-01-01T00:00:00Z","name_a2s":"Uncletopia | Dallas | 1 | All Maps","protocol":17,"map":"pl_snowycoast","folder":"tf","game":"Team Fortress","app_id":440,"player_count":0,"max_players":24,"Bots":0,"server_type":"Dedicated","server_os":"Linux","password":true,"vac":true,"version":"7695204","steam_id":85568392924469986,"keywords":["nocrits","nodmgspread","payload","uncletopia"],"game_id":440,"stv_port":0,"stv_name":"","players":null},{"server_id":108,"name":"Uncletopia | Dallas | 2 | All Maps","name_short":"dal-2","host":"dal-1.us.uncletopia.com","port":27025,"enabled":true,"region":"us-central","cc":"us","latitude":32.779167,"longitude":-96.80889,"reserved":0,"last_update":"0001-01-01T00:00:00Z","name_a2s":"Uncletopia | Dallas | 2 | All Maps","protocol":17,"map":"cp_mountainlab","folder":"tf","game":"Team Fortress","app_id":440,"player_count":0,"max_players":24,"Bots":0,"server_type":"Dedicated","server_os":"Linux","password":true,"vac":true,"version":"7695204","steam_id":85568392924469988,"keywords":["cp","nocrits","nodmgspread","uncletopia"],"game_id":440,"stv_port":0,"stv_name":"","players":null},{"server_id":5,"name":"Uncletopia | Frankfurt | 1 | All Maps","name_short":"frk-1","host":"frk-1.de.uncletopia.com","port":27015,"enabled":true,"region":"eu","cc":"de","latitude":50.110924,"longitude":8.682127,"reserved":0,"last_update":"0001-01-01T00:00:00Z","name_a2s":"Uncletopia | Frankfurt | 1 | All Maps","protocol":17,"map":"cp_altitude","folder":"tf","game":"Team Fortress","app_id":440,"player_count":24,"max_players":24,"Bots":0,"server_type":"Dedicated","server_os":"Linux","password":true,"vac":true,"version":"7695204","steam_id":85568392924469989,"keywords":["cp","nocrits","nodmgspread","uncletopia"],"game_id":440,"stv_port":27016,"stv_name":"Uncletopia | Frankfurt | 1 | All Maps | STV","players":[{"user_id":433,"name":"The Spookster","steam_id":76561198122072252,"connected_time":138000000000,"state":"active","ping":47},{"user_id":422,"name":"GabGame","steam_id":76561198105631808,"connected_time":1072000000000,"state":"active","ping":64},{"user_id":412,"name":"guc0","steam_id":76561198109952006,"connected_time":1907000000000,"state":"active","ping":80},{"user_id":414,"name":"Appelflap64","steam_id":76561198012819017,"connected_time":1440000000000,"state":"active","ping":64},{"user_id":380,"name":"breedable","steam_id":76561198010300032,"connected_time":4480000000000,"state":"active","ping":60},{"user_id":421,"name":"varnu","steam_id":76561198104896547,"connected_time":1236000000000,"state":"active","ping":74},{"user_id":415,"name":"M76030","steam_id":76561198046651252,"connected_time":1310000000000,"state":"active","ping":52},{"user_id":378,"name":"Miatthew","steam_id":76561198034102895,"connected_time":4587000000000,"state":"active","ping":43},{"user_id":423,"name":"ev1lboyo","steam_id":76561199199499453,"connected_time":1051000000000,"state":"active","ping":72},{"user_id":296,"name":"][yoG","steam_id":76561197992271834,"connected_time":10445000000000,"state":"active","ping":76},{"user_id":427,"name":"i am bread","steam_id":76561199180277321,"connected_time":941000000000,"state":"active","ping":57},{"user_id":417,"name":"fogings","steam_id":76561198044165284,"connected_time":1289000000000,"state":"active","ping":39},{"user_id":394,"name":"Miiukade","steam_id":76561198089157860,"connected_time":3849000000000,"state":"active","ping":142},{"user_id":429,"name":"where is my egg?","steam_id":76561198172542535,"connected_time":642000000000,"state":"active","ping":65},{"user_id":391,"name":"gamer_","steam_id":76561198094125769,"connected_time":4225000000000,"state":"active","ping":75},{"user_id":405,"name":"holykyckling","steam_id":76561198040661615,"connected_time":2745000000000,"state":"active","ping":75},{"user_id":374,"name":"Welder","steam_id":76561198355300561,"connected_time":5177000000000,"state":"active","ping":76},{"user_id":373,"name":"Zateske","steam_id":76561198047446276,"connected_time":5322000000000,"state":"active","ping":69},{"user_id":431,"name":"d","steam_id":76561198114847909,"connected_time":591000000000,"state":"active","ping":67},{"user_id":428,"name":"Demolition Man (real)","steam_id":76561198970762992,"connected_time":699000000000,"state":"active","ping":66},{"user_id":426,"name":"Firevell","steam_id":76561198154813359,"connected_time":1015000000000,"state":"active","ping":56},{"user_id":407,"name":"Infinithil","steam_id":76561198041273639,"connected_time":2215000000000,"state":"active","ping":60},{"user_id":357,"name":"\u003e","steam_id":76561198239927434,"connected_time":6386000000000,"state":"active","ping":91},{"user_id":420,"name":"Makeways","steam_id":76561198274466477,"connected_time":1255000000000,"state":"active","ping":69}]},{"server_id":110,"name":"Uncletopia | Frankfurt | 2 | All Maps","name_short":"frk-2","host":"frk-1.de.uncletopia.com","port":27025,"enabled":true,"region":"eu","cc":"de","latitude":50.110924,"longitude":8.682127,"reserved":0,"last_update":"0001-01-01T00:00:00Z","name_a2s":"Uncletopia | Frankfurt | 2 | All Maps","protocol":17,"map":"pl_upward","folder":"tf","game":"Team Fortress","app_id":440,"player_count":23,"max_players":24,"Bots":0,"server_type":"Dedicated","server_os":"Linux","password":true,"vac":true,"version":"7695204","steam_id":85568392924469990,"keywords":["nocrits","nodmgspread","payload","uncletopia"],"game_id":440,"stv_port":27026,"stv_name":"Uncletopia | Frankfurt | 2 | All Maps | STV","players":[{"user_id":344,"name":"Crisps","steam_id":76561198088973774,"connected_time":1025000000000,"state":"active","ping":46},{"user_id":294,"name":"Chiello","steam_id":76561197993989715,"connected_time":3409000000000,"state":"active","ping":47},{"user_id":357,"name":"AdgaroS","steam_id":76561198969373800,"connected_time":277000000000,"state":"active","ping":65},{"user_id":324,"name":"Tao","steam_id":76561198036750896,"connected_time":2158000000000,"state":"active","ping":51},{"user_id":355,"name":"FrozenTiddies","steam_id":76561198271916832,"connected_time":301000000000,"state":"active","ping":45},{"user_id":348,"name":"SoberOnion","steam_id":76561198987711995,"connected_time":830000000000,"state":"active","ping":60},{"user_id":353,"name":"dankerghost","steam_id":76561198838761959,"connected_time":305000000000,"state":"active","ping":131},{"user_id":343,"name":"skai-TA-","steam_id":76561198184881255,"connected_time":1131000000000,"state":"active","ping":73},{"user_id":356,"name":"Kard","steam_id":76561198191894926,"connected_time":298000000000,"state":"active","ping":100},{"user_id":346,"name":"Pyrolander","steam_id":76561198050785450,"connected_time":972000000000,"state":"active","ping":57},{"user_id":334,"name":"supercharger832","steam_id":76561198871408515,"connected_time":1562000000000,"state":"active","ping":50},{"user_id":337,"name":"JGV","steam_id":76561198094654971,"connected_time":1343000000000,"state":"active","ping":76},{"user_id":336,"name":"WolfmanCZ","steam_id":76561199157141414,"connected_time":1353000000000,"state":"active","ping":73},{"user_id":230,"name":"Keelan","steam_id":76561198013665543,"connected_time":7802000000000,"state":"active","ping":78},{"user_id":352,"name":"Mclovin567","steam_id":76561198799105302,"connected_time":309000000000,"state":"active","ping":43},{"user_id":351,"name":"triple!!!","steam_id":76561198119449463,"connected_time":311000000000,"state":"active","ping":73},{"user_id":308,"name":"Shlyk","steam_id":76561198333387103,"connected_time":2914000000000,"state":"active","ping":103},{"user_id":345,"name":"foof","steam_id":76561198308439257,"connected_time":1013000000000,"state":"active","ping":60},{"user_id":354,"name":"Salty Choclat","steam_id":76561198110441236,"connected_time":305000000000,"state":"active","ping":76},{"user_id":306,"name":"Carrot Arc","steam_id":76561198164957006,"connected_time":2945000000000,"state":"active","ping":87},{"user_id":359,"name":"dior","steam_id":76561198913886004,"connected_time":91000000000,"state":"active","ping":106},{"user_id":339,"name":"XDXDXDXDXDXDXDXDXDXDXDXDXDXDXD","steam_id":76561198972671525,"connected_time":1330000000000,"state":"active","ping":96},{"user_id":333,"name":"GEP Gun","steam_id":76561197981821003,"connected_time":1693000000000,"state":"active","ping":74}]},{"server_id":308,"name":"Uncletopia | Frankfurt | 3 | All Maps","name_short":"frk-3","host":"frk-1.de.uncletopia.com","port":27035,"enabled":true,"region":"eu","cc":"de","latitude":50.110924,"longitude":8.682127,"reserved":0,"last_update":"0001-01-01T00:00:00Z","name_a2s":"Uncletopia | Frankfurt | 3 | All Maps","protocol":17,"map":"koth_highpass","folder":"tf","game":"Team Fortress","app_id":440,"player_count":0,"max_players":24,"Bots":0,"server_type":"Dedicated","server_os":"Linux","password":true,"vac":true,"version":"7695204","steam_id":85568392924504274,"keywords":["cp","nocrits","nodmgspread","uncletopia"],"game_id":440,"stv_port":27036,"stv_name":"Uncletopia | Frankfurt | 3 | All Maps | STV","players":null},{"server_id":309,"name":"Uncletopia | Frankfurt | 4 | All Maps","name_short":"frk-4","host":"frk-1.de.uncletopia.com","port":27045,"enabled":true,"region":"eu","cc":"de","latitude":50.110924,"longitude":8.682127,"reserved":0,"last_update":"0001-01-01T00:00:00Z","name_a2s":"Uncletopia | Frankfurt | 4 | All Maps","protocol":17,"map":"plr_hightower","folder":"tf","game":"Team Fortress","app_id":440,"player_count":24,"max_players":24,"Bots":0,"server_type":"Dedicated","server_os":"Linux","password":true,"vac":true,"version":"7695204","steam_id":85568392924504275,"keywords":["nocrits","nodmgspread","payload","uncletopia"],"game_id":440,"stv_port":27046,"stv_name":"Uncletopia | Frankfurt | 4 | All Maps | STV","players":[{"user_id":133,"name":"Bill Cosby","steam_id":76561199002106124,"connected_time":794000000000,"state":"active","ping":200},{"user_id":134,"name":"Ongestealth","steam_id":76561198044188720,"connected_time":788000000000,"state":"active","ping":63},{"user_id":141,"name":"Klonky","steam_id":76561199068329886,"connected_time":734000000000,"state":"active","ping":60},{"user_id":165,"name":"radiohead fan","steam_id":76561199163260578,"connected_time":377000000000,"state":"active","ping":64},{"user_id":163,"name":"justin_ (f2p)","steam_id":76561198839843428,"connected_time":417000000000,"state":"active","ping":127},{"user_id":164,"name":"hemili0s","steam_id":76561198157926004,"connected_time":414000000000,"state":"active","ping":104},{"user_id":99,"name":"FuckThisI'mOut","steam_id":76561198229777208,"connected_time":2325000000000,"state":"active","ping":64},{"user_id":137,"name":"Big Trader","steam_id":76561197992364667,"connected_time":771000000000,"state":"active","ping":74},{"user_id":85,"name":"VK2124 :D","steam_id":76561198111130688,"connected_time":2664000000000,"state":"active","ping":47},{"user_id":96,"name":"player","steam_id":76561198054474684,"connected_time":2421000000000,"state":"active","ping":75},{"user_id":151,"name":"Lukas","steam_id":76561198009118452,"connected_time":569000000000,"state":"active","ping":54},{"user_id":84,"name":"Carry Krypl","steam_id":76561198136938121,"connected_time":2750000000000,"state":"active","ping":49},{"user_id":168,"name":"Schizophrenia","steam_id":76561198315642032,"connected_time":121000000000,"state":"active","ping":75},{"user_id":166,"name":"somey","steam_id":76561198083366012,"connected_time":337000000000,"state":"active","ping":62},{"user_id":159,"name":"Real","steam_id":76561198369526578,"connected_time":491000000000,"state":"active","ping":80},{"user_id":170,"name":"Knösta","steam_id":76561198143422139,"connected_time":22000000000,"state":"active","ping":107},{"user_id":144,"name":"Robert Badfinger","steam_id":76561198868286775,"connected_time":705000000000,"state":"active","ping":91},{"user_id":167,"name":"leonardini.w #SaveTF2","steam_id":76561199097963071,"connected_time":249000000000,"state":"active","ping":83},{"user_id":155,"name":"Warpzel65","steam_id":76561198799303596,"connected_time":528000000000,"state":"active","ping":105},{"user_id":82,"name":"Solid","steam_id":76561198357049292,"connected_time":2788000000000,"state":"active","ping":82},{"user_id":169,"name":"23","steam_id":76561198149347502,"connected_time":121000000000,"state":"active","ping":66},{"user_id":102,"name":"ӋԼן.maS","steam_id":76561198114953928,"connected_time":2028000000000,"state":"active","ping":64},{"user_id":97,"name":"miro罪","steam_id":76561198196357213,"connected_time":2417000000000,"state":"active","ping":88},{"user_id":152,"name":"tukata","steam_id":76561198861013993,"connected_time":558000000000,"state":"active","ping":60}]},{"server_id":310,"name":"Uncletopia | Frankfurt | 5 | All Maps","name_short":"frk-5","host":"frk-1.de.uncletopia.com","port":27055,"enabled":true,"region":"eu","cc":"de","latitude":50.110924,"longitude":8.682127,"reserved":0,"last_update":"0001-01-01T00:00:00Z","name_a2s":"Uncletopia | Frankfurt | 5 | All Maps","protocol":17,"map":"koth_highpass","folder":"tf","game":"Team Fortress","app_id":440,"player_count":0,"max_players":24,"Bots":0,"server_type":"Dedicated","server_os":"Linux","password":true,"vac":true,"version":"7695204","steam_id":85568392924504277,"keywords":["cp","nocrits","nodmgspread","uncletopia"],"game_id":440,"stv_port":27056,"stv_name":"Uncletopia | Frankfurt | 5 | All Maps | STV","players":null},{"server_id":311,"name":"Uncletopia | Frankfurt | 6 | All Maps","name_short":"frk-6","host":"frk-1.de.uncletopia.com","port":27065,"enabled":true,"region":"eu","cc":"de","latitude":50.110924,"longitude":8.682127,"reserved":0,"last_update":"0001-01-01T00:00:00Z","name_a2s":"Uncletopia | Frankfurt | 6 | All Maps","protocol":17,"map":"cp_process_final","folder":"tf","game":"Team Fortress","app_id":440,"player_count":24,"max_players":24,"Bots":0,"server_type":"Dedicated","server_os":"Linux","password":true,"vac":true,"version":"7695204","steam_id":85568392924504278,"keywords":["cp","nocrits","nodmgspread","uncletopia"],"game_id":440,"stv_port":27066,"stv_name":"Uncletopia | Frankfurt | 6 | All Maps | STV","players":[{"user_id":316,"name":"Rodia","steam_id":76561197968293161,"connected_time":948000000000,"state":"active","ping":62},{"user_id":302,"name":"Pronton","steam_id":76561198082502910,"connected_time":1893000000000,"state":"active","ping":77},{"user_id":321,"name":"PABOOLo.gonzalez31@hotmail.com","steam_id":76561198123475157,"connected_time":462000000000,"state":"active","ping":74},{"user_id":263,"name":"Bones","steam_id":76561198065081225,"connected_time":5071000000000,"state":"active","ping":48},{"user_id":266,"name":"magnus","steam_id":76561198045570936,"connected_time":4671000000000,"state":"active","ping":77},{"user_id":200,"name":"Noob_with_source","steam_id":76561198870362103,"connected_time":8708000000000,"state":"active","ping":60},{"user_id":303,"name":"Käros","steam_id":76561198119239238,"connected_time":1877000000000,"state":"active","ping":60},{"user_id":317,"name":"Udinese Dion","steam_id":76561198067931573,"connected_time":927000000000,"state":"active","ping":56},{"user_id":310,"name":"lad48","steam_id":76561198162146134,"connected_time":1434000000000,"state":"active","ping":88},{"user_id":322,"name":"catface","steam_id":76561198963378933,"connected_time":460000000000,"state":"active","ping":56},{"user_id":323,"name":"Octis","steam_id":76561198015536917,"connected_time":459000000000,"state":"active","ping":76},{"user_id":294,"name":"Rin-Nakaret","steam_id":76561197971051188,"connected_time":2146000000000,"state":"active","ping":72},{"user_id":319,"name":"kurlyk","steam_id":76561198837861763,"connected_time":745000000000,"state":"active","ping":186},{"user_id":318,"name":"ChesseKnight","steam_id":76561198102476339,"connected_time":781000000000,"state":"active","ping":82},{"user_id":329,"name":"Feelin' Supersonic","steam_id":76561198005738407,"connected_time":4000000000,"state":"spawning","ping":73},{"user_id":327,"name":"Mr. Huntsman","steam_id":76561197981910397,"connected_time":332000000000,"state":"active","ping":65},{"user_id":236,"name":"Tides","steam_id":76561198257383813,"connected_time":6499000000000,"state":"active","ping":49},{"user_id":271,"name":"MagicTITIKAKA","steam_id":76561198129509548,"connected_time":4449000000000,"state":"active","ping":117},{"user_id":324,"name":"Indigolake","steam_id":76561198202215807,"connected_time":456000000000,"state":"active","ping":156},{"user_id":311,"name":"Spede Pasane","steam_id":76561198807233328,"connected_time":1430000000000,"state":"active","ping":60},{"user_id":239,"name":"def","steam_id":76561198857396812,"connected_time":6430000000000,"state":"active","ping":48},{"user_id":252,"name":"tempLimit","steam_id":76561199158363470,"connected_time":5926000000000,"state":"active","ping":76},{"user_id":315,"name":"Pastill","steam_id":76561198067484436,"connected_time":1134000000000,"state":"active","ping":93},{"user_id":328,"name":"Trannies are pedos","steam_id":76561198855789100,"connected_time":168000000000,"state":"active","ping":83}]},{"server_id":23,"name":"Uncletopia | Frankfurt | 7 | No Payload","name_short":"frk-7","host":"frk-1.de.uncletopia.com","port":27075,"enabled":true,"region":"eu","cc":"de","latitude":50.110924,"longitude":8.682127,"reserved":0,"last_update":"0001-01-01T00:00:00Z","name_a2s":"Uncletopia | Frankfurt | 7 | No Payload","protocol":17,"map":"cp_altitude","folder":"tf","game":"Team Fortress","app_id":440,"player_count":0,"max_players":24,"Bots":0,"server_type":"Dedicated","server_os":"Linux","password":true,"vac":true,"version":"7695204","steam_id":85568392924742827,"keywords":["cp","nocrits","nodmgspread","uncletopia"],"game_id":440,"stv_port":27076,"stv_name":"Uncletopia | Frankfurt | 7 | No Payload | STV","players":null},{"server_id":24,"name":"Uncletopia | Frankfurt | 8 | Community","name_short":"frk-8","host":"frk-1.de.uncletopia.com","port":27085,"enabled":true,"region":"eu","cc":"de","latitude":50.110924,"longitude":8.682127,"reserved":0,"last_update":"0001-01-01T00:00:00Z","name_a2s":"Uncletopia | Frankfurt | 8 | Community","protocol":17,"map":"workshop/koth_ashville_final.ugc2130459942","folder":"tf","game":"Team Fortress","app_id":440,"player_count":6,"max_players":24,"Bots":0,"server_type":"Dedicated","server_os":"Linux","password":true,"vac":true,"version":"7695204","steam_id":85568392924742828,"keywords":["cp","nocrits","nodmgspread","uncletopia"],"game_id":440,"stv_port":27086,"stv_name":"Uncletopia | Frankfurt | 8 | Community | STV","players":[{"user_id":35,"name":"viziborju","steam_id":76561199145340529,"connected_time":502000000000,"state":"active","ping":74},{"user_id":36,"name":"Osmo","steam_id":76561199286764992,"connected_time":144000000000,"state":"active","ping":77},{"user_id":37,"name":"ᛀᚩᛏ ᛖᛞᚷᚤ","steam_id":76561198842950723,"connected_time":143000000000,"state":"active","ping":85},{"user_id":38,"name":"LiterallyDen","steam_id":76561199090439060,"connected_time":94000000000,"state":"active","ping":92},{"user_id":39,"name":"Krabs","steam_id":76561198161679477,"connected_time":85000000000,"state":"active","ping":59},{"user_id":40,"name":"Silverowl","steam_id":76561198045773877,"connected_time":28000000000,"state":"active","ping":50}]},{"server_id":202,"name":"Uncletopia | Hong Kong | 1 | All Maps","name_short":"hgk-1","host":"hgk-1.hk.uncletopia.com","port":27015,"enabled":true,"region":"asia","cc":"hk","latitude":22.302711,"longitude":114.177216,"reserved":0,"last_update":"0001-01-01T00:00:00Z","name_a2s":"Uncletopia | Hong Kong | 1 | All Maps","protocol":17,"map":"pl_borneo","folder":"tf","game":"Team Fortress","app_id":440,"player_count":0,"max_players":24,"Bots":0,"server_type":"Dedicated","server_os":"Linux","password":true,"vac":true,"version":"7695204","steam_id":85568392924494504,"keywords":["nocrits","nodmgspread","payload","uncletopia"],"game_id":440,"stv_port":27016,"stv_name":"Uncletopia | Hong Kong | 1 | All Maps | STV","players":null},{"server_id":1,"name":"Uncletopia | Los Angeles | 1 | All Maps","name_short":"lax-1","host":"lax-1.us.uncletopia.com","port":27015,"enabled":true,"region":"us-west","cc":"us","latitude":33.94279,"longitude":-118.41004,"reserved":0,"last_update":"0001-01-01T00:00:00Z","name_a2s":"Uncletopia | Los Angeles | 1 | All Maps","protocol":17,"map":"cp_sunshine","folder":"tf","game":"Team Fortress","app_id":440,"player_count":1,"max_players":24,"Bots":0,"server_type":"Dedicated","server_os":"Linux","password":true,"vac":true,"version":"7695204","steam_id":85568392924469991,"keywords":["cp","nocrits","nodmgspread","uncletopia"],"game_id":440,"stv_port":0,"stv_name":"","players":[{"user_id":2,"name":"hoob","steam_id":76561198129682583,"connected_time":41000000000,"state":"active","ping":65}]},{"server_id":112,"name":"Uncletopia | Los Angeles | 2 | All Maps","name_short":"lax-2","host":"lax-1.us.uncletopia.com","port":27025,"enabled":true,"region":"us-west","cc":"us","latitude":33.94279,"longitude":-118.41004,"reserved":0,"last_update":"0001-01-01T00:00:00Z","name_a2s":"Uncletopia | Los Angeles | 2 | All Maps","protocol":17,"map":"cp_dustbowl","folder":"tf","game":"Team Fortress","app_id":440,"player_count":0,"max_players":24,"Bots":0,"server_type":"Dedicated","server_os":"Linux","password":true,"vac":true,"version":"7695204","steam_id":85568392924469992,"keywords":["cp","nocrits","nodmgspread","uncletopia"],"game_id":440,"stv_port":0,"stv_name":"","players":null},{"server_id":324,"name":"Uncletopia | Los Angeles | 3 | All Maps","name_short":"lax-3","host":"lax-1.us.uncletopia.com","port":27035,"enabled":true,"region":"us-west","cc":"us","latitude":33.94279,"longitude":-118.41004,"reserved":0,"last_update":"0001-01-01T00:00:00Z","name_a2s":"Uncletopia | Los Angeles | 3 | All Maps","protocol":17,"map":"cp_mountainlab","folder":"tf","game":"Team Fortress","app_id":440,"player_count":0,"max_players":24,"Bots":0,"server_type":"Dedicated","server_os":"Linux","password":true,"vac":true,"version":"7695204","steam_id":85568392924510198,"keywords":["cp","nocrits","nodmgspread","uncletopia"],"game_id":440,"stv_port":0,"stv_name":"","players":null},{"server_id":25,"name":"Uncletopia | Los Angeles | 4 | No Payload","name_short":"lax-4","host":"lax-1.us.uncletopia.com","port":27045,"enabled":true,"region":"us-west","cc":"us","latitude":33.94279,"longitude":-118.41004,"reserved":0,"last_update":"0001-01-01T00:00:00Z","name_a2s":"Uncletopia | Los Angeles | 4 | No Payload","protocol":17,"map":"pl_barnblitz","folder":"tf","game":"Team Fortress","app_id":440,"player_count":0,"max_players":24,"Bots":0,"server_type":"Dedicated","server_os":"Linux","password":true,"vac":true,"version":"7695204","steam_id":85568392924510199,"keywords":["nocrits","nodmgspread","payload","uncletopia"],"game_id":440,"stv_port":0,"stv_name":"","players":null},{"server_id":11,"name":"Uncletopia | London | 1 | All Maps","name_short":"lon-1","host":"lon-1.uk.uncletopia.com","port":27015,"enabled":true,"region":"eu","cc":"gb","latitude":51.509865,"longitude":-0.118092,"reserved":0,"last_update":"0001-01-01T00:00:00Z","name_a2s":"Uncletopia | London | 1 | All Maps","protocol":17,"map":"pl_borneo","folder":"tf","game":"Team Fortress","app_id":440,"player_count":24,"max_players":24,"Bots":0,"server_type":"Dedicated","server_os":"Linux","password":true,"vac":true,"version":"7695204","steam_id":85568392924367362,"keywords":["nocrits","nodmgspread","payload","uncletopia"],"game_id":440,"stv_port":27016,"stv_name":"Uncletopia | London | 1 | All Maps | STV","players":[{"user_id":202,"name":"Le Chevalier Pingouin","steam_id":76561198221355000,"connected_time":261000000000,"state":"active","ping":36},{"user_id":186,"name":"insomnia","steam_id":76561198067253421,"connected_time":1355000000000,"state":"active","ping":50},{"user_id":191,"name":"Fred","steam_id":76561198107137362,"connected_time":1073000000000,"state":"active","ping":44},{"user_id":138,"name":"festive jones","steam_id":76561198073975078,"connected_time":4159000000000,"state":"active","ping":46},{"user_id":76,"name":"gamerweed5","steam_id":76561198087651151,"connected_time":7353000000000,"state":"active","ping":34},{"user_id":193,"name":"DrExplosive","steam_id":76561198063678579,"connected_time":883000000000,"state":"active","ping":31},{"user_id":157,"name":"tzlil","steam_id":76561198399916290,"connected_time":3035000000000,"state":"active","ping":141},{"user_id":190,"name":"goblinninja110","steam_id":76561198269159354,"connected_time":1185000000000,"state":"active","ping":62},{"user_id":163,"name":"MAKENTAKEN","steam_id":76561199127359587,"connected_time":2287000000000,"state":"active","ping":104},{"user_id":200,"name":"UltimateSlayer","steam_id":76561198384109309,"connected_time":353000000000,"state":"active","ping":65},{"user_id":154,"name":"Boldozofuriozo","steam_id":76561198088667146,"connected_time":3330000000000,"state":"active","ping":71},{"user_id":176,"name":"some edgy nickname","steam_id":76561198040241299,"connected_time":1807000000000,"state":"active","ping":80},{"user_id":196,"name":"Wardruna96","steam_id":76561199057083828,"connected_time":844000000000,"state":"active","ping":75},{"user_id":181,"name":"Mopo","steam_id":76561198068929700,"connected_time":1616000000000,"state":"active","ping":77},{"user_id":147,"name":"BiasedAcorn","steam_id":76561198970772881,"connected_time":3596000000000,"state":"active","ping":49},{"user_id":151,"name":"ТЯЖЕЛЫЕ ИГРЫ","steam_id":76561198413545609,"connected_time":3451000000000,"state":"active","ping":56},{"user_id":201,"name":"david.klemen","steam_id":76561198382246222,"connected_time":282000000000,"state":"active","ping":78},{"user_id":203,"name":"fiyahstorm","steam_id":76561197992574261,"connected_time":206000000000,"state":"active","ping":43},{"user_id":133,"name":"boat","steam_id":76561198044915818,"connected_time":4831000000000,"state":"active","ping":85},{"user_id":184,"name":"dongus","steam_id":76561198042774930,"connected_time":1450000000000,"state":"active","ping":65},{"user_id":165,"name":"Breadcrab","steam_id":76561198015924039,"connected_time":2019000000000,"state":"active","ping":54},{"user_id":188,"name":"Haku ( •ᴗ•)","steam_id":76561198013292193,"connected_time":1222000000000,"state":"active","ping":75},{"user_id":195,"name":"Yelowchy","steam_id":76561198199416121,"connected_time":857000000000,"state":"active","ping":97},{"user_id":174,"name":"'Tis but a scratch","steam_id":76561198118517671,"connected_time":1858000000000,"state":"active","ping":126}]},{"server_id":114,"name":"Uncletopia | London | 2 | All Maps","name_short":"lon-2","host":"lon-1.uk.uncletopia.com","port":27025,"enabled":true,"region":"eu","cc":"gb","latitude":51.509865,"longitude":-0.118092,"reserved":0,"last_update":"0001-01-01T00:00:00Z","name_a2s":"Uncletopia | London | 2 | All Maps","protocol":17,"map":"koth_highpass","folder":"tf","game":"Team Fortress","app_id":440,"player_count":0,"max_players":24,"Bots":0,"server_type":"Dedicated","server_os":"Linux","password":true,"vac":true,"version":"7695204","steam_id":85568392924470941,"keywords":["cp","nocrits","nodmgspread","uncletopia"],"game_id":440,"stv_port":27026,"stv_name":"Uncletopia | London | 2 | All Maps | STV","players":null},{"server_id":320,"name":"Uncletopia | London | 3 | All Maps","name_short":"lon-3","host":"lon-1.uk.uncletopia.com","port":27035,"enabled":true,"region":"eu","cc":"gb","latitude":51.509865,"longitude":-0.118092,"reserved":0,"last_update":"0001-01-01T00:00:00Z","name_a2s":"Uncletopia | London | 3 | All Maps","protocol":17,"map":"koth_viaduct","folder":"tf","game":"Team Fortress","app_id":440,"player_count":24,"max_players":24,"Bots":0,"server_type":"Dedicated","server_os":"Linux","password":true,"vac":true,"version":"7695204","steam_id":85568392924510192,"keywords":["cp","nocrits","nodmgspread","uncletopia"],"game_id":440,"stv_port":27036,"stv_name":"Uncletopia | London | 3 | All Maps | STV","players":[{"user_id":621,"name":"Mr Toffifee","steam_id":76561199122299750,"connected_time":250000000000,"state":"active","ping":57},{"user_id":593,"name":"Talking Table","steam_id":76561198170592539,"connected_time":1709000000000,"state":"active","ping":115},{"user_id":630,"name":"Pro_100_tak","steam_id":76561198211701039,"connected_time":3000000000,"state":"spawning","ping":105},{"user_id":629,"name":"Nydra","steam_id":76561198063916730,"connected_time":17000000000,"state":"active","ping":46},{"user_id":610,"name":"Alice can't hit pipes","steam_id":76561198052410860,"connected_time":1212000000000,"state":"active","ping":144},{"user_id":598,"name":"window gaming","steam_id":76561198867998992,"connected_time":1636000000000,"state":"active","ping":81},{"user_id":622,"name":"METhOphetamine","steam_id":76561198068216224,"connected_time":118000000000,"state":"active","ping":60},{"user_id":616,"name":"VES_Typh00n","steam_id":76561198120826847,"connected_time":443000000000,"state":"active","ping":44},{"user_id":551,"name":"Coyote29","steam_id":76561198344502070,"connected_time":5551000000000,"state":"active","ping":88},{"user_id":573,"name":"pryate","steam_id":76561198135960359,"connected_time":3926000000000,"state":"active","ping":41},{"user_id":626,"name":"Michael","steam_id":76561198003146906,"connected_time":43000000000,"state":"active","ping":45},{"user_id":618,"name":"Blacksheep","steam_id":76561198019621063,"connected_time":313000000000,"state":"active","ping":33},{"user_id":615,"name":"Mr.Cupcake","steam_id":76561198152711174,"connected_time":913000000000,"state":"active","ping":57},{"user_id":617,"name":"Natours","steam_id":76561198342601530,"connected_time":349000000000,"state":"active","ping":50},{"user_id":624,"name":"SpyCrab  Erik Twice","steam_id":76561198009710309,"connected_time":58000000000,"state":"active","ping":45},{"user_id":587,"name":"Gothouk","steam_id":76561198084629668,"connected_time":2308000000000,"state":"spawning","ping":151},{"user_id":601,"name":"goofy goober","steam_id":76561198013237629,"connected_time":1608000000000,"state":"active","ping":88},{"user_id":609,"name":"psychogoat101","steam_id":76561198156146805,"connected_time":1373000000000,"state":"active","ping":30},{"user_id":604,"name":"mud","steam_id":76561198141497461,"connected_time":1590000000000,"state":"spawning","ping":70},{"user_id":623,"name":"Spycrab101","steam_id":76561198141836805,"connected_time":91000000000,"state":"active","ping":48},{"user_id":627,"name":"AsthmatiQ","steam_id":76561198046267396,"connected_time":40000000000,"state":"active","ping":50},{"user_id":619,"name":"Beamz","steam_id":76561198014230017,"connected_time":295000000000,"state":"spawning","ping":211},{"user_id":589,"name":"you (DK)","steam_id":76561198061472971,"connected_time":2214000000000,"state":"active","ping":56},{"user_id":628,"name":"russell","steam_id":76561198879773477,"connected_time":23000000000,"state":"spawning","ping":76}]},{"server_id":321,"name":"Uncletopia | London | 4 | All Maps","name_short":"lon-4","host":"lon-1.uk.uncletopia.com","port":27045,"enabled":true,"region":"eu","cc":"gb","latitude":51.509865,"longitude":-0.118092,"reserved":0,"last_update":"0001-01-01T00:00:00Z","name_a2s":"Uncletopia | London | 4 | All Maps","protocol":17,"map":"pl_barnblitz","folder":"tf","game":"Team Fortress","app_id":440,"player_count":24,"max_players":24,"Bots":0,"server_type":"Dedicated","server_os":"Linux","password":true,"vac":true,"version":"7695204","steam_id":85568392924510193,"keywords":["nocrits","nodmgspread","payload","uncletopia"],"game_id":440,"stv_port":27046,"stv_name":"Uncletopia | London | 4 | All Maps | STV","players":[{"user_id":112,"name":"Bell","steam_id":76561199413517335,"connected_time":473000000000,"state":"active","ping":128},{"user_id":115,"name":"LemonLeCitron","steam_id":76561198215545267,"connected_time":171000000000,"state":"active","ping":52},{"user_id":63,"name":"Hoks","steam_id":76561198126442242,"connected_time":3494000000000,"state":"active","ping":121},{"user_id":122,"name":"Fauli™","steam_id":76561198125109310,"connected_time":55000000000,"state":"active","ping":68},{"user_id":74,"name":"olsaan","steam_id":76561198045216309,"connected_time":2854000000000,"state":"active","ping":51},{"user_id":120,"name":"beesaga","steam_id":76561199111784241,"connected_time":83000000000,"state":"active","ping":70},{"user_id":119,"name":"Phace","steam_id":76561198124941499,"connected_time":92000000000,"state":"active","ping":130},{"user_id":117,"name":"dafydd","steam_id":76561198052200325,"connected_time":103000000000,"state":"active","ping":88},{"user_id":81,"name":"Insanitybomb","steam_id":76561198048707708,"connected_time":2479000000000,"state":"active","ping":54},{"user_id":80,"name":"Clitorina","steam_id":76561198077570815,"connected_time":2487000000000,"state":"active","ping":41},{"user_id":100,"name":"Chill Spirit","steam_id":76561198845001725,"connected_time":1573000000000,"state":"active","ping":59},{"user_id":76,"name":"PinheadLarry","steam_id":76561198119513111,"connected_time":2823000000000,"state":"active","ping":50},{"user_id":82,"name":"zak","steam_id":76561197998895428,"connected_time":2470000000000,"state":"active","ping":60},{"user_id":98,"name":"DrauconeTMDS","steam_id":76561198083510257,"connected_time":1750000000000,"state":"active","ping":52},{"user_id":109,"name":"Hoff","steam_id":76561198138540938,"connected_time":679000000000,"state":"active","ping":68},{"user_id":107,"name":"@rthur","steam_id":76561198010152299,"connected_time":933000000000,"state":"active","ping":49},{"user_id":83,"name":"Нечуй-Левицький","steam_id":76561198870926865,"connected_time":2467000000000,"state":"active","ping":46},{"user_id":99,"name":"Tuxedo Terrorist","steam_id":76561199015038728,"connected_time":1731000000000,"state":"active","ping":52},{"user_id":123,"name":"After8","steam_id":76561198090750865,"connected_time":11000000000,"state":"active","ping":75},{"user_id":61,"name":"Nomad994","steam_id":76561198051908201,"connected_time":3688000000000,"state":"active","ping":83},{"user_id":110,"name":"Dolcelatte","steam_id":76561198038501770,"connected_time":648000000000,"state":"active","ping":60},{"user_id":116,"name":"ViktorYoshi","steam_id":76561199157555246,"connected_time":113000000000,"state":"active","ping":66},{"user_id":118,"name":"Mankor","steam_id":76561198020439322,"connected_time":102000000000,"state":"active","ping":60},{"user_id":97,"name":"spillr-.-","steam_id":76561198031330889,"connected_time":2043000000000,"state":"active","ping":63}]},{"server_id":21,"name":"Uncletopia | London | 5 | All Maps","name_short":"lon-5","host":"lon-1.uk.uncletopia.com","port":27055,"enabled":true,"region":"eu","cc":"gb","latitude":51.509865,"longitude":-0.118092,"reserved":0,"last_update":"0001-01-01T00:00:00Z","name_a2s":"Uncletopia | London | 5 | All Maps","protocol":17,"map":"koth_cascade","folder":"tf","game":"Team Fortress","app_id":440,"player_count":0,"max_players":24,"Bots":0,"server_type":"Dedicated","server_os":"Linux","password":true,"vac":true,"version":"7695204","steam_id":85568392924742829,"keywords":["cp","nocrits","nodmgspread","uncletopia"],"game_id":440,"stv_port":0,"stv_name":"","players":null},{"server_id":22,"name":"Uncletopia | London | 6 | All Maps","name_short":"lon-6","host":"lon-1.uk.uncletopia.com","port":27065,"enabled":true,"region":"eu","cc":"gb","latitude":51.509865,"longitude":-0.118092,"reserved":0,"last_update":"0001-01-01T00:00:00Z","name_a2s":"Uncletopia | London | 6 | All Maps","protocol":17,"map":"pl_pier","folder":"tf","game":"Team Fortress","app_id":440,"player_count":0,"max_players":24,"Bots":0,"server_type":"Dedicated","server_os":"Linux","password":true,"vac":true,"version":"7695204","steam_id":85568392924742830,"keywords":["nocrits","nodmgspread","payload","uncletopia"],"game_id":440,"stv_port":0,"stv_name":"","players":null},{"server_id":40,"name":"Uncletopia | London | 7 | No Payload","name_short":"lon-7","host":"lon-1.uk.uncletopia.com","port":27075,"enabled":true,"region":"eu","cc":"gb","latitude":51.509865,"longitude":-0.118092,"reserved":0,"last_update":"0001-01-01T00:00:00Z","name_a2s":"Uncletopia | London | 7 | No Payload","protocol":17,"map":"plr_hightower","folder":"tf","game":"Team Fortress","app_id":440,"player_count":0,"max_players":24,"Bots":0,"server_type":"Dedicated","server_os":"Linux","password":true,"vac":true,"version":"7695204","steam_id":85568392924964314,"keywords":["nocrits","nodmgspread","payload","uncletopia"],"game_id":440,"stv_port":27076,"stv_name":"Uncletopia | London | 7 | No Payload | STV","players":null},{"server_id":41,"name":"Uncletopia | London | 8 | Community","name_short":"lon-8","host":"lon-1.uk.uncletopia.com","port":27085,"enabled":true,"region":"eu","cc":"gb","latitude":51.509865,"longitude":-0.118092,"reserved":0,"last_update":"0001-01-01T00:00:00Z","name_a2s":"Uncletopia | London | 8 | Community","protocol":17,"map":"cp_dustbowl","folder":"tf","game":"Team Fortress","app_id":440,"player_count":0,"max_players":24,"Bots":0,"server_type":"Dedicated","server_os":"Linux","password":true,"vac":true,"version":"7695204","steam_id":85568392924964315,"keywords":["cp","nocrits","nodmgspread","uncletopia"],"game_id":440,"stv_port":0,"stv_name":"","players":null},{"server_id":300,"name":"Uncletopia | Montréal | 1 | All Maps","name_short":"mtl-1","host":"mtl-1.ca.uncletopia.com","port":27015,"enabled":true,"region":"us-east","cc":"ca","latitude":45.50889,"longitude":-73.56167,"reserved":0,"last_update":"0001-01-01T00:00:00Z","name_a2s":"Uncletopia | Montréal | 1 | All Maps","protocol":17,"map":"koth_cascade","folder":"tf","game":"Team Fortress","app_id":440,"player_count":0,"max_players":24,"Bots":0,"server_type":"Dedicated","server_os":"Linux","password":true,"vac":true,"version":"7695204","steam_id":85568392924500087,"keywords":["cp","nocrits","nodmgspread","uncletopia"],"game_id":440,"stv_port":27016,"stv_name":"Uncletopia | Montréal | 1 | All Maps | STV","players":null},{"server_id":301,"name":"Uncletopia | Montréal | 2 | All Maps","name_short":"mtl-2","host":"mtl-1.ca.uncletopia.com","port":27025,"enabled":true,"region":"us-east","cc":"ca","latitude":45.50889,"longitude":-73.56167,"reserved":0,"last_update":"0001-01-01T00:00:00Z","name_a2s":"Uncletopia | Montréal | 2 | All Maps","protocol":17,"map":"pl_snowycoast","folder":"tf","game":"Team Fortress","app_id":440,"player_count":0,"max_players":24,"Bots":0,"server_type":"Dedicated","server_os":"Linux","password":true,"vac":true,"version":"7695204","steam_id":85568392924500088,"keywords":["nocrits","nodmgspread","payload","uncletopia"],"game_id":440,"stv_port":0,"stv_name":"","players":null},{"server_id":302,"name":"Uncletopia | Montréal | 3 | All Maps","name_short":"mtl-3","host":"mtl-1.ca.uncletopia.com","port":27035,"enabled":true,"region":"us-east","cc":"ca","latitude":45.50889,"longitude":-73.56167,"reserved":0,"last_update":"0001-01-01T00:00:00Z","name_a2s":"Uncletopia | Montréal | 3 | All Maps","protocol":17,"map":"koth_viaduct","folder":"tf","game":"Team Fortress","app_id":440,"player_count":0,"max_players":24,"Bots":0,"server_type":"Dedicated","server_os":"Linux","password":true,"vac":true,"version":"7695204","steam_id":85568392924500089,"keywords":["cp","nocrits","nodmgspread","uncletopia"],"game_id":440,"stv_port":0,"stv_name":"","players":null},{"server_id":303,"name":"Uncletopia | Montréal | 4 | No Payload","name_short":"mtl-4","host":"mtl-1.ca.uncletopia.com","port":27045,"enabled":true,"region":"us-east","cc":"ca","latitude":45.50889,"longitude":-73.56167,"reserved":0,"last_update":"0001-01-01T00:00:00Z","name_a2s":"Uncletopia | Montréal | 4 | No Payload","protocol":17,"map":"cp_dustbowl","folder":"tf","game":"Team Fortress","app_id":440,"player_count":0,"max_players":24,"Bots":0,"server_type":"Dedicated","server_os":"Linux","password":true,"vac":true,"version":"7695204","steam_id":85568392924500090,"keywords":["cp","nocrits","nodmgspread","uncletopia"],"game_id":440,"stv_port":0,"stv_name":"","players":null},{"server_id":13,"name":"Uncletopia | New York City | 1 | All Maps","name_short":"nyc-1","host":"nyc-1.us.uncletopia.com","port":27015,"enabled":true,"region":"us-east","cc":"us","latitude":40.73061,"longitude":-73.93524,"reserved":0,"last_update":"0001-01-01T00:00:00Z","name_a2s":"Uncletopia | New York City | 1 | All Maps","protocol":17,"map":"koth_lakeside_final","folder":"tf","game":"Team Fortress","app_id":440,"player_count":0,"max_players":24,"Bots":0,"server_type":"Dedicated","server_os":"Linux","password":true,"vac":true,"version":"7695204","steam_id":85568392924469993,"keywords":["cp","nocrits","nodmgspread","uncletopia"],"game_id":440,"stv_port":27016,"stv_name":"Uncletopia | New York City | 1 | All Maps | STV","players":null},{"server_id":14,"name":"Uncletopia | New York City | 2 | All Maps","name_short":"nyc-2","host":"nyc-1.us.uncletopia.com","port":27025,"enabled":true,"region":"us-east","cc":"us","latitude":40.73061,"longitude":-73.93524,"reserved":0,"last_update":"0001-01-01T00:00:00Z","name_a2s":"Uncletopia | New York City | 2 | All Maps","protocol":17,"map":"pl_borneo","folder":"tf","game":"Team Fortress","app_id":440,"player_count":0,"max_players":24,"Bots":0,"server_type":"Dedicated","server_os":"Linux","password":true,"vac":true,"version":"7695204","steam_id":85568392924469994,"keywords":["nocrits","nodmgspread","payload","uncletopia"],"game_id":440,"stv_port":0,"stv_name":"","players":null},{"server_id":15,"name":"Uncletopia | New York City | 3 | All Maps","name_short":"nyc-3","host":"nyc-1.us.uncletopia.com","port":27035,"enabled":true,"region":"us-east","cc":"us","latitude":40.73061,"longitude":-73.93524,"reserved":0,"last_update":"0001-01-01T00:00:00Z","name_a2s":"Uncletopia | New York City | 3 | All Maps","protocol":17,"map":"pl_swiftwater_final1","folder":"tf","game":"Team Fortress","app_id":440,"player_count":0,"max_players":24,"Bots":0,"server_type":"Dedicated","server_os":"Linux","password":true,"vac":true,"version":"7695204","steam_id":85568392924742820,"keywords":["nocrits","nodmgspread","payload","uncletopia"],"game_id":440,"stv_port":27036,"stv_name":"Uncletopia | New York City | 3 | All Maps | STV","players":null},{"server_id":16,"name":"Uncletopia | New York City | 4 | Community","name_short":"nyc-4","host":"nyc-1.us.uncletopia.com","port":27045,"enabled":true,"region":"us-east","cc":"us","latitude":40.73061,"longitude":-73.93524,"reserved":0,"last_update":"0001-01-01T00:00:00Z","name_a2s":"Uncletopia | New York City | 4 | Community","protocol":17,"map":"workshop/rd_asteroid_redux_rc9.ugc2154902912","folder":"tf","game":"Team Fortress","app_id":440,"player_count":0,"max_players":24,"Bots":0,"server_type":"Dedicated","server_os":"Linux","password":true,"vac":true,"version":"7695204","steam_id":85568392924742821,"keywords":["beta","nocrits","nodmgspread","rd","uncletopia"],"game_id":440,"stv_port":27046,"stv_name":"Uncletopia | New York City | 4 | Community | STV","players":null},{"server_id":142,"name":"Uncletopia | São Paulo | 1 | All Maps","name_short":"sao-1","host":"sao-1.br.uncletopia.com","port":27015,"enabled":true,"region":"sa","cc":"br","latitude":-23.533773,"longitude":-46.62529,"reserved":0,"last_update":"0001-01-01T00:00:00Z","name_a2s":"Uncletopia | São Paulo | 1 | All Maps","protocol":17,"map":"koth_viaduct","folder":"tf","game":"Team Fortress","app_id":440,"player_count":2,"max_players":24,"Bots":0,"server_type":"Dedicated","server_os":"Linux","password":true,"vac":true,"version":"7695204","steam_id":85568392924469996,"keywords":["cp","nocrits","nodmgspread","uncletopia"],"game_id":440,"stv_port":27016,"stv_name":"Uncletopia | São Paulo | 1 | All Maps | STV","players":[{"user_id":9,"name":"Yukki Yutaka (ユッキー)","steam_id":76561199206793850,"connected_time":173000000000,"state":"active","ping":43},{"user_id":10,"name":"Ziruski da shopee","steam_id":76561198368335744,"connected_time":29000000000,"state":"active","ping":76}]},{"server_id":143,"name":"Uncletopia | São Paulo | 2 | All Maps","name_short":"sao-2","host":"sao-2.br.uncletopia.com","port":27015,"enabled":true,"region":"sa","cc":"br","latitude":-23.533773,"longitude":-46.62529,"reserved":0,"last_update":"0001-01-01T00:00:00Z","name_a2s":"Uncletopia | São Paulo | 2 | All Maps","protocol":17,"map":"cp_mountainlab","folder":"tf","game":"Team Fortress","app_id":440,"player_count":17,"max_players":24,"Bots":0,"server_type":"Dedicated","server_os":"Linux","password":true,"vac":true,"version":"7695204","steam_id":85568392924485349,"keywords":["cp","nocrits","nodmgspread","uncletopia"],"game_id":440,"stv_port":27016,"stv_name":"Uncletopia | São Paulo | 2 | All Maps | STV","players":[{"user_id":62,"name":"Momo","steam_id":76561198143438576,"connected_time":939000000000,"state":"active","ping":33},{"user_id":71,"name":"Hispanic","steam_id":76561198888787064,"connected_time":234000000000,"state":"active","ping":99},{"user_id":74,"name":"Kasper","steam_id":76561199019108684,"connected_time":39000000000,"state":"active","ping":57},{"user_id":65,"name":"level 2 slime","steam_id":76561198163107508,"connected_time":703000000000,"state":"active","ping":44},{"user_id":45,"name":"pastel","steam_id":76561198259174193,"connected_time":2707000000000,"state":"active","ping":31},{"user_id":66,"name":"Max IA","steam_id":76561198120219866,"connected_time":659000000000,"state":"active","ping":42},{"user_id":60,"name":"Vic Rattlehead","steam_id":76561199232899925,"connected_time":1423000000000,"state":"active","ping":55},{"user_id":70,"name":"mrtrollmo","steam_id":76561199175588467,"connected_time":331000000000,"state":"active","ping":275},{"user_id":72,"name":"Euja","steam_id":76561198202528573,"connected_time":218000000000,"state":"active","ping":87},{"user_id":73,"name":"Sanches","steam_id":76561198006932156,"connected_time":200000000000,"state":"active","ping":85},{"user_id":28,"name":"terrible gamer™","steam_id":76561198895061602,"connected_time":3873000000000,"state":"active","ping":99},{"user_id":68,"name":"matheus_lanches","steam_id":76561199359501901,"connected_time":616000000000,"state":"active","ping":40},{"user_id":75,"name":"N☆V","steam_id":76561198101972840,"connected_time":31000000000,"state":"spawning","ping":91},{"user_id":50,"name":"Ms.Raposa","steam_id":76561198807448244,"connected_time":2282000000000,"state":"active","ping":93},{"user_id":52,"name":"yrk","steam_id":76561198332577325,"connected_time":2102000000000,"state":"active","ping":46},{"user_id":57,"name":"Novum","steam_id":76561198863734507,"connected_time":1749000000000,"state":"active","ping":70},{"user_id":58,"name":"kozza","steam_id":76561197980887931,"connected_time":1652000000000,"state":"active","ping":60}]},{"server_id":7,"name":"Uncletopia | Seattle | 1 | All Maps","name_short":"sea-1","host":"sea-1.us.uncletopia.com","port":27015,"enabled":true,"region":"us-west","cc":"us","latitude":47.608013,"longitude":-122.33517,"reserved":0,"last_update":"0001-01-01T00:00:00Z","name_a2s":"Uncletopia | Seattle | 1 | All Maps","protocol":17,"map":"koth_viaduct","folder":"tf","game":"Team Fortress","app_id":440,"player_count":0,"max_players":24,"Bots":0,"server_type":"Dedicated","server_os":"Linux","password":true,"vac":true,"version":"7695204","steam_id":85568392924469997,"keywords":["cp","nocrits","nodmgspread","uncletopia"],"game_id":440,"stv_port":27016,"stv_name":"Uncletopia | Seattle | 1 | All Maps | STV","players":null},{"server_id":119,"name":"Uncletopia | Seattle | 2 | All Maps","name_short":"sea-2","host":"sea-1.us.uncletopia.com","port":27025,"enabled":true,"region":"us-west","cc":"us","latitude":47.608013,"longitude":-122.33517,"reserved":0,"last_update":"0001-01-01T00:00:00Z","name_a2s":"Uncletopia | Seattle | 2 | All Maps","protocol":17,"map":"koth_lakeside_final","folder":"tf","game":"Team Fortress","app_id":440,"player_count":0,"max_players":24,"Bots":0,"server_type":"Dedicated","server_os":"Linux","password":true,"vac":true,"version":"7695204","steam_id":85568392924469998,"keywords":["cp","nocrits","nodmgspread","uncletopia"],"game_id":440,"stv_port":0,"stv_name":"","players":null},{"server_id":17,"name":"Uncletopia | San Francisco | 1 | All Maps","name_short":"sfo-1","host":"sfo-1.us.uncletopia.com","port":27015,"enabled":true,"region":"us-west","cc":"us","latitude":37.77397,"longitude":-122.4313,"reserved":0,"last_update":"0001-01-01T00:00:00Z","name_a2s":"Uncletopia | San Francisco | 1 | All Maps","protocol":17,"map":"cp_sunshine","folder":"tf","game":"Team Fortress","app_id":440,"player_count":0,"max_players":24,"Bots":0,"server_type":"Dedicated","server_os":"Linux","password":true,"vac":true,"version":"7695204","steam_id":85568392924469999,"keywords":["cp","nocrits","nodmgspread","uncletopia"],"game_id":440,"stv_port":0,"stv_name":"","players":null},{"server_id":18,"name":"Uncletopia | San Francisco | 2 | All Maps","name_short":"sfo-2","host":"sfo-1.us.uncletopia.com","port":27025,"enabled":true,"region":"us-west","cc":"us","latitude":37.77397,"longitude":-122.4313,"reserved":0,"last_update":"0001-01-01T00:00:00Z","name_a2s":"Uncletopia | San Francisco | 2 | All Maps","protocol":17,"map":"pl_badwater","folder":"tf","game":"Team Fortress","app_id":440,"player_count":0,"max_players":24,"Bots":0,"server_type":"Dedicated","server_os":"Linux","password":true,"vac":true,"version":"7695204","steam_id":85568392924470000,"keywords":["nocrits","nodmgspread","payload","uncletopia"],"game_id":440,"stv_port":0,"stv_name":"","players":null},{"server_id":19,"name":"Uncletopia | San Francisco | 3 | No Payload","name_short":"sfo-3","host":"sfo-1.us.uncletopia.com","port":27035,"enabled":true,"region":"us-west","cc":"us","latitude":37.77397,"longitude":-122.4313,"reserved":0,"last_update":"0001-01-01T00:00:00Z","name_a2s":"Uncletopia | San Francisco | 3 | No Payload","protocol":17,"map":"cp_snakewater_final1","folder":"tf","game":"Team Fortress","app_id":440,"player_count":0,"max_players":24,"Bots":0,"server_type":"Dedicated","server_os":"Linux","password":true,"vac":true,"version":"7695204","steam_id":85568392924742824,"keywords":["cp","nocrits","nodmgspread","uncletopia"],"game_id":440,"stv_port":0,"stv_name":"","players":null},{"server_id":20,"name":"Uncletopia | San Francisco | 4 | Community","name_short":"sfo-4","host":"sfo-1.us.uncletopia.com","port":27045,"enabled":true,"region":"us-west","cc":"us","latitude":37.77397,"longitude":-122.4313,"reserved":0,"last_update":"0001-01-01T00:00:00Z","name_a2s":"Uncletopia | San Francisco | 4 | Community","protocol":17,"map":"koth_highpass","folder":"tf","game":"Team Fortress","app_id":440,"player_count":0,"max_players":24,"Bots":0,"server_type":"Dedicated","server_os":"Linux","password":true,"vac":true,"version":"7695204","steam_id":85568392924742826,"keywords":["cp","nocrits","nodmgspread","uncletopia"],"game_id":440,"stv_port":0,"stv_name":"","players":null},{"server_id":141,"name":"Uncletopia | Sydney | 1 | All Maps","name_short":"syd-1","host":"syd-1.au.uncletopia.com","port":27015,"enabled":true,"region":"au","cc":"au","latitude":-33.865143,"longitude":151.2099,"reserved":0,"last_update":"0001-01-01T00:00:00Z","name_a2s":"Uncletopia | Sydney | 1 | All Maps","protocol":17,"map":"pl_pier","folder":"tf","game":"Team Fortress","app_id":440,"player_count":0,"max_players":24,"Bots":0,"server_type":"Dedicated","server_os":"Linux","password":true,"vac":true,"version":"7695204","steam_id":85568392924470001,"keywords":["nocrits","nodmgspread","payload","uncletopia"],"game_id":440,"stv_port":27016,"stv_name":"Uncletopia | Sydney | 1 | All Maps | STV","players":null},{"server_id":123,"name":"Uncletopia | Sydney | 2 | All Maps","name_short":"syd-2","host":"syd-1.au.uncletopia.com","port":27025,"enabled":true,"region":"au","cc":"au","latitude":-33.865143,"longitude":151.2099,"reserved":0,"last_update":"0001-01-01T00:00:00Z","name_a2s":"Uncletopia | Sydney | 2 | All Maps","protocol":17,"map":"koth_cascade","folder":"tf","game":"Team Fortress","app_id":440,"player_count":0,"max_players":24,"Bots":0,"server_type":"Dedicated","server_os":"Linux","password":true,"vac":true,"version":"7695204","steam_id":85568392924470002,"keywords":["cp","nocrits","nodmgspread","uncletopia"],"game_id":440,"stv_port":27026,"stv_name":"Uncletopia | Sydney | 2 | All Maps | STV","players":null},{"server_id":395,"name":"Uncletopia | Sydney | 3 | All Maps","name_short":"syd-3","host":"syd-1.au.uncletopia.com","port":27035,"enabled":true,"region":"au","cc":"au","latitude":-33.865143,"longitude":151.2099,"reserved":0,"last_update":"0001-01-01T00:00:00Z","name_a2s":"Uncletopia | Sydney | 3 | All Maps","protocol":17,"map":"cp_sunshine","folder":"tf","game":"Team Fortress","app_id":440,"player_count":0,"max_players":24,"Bots":0,"server_type":"Dedicated","server_os":"Linux","password":true,"vac":true,"version":"7695204","steam_id":85568392925194467,"keywords":["cp","nocrits","nodmgspread","uncletopia"],"game_id":440,"stv_port":27036,"stv_name":"Uncletopia | Sydney | 3 | All Maps | STV","players":null},{"server_id":396,"name":"Uncletopia | Sydney | 4 | All Maps","name_short":"syd-4","host":"syd-1.au.uncletopia.com","port":27045,"enabled":true,"region":"au","cc":"au","latitude":-33.865143,"longitude":151.2099,"reserved":0,"last_update":"0001-01-01T00:00:00Z","name_a2s":"Uncletopia | Sydney | 4 | All Maps","protocol":17,"map":"cp_snakewater_final1","folder":"tf","game":"Team Fortress","app_id":440,"player_count":0,"max_players":24,"Bots":0,"server_type":"Dedicated","server_os":"Linux","password":true,"vac":true,"version":"7695204","steam_id":85568392925397958,"keywords":["cp","nocrits","nodmgspread","uncletopia"],"game_id":440,"stv_port":27046,"stv_name":"Uncletopia | Sydney | 4 | All Maps | STV","players":null},{"server_id":58,"name":"Uncletopia | Sydney | 5 | No Payload","name_short":"syd-5","host":"syd-1.au.uncletopia.com","port":27055,"enabled":true,"region":"au","cc":"au","latitude":-33.865143,"longitude":151.2099,"reserved":0,"last_update":"0001-01-01T00:00:00Z","name_a2s":"Uncletopia | Sydney | 5 | No Payload","protocol":17,"map":"koth_sawmill","folder":"tf","game":"Team Fortress","app_id":440,"player_count":0,"max_players":24,"Bots":0,"server_type":"Dedicated","server_os":"Linux","password":true,"vac":true,"version":"7695204","steam_id":85568392925397959,"keywords":["cp","nocrits","nodmgspread","uncletopia"],"game_id":440,"stv_port":27056,"stv_name":"Uncletopia | Sydney | 5 | No Payload | STV","players":null},{"server_id":59,"name":"Uncletopia | Sydney | 6 | Community","name_short":"syd-6","host":"syd-1.au.uncletopia.com","port":27065,"enabled":true,"region":"au","cc":"au","latitude":-33.865143,"longitude":151.2099,"reserved":0,"last_update":"0001-01-01T00:00:00Z","name_a2s":"Uncletopia | Sydney | 6 | Community","protocol":17,"map":"workshop/koth_ashville_final.ugc2130459942","folder":"tf","game":"Team Fortress","app_id":440,"player_count":0,"max_players":24,"Bots":0,"server_type":"Dedicated","server_os":"Linux","password":true,"vac":true,"version":"7695204","steam_id":85568392925397960,"keywords":["cp","nocrits","nodmgspread","uncletopia"],"game_id":440,"stv_port":27066,"stv_name":"Uncletopia | Sydney | 6 | Community | STV","players":null},{"server_id":49,"name":"Uncletopia | Warsaw | 1 | All Maps","name_short":"waw-1","host":"waw-1.pl.uncletopia.com","port":27015,"enabled":true,"region":"eu","cc":"pl","latitude":52.2297,"longitude":21.017532,"reserved":0,"last_update":"0001-01-01T00:00:00Z","name_a2s":"Uncletopia | Warsaw | 1 | All Maps","protocol":17,"map":"koth_lakeside_final","folder":"tf","game":"Team Fortress","app_id":440,"player_count":0,"max_players":24,"Bots":0,"server_type":"Dedicated","server_os":"Linux","password":true,"vac":true,"version":"7695204","steam_id":85568392925397850,"keywords":["cp","nocrits","nodmgspread","uncletopia"],"game_id":440,"stv_port":27016,"stv_name":"Uncletopia | Warsaw | 1 | All Maps | STV","players":null},{"server_id":50,"name":"Uncletopia | Warsaw | 2 | All Maps","name_short":"waw-2","host":"waw-1.pl.uncletopia.com","port":27025,"enabled":true,"region":"eu","cc":"pl","latitude":52.2297,"longitude":21.017532,"reserved":0,"last_update":"0001-01-01T00:00:00Z","name_a2s":"Uncletopia | Warsaw | 2 | All Maps","protocol":17,"map":"cp_snakewater_final1","folder":"tf","game":"Team Fortress","app_id":440,"player_count":0,"max_players":24,"Bots":0,"server_type":"Dedicated","server_os":"Linux","password":true,"vac":true,"version":"7695204","steam_id":85568392925397851,"keywords":["cp","nocrits","nodmgspread","uncletopia"],"game_id":440,"stv_port":0,"stv_name":"","players":null},{"server_id":51,"name":"Uncletopia | Warsaw | 3 | All Maps","name_short":"waw-3","host":"waw-1.pl.uncletopia.com","port":27035,"enabled":true,"region":"eu","cc":"pl","latitude":52.2297,"longitude":21.017532,"reserved":0,"last_update":"0001-01-01T00:00:00Z","name_a2s":"Uncletopia | Warsaw | 3 | All Maps","protocol":17,"map":"koth_lakeside_final","folder":"tf","game":"Team Fortress","app_id":440,"player_count":0,"max_players":24,"Bots":0,"server_type":"Dedicated","server_os":"Linux","password":true,"vac":true,"version":"7695204","steam_id":85568392925397852,"keywords":["cp","nocrits","nodmgspread","uncletopia"],"game_id":440,"stv_port":27036,"stv_name":"Uncletopia | Warsaw | 3 | All Maps | STV","players":null},{"server_id":52,"name":"Uncletopia | Warsaw | 4 | All Maps","name_short":"waw-4","host":"waw-1.pl.uncletopia.com","port":27045,"enabled":true,"region":"eu","cc":"pl","latitude":52.2297,"longitude":21.017532,"reserved":0,"last_update":"0001-01-01T00:00:00Z","name_a2s":"Uncletopia | Warsaw | 4 | All Maps","protocol":17,"map":"cp_process_final","folder":"tf","game":"Team Fortress","app_id":440,"player_count":0,"max_players":24,"Bots":0,"server_type":"Dedicated","server_os":"Linux","password":true,"vac":true,"version":"7695204","steam_id":85568392925397853,"keywords":["cp","nocrits","nodmgspread","uncletopia"],"game_id":440,"stv_port":27046,"stv_name":"Uncletopia | Warsaw | 4 | All Maps | STV","players":null},{"server_id":53,"name":"Uncletopia | Warsaw | 5 | No Payload","name_short":"waw-5","host":"waw-1.pl.uncletopia.com","port":27055,"enabled":true,"region":"eu","cc":"pl","latitude":52.2297,"longitude":21.017532,"reserved":0,"last_update":"0001-01-01T00:00:00Z","name_a2s":"Uncletopia | Warsaw | 5 | No Payload","protocol":17,"map":"koth_king","folder":"tf","game":"Team Fortress","app_id":440,"player_count":0,"max_players":24,"Bots":0,"server_type":"Dedicated","server_os":"Linux","password":true,"vac":true,"version":"7695204","steam_id":85568392925397854,"keywords":["cp","nocrits","nodmgspread","uncletopia"],"game_id":440,"stv_port":27056,"stv_name":"Uncletopia | Warsaw | 5 | No Payload | STV","players":null},{"server_id":54,"name":"Uncletopia | Warsaw | 6 | Community","name_short":"waw-6","host":"waw-1.pl.uncletopia.com","port":27065,"enabled":true,"region":"eu","cc":"pl","latitude":52.2297,"longitude":21.017532,"reserved":0,"last_update":"0001-01-01T00:00:00Z","name_a2s":"Uncletopia | Warsaw | 6 | Community","protocol":17,"map":"workshop/koth_ashville_final.ugc2130459942","folder":"tf","game":"Team Fortress","app_id":440,"player_count":0,"max_players":24,"Bots":0,"server_type":"Dedicated","server_os":"Linux","password":true,"vac":true,"version":"7695204","steam_id":85568392925397856,"keywords":["cp","nocrits","nodmgspread","uncletopia"],"game_id":440,"stv_port":27066,"stv_name":"Uncletopia | Warsaw | 6 | Community | STV","players":null}]}