{"status":true,"message":"","result":[{"server_id":9,"name":"Uncletopia | Atlanta | 1 | All Maps","name_short":"atl-1","host":"atl-1.us.uncletopia.com","port":27015,"enabled":true,"region":"us-east","cc":"us","latitude":33.753746,"longitude":-84.38633,"reserved":0,"last_update":"0001-01-01T00:00:00Z","name_a2s":"Uncletopia | Atlanta | 1 | All Maps","protocol":17,"map":"pl_badwater","folder":"tf","game":"Team Fortress","app_id":440,"player_count":24,"max_players":24,"Bots":0,"server_type":"Dedicated","server_os":"Linux","password":true,"vac":true,"version":"7882260","steam_id":85568392924469982,"keywords":["nocrits","nodmgspread","payload","uncletopia"],"game_id":440,"stv_port":27016,"stv_name":"Uncletopia | Atlanta | 1 | All Maps | STV","players":[{"user_id":649,"name":"BIG HOG","steam_id":76561198079923652,"connected_time":8625000000000,"state":"active","ping":62},{"user_id":658,"name":"eish","steam_id":76561198089463603,"connected_time":7355000000000,"state":"active","ping":117},{"user_id":674,"name":"Sods","steam_id":76561198010204565,"connected_time":4597000000000,"state":"active","ping":59},{"user_id":654,"name":"morphine","steam_id":76561198072124799,"connected_time":7947000000000,"state":"active","ping":89},{"user_id":661,"name":"nomad","steam_id":76561197998740399,"connected_time":7246000000000,"state":"active","ping":65},{"user_id":683,"name":"warren","steam_id":76561198136331136,"connected_time":2806000000000,"state":"active","ping":74},{"user_id":671,"name":"Sophie","steam_id":76561198170408057,"connected_time":5229000000000,"state":"active","ping":45},{"user_id":667,"name":"David De Bergerac","steam_id":76561198010306294,"connected_time":6738000000000,"state":"active","ping":87},{"user_id":694,"name":"SanryoBros_YT #SaveTF2","steam_id":76561198822303633,"connected_time":1115000000000,"state":"active","ping":116},{"user_id":701,"name":"social distance warrior","steam_id":76561198128992994,"connected_time":374000000000,"state":"active","ping":95},{"user_id":695,"name":"A Can of Arizona Green Tea","steam_id":76561198062481133,"connected_time":1057000000000,"state":"active","ping":92},{"user_id":682,"name":"bocaJ","steam_id":76561198374535092,"connected_time":3019000000000,"state":"active","ping":87},{"user_id":702,"name":"b","steam_id":76561198118211523,"connected_time":346000000000,"state":"active","ping":62},{"user_id":676,"name":"Mario","steam_id":76561198321794277,"connected_time":3783000000000,"state":"active","ping":82},{"user_id":673,"name":"Toonice","steam_id":76561198402994885,"connected_time":4725000000000,"state":"active","ping":80},{"user_id":678,"name":"FireQuiz","steam_id":76561198107357249,"connected_time":3378000000000,"state":"active","ping":125},{"user_id":699,"name":"gerg","steam_id":76561197997127387,"connected_time":403000000000,"state":"active","ping":106},{"user_id":648,"name":"Intro Bonito","steam_id":76561198119478838,"connected_time":8632000000000,"state":"active","ping":58},{"user_id":700,"name":"Kanbaru Suruga","steam_id":76561198164782653,"connected_time":401000000000,"state":"active","ping":72},{"user_id":687,"name":"Motreir","steam_id":76561198151717946,"connected_time":1808000000000,"state":"active","ping":81},{"user_id":669,"name":"jin","steam_id":76561198119873148,"connected_time":5919000000000,"state":"active","ping":105},{"user_id":704,"name":"wile","steam_id":76561198125261443,"connected_time":213000000000,"state":"active","ping":122},{"user_id":698,"name":"paetho YT","steam_id":76561198152690003,"connected_time":702000000000,"state":"active","ping":45},{"user_id":662,"name":"Am da Best","steam_id":76561198163825955,"connected_time":7243000000000,"state":"active","ping":102}]},{"server_id":104,"name":"Uncletopia | Atlanta | 2 | All Maps","name_short":"atl-2","host":"atl-1.us.uncletopia.com","port":27025,"enabled":true,"region":"us-east","cc":"us","latitude":33.753746,"longitude":-84.38633,"reserved":0,"last_update":"0001-01-01T00:00:00Z","name_a2s":"Uncletopia | Atlanta | 2 | All Maps","protocol":17,"map":"cp_snakewater_final1","folder":"tf","game":"Team Fortress","app_id":440,"player_count":24,"max_players":24,"Bots":0,"server_type":"Dedicated","server_os":"Linux","password":true,"vac":true,"version":"7882260","steam_id":85568392924469983,"keywords":["cp","nocrits","nodmgspread","uncletopia"],"game_id":440,"stv_port":27026,"stv_name":"Uncletopia | Atlanta | 2 | All Maps | STV","players":[{"user_id":1199,"name":"JestinJester","steam_id":76561198411846094,"connected_time":2703000000000,"state":"active","ping":71},{"user_id":1219,"name":"UnkownGamerLOL","steam_id":76561198225902368,"connected_time":1362000000000,"state":"active","ping":86},{"user_id":1200,"name":"BiggSlorp","steam_id":76561199130776156,"connected_time":2504000000000,"state":"active","ping":60},{"user_id":1218,"name":"St. Michael","steam_id":76561198037611052,"connected_time":1815000000000,"state":"active","ping":59},{"user_id":1202,"name":"StarManMatt","steam_id":76561198125513574,"connected_time":2102000000000,"state":"active","ping":91},{"user_id":1203,"name":"AffinityNode","steam_id":76561198179676246,"connected_time":2099000000000,"state":"active","ping":60},{"user_id":1204,"name":"[RЯ] ShibesGoneWow","steam_id":76561198036090516,"connected_time":2091000000000,"state":"active","ping":52},{"user_id":1205,"name":"Soy","steam_id":76561199130537227,"connected_time":2072000000000,"state":"active","ping":91},{"user_id":1227,"name":"Kaluka","steam_id":76561198036861445,"connected_time":233000000000,"state":"active","ping":60},{"user_id":1228,"name":"puffle fanatic","steam_id":76561198094030685,"connected_time":129000000000,"state":"active","ping":62},{"user_id":1230,"name":"NonoMan","steam_id":76561199108216979,"connected_time":52000000000,"state":"active","ping":175},{"user_id":1225,"name":"sunny","steam_id":76561198069380992,"connected_time":859000000000,"state":"active","ping":64},{"user_id":1226,"name":"Handsome Pete","steam_id":76561198003224229,"connected_time":376000000000,"state":"active","ping":97},{"user_id":1224,"name":"Boongadoonga","steam_id":76561198058525763,"connected_time":948000000000,"state":"active","ping":74},{"user_id":1189,"name":"Rain","steam_id":76561198051430228,"connected_time":3213000000000,"state":"active","ping":53},{"user_id":1231,"name":"bron jame","steam_id":76561198202195792,"connected_time":27000000000,"state":"active","ping":75},{"user_id":1232,"name":"Fostrel","steam_id":76561198152160601,"connected_time":0,"state":"spawning","ping":23},{"user_id":1211,"name":"DonJamón","steam_id":76561198319090131,"connected_time":1906000000000,"state":"active","ping":75},{"user_id":1196,"name":"Unamused Kobayashi Enjoyer","steam_id":76561198024002274,"connected_time":2925000000000,"state":"active","ping":84},{"user_id":1212,"name":"younggflylyfe","steam_id":76561199477357832,"connected_time":1903000000000,"state":"active","ping":70},{"user_id":1213,"name":"Merci?","steam_id":76561198096823118,"connected_time":1888000000000,"state":"active","ping":91},{"user_id":1221,"name":"Xpooky","steam_id":76561198053372186,"connected_time":993000000000,"state":"active","ping":74},{"user_id":1216,"name":"sr7988","steam_id":76561199483394752,"connected_time":1868000000000,"state":"active","ping":90},{"user_id":1222,"name":"Lavender","steam_id":76561198142770666,"connected_time":992000000000,"state":"active","ping":70}]},{"server_id":400,"name":"Uncletopia | Atlanta | 3 | Community","name_short":"atl-3","host":"atl-1.us.uncletopia.com","port":27035,"enabled":true,"region":"us-east","cc":"us","latitude":33.753746,"longitude":-84.38633,"reserved":0,"last_update":"0001-01-01T00:00:00Z","name_a2s":"Uncletopia | Atlanta | 3 | Community","protocol":17,"map":"workshop/cp_croissant_final.ugc458840209","folder":"tf","game":"Team Fortress","app_id":440,"player_count":0,"max_players":24,"Bots":0,"server_type":"Dedicated","server_os":"Linux","password":true,"vac":true,"version":"7882260","steam_id":85568392924515187,"keywords":["cp","nocrits","nodmgspread","uncletopia"],"game_id":440,"stv_port":27036,"stv_name":"Uncletopia | Atlanta | 3 | Community | STV","players":null},{"server_id":401,"name":"Uncletopia | Atlanta | 4 | No Payload","name_short":"atl-4","host":"atl-1.us.uncletopia.com","port":27045,"enabled":true,"region":"us-east","cc":"us","latitude":33.753746,"longitude":-84.38633,"reserved":0,"last_update":"0001-01-01T00:00:00Z","name_a2s":"","protocol":0,"map":"","folder":"","game":"","app_id":0,"player_count":0,"max_players":0,"Bots":0,"server_type":"","server_os":"","password":false,"vac":false,"version":"","steam_id":0,"keywords":null,"game_id":0,"stv_port":0,"stv_name":"","players":null},{"server_id":2,"name":"Uncletopia | Chicago | 1 | All Maps","name_short":"chi-1","host":"chi-1.us.uncletopia.com","port":27015,"enabled":true,"region":"us-central","cc":"us","latitude":41.881832,"longitude":-87.62318,"reserved":0,"last_update":"0001-01-01T00:00:00Z","name_a2s":"Uncletopia | Chicago | 1 | All Maps","protocol":17,"map":"pl_badwater","folder":"tf","game":"Team Fortress","app_id":440,"player_count":24,"max_players":24,"Bots":0,"server_type":"Dedicated","server_os":"Linux","password":true,"vac":true,"version":"7882260","steam_id":85568392924469984,"keywords":["nocrits","nodmgspread","payload","uncletopia"],"game_id":440,"stv_port":27016,"stv_name":"Uncletopia | Chicago | 1 | All Maps | STV","players":[{"user_id":868,"name":"επιλέγω","steam_id":76561198076639682,"connected_time":6490000000000,"state":"active","ping":71},{"user_id":910,"name":"jubattz","steam_id":76561198044874072,"connected_time":2171000000000,"state":"active","ping":59},{"user_id":775,"name":"LVL","steam_id":76561198334403617,"connected_time":13687000000000,"state":"active","ping":55},{"user_id":901,"name":"Belvidere","steam_id":76561198121336953,"connected_time":2397000000000,"state":"active","ping":97},{"user_id":899,"name":"Lore","steam_id":76561198098407538,"connected_time":2433000000000,"state":"active","ping":45},{"user_id":856,"name":"movw $0x9D99, ax","steam_id":76561198149666258,"connected_time":8442000000000,"state":"active","ping":54},{"user_id":902,"name":"MrYackles","steam_id":76561199095650797,"connected_time":2396000000000,"state":"active","ping":71},{"user_id":799,"name":"badboy6996","steam_id":76561197969386201,"connected_time":11743000000000,"state":"active","ping":60},{"user_id":919,"name":"JelloMotion","steam_id":76561198045892038,"connected_time":792000000000,"state":"active","ping":59},{"user_id":916,"name":"Saikyo","steam_id":76561198212461467,"connected_time":1005000000000,"state":"active","ping":61},{"user_id":921,"name":"Makina","steam_id":76561198057475567,"connected_time":289000000000,"state":"active","ping":70},{"user_id":914,"name":"my money washed like george","steam_id":76561198115458307,"connected_time":1053000000000,"state":"active","ping":105},{"user_id":883,"name":"Pizza","steam_id":76561198118748364,"connected_time":4356000000000,"state":"active","ping":75},{"user_id":882,"name":"Flaming O'Gaming","steam_id":76561198044185725,"connected_time":4367000000000,"state":"active","ping":70},{"user_id":905,"name":"HK™","steam_id":76561198196793415,"connected_time":2341000000000,"state":"active","ping":116},{"user_id":922,"name":"Hoop","steam_id":76561199124865843,"connected_time":278000000000,"state":"active","ping":59},{"user_id":923,"name":"ᵖᵉᵇˡ","steam_id":76561198022760558,"connected_time":179000000000,"state":"active","ping":74},{"user_id":895,"name":"Marshall","steam_id":76561198042570322,"connected_time":3133000000000,"state":"active","ping":80},{"user_id":907,"name":"nori_420 (mute)","steam_id":76561199117134203,"connected_time":2296000000000,"state":"active","ping":114},{"user_id":920,"name":"Mitsubishi Materials","steam_id":76561198151871198,"connected_time":737000000000,"state":"active","ping":61},{"user_id":888,"name":"hutty","steam_id":76561198062721414,"connected_time":4085000000000,"state":"active","ping":65},{"user_id":847,"name":"Ademar","steam_id":76561199391802581,"connected_time":9527000000000,"state":"active","ping":105},{"user_id":918,"name":"THEY LET YOU PUT ANYTHING HERE","steam_id":76561198056214875,"connected_time":948000000000,"state":"active","ping":58},{"user_id":773,"name":"WHY U RUNNIN PAPI","steam_id":76561198144766439,"connected_time":14069000000000,"state":"active","ping":75}]},{"server_id":106,"name":"Uncletopia | Chicago | 2 | All Maps","name_short":"chi-2","host":"chi-1.us.uncletopia.com","port":27025,"enabled":true,"region":"us-central","cc":"us","latitude":41.881832,"longitude":-87.62318,"reserved":0,"last_update":"0001-01-01T00:00:00Z","name_a2s":"Uncletopia | Chicago | 2 | All Maps","protocol":17,"map":"pl_borneo","folder":"tf","game":"Team Fortress","app_id":440,"player_count":24,"max_players":24,"Bots":0,"server_type":"Dedicated","server_os":"Linux","password":true,"vac":true,"version":"7882260","steam_id":85568392924469985,"keywords":["nocrits","nodmgspread","payload","uncletopia"],"game_id":440,"stv_port":27026,"stv_name":"Uncletopia | Chicago | 2 | All Maps | STV","players":[{"user_id":710,"name":"theodorius maximus (insane)","steam_id":76561198207881077,"connected_time":814000000000,"state":"active","ping":87},{"user_id":674,"name":"nake","steam_id":76561198004619118,"connected_time":2707000000000,"state":"active","ping":100},{"user_id":711,"name":"keffers","steam_id":76561198202338796,"connected_time":767000000000,"state":"active","ping":75},{"user_id":649,"name":"HollowMan","steam_id":76561198967266827,"connected_time":4999000000000,"state":"active","ping":76},{"user_id":707,"name":"zeplinnn","steam_id":76561198301300987,"connected_time":1365000000000,"state":"active","ping":100},{"user_id":722,"name":"Bugc97","steam_id":76561198007662645,"connected_time":345000000000,"state":"active","ping":78},{"user_id":712,"name":"Srattinee","steam_id":76561198199840395,"connected_time":731000000000,"state":"active","ping":60},{"user_id":694,"name":"TCookies","steam_id":76561198078031012,"connected_time":1684000000000,"state":"active","ping":59},{"user_id":697,"name":"Delsato","steam_id":76561198304505626,"connected_time":1657000000000,"state":"active","ping":42},{"user_id":660,"name":"V3GA01","steam_id":76561199214699875,"connected_time":4123000000000,"state":"active","ping":50},{"user_id":698,"name":"Hidden Phantom","steam_id":76561198115531799,"connected_time":1655000000000,"state":"active","ping":81},{"user_id":708,"name":"Shredder389","steam_id":76561198259615079,"connected_time":1276000000000,"state":"active","ping":87},{"user_id":719,"name":"Richard Ums","steam_id":76561198049733157,"connected_time":447000000000,"state":"active","ping":83},{"user_id":701,"name":"Sgt Bubbles","steam_id":76561198078040890,"connected_time":1593000000000,"state":"active","ping":81},{"user_id":720,"name":"Sheriff Monkey","steam_id":76561198053556583,"connected_time":446000000000,"state":"active","ping":75},{"user_id":716,"name":"moah380","steam_id":76561198090644581,"connected_time":654000000000,"state":"active","ping":114},{"user_id":688,"name":"Jezzus","steam_id":76561199289676387,"connected_time":1835000000000,"state":"active","ping":87},{"user_id":724,"name":"Coinclever","steam_id":76561198099972692,"connected_time":97000000000,"state":"active","ping":57},{"user_id":683,"name":"medi","steam_id":76561198202720770,"connected_time":2337000000000,"state":"active","ping":54},{"user_id":679,"name":"CrazyDave","steam_id":76561198282269514,"connected_time":2606000000000,"state":"active","ping":93},{"user_id":703,"name":"Your Dad","steam_id":76561198011949912,"connected_time":1571000000000,"state":"active","ping":91},{"user_id":713,"name":"Brendan","steam_id":76561198041079914,"connected_time":725000000000,"state":"active","ping":66},{"user_id":666,"name":"ChaingunnerFails","steam_id":76561198963075967,"connected_time":3463000000000,"state":"active","ping":107},{"user_id":714,"name":"Shaw Han","steam_id":76561198204259015,"connected_time":723000000000,"state":"active","ping":57}]},{"server_id":402,"name":"Uncletopia | Chicago | 3 | All Maps","name_short":"chi-3","host":"chi-1.us.uncletopia.com","port":27035,"enabled":true,"region":"us-central","cc":"us","latitude":41.881832,"longitude":-87.62318,"reserved":0,"last_update":"0001-01-01T00:00:00Z","name_a2s":"Uncletopia | Chicago | 3 | All Maps","protocol":17,"map":"cp_mountainlab","folder":"tf","game":"Team Fortress","app_id":440,"player_count":12,"max_players":24,"Bots":0,"server_type":"Dedicated","server_os":"Linux","password":true,"vac":true,"version":"7882260","steam_id":85568392924515191,"keywords":["cp","nocrits","nodmgspread","uncletopia"],"game_id":440,"stv_port":27036,"stv_name":"Uncletopia | Chicago | 3 | All Maps | STV","players":[{"user_id":1012,"name":"Zoro","steam_id":76561199074189172,"connected_time":272000000000,"state":"active","ping":59},{"user_id":1007,"name":"Spring Beans","steam_id":76561197978546259,"connected_time":897000000000,"state":"active","ping":53},{"user_id":971,"name":"123","steam_id":76561198106308056,"connected_time":5596000000000,"state":"active","ping":104},{"user_id":1008,"name":"Roman Robots","steam_id":76561197994030433,"connected_time":883000000000,"state":"active","ping":92},{"user_id":982,"name":"Final_MarioXD","steam_id":76561199184862419,"connected_time":4156000000000,"state":"active","ping":90},{"user_id":999,"name":"Silver Cloud","steam_id":76561198043770709,"connected_time":2117000000000,"state":"active","ping":57},{"user_id":989,"name":"warrior","steam_id":76561198074500319,"connected_time":3122000000000,"state":"active","ping":104},{"user_id":1010,"name":"Kutchie Yharnam","steam_id":76561198357543671,"connected_time":530000000000,"state":"active","ping":124},{"user_id":1004,"name":"wokky bin laddn","steam_id":76561198265200834,"connected_time":1329000000000,"state":"active","ping":66},{"user_id":979,"name":"Professionally Braindead ツ","steam_id":76561198276714220,"connected_time":4346000000000,"state":"active","ping":60},{"user_id":974,"name":"goose","steam_id":76561198367551668,"connected_time":5450000000000,"state":"active","ping":49},{"user_id":958,"name":"Holp","steam_id":76561199019186848,"connected_time":6849000000000,"state":"active","ping":110}]},{"server_id":403,"name":"Uncletopia | Chicago | 4 | All Maps","name_short":"chi-4","host":"chi-1.us.uncletopia.com","port":27045,"enabled":true,"region":"us-central","cc":"us","latitude":41.881832,"longitude":-87.62318,"reserved":0,"last_update":"0001-01-01T00:00:00Z","name_a2s":"Uncletopia | Chicago | 4 | All Maps","protocol":17,"map":"pl_frontier_final","folder":"tf","game":"Team Fortress","app_id":440,"player_count":24,"max_players":24,"Bots":0,"server_type":"Dedicated","server_os":"Linux","password":true,"vac":true,"version":"7882260","steam_id":85568392924515193,"keywords":["nocrits","nodmgspread","payload","uncletopia"],"game_id":440,"stv_port":27046,"stv_name":"Uncletopia | Chicago | 4 | All Maps | STV","players":[{"user_id":824,"name":"JayChan","steam_id":76561198040866769,"connected_time":2567000000000,"state":"active","ping":70},{"user_id":829,"name":"Nalek","steam_id":76561198023553683,"connected_time":1934000000000,"state":"active","ping":58},{"user_id":840,"name":"tony hawk","steam_id":76561198172050802,"connected_time":1364000000000,"state":"active","ping":110},{"user_id":800,"name":"aphip","steam_id":76561198084621244,"connected_time":4977000000000,"state":"active","ping":99},{"user_id":812,"name":"GuyGoom","steam_id":76561198254522178,"connected_time":4202000000000,"state":"active","ping":59},{"user_id":851,"name":"roast pig with apple in mouth","steam_id":76561198051353647,"connected_time":811000000000,"state":"active","ping":62},{"user_id":805,"name":"Nobody","steam_id":76561198286486517,"connected_time":4525000000000,"state":"active","ping":61},{"user_id":845,"name":"bofaswag","steam_id":76561198017479458,"connected_time":1064000000000,"state":"active","ping":62},{"user_id":807,"name":"Cool Ranch Buddha","steam_id":76561197982863756,"connected_time":4392000000000,"state":"active","ping":76},{"user_id":855,"name":"motherslammer74","steam_id":76561199108597122,"connected_time":359000000000,"state":"active","ping":166},{"user_id":831,"name":"Xpiredd","steam_id":76561198449525437,"connected_time":1753000000000,"state":"active","ping":63},{"user_id":856,"name":"Jones","steam_id":76561198046037216,"connected_time":334000000000,"state":"active","ping":93},{"user_id":858,"name":"Rad","steam_id":76561198413125750,"connected_time":241000000000,"state":"active","ping":63},{"user_id":854,"name":"Olly","steam_id":76561198054273611,"connected_time":626000000000,"state":"active","ping":65},{"user_id":847,"name":"Joocebox","steam_id":76561198259997021,"connected_time":1046000000000,"state":"active","ping":72},{"user_id":857,"name":"kiseek","steam_id":76561198075474088,"connected_time":268000000000,"state":"active","ping":84},{"user_id":850,"name":"tlar","steam_id":76561198060117460,"connected_time":899000000000,"state":"active","ping":75},{"user_id":828,"name":"Fewseb","steam_id":76561198104808456,"connected_time":1969000000000,"state":"active","ping":71},{"user_id":859,"name":"mel","steam_id":76561198215559840,"connected_time":121000000000,"state":"active","ping":60},{"user_id":842,"name":"meownt everest :3","steam_id":76561198017686306,"connected_time":1123000000000,"state":"active","ping":151},{"user_id":813,"name":"Tea Enthusiast","steam_id":76561198185583925,"connected_time":4150000000000,"state":"active","ping":58},{"user_id":841,"name":"Female Gamer","steam_id":76561199366482682,"connected_time":1311000000000,"state":"active","ping":111},{"user_id":814,"name":"99RM","steam_id":76561198107382571,"connected_time":4139000000000,"state":"active","ping":153},{"user_id":852,"name":"slep.py","steam_id":76561197988287144,"connected_time":803000000000,"state":"active","ping":59}]},{"server_id":36,"name":"Uncletopia | Chicago | 5 | All Maps","name_short":"chi-5","host":"chi-2.us.uncletopia.com","port":27015,"enabled":true,"region":"us-central","cc":"us","latitude":41.881832,"longitude":-87.62318,"reserved":0,"last_update":"0001-01-01T00:00:00Z","name_a2s":"Uncletopia | Chicago | 5 | All Maps","protocol":17,"map":"cp_altitude","folder":"tf","game":"Team Fortress","app_id":440,"player_count":0,"max_players":24,"Bots":0,"server_type":"Dedicated","server_os":"Linux","password":true,"vac":true,"version":"7882260","steam_id":85568392924866362,"keywords":["cp","nocrits","nodmgspread","uncletopia"],"game_id":440,"stv_port":27016,"stv_name":"Uncletopia | Chicago | 5 | All Maps | STV","players":null},{"server_id":37,"name":"Uncletopia | Chicago | 6 | All Maps","name_short":"chi-6","host":"chi-2.us.uncletopia.com","port":27025,"enabled":true,"region":"us-central","cc":"us","latitude":41.881832,"longitude":-87.62318,"reserved":0,"last_update":"0001-01-01T00:00:00Z","name_a2s":"Uncletopia | Chicago | 6 | All Maps","protocol":17,"map":"cp_sunshine","folder":"tf","game":"Team Fortress","app_id":440,"player_count":22,"max_players":24,"Bots":0,"server_type":"Dedicated","server_os":"Linux","password":true,"vac":true,"version":"7882260","steam_id":85568392924866363,"keywords":["cp","nocrits","nodmgspread","uncletopia"],"game_id":440,"stv_port":27026,"stv_name":"Uncletopia | Chicago | 6 | All Maps | STV","players":[{"user_id":573,"name":"dav","steam_id":76561198066878749,"connected_time":1329000000000,"state":"active","ping":105},{"user_id":523,"name":"SadBoi","steam_id":76561199116261080,"connected_time":5492000000000,"state":"active","ping":64},{"user_id":548,"name":"Battery Acid Addict","steam_id":76561198439793697,"connected_time":3800000000000,"state":"active","ping":70},{"user_id":586,"name":"Spiffy","steam_id":76561198202539179,"connected_time":58000000000,"state":"active","ping":51},{"user_id":575,"name":"evdoke","steam_id":76561198044555219,"connected_time":1303000000000,"state":"active","ping":53},{"user_id":507,"name":"Minichu","steam_id":76561198805851179,"connected_time":7661000000000,"state":"active","ping":86},{"user_id":587,"name":"dansal","steam_id":76561197997042510,"connected_time":32000000000,"state":"active","ping":75},{"user_id":582,"name":"Edendelt","steam_id":76561199382750867,"connected_time":619000000000,"state":"active","ping":112},{"user_id":561,"name":"Locked in the bathroom","steam_id":76561198206394503,"connected_time":2656000000000,"state":"active","ping":57},{"user_id":482,"name":"Coms","steam_id":76561198204995668,"connected_time":9730000000000,"state":"active","ping":81},{"user_id":588,"name":"SlayAChicken","steam_id":76561198093787204,"connected_time":10000000000,"state":"spawning","ping":48},{"user_id":564,"name":"WildRose","steam_id":76561199198872694,"connected_time":2565000000000,"state":"active","ping":120},{"user_id":565,"name":"marge","steam_id":76561198064823861,"connected_time":2543000000000,"state":"active","ping":74},{"user_id":580,"name":"HaXepBce","steam_id":76561198043760745,"connected_time":1104000000000,"state":"active","ping":67},{"user_id":567,"name":"MoePlaysGames","steam_id":76561198316877833,"connected_time":2519000000000,"state":"active","ping":106},{"user_id":568,"name":"chrislo27","steam_id":76561198070331231,"connected_time":2517000000000,"state":"active","ping":106},{"user_id":570,"name":"Conn","steam_id":76561198368748494,"connected_time":2387000000000,"state":"active","ping":63},{"user_id":540,"name":"seldom","steam_id":76561198166193756,"connected_time":4619000000000,"state":"active","ping":56},{"user_id":558,"name":"Aedaxe","steam_id":76561198036555143,"connected_time":3073000000000,"state":"active","ping":75},{"user_id":500,"name":"Flare","steam_id":76561198307345409,"connected_time":8325000000000,"state":"active","ping":75},{"user_id":516,"name":"Els (F2P)","steam_id":76561199129761684,"connected_time":6011000000000,"state":"active","ping":84},{"user_id":585,"name":"double xp weekend","steam_id":76561198052950547,"connected_time":278000000000,"state":"active","ping":42}]},{"server_id":38,"name":"Uncletopia | Chicago | 7 | Stopwatch Beta","name_short":"chi-7","host":"chi-2.us.uncletopia.com","port":27035,"enabled":true,"region":"us-central","cc":"us","latitude":41.881832,"longitude":-87.62318,"reserved":0,"last_update":"0001-01-01T00:00:00Z","name_a2s":"Uncletopia | Chicago | 7 | Stopwatch Beta","protocol":17,"map":"workshop/koth_clearcut_b15.ugc2107050255","folder":"tf","game":"Team Fortress","app_id":440,"player_count":0,"max_players":24,"Bots":0,"server_type":"Dedicated","server_os":"Linux","password":true,"vac":true,"version":"7882260","steam_id":85568392924866364,"keywords":["cp","nocrits","nodmgspread","uncletopia"],"game_id":440,"stv_port":27036,"stv_name":"Uncletopia | Chicago | 7 | Stopwatch Beta | STV","players":null},{"server_id":39,"name":"Uncletopia | Chicago | 8 | Community","name_short":"chi-8","host":"chi-2.us.uncletopia.com","port":27045,"enabled":true,"region":"us-central","cc":"us","latitude":41.881832,"longitude":-87.62318,"reserved":0,"last_update":"0001-01-01T00:00:00Z","name_a2s":"Uncletopia | Chicago | 8 | Community","protocol":17,"map":"workshop/pl_vigil_rc9.ugc1266210012","folder":"tf","game":"Team Fortress","app_id":440,"player_count":16,"max_players":24,"Bots":0,"server_type":"Dedicated","server_os":"Linux","password":true,"vac":true,"version":"7882260","steam_id":85568392924866365,"keywords":["nocrits","nodmgspread","payload","uncletopia"],"game_id":440,"stv_port":27046,"stv_name":"Uncletopia | Chicago | 8 | Community | STV","players":[{"user_id":752,"name":"Barlon","steam_id":76561198023717515,"connected_time":3878000000000,"state":"active","ping":74},{"user_id":776,"name":"Caster","steam_id":76561198131592341,"connected_time":391000000000,"state":"active","ping":109},{"user_id":750,"name":"waru","steam_id":76561198044251420,"connected_time":3947000000000,"state":"active","ping":58},{"user_id":764,"name":"Dreamy Sweat from 2hu","steam_id":76561198094602446,"connected_time":2322000000000,"state":"active","ping":67},{"user_id":777,"name":"๖Ðiestow","steam_id":76561198046662484,"connected_time":310000000000,"state":"active","ping":72},{"user_id":778,"name":"starry","steam_id":76561198989740125,"connected_time":287000000000,"state":"active","ping":83},{"user_id":754,"name":"lycoris","steam_id":76561199113965768,"connected_time":3707000000000,"state":"active","ping":84},{"user_id":773,"name":"Vibe Check","steam_id":76561198087326826,"connected_time":855000000000,"state":"active","ping":73},{"user_id":763,"name":"Sono","steam_id":76561199077527007,"connected_time":2845000000000,"state":"active","ping":57},{"user_id":775,"name":"Dr. Pleasant","steam_id":76561198111945101,"connected_time":500000000000,"state":"active","ping":70},{"user_id":767,"name":"Luca!","steam_id":76561198137880777,"connected_time":1711000000000,"state":"active","ping":86},{"user_id":768,"name":"Infinitytacos","steam_id":76561198884260211,"connected_time":1406000000000,"state":"active","ping":45},{"user_id":770,"name":"Kasodani Kyouko","steam_id":76561198023178589,"connected_time":1358000000000,"state":"active","ping":82},{"user_id":758,"name":"Reisen Udongein Inaba","steam_id":76561198051082314,"connected_time":3548000000000,"state":"active","ping":106},{"user_id":759,"name":"Junko","steam_id":76561198146089003,"connected_time":3532000000000,"state":"active","ping":45},{"user_id":771,"name":"his flatulence","steam_id":76561198799404824,"connected_time":1358000000000,"state":"active","ping":80}]},{"server_id":8,"name":"Uncletopia | Dallas | 1 | All Maps","name_short":"dal-1","host":"dal-1.us.uncletopia.com","port":27015,"enabled":true,"region":"us-central","cc":"us","latitude":32.779167,"longitude":-96.80889,"reserved":0,"last_update":"0001-01-01T00:00:00Z","name_a2s":"Uncletopia | Dallas | 1 | All Maps","protocol":17,"map":"pl_upward","folder":"tf","game":"Team Fortress","app_id":440,"player_count":24,"max_players":24,"Bots":0,"server_type":"Dedicated","server_os":"Linux","password":true,"vac":true,"version":"7882260","steam_id":85568392924469986,"keywords":["nocrits","nodmgspread","payload","uncletopia"],"game_id":440,"stv_port":27016,"stv_name":"Uncletopia | Dallas | 1 | All Maps | STV","players":[{"user_id":789,"name":"jesus shredded for our sins","steam_id":76561199068306212,"connected_time":3551000000000,"state":"active","ping":68},{"user_id":799,"name":"Aino","steam_id":76561198053662930,"connected_time":2573000000000,"state":"active","ping":100},{"user_id":814,"name":"⦕ 艾萨克 ⦖","steam_id":76561198293727875,"connected_time":2042000000000,"state":"active","ping":68},{"user_id":820,"name":"Garfelf","steam_id":76561198419850129,"connected_time":969000000000,"state":"active","ping":109},{"user_id":801,"name":"Etomb","steam_id":76561198210017208,"connected_time":2560000000000,"state":"active","ping":78},{"user_id":790,"name":"mEch114","steam_id":76561198236936060,"connected_time":3403000000000,"state":"active","ping":43},{"user_id":830,"name":"cici","steam_id":76561198056813294,"connected_time":674000000000,"state":"active","ping":84},{"user_id":824,"name":"selarom | trade.tf |","steam_id":76561199069219350,"connected_time":909000000000,"state":"active","ping":66},{"user_id":818,"name":"Woozy","steam_id":76561198008220735,"connected_time":996000000000,"state":"active","ping":92},{"user_id":828,"name":"Saldaña","steam_id":76561198214473001,"connected_time":739000000000,"state":"active","ping":70},{"user_id":829,"name":"AAGooseman","steam_id":76561198378941369,"connected_time":709000000000,"state":"active","ping":70},{"user_id":833,"name":"TheEmeraldLiker","steam_id":76561198323926464,"connected_time":117000000000,"state":"active","ping":98},{"user_id":832,"name":"iggybones (girl with balls)","steam_id":76561198101610291,"connected_time":575000000000,"state":"active","ping":101},{"user_id":792,"name":"BeeseDeez","steam_id":76561198011012347,"connected_time":3081000000000,"state":"active","ping":67},{"user_id":819,"name":"Bogey","steam_id":76561198096227944,"connected_time":995000000000,"state":"active","ping":46},{"user_id":684,"name":"Pvt. Dimitri Petrenko","steam_id":76561198078040091,"connected_time":11272000000000,"state":"active","ping":56},{"user_id":827,"name":"goopshit","steam_id":76561198126489501,"connected_time":788000000000,"state":"active","ping":74},{"user_id":812,"name":"TrinnerToast","steam_id":76561199026887450,"connected_time":2351000000000,"state":"active","ping":77},{"user_id":682,"name":"Whiamy Aleeve","steam_id":76561199007736086,"connected_time":12021000000000,"state":"active","ping":67},{"user_id":817,"name":"•SoraNyaa•","steam_id":76561198308439576,"connected_time":1005000000000,"state":"active","ping":96},{"user_id":823,"name":"boomfx","steam_id":76561199181040145,"connected_time":923000000000,"state":"active","ping":96},{"user_id":815,"name":"Sentient Trash Can","steam_id":76561199438622491,"connected_time":1998000000000,"state":"active","ping":101},{"user_id":816,"name":"minty","steam_id":76561198062821894,"connected_time":1744000000000,"state":"active","ping":58},{"user_id":809,"name":"Showbiz71","steam_id":76561198394306180,"connected_time":2429000000000,"state":"active","ping":89}]},{"server_id":108,"name":"Uncletopia | Dallas | 2 | All Maps","name_short":"dal-2","host":"dal-1.us.uncletopia.com","port":27025,"enabled":true,"region":"us-central","cc":"us","latitude":32.779167,"longitude":-96.80889,"reserved":0,"last_update":"0001-01-01T00:00:00Z","name_a2s":"Uncletopia | Dallas | 2 | All Maps","protocol":17,"map":"cp_snakewater_final1","folder":"tf","game":"Team Fortress","app_id":440,"player_count":0,"max_players":24,"Bots":0,"server_type":"Dedicated","server_os":"Linux","password":true,"vac":true,"version":"7882260","steam_id":85568392924469988,"keywords":["cp","nocrits","nodmgspread","uncletopia"],"game_id":440,"stv_port":27026,"stv_name":"Uncletopia | Dallas | 2 | All Maps | STV","players":null},{"server_id":5,"name":"Uncletopia | Frankfurt | 1 | All Maps","name_short":"frk-1","host":"frk-1.de.uncletopia.com","port":27015,"enabled":true,"region":"eu","cc":"de","latitude":50.110924,"longitude":8.682127,"reserved":0,"last_update":"0001-01-01T00:00:00Z","name_a2s":"Uncletopia | Frankfurt | 1 | All Maps","protocol":17,"map":"koth_cascade","folder":"tf","game":"Team Fortress","app_id":440,"player_count":0,"max_players":24,"Bots":0,"server_type":"Dedicated","server_os":"Linux","password":true,"vac":true,"version":"7882260","steam_id":85568392924469989,"keywords":["cp","nocrits","nodmgspread","uncletopia"],"game_id":440,"stv_port":27016,"stv_name":"Uncletopia | Frankfurt | 1 | All Maps | STV","players":null},{"server_id":110,"name":"Uncletopia | Frankfurt | 2 | All Maps","name_short":"frk-2","host":"frk-1.de.uncletopia.com","port":27025,"enabled":true,"region":"eu","cc":"de","latitude":50.110924,"longitude":8.682127,"reserved":0,"last_update":"0001-01-01T00:00:00Z","name_a2s":"Uncletopia | Frankfurt | 2 | All Maps","protocol":17,"map":"pl_swiftwater_final1","folder":"tf","game":"Team Fortress","app_id":440,"player_count":0,"max_players":24,"Bots":0,"server_type":"Dedicated","server_os":"Linux","password":true,"vac":true,"version":"7882260","steam_id":85568392924469990,"keywords":["nocrits","nodmgspread","payload","uncletopia"],"game_id":440,"stv_port":27026,"stv_name":"Uncletopia | Frankfurt | 2 | All Maps | STV","players":null},{"server_id":308,"name":"Uncletopia | Frankfurt | 3 | All Maps","name_short":"frk-3","host":"frk-1.de.uncletopia.com","port":27035,"enabled":true,"region":"eu","cc":"de","latitude":50.110924,"longitude":8.682127,"reserved":0,"last_update":"0001-01-01T00:00:00Z","name_a2s":"Uncletopia | Frankfurt | 3 | All Maps","protocol":17,"map":"pl_snowycoast","folder":"tf","game":"Team Fortress","app_id":440,"player_count":0,"max_players":24,"Bots":0,"server_type":"Dedicated","server_os":"Linux","password":true,"vac":true,"version":"7882260","steam_id":85568392924504274,"keywords":["nocrits","nodmgspread","payload","uncletopia"],"game_id":440,"stv_port":27036,"stv_name":"Uncletopia | Frankfurt | 3 | All Maps | STV","players":null},{"server_id":309,"name":"Uncletopia | Frankfurt | 4 | All Maps","name_short":"frk-4","host":"frk-1.de.uncletopia.com","port":27045,"enabled":true,"region":"eu","cc":"de","latitude":50.110924,"longitude":8.682127,"reserved":0,"last_update":"0001-01-01T00:00:00Z","name_a2s":"Uncletopia | Frankfurt | 4 | All Maps","protocol":17,"map":"pl_badwater","folder":"tf","game":"Team Fortress","app_id":440,"player_count":0,"max_players":24,"Bots":0,"server_type":"Dedicated","server_os":"Linux","password":true,"vac":true,"version":"7882260","steam_id":85568392924504275,"keywords":["nocrits","nodmgspread","payload","uncletopia"],"game_id":440,"stv_port":27046,"stv_name":"Uncletopia | Frankfurt | 4 | All Maps | STV","players":null},{"server_id":310,"name":"Uncletopia | Frankfurt | 5 | All Maps","name_short":"frk-5","host":"frk-1.de.uncletopia.com","port":27055,"enabled":true,"region":"eu","cc":"de","latitude":50.110924,"longitude":8.682127,"reserved":0,"last_update":"0001-01-01T00:00:00Z","name_a2s":"Uncletopia | Frankfurt | 5 | All Maps","protocol":17,"map":"cp_sunshine","folder":"tf","game":"Team Fortress","app_id":440,"player_count":1,"max_players":24,"Bots":0,"server_type":"Dedicated","server_os":"Linux","password":true,"vac":true,"version":"7882260","steam_id":85568392924504277,"keywords":["cp","nocrits","nodmgspread","uncletopia"],"game_id":440,"stv_port":27056,"stv_name":"Uncletopia | Frankfurt | 5 | All Maps | STV","players":[{"user_id":5,"name":"Mandele","steam_id":76561199183213205,"connected_time":69000000000,"state":"active","ping":107}]},{"server_id":311,"name":"Uncletopia | Frankfurt | 6 | All Maps","name_short":"frk-6","host":"frk-1.de.uncletopia.com","port":27065,"enabled":true,"region":"eu","cc":"de","latitude":50.110924,"longitude":8.682127,"reserved":0,"last_update":"0001-01-01T00:00:00Z","name_a2s":"Uncletopia | Frankfurt | 6 | All Maps","protocol":17,"map":"pl_badwater","folder":"tf","game":"Team Fortress","app_id":440,"player_count":0,"max_players":24,"Bots":0,"server_type":"Dedicated","server_os":"Linux","password":true,"vac":true,"version":"7882260","steam_id":85568392924504278,"keywords":["nocrits","nodmgspread","payload","uncletopia"],"game_id":440,"stv_port":27066,"stv_name":"Uncletopia | Frankfurt | 6 | All Maps | STV","players":null},{"server_id":23,"name":"Uncletopia | Frankfurt | 7 | Stopwatch Beta","name_short":"frk-7","host":"frk-1.de.uncletopia.com","port":27075,"enabled":true,"region":"eu","cc":"de","latitude":50.110924,"longitude":8.682127,"reserved":0,"last_update":"0001-01-01T00:00:00Z","name_a2s":"Uncletopia | Frankfurt | 7 | Stopwatch Beta","protocol":17,"map":"cp_dustbowl","folder":"tf","game":"Team Fortress","app_id":440,"player_count":0,"max_players":24,"Bots":0,"server_type":"Dedicated","server_os":"Linux","password":true,"vac":true,"version":"7882260","steam_id":85568392924742827,"keywords":["cp","nocrits","nodmgspread","uncletopia"],"game_id":440,"stv_port":27076,"stv_name":"Uncletopia | Frankfurt | 7 | Stopwatch Beta | STV","players":null},{"server_id":24,"name":"Uncletopia | Frankfurt | 8 | Community","name_short":"frk-8","host":"frk-1.de.uncletopia.com","port":27085,"enabled":true,"region":"eu","cc":"de","latitude":50.110924,"longitude":8.682127,"reserved":0,"last_update":"0001-01-01T00:00:00Z","name_a2s":"Uncletopia | Frankfurt | 8 | Community","protocol":17,"map":"koth_cascade","folder":"tf","game":"Team Fortress","app_id":440,"player_count":0,"max_players":24,"Bots":0,"server_type":"Dedicated","server_os":"Linux","password":true,"vac":true,"version":"7882260","steam_id":85568392924742828,"keywords":["cp","nocrits","nodmgspread","uncletopia"],"game_id":440,"stv_port":27086,"stv_name":"Uncletopia | Frankfurt | 8 | Community | STV","players":null},{"server_id":202,"name":"Uncletopia | Hong Kong | 1 | All Maps","name_short":"hgk-1","host":"hgk-1.hk.uncletopia.com","port":27015,"enabled":true,"region":"asia","cc":"hk","latitude":22.302711,"longitude":114.177216,"reserved":0,"last_update":"0001-01-01T00:00:00Z","name_a2s":"Uncletopia | Hong Kong | 1 | All Maps","protocol":17,"map":"pl_thundermountain","folder":"tf","game":"Team Fortress","app_id":440,"player_count":24,"max_players":24,"Bots":0,"server_type":"Dedicated","server_os":"Linux","password":true,"vac":true,"version":"7882260","steam_id":85568392924494504,"keywords":["nocrits","nodmgspread","payload","uncletopia"],"game_id":440,"stv_port":27016,"stv_name":"Uncletopia | Hong Kong | 1 | All Maps | STV","players":[{"user_id":153,"name":"Lelouch","steam_id":76561198828840546,"connected_time":560000000000,"state":"active","ping":75},{"user_id":154,"name":"帕","steam_id":76561198439343999,"connected_time":559000000000,"state":"active","ping":139},{"user_id":155,"name":"get that thong out yo bussy","steam_id":76561199080667060,"connected_time":552000000000,"state":"active","ping":73},{"user_id":137,"name":"water tastes good","steam_id":76561199375947670,"connected_time":3628000000000,"state":"active","ping":65},{"user_id":144,"name":"E","steam_id":76561199173781370,"connected_time":1329000000000,"state":"active","ping":99},{"user_id":96,"name":"Wattason22542","steam_id":76561198239125304,"connected_time":7297000000000,"state":"active","ping":94},{"user_id":161,"name":"Kiss-Shot","steam_id":76561198110518729,"connected_time":221000000000,"state":"active","ping":96},{"user_id":136,"name":"Koki","steam_id":76561198112004858,"connected_time":3760000000000,"state":"active","ping":103},{"user_id":112,"name":"TomCat","steam_id":76561198133744053,"connected_time":6314000000000,"state":"active","ping":116},{"user_id":39,"name":"JDSFE","steam_id":76561198975490851,"connected_time":13131000000000,"state":"active","ping":110},{"user_id":156,"name":"Air Peanut","steam_id":76561198060068000,"connected_time":542000000000,"state":"active","ping":75},{"user_id":122,"name":"Buttman","steam_id":76561198044693388,"connected_time":5774000000000,"state":"active","ping":53},{"user_id":158,"name":"ArcticDolphin","steam_id":76561198203626319,"connected_time":420000000000,"state":"active","ping":132},{"user_id":66,"name":"P","steam_id":76561198304514505,"connected_time":11097000000000,"state":"active","ping":80},{"user_id":159,"name":"booty cheeks xd","steam_id":76561198324008555,"connected_time":357000000000,"state":"active","ping":53},{"user_id":139,"name":"nyakky","steam_id":76561198927779787,"connected_time":2383000000000,"state":"active","ping":90},{"user_id":129,"name":"Stupid B","steam_id":76561198131423270,"connected_time":3980000000000,"state":"active","ping":126},{"user_id":145,"name":"ba t","steam_id":76561198379597982,"connected_time":932000000000,"state":"active","ping":175},{"user_id":118,"name":"screaming sniper","steam_id":76561199085568674,"connected_time":6034000000000,"state":"active","ping":87},{"user_id":117,"name":"corpse_cadaver","steam_id":76561199225360457,"connected_time":6119000000000,"state":"active","ping":72},{"user_id":127,"name":"Jumanji™","steam_id":76561198431664383,"connected_time":4967000000000,"state":"active","ping":70},{"user_id":152,"name":"NOPE","steam_id":76561199244543572,"connected_time":582000000000,"state":"active","ping":73},{"user_id":149,"name":"Aman","steam_id":76561198819477083,"connected_time":597000000000,"state":"active","ping":152},{"user_id":111,"name":"silverhouse7","steam_id":76561198349634906,"connected_time":6344000000000,"state":"active","ping":99}]},{"server_id":1,"name":"Uncletopia | Los Angeles | 1 | All Maps","name_short":"lax-1","host":"lax-1.us.uncletopia.com","port":27015,"enabled":true,"region":"us-west","cc":"us","latitude":33.94279,"longitude":-118.41004,"reserved":0,"last_update":"0001-01-01T00:00:00Z","name_a2s":"Uncletopia | Los Angeles | 1 | All Maps","protocol":17,"map":"cp_sunshine","folder":"tf","game":"Team Fortress","app_id":440,"player_count":14,"max_players":24,"Bots":0,"server_type":"Dedicated","server_os":"Linux","password":true,"vac":true,"version":"7882260","steam_id":85568392924469991,"keywords":["cp","nocrits","nodmgspread","uncletopia"],"game_id":440,"stv_port":27016,"stv_name":"Uncletopia | Los Angeles | 1 | All Maps | STV","players":[{"user_id":686,"name":"TractorKid45","steam_id":76561198087472085,"connected_time":6161000000000,"state":"active","ping":45},{"user_id":691,"name":"Mr Baseball","steam_id":76561198960521363,"connected_time":5290000000000,"state":"active","ping":72},{"user_id":704,"name":"The premium licking experience","steam_id":76561199213456232,"connected_time":3872000000000,"state":"active","ping":49},{"user_id":750,"name":"hugpuppy","steam_id":76561199195805208,"connected_time":682000000000,"state":"active","ping":60},{"user_id":736,"name":"ZahkRee","steam_id":76561197993651016,"connected_time":1260000000000,"state":"active","ping":66},{"user_id":737,"name":"Genius Meme","steam_id":76561198162911254,"connected_time":1260000000000,"state":"active","ping":69},{"user_id":729,"name":"Rusty","steam_id":76561198055585129,"connected_time":2065000000000,"state":"active","ping":74},{"user_id":741,"name":"squash","steam_id":76561198150281353,"connected_time":1162000000000,"state":"active","ping":75},{"user_id":742,"name":"Deacon","steam_id":76561197998532724,"connected_time":1157000000000,"state":"active","ping":84},{"user_id":753,"name":"nothing personal","steam_id":76561199163838005,"connected_time":537000000000,"state":"active","ping":87},{"user_id":717,"name":"CACTUS","steam_id":76561198327863229,"connected_time":3056000000000,"state":"active","ping":86},{"user_id":755,"name":"Mona","steam_id":76561198144338191,"connected_time":454000000000,"state":"active","ping":49},{"user_id":734,"name":"Vandhoming","steam_id":76561198183775386,"connected_time":1545000000000,"state":"active","ping":87},{"user_id":712,"name":"charley","steam_id":76561198828238339,"connected_time":3715000000000,"state":"active","ping":76}]},{"server_id":112,"name":"Uncletopia | Los Angeles | 2 | All Maps","name_short":"lax-2","host":"lax-1.us.uncletopia.com","port":27025,"enabled":true,"region":"us-west","cc":"us","latitude":33.94279,"longitude":-118.41004,"reserved":0,"last_update":"0001-01-01T00:00:00Z","name_a2s":"Uncletopia | Los Angeles | 2 | All Maps","protocol":17,"map":"cp_sunshine","folder":"tf","game":"Team Fortress","app_id":440,"player_count":24,"max_players":24,"Bots":0,"server_type":"Dedicated","server_os":"Linux","password":true,"vac":true,"version":"7882260","steam_id":85568392924469992,"keywords":["cp","nocrits","nodmgspread","uncletopia"],"game_id":440,"stv_port":27026,"stv_name":"Uncletopia | Los Angeles | 2 | All Maps | STV","players":[{"user_id":706,"name":"SolarusD","steam_id":76561198029279861,"connected_time":3358000000000,"state":"active","ping":57},{"user_id":748,"name":"Frank Accardi","steam_id":76561198017275707,"connected_time":690000000000,"state":"active","ping":65},{"user_id":742,"name":"AtomSQRRL","steam_id":76561199151951364,"connected_time":1281000000000,"state":"active","ping":56},{"user_id":747,"name":"Coco_snickerdoodle","steam_id":76561198273373729,"connected_time":778000000000,"state":"active","ping":60},{"user_id":652,"name":"Lambchop","steam_id":76561198043900363,"connected_time":5438000000000,"state":"active","ping":60},{"user_id":746,"name":"ErrorrXCodee","steam_id":76561199160213750,"connected_time":1006000000000,"state":"active","ping":259},{"user_id":620,"name":"bad spy player","steam_id":76561198873699671,"connected_time":7001000000000,"state":"active","ping":84},{"user_id":733,"name":"Adam Levine (Real)","steam_id":76561199199257149,"connected_time":2811000000000,"state":"active","ping":51},{"user_id":723,"name":"GඞMER","steam_id":76561198340389876,"connected_time":3127000000000,"state":"active","ping":55},{"user_id":734,"name":"Star","steam_id":76561198187728043,"connected_time":2538000000000,"state":"active","ping":35},{"user_id":736,"name":"PENGEST","steam_id":76561198202605381,"connected_time":2087000000000,"state":"active","ping":48},{"user_id":716,"name":"NoovaDT","steam_id":76561198369784242,"connected_time":3232000000000,"state":"active","ping":75},{"user_id":749,"name":"bucket'o'racoons","steam_id":76561199086234004,"connected_time":662000000000,"state":"active","ping":59},{"user_id":751,"name":"Soda","steam_id":76561198219209367,"connected_time":619000000000,"state":"active","ping":50},{"user_id":756,"name":"cheetaz","steam_id":76561198224614084,"connected_time":108000000000,"state":"active","ping":90},{"user_id":743,"name":"Skarp129","steam_id":76561198108679057,"connected_time":1276000000000,"state":"active","ping":46},{"user_id":750,"name":"the biggest bird","steam_id":76561198361999761,"connected_time":651000000000,"state":"active","ping":51},{"user_id":754,"name":"vioxynteris","steam_id":76561198161428666,"connected_time":396000000000,"state":"active","ping":31},{"user_id":589,"name":"SleeplessCollin","steam_id":76561198968140914,"connected_time":9647000000000,"state":"active","ping":81},{"user_id":655,"name":"Natalie (she/her)","steam_id":76561198048848289,"connected_time":5373000000000,"state":"active","ping":58},{"user_id":735,"name":"SleezeBaggerMcSwagger","steam_id":76561198397836238,"connected_time":2419000000000,"state":"active","ping":59},{"user_id":757,"name":"thiccbirb","steam_id":76561198403833291,"connected_time":18000000000,"state":"active","ping":117},{"user_id":720,"name":"I pocket snipers *♥‧₊˚","steam_id":76561198048925904,"connected_time":3177000000000,"state":"active","ping":60},{"user_id":755,"name":"reverie","steam_id":76561198168158637,"connected_time":194000000000,"state":"active","ping":74}]},{"server_id":324,"name":"Uncletopia | Los Angeles | 3 | All Maps","name_short":"lax-3","host":"lax-1.us.uncletopia.com","port":27035,"enabled":true,"region":"us-west","cc":"us","latitude":33.94279,"longitude":-118.41004,"reserved":0,"last_update":"0001-01-01T00:00:00Z","name_a2s":"Uncletopia | Los Angeles | 3 | All Maps","protocol":17,"map":"pl_swiftwater_final1","folder":"tf","game":"Team Fortress","app_id":440,"player_count":22,"max_players":24,"Bots":0,"server_type":"Dedicated","server_os":"Linux","password":true,"vac":true,"version":"7882260","steam_id":85568392924510198,"keywords":["nocrits","nodmgspread","payload","uncletopia"],"game_id":440,"stv_port":27036,"stv_name":"Uncletopia | Los Angeles | 3 | All Maps | STV","players":[{"user_id":710,"name":"LX-24","steam_id":76561198016168993,"connected_time":432000000000,"state":"active","ping":83},{"user_id":694,"name":"Hoxton","steam_id":76561199059733640,"connected_time":2755000000000,"state":"active","ping":56},{"user_id":698,"name":"vern","steam_id":76561198129892148,"connected_time":1602000000000,"state":"active","ping":56},{"user_id":701,"name":"azureglxy","steam_id":76561198861388315,"connected_time":1501000000000,"state":"active","ping":38},{"user_id":715,"name":"Rain","steam_id":76561198065612273,"connected_time":295000000000,"state":"active","ping":71},{"user_id":717,"name":"Dorsal","steam_id":76561198962972285,"connected_time":276000000000,"state":"active","ping":69},{"user_id":600,"name":"bigman1","steam_id":76561198050225055,"connected_time":9829000000000,"state":"active","ping":45},{"user_id":714,"name":"the giggle monkey","steam_id":76561199085304592,"connected_time":299000000000,"state":"active","ping":61},{"user_id":716,"name":"big car","steam_id":76561198067082350,"connected_time":286000000000,"state":"active","ping":52},{"user_id":723,"name":"CPTforever","steam_id":76561198237767198,"connected_time":174000000000,"state":"active","ping":49},{"user_id":658,"name":"MY LEG IS ITCHY BUT I MUST FRAG","steam_id":76561198145669711,"connected_time":4930000000000,"state":"active","ping":42},{"user_id":726,"name":"vanillain","steam_id":76561198058617608,"connected_time":50000000000,"state":"active","ping":49},{"user_id":721,"name":"DoubleCheck","steam_id":76561198105194407,"connected_time":204000000000,"state":"active","ping":89},{"user_id":713,"name":"J","steam_id":76561198267494572,"connected_time":309000000000,"state":"active","ping":70},{"user_id":499,"name":"Neophyte","steam_id":76561198027183394,"connected_time":16732000000000,"state":"active","ping":90},{"user_id":699,"name":"Dingus","steam_id":76561198091720598,"connected_time":1591000000000,"state":"active","ping":66},{"user_id":722,"name":"FI LO","steam_id":76561198976530881,"connected_time":203000000000,"state":"active","ping":29},{"user_id":724,"name":"Taffy","steam_id":76561198276612538,"connected_time":124000000000,"state":"active","ping":57},{"user_id":709,"name":"Currentdoor","steam_id":76561198046681520,"connected_time":730000000000,"state":"active","ping":105},{"user_id":703,"name":"Scorpianswag","steam_id":76561198260651036,"connected_time":1445000000000,"state":"active","ping":44},{"user_id":693,"name":"Pez","steam_id":76561199197778137,"connected_time":2795000000000,"state":"active","ping":70},{"user_id":725,"name":"goongremlin","steam_id":76561198278196215,"connected_time":123000000000,"state":"active","ping":58}]},{"server_id":25,"name":"Uncletopia | Los Angeles | 4 | Stopwatch Beta","name_short":"lax-4","host":"lax-1.us.uncletopia.com","port":27045,"enabled":true,"region":"us-west","cc":"us","latitude":33.94279,"longitude":-118.41004,"reserved":0,"last_update":"0001-01-01T00:00:00Z","name_a2s":"Uncletopia | Los Angeles | 4 | Stopwatch Beta","protocol":17,"map":"workshop/koth_ramjam_rc1.ugc459778887","folder":"tf","game":"Team Fortress","app_id":440,"player_count":0,"max_players":24,"Bots":0,"server_type":"Dedicated","server_os":"Linux","password":true,"vac":true,"version":"7882260","steam_id":85568392924510199,"keywords":["cp","nocrits","nodmgspread","uncletopia"],"game_id":440,"stv_port":27046,"stv_name":"Uncletopia | Los Angeles | 4 | Stopwatch Beta | STV","players":null},{"server_id":11,"name":"Uncletopia | London | 1 | All Maps","name_short":"lon-1","host":"lon-1.uk.uncletopia.com","port":27015,"enabled":true,"region":"eu","cc":"gb","latitude":51.509865,"longitude":-0.118092,"reserved":0,"last_update":"0001-01-01T00:00:00Z","name_a2s":"Uncletopia | London | 1 | All Maps","protocol":17,"map":"pl_frontier_final","folder":"tf","game":"Team Fortress","app_id":440,"player_count":24,"max_players":24,"Bots":0,"server_type":"Dedicated","server_os":"Linux","password":true,"vac":true,"version":"7882260","steam_id":85568392924367362,"keywords":["nocrits","nodmgspread","payload","uncletopia"],"game_id":440,"stv_port":27016,"stv_name":"Uncletopia | London | 1 | All Maps | STV","players":[{"user_id":3,"name":"dorak","steam_id":76561198818037965,"connected_time":6075000000000,"state":"active","ping":106},{"user_id":4,"name":"duplicated","steam_id":76561198344952248,"connected_time":6074000000000,"state":"active","ping":60},{"user_id":5,"name":"vvv","steam_id":76561198129153029,"connected_time":6066000000000,"state":"active","ping":72},{"user_id":75,"name":"benifis163","steam_id":76561198420973492,"connected_time":2175000000000,"state":"active","ping":111},{"user_id":94,"name":"Cookies and Bakies","steam_id":76561198017442928,"connected_time":412000000000,"state":"active","ping":63},{"user_id":79,"name":"beef supreme","steam_id":76561198077662467,"connected_time":1875000000000,"state":"active","ping":172},{"user_id":77,"name":"iIMOFIi","steam_id":76561199000483925,"connected_time":1922000000000,"state":"active","ping":180},{"user_id":10,"name":"regimiro","steam_id":76561198120457008,"connected_time":6061000000000,"state":"active","ping":49},{"user_id":11,"name":"FanFish","steam_id":76561199389558024,"connected_time":6052000000000,"state":"active","ping":75},{"user_id":82,"name":"That_guy","steam_id":76561199191385891,"connected_time":1704000000000,"state":"active","ping":46},{"user_id":56,"name":"Average Sniper Enjoyer","steam_id":76561197965556042,"connected_time":3195000000000,"state":"active","ping":82},{"user_id":95,"name":"Walle","steam_id":76561197995148937,"connected_time":318000000000,"state":"active","ping":75},{"user_id":91,"name":"gexfan3165","steam_id":76561199459414738,"connected_time":594000000000,"state":"active","ping":76},{"user_id":73,"name":"Tortes","steam_id":76561199049185884,"connected_time":2273000000000,"state":"active","ping":105},{"user_id":88,"name":"Bakser Swagger","steam_id":76561198199774646,"connected_time":739000000000,"state":"active","ping":89},{"user_id":83,"name":"goofster","steam_id":76561199052275857,"connected_time":1547000000000,"state":"active","ping":117},{"user_id":46,"name":"Snaky","steam_id":76561199000954430,"connected_time":3868000000000,"state":"active","ping":102},{"user_id":85,"name":"Olaus Maximus","steam_id":76561199008595739,"connected_time":1313000000000,"state":"active","ping":74},{"user_id":66,"name":"ActualCrafty","steam_id":76561199013115780,"connected_time":2801000000000,"state":"active","ping":68},{"user_id":59,"name":"sqomboashous snickerdoodle","steam_id":76561198346001637,"connected_time":3099000000000,"state":"active","ping":159},{"user_id":84,"name":"milof","steam_id":76561198809199604,"connected_time":1545000000000,"state":"active","ping":86},{"user_id":81,"name":"askulap","steam_id":76561197992018795,"connected_time":1849000000000,"state":"active","ping":87},{"user_id":76,"name":"Battle Engineer","steam_id":76561198866730509,"connected_time":2014000000000,"state":"active","ping":109},{"user_id":87,"name":"Emma","steam_id":76561198076724979,"connected_time":1188000000000,"state":"active","ping":62}]},{"server_id":114,"name":"Uncletopia | London | 2 | All Maps","name_short":"lon-2","host":"lon-1.uk.uncletopia.com","port":27025,"enabled":true,"region":"eu","cc":"gb","latitude":51.509865,"longitude":-0.118092,"reserved":0,"last_update":"0001-01-01T00:00:00Z","name_a2s":"Uncletopia | London | 2 | All Maps","protocol":17,"map":"pl_swiftwater_final1","folder":"tf","game":"Team Fortress","app_id":440,"player_count":0,"max_players":24,"Bots":0,"server_type":"Dedicated","server_os":"Linux","password":true,"vac":true,"version":"7882260","steam_id":85568392924470941,"keywords":["nocrits","nodmgspread","payload","uncletopia"],"game_id":440,"stv_port":27026,"stv_name":"Uncletopia | London | 2 | All Maps | STV","players":null},{"server_id":320,"name":"Uncletopia | London | 3 | All Maps","name_short":"lon-3","host":"lon-1.uk.uncletopia.com","port":27035,"enabled":true,"region":"eu","cc":"gb","latitude":51.509865,"longitude":-0.118092,"reserved":0,"last_update":"0001-01-01T00:00:00Z","name_a2s":"Uncletopia | London | 3 | All Maps","protocol":17,"map":"koth_highpass","folder":"tf","game":"Team Fortress","app_id":440,"player_count":0,"max_players":24,"Bots":0,"server_type":"Dedicated","server_os":"Linux","password":true,"vac":true,"version":"7882260","steam_id":85568392924510192,"keywords":["cp","nocrits","nodmgspread","uncletopia"],"game_id":440,"stv_port":27036,"stv_name":"Uncletopia | London | 3 | All Maps | STV","players":null},{"server_id":321,"name":"Uncletopia | London | 4 | All Maps","name_short":"lon-4","host":"lon-1.uk.uncletopia.com","port":27045,"enabled":true,"region":"eu","cc":"gb","latitude":51.509865,"longitude":-0.118092,"reserved":0,"last_update":"0001-01-01T00:00:00Z","name_a2s":"Uncletopia | London | 4 | All Maps","protocol":17,"map":"pl_upward","folder":"tf","game":"Team Fortress","app_id":440,"player_count":0,"max_players":24,"Bots":0,"server_type":"Dedicated","server_os":"Linux","password":true,"vac":true,"version":"7882260","steam_id":85568392924510193,"keywords":["nocrits","nodmgspread","payload","uncletopia"],"game_id":440,"stv_port":27046,"stv_name":"Uncletopia | London | 4 | All Maps | STV","players":null},{"server_id":21,"name":"Uncletopia | London | 5 | All Maps","name_short":"lon-5","host":"lon-1.uk.uncletopia.com","port":27055,"enabled":true,"region":"eu","cc":"gb","latitude":51.509865,"longitude":-0.118092,"reserved":0,"last_update":"0001-01-01T00:00:00Z","name_a2s":"Uncletopia | London | 5 | All Maps","protocol":17,"map":"pl_frontier_final","folder":"tf","game":"Team Fortress","app_id":440,"player_count":0,"max_players":24,"Bots":0,"server_type":"Dedicated","server_os":"Linux","password":true,"vac":true,"version":"7882260","steam_id":85568392924742829,"keywords":["nocrits","nodmgspread","payload","uncletopia"],"game_id":440,"stv_port":27056,"stv_name":"Uncletopia | London | 5 | All Maps | STV","players":null},{"server_id":22,"name":"Uncletopia | London | 6 | All Maps","name_short":"lon-6","host":"lon-1.uk.uncletopia.com","port":27065,"enabled":true,"region":"eu","cc":"gb","latitude":51.509865,"longitude":-0.118092,"reserved":0,"last_update":"0001-01-01T00:00:00Z","name_a2s":"Uncletopia | London | 6 | All Maps","protocol":17,"map":"cp_altitude","folder":"tf","game":"Team Fortress","app_id":440,"player_count":0,"max_players":24,"Bots":0,"server_type":"Dedicated","server_os":"Linux","password":true,"vac":true,"version":"7882260","steam_id":85568392924742830,"keywords":["cp","nocrits","nodmgspread","uncletopia"],"game_id":440,"stv_port":27066,"stv_name":"Uncletopia | London | 6 | All Maps | STV","players":null},{"server_id":40,"name":"Uncletopia | London | 7 | No Payload","name_short":"lon-7","host":"lon-1.uk.uncletopia.com","port":27075,"enabled":true,"region":"eu","cc":"gb","latitude":51.509865,"longitude":-0.118092,"reserved":0,"last_update":"0001-01-01T00:00:00Z","name_a2s":"Uncletopia | London | 7 | No Payload","protocol":17,"map":"pl_pier","folder":"tf","game":"Team Fortress","app_id":440,"player_count":0,"max_players":24,"Bots":0,"server_type":"Dedicated","server_os":"Linux","password":true,"vac":true,"version":"7882260","steam_id":85568392924964314,"keywords":["nocrits","nodmgspread","payload","uncletopia"],"game_id":440,"stv_port":27076,"stv_name":"Uncletopia | London | 7 | No Payload | STV","players":null},{"server_id":41,"name":"Uncletopia | London | 8 | Community","name_short":"lon-8","host":"lon-1.uk.uncletopia.com","port":27085,"enabled":true,"region":"eu","cc":"gb","latitude":51.509865,"longitude":-0.118092,"reserved":0,"last_update":"0001-01-01T00:00:00Z","name_a2s":"Uncletopia | London | 8 | Community","protocol":17,"map":"pl_swiftwater_final1","folder":"tf","game":"Team Fortress","app_id":440,"player_count":0,"max_players":24,"Bots":0,"server_type":"Dedicated","server_os":"Linux","password":true,"vac":true,"version":"7882260","steam_id":85568392924964315,"keywords":["nocrits","nodmgspread","payload","uncletopia"],"game_id":440,"stv_port":27086,"stv_name":"Uncletopia | London | 8 | Community | STV","players":null},{"server_id":300,"name":"Uncletopia | Montréal | 1 | All Maps","name_short":"mtl-1","host":"mtl-1.ca.uncletopia.com","port":27015,"enabled":true,"region":"us-east","cc":"ca","latitude":45.50889,"longitude":-73.56167,"reserved":0,"last_update":"0001-01-01T00:00:00Z","name_a2s":"Uncletopia | Montréal | 1 | All Maps","protocol":17,"map":"koth_highpass","folder":"tf","game":"Team Fortress","app_id":440,"player_count":0,"max_players":24,"Bots":0,"server_type":"Dedicated","server_os":"Linux","password":true,"vac":true,"version":"7882260","steam_id":85568392924500087,"keywords":["cp","nocrits","nodmgspread","uncletopia"],"game_id":440,"stv_port":27016,"stv_name":"Uncletopia | Montréal | 1 | All Maps | STV","players":null},{"server_id":301,"name":"Uncletopia | Montréal | 2 | All Maps","name_short":"mtl-2","host":"mtl-1.ca.uncletopia.com","port":27025,"enabled":true,"region":"us-east","cc":"ca","latitude":45.50889,"longitude":-73.56167,"reserved":0,"last_update":"0001-01-01T00:00:00Z","name_a2s":"Uncletopia | Montréal | 2 | All Maps","protocol":17,"map":"pl_borneo","folder":"tf","game":"Team Fortress","app_id":440,"player_count":0,"max_players":24,"Bots":0,"server_type":"Dedicated","server_os":"Linux","password":true,"vac":true,"version":"7882260","steam_id":85568392924500088,"keywords":["nocrits","nodmgspread","payload","uncletopia"],"game_id":440,"stv_port":27026,"stv_name":"Uncletopia | Montréal | 2 | All Maps | STV","players":null},{"server_id":302,"name":"Uncletopia | Montréal | 3 | All Maps","name_short":"mtl-3","host":"mtl-1.ca.uncletopia.com","port":27035,"enabled":true,"region":"us-east","cc":"ca","latitude":45.50889,"longitude":-73.56167,"reserved":0,"last_update":"0001-01-01T00:00:00Z","name_a2s":"Uncletopia | Montréal | 3 | All Maps","protocol":17,"map":"koth_highpass","folder":"tf","game":"Team Fortress","app_id":440,"player_count":0,"max_players":24,"Bots":0,"server_type":"Dedicated","server_os":"Linux","password":true,"vac":true,"version":"7882260","steam_id":85568392924500089,"keywords":["cp","nocrits","nodmgspread","uncletopia"],"game_id":440,"stv_port":27036,"stv_name":"Uncletopia | Montréal | 3 | All Maps | STV","players":null},{"server_id":303,"name":"Uncletopia | Montréal | 4 | No Payload","name_short":"mtl-4","host":"mtl-1.ca.uncletopia.com","port":27045,"enabled":true,"region":"us-east","cc":"ca","latitude":45.50889,"longitude":-73.56167,"reserved":0,"last_update":"0001-01-01T00:00:00Z","name_a2s":"Uncletopia | Montréal | 4 | No Payload","protocol":17,"map":"koth_harvest_final","folder":"tf","game":"Team Fortress","app_id":440,"player_count":0,"max_players":24,"Bots":0,"server_type":"Dedicated","server_os":"Linux","password":true,"vac":true,"version":"7882260","steam_id":85568392924500090,"keywords":["cp","nocrits","nodmgspread","uncletopia"],"game_id":440,"stv_port":27046,"stv_name":"Uncletopia | Montréal | 4 | No Payload | STV","players":null},{"server_id":13,"name":"Uncletopia | New York City | 1 | All Maps","name_short":"nyc-1","host":"nyc-1.us.uncletopia.com","port":27015,"enabled":true,"region":"us-east","cc":"us","latitude":40.73061,"longitude":-73.93524,"reserved":0,"last_update":"0001-01-01T00:00:00Z","name_a2s":"Uncletopia | New York City | 1 | All Maps","protocol":17,"map":"cp_process_final","folder":"tf","game":"Team Fortress","app_id":440,"player_count":20,"max_players":24,"Bots":0,"server_type":"Dedicated","server_os":"Linux","password":true,"vac":true,"version":"7882260","steam_id":85568392924469993,"keywords":["cp","nocrits","nodmgspread","uncletopia"],"game_id":440,"stv_port":27016,"stv_name":"Uncletopia | New York City | 1 | All Maps | STV","players":[{"user_id":760,"name":"something disturbing","steam_id":76561198044612407,"connected_time":2153000000000,"state":"active","ping":73},{"user_id":697,"name":"Wique","steam_id":76561198071217597,"connected_time":8462000000000,"state":"spawning","ping":278},{"user_id":776,"name":"overlordraiden","steam_id":76561198145269158,"connected_time":65000000000,"state":"active","ping":44},{"user_id":768,"name":"tesagi","steam_id":76561198026664629,"connected_time":1473000000000,"state":"active","ping":37},{"user_id":738,"name":"Sire Salty","steam_id":76561198079639072,"connected_time":3844000000000,"state":"active","ping":50},{"user_id":725,"name":"googy doogy","steam_id":76561199025852100,"connected_time":5388000000000,"state":"active","ping":63},{"user_id":739,"name":"SHADY SWEATER SALESMAN","steam_id":76561198014616865,"connected_time":3835000000000,"state":"active","ping":54},{"user_id":775,"name":"clio","steam_id":76561198141700569,"connected_time":322000000000,"state":"active","ping":54},{"user_id":772,"name":"The Muffin Man","steam_id":76561199088286427,"connected_time":971000000000,"state":"active","ping":108},{"user_id":741,"name":"emseaeye","steam_id":76561198161499803,"connected_time":3776000000000,"state":"active","ping":58},{"user_id":770,"name":"[Machine Girl]","steam_id":76561199229183183,"connected_time":1287000000000,"state":"active","ping":73},{"user_id":774,"name":"Stuid","steam_id":76561199427506542,"connected_time":341000000000,"state":"active","ping":149},{"user_id":765,"name":"Soda Drink Shartblast","steam_id":76561198134187113,"connected_time":1625000000000,"state":"active","ping":62},{"user_id":773,"name":"A B1 Battle Droid","steam_id":76561198050678984,"connected_time":871000000000,"state":"active","ping":166},{"user_id":771,"name":"The Knight","steam_id":76561198055320626,"connected_time":1113000000000,"state":"active","ping":162},{"user_id":753,"name":"Miminkyubus","steam_id":76561198351868860,"connected_time":3336000000000,"state":"active","ping":84},{"user_id":752,"name":"regular_consuelo","steam_id":76561198327831852,"connected_time":3371000000000,"state":"active","ping":51},{"user_id":744,"name":"Qwerty","steam_id":76561198023525894,"connected_time":3737000000000,"state":"active","ping":159},{"user_id":712,"name":"Bigsumoslammer","steam_id":76561198044505076,"connected_time":7568000000000,"state":"active","ping":36},{"user_id":767,"name":"HELLOITSME","steam_id":76561198848631807,"connected_time":1555000000000,"state":"active","ping":44}]},{"server_id":14,"name":"Uncletopia | New York City | 2 | All Maps","name_short":"nyc-2","host":"nyc-1.us.uncletopia.com","port":27025,"enabled":true,"region":"us-east","cc":"us","latitude":40.73061,"longitude":-73.93524,"reserved":0,"last_update":"0001-01-01T00:00:00Z","name_a2s":"Uncletopia | New York City | 2 | All Maps","protocol":17,"map":"plr_hightower","folder":"tf","game":"Team Fortress","app_id":440,"player_count":0,"max_players":24,"Bots":0,"server_type":"Dedicated","server_os":"Linux","password":true,"vac":true,"version":"7882260","steam_id":85568392924469994,"keywords":["nocrits","nodmgspread","payload","uncletopia"],"game_id":440,"stv_port":27026,"stv_name":"Uncletopia | New York City | 2 | All Maps | STV","players":null},{"server_id":15,"name":"Uncletopia | New York City | 3 | Stopwatch Beta","name_short":"nyc-3","host":"nyc-1.us.uncletopia.com","port":27035,"enabled":true,"region":"us-east","cc":"us","latitude":40.73061,"longitude":-73.93524,"reserved":0,"last_update":"0001-01-01T00:00:00Z","name_a2s":"Uncletopia | New York City | 3 | Stopwatch Beta","protocol":17,"map":"workshop/koth_product_final.ugc454272353","folder":"tf","game":"Team Fortress","app_id":440,"player_count":0,"max_players":24,"Bots":0,"server_type":"Dedicated","server_os":"Linux","password":true,"vac":true,"version":"7882260","steam_id":85568392924742820,"keywords":["cp","nocrits","nodmgspread","uncletopia"],"game_id":440,"stv_port":27036,"stv_name":"Uncletopia | New York City | 3 | Stopwatch Beta | STV","players":null},{"server_id":16,"name":"Uncletopia | New York City | 4 | Community","name_short":"nyc-4","host":"nyc-1.us.uncletopia.com","port":27045,"enabled":true,"region":"us-east","cc":"us","latitude":40.73061,"longitude":-73.93524,"reserved":0,"last_update":"0001-01-01T00:00:00Z","name_a2s":"Uncletopia | New York City | 4 | Community","protocol":17,"map":"workshop/koth_ramjam_rc1.ugc459778887","folder":"tf","game":"Team Fortress","app_id":440,"player_count":0,"max_players":24,"Bots":0,"server_type":"Dedicated","server_os":"Linux","password":true,"vac":true,"version":"7882260","steam_id":85568392924742821,"keywords":["cp","nocrits","nodmgspread","uncletopia"],"game_id":440,"stv_port":27046,"stv_name":"Uncletopia | New York City | 4 | Community | STV","players":null},{"server_id":142,"name":"Uncletopia | São Paulo | 1 | All Maps","name_short":"sao-1","host":"sao-1.br.uncletopia.com","port":27015,"enabled":true,"region":"sa","cc":"br","latitude":-23.533773,"longitude":-46.62529,"reserved":0,"last_update":"0001-01-01T00:00:00Z","name_a2s":"Uncletopia | São Paulo | 1 | All Maps","protocol":17,"map":"koth_lakeside_final","folder":"tf","game":"Team Fortress","app_id":440,"player_count":0,"max_players":24,"Bots":0,"server_type":"Dedicated","server_os":"Linux","password":true,"vac":true,"version":"7882260","steam_id":85568392924469996,"keywords":["cp","nocrits","nodmgspread","uncletopia"],"game_id":440,"stv_port":27016,"stv_name":"Uncletopia | São Paulo | 1 | All Maps | STV","players":null},{"server_id":143,"name":"Uncletopia | São Paulo | 2 | All Maps","name_short":"sao-2","host":"sao-2.br.uncletopia.com","port":27015,"enabled":true,"region":"sa","cc":"br","latitude":-23.533773,"longitude":-46.62529,"reserved":0,"last_update":"0001-01-01T00:00:00Z","name_a2s":"Uncletopia | São Paulo | 2 | All Maps","protocol":17,"map":"cp_sunshine","folder":"tf","game":"Team Fortress","app_id":440,"player_count":0,"max_players":24,"Bots":0,"server_type":"Dedicated","server_os":"Linux","password":true,"vac":true,"version":"7882260","steam_id":85568392924485349,"keywords":["cp","nocrits","nodmgspread","uncletopia"],"game_id":440,"stv_port":27016,"stv_name":"Uncletopia | São Paulo | 2 | All Maps | STV","players":null},{"server_id":7,"name":"Uncletopia | Seattle | 1 | All Maps","name_short":"sea-1","host":"sea-1.us.uncletopia.com","port":27015,"enabled":true,"region":"us-west","cc":"us","latitude":47.608013,"longitude":-122.33517,"reserved":0,"last_update":"0001-01-01T00:00:00Z","name_a2s":"Uncletopia | Seattle | 1 | All Maps","protocol":17,"map":"pl_upward","folder":"tf","game":"Team Fortress","app_id":440,"player_count":24,"max_players":24,"Bots":0,"server_type":"Dedicated","server_os":"Linux","password":true,"vac":true,"version":"7882260","steam_id":85568392924469997,"keywords":["nocrits","nodmgspread","payload","uncletopia"],"game_id":440,"stv_port":27016,"stv_name":"Uncletopia | Seattle | 1 | All Maps | STV","players":[{"user_id":780,"name":"makcmik2","steam_id":76561198242544518,"connected_time":788000000000,"state":"active","ping":58},{"user_id":769,"name":"JanPinyon610","steam_id":76561199238454799,"connected_time":1488000000000,"state":"active","ping":51},{"user_id":756,"name":"Simplicity","steam_id":76561198005224796,"connected_time":2207000000000,"state":"active","ping":55},{"user_id":728,"name":"Antzen","steam_id":76561198041343470,"connected_time":4620000000000,"state":"active","ping":60},{"user_id":765,"name":"MyHeadHz","steam_id":76561198090654531,"connected_time":1643000000000,"state":"active","ping":59},{"user_id":742,"name":"The Foolish Samurai","steam_id":76561198094494945,"connected_time":3253000000000,"state":"active","ping":106},{"user_id":766,"name":"crash123","steam_id":76561199054992104,"connected_time":1637000000000,"state":"active","ping":114},{"user_id":778,"name":"mac_cheese","steam_id":76561198071334162,"connected_time":903000000000,"state":"active","ping":45},{"user_id":755,"name":"Wavelengths (they/it)","steam_id":76561197997621320,"connected_time":2311000000000,"state":"active","ping":94},{"user_id":731,"name":"Swiggs","steam_id":76561198135015291,"connected_time":4272000000000,"state":"active","ping":82},{"user_id":764,"name":"Nakasmacka","steam_id":76561198049787270,"connected_time":1691000000000,"state":"active","ping":39},{"user_id":729,"name":"Willy Wonker","steam_id":76561198082944789,"connected_time":4565000000000,"state":"active","ping":81},{"user_id":758,"name":"Tyzombiecrusher","steam_id":76561198175855278,"connected_time":2009000000000,"state":"active","ping":99},{"user_id":781,"name":"Arsonist Goose","steam_id":76561198147441830,"connected_time":730000000000,"state":"active","ping":65},{"user_id":779,"name":"An Old Lady","steam_id":76561198047480318,"connected_time":899000000000,"state":"active","ping":79},{"user_id":737,"name":"Jacobzeba01","steam_id":76561198131808718,"connected_time":3433000000000,"state":"active","ping":63},{"user_id":785,"name":"Gengarfield","steam_id":76561198052506289,"connected_time":540000000000,"state":"active","ping":70},{"user_id":757,"name":"GrACE n' TrUth","steam_id":76561198042919056,"connected_time":2021000000000,"state":"active","ping":71},{"user_id":782,"name":"Not Slavoj Žižek","steam_id":76561198004619616,"connected_time":715000000000,"state":"active","ping":88},{"user_id":783,"name":"Xanathar","steam_id":76561197985749277,"connected_time":687000000000,"state":"active","ping":83},{"user_id":784,"name":"Hezxp","steam_id":76561198312931111,"connected_time":674000000000,"state":"active","ping":82},{"user_id":777,"name":"Monarch of Glass","steam_id":76561198165638237,"connected_time":1003000000000,"state":"active","ping":45},{"user_id":775,"name":"♥haunti","steam_id":76561199235580556,"connected_time":1062000000000,"state":"active","ping":49},{"user_id":773,"name":"Cheezbeargur","steam_id":76561198164702899,"connected_time":1192000000000,"state":"active","ping":64}]},{"server_id":119,"name":"Uncletopia | Seattle | 2 | All Maps","name_short":"sea-2","host":"sea-1.us.uncletopia.com","port":27025,"enabled":true,"region":"us-west","cc":"us","latitude":47.608013,"longitude":-122.33517,"reserved":0,"last_update":"0001-01-01T00:00:00Z","name_a2s":"Uncletopia | Seattle | 2 | All Maps","protocol":17,"map":"pl_barnblitz","folder":"tf","game":"Team Fortress","app_id":440,"player_count":24,"max_players":24,"Bots":0,"server_type":"Dedicated","server_os":"Linux","password":true,"vac":true,"version":"7882260","steam_id":85568392924469998,"keywords":["nocrits","nodmgspread","payload","uncletopia"],"game_id":440,"stv_port":27026,"stv_name":"Uncletopia | Seattle | 2 | All Maps | STV","players":[{"user_id":603,"name":"General Fisticuffs","steam_id":76561198255721392,"connected_time":6679000000000,"state":"active","ping":113},{"user_id":706,"name":"Devorous","steam_id":76561198098418776,"connected_time":505000000000,"state":"active","ping":49},{"user_id":615,"name":"Rocket Drifter","steam_id":76561198046952513,"connected_time":5361000000000,"state":"active","ping":49},{"user_id":708,"name":"shitass (Gungo Gap)","steam_id":76561198210572481,"connected_time":290000000000,"state":"active","ping":75},{"user_id":709,"name":"white obama","steam_id":76561199465040669,"connected_time":249000000000,"state":"active","ping":51},{"user_id":618,"name":"gorlab","steam_id":76561198025089694,"connected_time":5256000000000,"state":"active","ping":60},{"user_id":698,"name":"kwetzal","steam_id":76561198845749671,"connected_time":1680000000000,"state":"active","ping":74},{"user_id":646,"name":"goldhed","steam_id":76561198051751133,"connected_time":3429000000000,"state":"active","ping":54},{"user_id":702,"name":"UnMate","steam_id":76561198999178668,"connected_time":1113000000000,"state":"active","ping":95},{"user_id":613,"name":"› Pavvy","steam_id":76561197998662839,"connected_time":5507000000000,"state":"active","ping":65},{"user_id":692,"name":"CaiGaming","steam_id":76561198313023508,"connected_time":2380000000000,"state":"active","ping":77},{"user_id":696,"name":"Thanks Ants","steam_id":76561197966221018,"connected_time":1923000000000,"state":"active","ping":49},{"user_id":626,"name":"Tibetan Pop Star","steam_id":76561198844903984,"connected_time":5012000000000,"state":"active","ping":86},{"user_id":690,"name":"Dragoninventor (He/Him)","steam_id":76561198956224948,"connected_time":2421000000000,"state":"active","ping":84},{"user_id":691,"name":"ArchmageF","steam_id":76561197992246851,"connected_time":2408000000000,"state":"active","ping":56},{"user_id":710,"name":"Nowhe","steam_id":76561198037483737,"connected_time":205000000000,"state":"active","ping":148},{"user_id":694,"name":"KintegoYT","steam_id":76561199070588910,"connected_time":2210000000000,"state":"active","ping":59},{"user_id":647,"name":"ClosetBotany","steam_id":76561198088324821,"connected_time":3397000000000,"state":"active","ping":59},{"user_id":704,"name":"brobtlcehc","steam_id":76561198043558709,"connected_time":1102000000000,"state":"active","ping":59},{"user_id":705,"name":"Bill from L4D","steam_id":76561198821762699,"connected_time":1099000000000,"state":"active","ping":104},{"user_id":662,"name":"Agent Mania","steam_id":76561198029741272,"connected_time":3035000000000,"state":"active","ping":84},{"user_id":651,"name":"SetMeOnFire","steam_id":76561198286285026,"connected_time":3283000000000,"state":"active","ping":66},{"user_id":599,"name":"Your eggs are reasonably firm","steam_id":76561198112211345,"connected_time":6792000000000,"state":"active","ping":60},{"user_id":608,"name":"SvicidalBug","steam_id":76561198221390504,"connected_time":6485000000000,"state":"active","ping":62}]},{"server_id":406,"name":"Uncletopia | Seattle | 3 | Stopwatch Beta","name_short":"sea-3","host":"sea-1.us.uncletopia.com","port":27035,"enabled":true,"region":"us-west","cc":"us","latitude":47.608013,"longitude":-122.33517,"reserved":0,"last_update":"0001-01-01T00:00:00Z","name_a2s":"Uncletopia | Seattle | 3 | Stopwatch Beta","protocol":17,"map":"cp_granary","folder":"tf","game":"Team Fortress","app_id":440,"player_count":14,"max_players":24,"Bots":0,"server_type":"Dedicated","server_os":"Linux","password":true,"vac":true,"version":"7882260","steam_id":85568392924515217,"keywords":["cp","nocrits","nodmgspread","uncletopia"],"game_id":440,"stv_port":27036,"stv_name":"Uncletopia | Seattle | 3 | Stopwatch Beta | STV","players":[{"user_id":445,"name":"reiidaya","steam_id":76561198325306660,"connected_time":1436000000000,"state":"active","ping":55},{"user_id":440,"name":"Grungus","steam_id":76561198047700230,"connected_time":1695000000000,"state":"active","ping":68},{"user_id":417,"name":"Goog","steam_id":76561198212777924,"connected_time":2253000000000,"state":"active","ping":74},{"user_id":463,"name":"bennyboy","steam_id":76561198005546941,"connected_time":400000000000,"state":"active","ping":58},{"user_id":466,"name":"CatLike Pigeon","steam_id":76561198171716030,"connected_time":302000000000,"state":"active","ping":101},{"user_id":418,"name":"Monkey Gaming","steam_id":76561198232461944,"connected_time":2246000000000,"state":"active","ping":72},{"user_id":461,"name":"Scootywins","steam_id":76561198043787800,"connected_time":497000000000,"state":"active","ping":54},{"user_id":300,"name":"Giselle","steam_id":76561198162593640,"connected_time":10197000000000,"state":"active","ping":117},{"user_id":469,"name":"N00ne","steam_id":76561198135767749,"connected_time":182000000000,"state":"active","ping":145},{"user_id":470,"name":"Süper_Monke","steam_id":76561199200731244,"connected_time":63000000000,"state":"active","ping":260},{"user_id":468,"name":"Chilihuahua","steam_id":76561198004929152,"connected_time":261000000000,"state":"active","ping":80},{"user_id":363,"name":"Hindmost","steam_id":76561199081837220,"connected_time":6342000000000,"state":"active","ping":110},{"user_id":437,"name":"Gm_Trash","steam_id":76561199445091548,"connected_time":1852000000000,"state":"active","ping":61},{"user_id":420,"name":"WhaleFlour","steam_id":76561198355432273,"connected_time":2238000000000,"state":"active","ping":54}]},{"server_id":17,"name":"Uncletopia | San Francisco | 1 | All Maps","name_short":"sfo-1","host":"sfo-1.us.uncletopia.com","port":27015,"enabled":true,"region":"us-west","cc":"us","latitude":37.77397,"longitude":-122.4313,"reserved":0,"last_update":"0001-01-01T00:00:00Z","name_a2s":"Uncletopia | San Francisco | 1 | All Maps","protocol":17,"map":"cp_process_final","folder":"tf","game":"Team Fortress","app_id":440,"player_count":0,"max_players":24,"Bots":0,"server_type":"Dedicated","server_os":"Linux","password":true,"vac":true,"version":"7757534","steam_id":85568392924469999,"keywords":["cp","nocrits","nodmgspread","uncletopia"],"game_id":440,"stv_port":27016,"stv_name":"Uncletopia | San Francisco | 1 | All Maps | STV","players":null},{"server_id":18,"name":"Uncletopia | San Francisco | 2 | All Maps","name_short":"sfo-2","host":"sfo-1.us.uncletopia.com","port":27025,"enabled":true,"region":"us-west","cc":"us","latitude":37.77397,"longitude":-122.4313,"reserved":0,"last_update":"0001-01-01T00:00:00Z","name_a2s":"Uncletopia | San Francisco | 2 | All Maps","protocol":17,"map":"koth_highpass","folder":"tf","game":"Team Fortress","app_id":440,"player_count":0,"max_players":24,"Bots":0,"server_type":"Dedicated","server_os":"Linux","password":true,"vac":true,"version":"7757534","steam_id":85568392924470000,"keywords":["cp","nocrits","nodmgspread","uncletopia"],"game_id":440,"stv_port":27026,"stv_name":"Uncletopia | San Francisco | 2 | All Maps | STV","players":null},{"server_id":19,"name":"Uncletopia | San Francisco | 3 | Stopwatch Beta","name_short":"sfo-3","host":"sfo-1.us.uncletopia.com","port":27035,"enabled":true,"region":"us-west","cc":"us","latitude":37.77397,"longitude":-122.4313,"reserved":0,"last_update":"0001-01-01T00:00:00Z","name_a2s":"Uncletopia | San Francisco | 3 | Stopwatch Beta","protocol":17,"map":"koth_lakeside_final","folder":"tf","game":"Team Fortress","app_id":440,"player_count":0,"max_players":24,"Bots":0,"server_type":"Dedicated","server_os":"Linux","password":true,"vac":true,"version":"7757534","steam_id":85568392924742824,"keywords":["cp","nocrits","nodmgspread","uncletopia"],"game_id":440,"stv_port":27036,"stv_name":"Uncletopia | San Francisco | 3 | Stopwatch Beta | STV","players":null},{"server_id":20,"name":"Uncletopia | San Francisco | 4 | Community","name_short":"sfo-4","host":"sfo-1.us.uncletopia.com","port":27045,"enabled":true,"region":"us-west","cc":"us","latitude":37.77397,"longitude":-122.4313,"reserved":0,"last_update":"0001-01-01T00:00:00Z","name_a2s":"Uncletopia | San Francisco | 4 | Community","protocol":17,"map":"cp_altitude","folder":"tf","game":"Team Fortress","app_id":440,"player_count":0,"max_players":24,"Bots":0,"server_type":"Dedicated","server_os":"Linux","password":true,"vac":true,"version":"7757534","steam_id":85568392924742826,"keywords":["cp","nocrits","nodmgspread","uncletopia"],"game_id":440,"stv_port":27046,"stv_name":"Uncletopia | San Francisco | 4 | Community | STV","players":null},{"server_id":141,"name":"Uncletopia | Sydney | 1 | All Maps","name_short":"syd-1","host":"syd-1.au.uncletopia.com","port":27015,"enabled":true,"region":"au","cc":"au","latitude":-33.865143,"longitude":151.2099,"reserved":0,"last_update":"0001-01-01T00:00:00Z","name_a2s":"Uncletopia | Sydney | 1 | All Maps","protocol":17,"map":"pl_swiftwater_final1","folder":"tf","game":"Team Fortress","app_id":440,"player_count":13,"max_players":24,"Bots":0,"server_type":"Dedicated","server_os":"Linux","password":true,"vac":true,"version":"7882260","steam_id":85568392924470001,"keywords":["nocrits","nodmgspread","payload","uncletopia"],"game_id":440,"stv_port":27016,"stv_name":"Uncletopia | Sydney | 1 | All Maps | STV","players":[{"user_id":328,"name":"Jetfire","steam_id":76561198047370036,"connected_time":112000000000,"state":"active","ping":65},{"user_id":300,"name":"guy who failstabs alot(spy main","steam_id":76561199457260036,"connected_time":2205000000000,"state":"active","ping":173},{"user_id":324,"name":"a nintendo guy","steam_id":76561199258976544,"connected_time":472000000000,"state":"active","ping":66},{"user_id":316,"name":"♠³","steam_id":76561199140616120,"connected_time":881000000000,"state":"active","ping":97},{"user_id":325,"name":"Smart","steam_id":76561199049110927,"connected_time":457000000000,"state":"active","ping":337},{"user_id":315,"name":"primal","steam_id":76561198257852006,"connected_time":938000000000,"state":"active","ping":58},{"user_id":329,"name":"CypressFluff (She/Her)","steam_id":76561198174667818,"connected_time":87000000000,"state":"active","ping":64},{"user_id":330,"name":"FragmantizedLemon","steam_id":76561198313580674,"connected_time":50000000000,"state":"spawning","ping":144},{"user_id":331,"name":"WinterZEKat","steam_id":76561199185917542,"connected_time":17000000000,"state":"spawning","ping":60},{"user_id":322,"name":"Atr0x","steam_id":76561198189587378,"connected_time":627000000000,"state":"active","ping":52},{"user_id":326,"name":"Wisey","steam_id":76561198120829189,"connected_time":226000000000,"state":"active","ping":68},{"user_id":327,"name":"MikkyD","steam_id":76561198043452962,"connected_time":216000000000,"state":"active","ping":66},{"user_id":279,"name":"Muffin","steam_id":76561198075391119,"connected_time":4575000000000,"state":"active","ping":48}]},{"server_id":123,"name":"Uncletopia | Sydney | 2 | All Maps","name_short":"syd-2","host":"syd-1.au.uncletopia.com","port":27025,"enabled":true,"region":"au","cc":"au","latitude":-33.865143,"longitude":151.2099,"reserved":0,"last_update":"0001-01-01T00:00:00Z","name_a2s":"Uncletopia | Sydney | 2 | All Maps","protocol":17,"map":"cp_mountainlab","folder":"tf","game":"Team Fortress","app_id":440,"player_count":23,"max_players":24,"Bots":0,"server_type":"Dedicated","server_os":"Linux","password":true,"vac":true,"version":"7882260","steam_id":85568392924470002,"keywords":["cp","nocrits","nodmgspread","uncletopia"],"game_id":440,"stv_port":27026,"stv_name":"Uncletopia | Sydney | 2 | All Maps | STV","players":[{"user_id":285,"name":"Jodelkönig Franzl Lang","steam_id":76561198007667830,"connected_time":1268000000000,"state":"active","ping":51},{"user_id":304,"name":"DIY Miracle","steam_id":76561198046228152,"connected_time":426000000000,"state":"active","ping":57},{"user_id":215,"name":"Rashid Of The Dank Memes","steam_id":76561198281398078,"connected_time":5238000000000,"state":"active","ping":61},{"user_id":240,"name":"weezer","steam_id":76561199439508788,"connected_time":4342000000000,"state":"active","ping":65},{"user_id":298,"name":"no teles 4 u","steam_id":76561198018478297,"connected_time":795000000000,"state":"active","ping":71},{"user_id":296,"name":"Sexy Turtle","steam_id":76561198256865969,"connected_time":909000000000,"state":"active","ping":41},{"user_id":264,"name":"Jasmine tea enjoyer","steam_id":76561198067733319,"connected_time":2542000000000,"state":"active","ping":69},{"user_id":267,"name":"Diavolo Diablo","steam_id":76561198166295333,"connected_time":2454000000000,"state":"active","ping":156},{"user_id":286,"name":"Leekduck","steam_id":76561198201978381,"connected_time":1266000000000,"state":"active","ping":68},{"user_id":309,"name":"BreadmrBread","steam_id":76561199137624162,"connected_time":255000000000,"state":"active","ping":170},{"user_id":306,"name":"Dipmouse45","steam_id":76561198955576256,"connected_time":344000000000,"state":"active","ping":68},{"user_id":310,"name":"Sweaty nuts","steam_id":76561198106369379,"connected_time":251000000000,"state":"active","ping":93},{"user_id":245,"name":"LightningBlock","steam_id":76561198289997742,"connected_time":3829000000000,"state":"active","ping":38},{"user_id":266,"name":"MrMuffin16","steam_id":76561198257303774,"connected_time":2478000000000,"state":"active","ping":57},{"user_id":290,"name":"tom :D","steam_id":76561198073393715,"connected_time":1080000000000,"state":"active","ping":103},{"user_id":293,"name":"Sentry Gun (EpicGuy4227)","steam_id":76561198094132328,"connected_time":1015000000000,"state":"active","ping":53},{"user_id":291,"name":"durcy","steam_id":76561198049037327,"connected_time":1066000000000,"state":"active","ping":96},{"user_id":303,"name":"mmmmm (microwave)","steam_id":76561198066726621,"connected_time":558000000000,"state":"active","ping":46},{"user_id":313,"name":"coffee_overdose","steam_id":76561199224230453,"connected_time":23000000000,"state":"active","ping":67},{"user_id":249,"name":"Dagon","steam_id":76561198040893665,"connected_time":3679000000000,"state":"active","ping":62},{"user_id":294,"name":"Mizzo","steam_id":76561198070362813,"connected_time":982000000000,"state":"active","ping":110},{"user_id":278,"name":"Chooka","steam_id":76561197992307814,"connected_time":1887000000000,"state":"active","ping":63},{"user_id":276,"name":"come in alone","steam_id":76561199436707447,"connected_time":1975000000000,"state":"active","ping":55}]},{"server_id":395,"name":"Uncletopia | Sydney | 3 | All Maps","name_short":"syd-3","host":"syd-1.au.uncletopia.com","port":27035,"enabled":true,"region":"au","cc":"au","latitude":-33.865143,"longitude":151.2099,"reserved":0,"last_update":"0001-01-01T00:00:00Z","name_a2s":"Uncletopia | Sydney | 3 | All Maps","protocol":17,"map":"koth_cascade","folder":"tf","game":"Team Fortress","app_id":440,"player_count":0,"max_players":24,"Bots":0,"server_type":"Dedicated","server_os":"Linux","password":true,"vac":true,"version":"7882260","steam_id":85568392925194467,"keywords":["cp","nocrits","nodmgspread","uncletopia"],"game_id":440,"stv_port":27036,"stv_name":"Uncletopia | Sydney | 3 | All Maps | STV","players":null},{"server_id":396,"name":"Uncletopia | Sydney | 4 | All Maps","name_short":"syd-4","host":"syd-1.au.uncletopia.com","port":27045,"enabled":true,"region":"au","cc":"au","latitude":-33.865143,"longitude":151.2099,"reserved":0,"last_update":"0001-01-01T00:00:00Z","name_a2s":"Uncletopia | Sydney | 4 | All Maps","protocol":17,"map":"pl_borneo","folder":"tf","game":"Team Fortress","app_id":440,"player_count":0,"max_players":24,"Bots":0,"server_type":"Dedicated","server_os":"Linux","password":true,"vac":true,"version":"7882260","steam_id":85568392925397958,"keywords":["nocrits","nodmgspread","payload","uncletopia"],"game_id":440,"stv_port":27046,"stv_name":"Uncletopia | Sydney | 4 | All Maps | STV","players":null},{"server_id":58,"name":"Uncletopia | Sydney | 5 | Stopwatch Beta","name_short":"syd-5","host":"syd-1.au.uncletopia.com","port":27055,"enabled":true,"region":"au","cc":"au","latitude":-33.865143,"longitude":151.2099,"reserved":0,"last_update":"0001-01-01T00:00:00Z","name_a2s":"Uncletopia | Sydney | 5 | Stopwatch Beta","protocol":17,"map":"cp_snakewater_final1","folder":"tf","game":"Team Fortress","app_id":440,"player_count":0,"max_players":24,"Bots":0,"server_type":"Dedicated","server_os":"Linux","password":true,"vac":true,"version":"7882260","steam_id":85568392925397959,"keywords":["cp","nocrits","nodmgspread","uncletopia"],"game_id":440,"stv_port":27056,"stv_name":"Uncletopia | Sydney | 5 | Stopwatch Beta | STV","players":null},{"server_id":59,"name":"Uncletopia | Sydney | 6 | Community","name_short":"syd-6","host":"syd-1.au.uncletopia.com","port":27065,"enabled":true,"region":"au","cc":"au","latitude":-33.865143,"longitude":151.2099,"reserved":0,"last_update":"0001-01-01T00:00:00Z","name_a2s":"Uncletopia | Sydney | 6 | Community","protocol":17,"map":"workshop/koth_ramjam_rc1.ugc459778887","folder":"tf","game":"Team Fortress","app_id":440,"player_count":0,"max_players":24,"Bots":0,"server_type":"Dedicated","server_os":"Linux","password":true,"vac":true,"version":"7882260","steam_id":85568392925397960,"keywords":["cp","nocrits","nodmgspread","uncletopia"],"game_id":440,"stv_port":27066,"stv_name":"Uncletopia | Sydney | 6 | Community | STV","players":null},{"server_id":49,"name":"Uncletopia | Warsaw | 1 | All Maps","name_short":"waw-1","host":"waw-1.pl.uncletopia.com","port":27015,"enabled":true,"region":"eu","cc":"pl","latitude":52.2297,"longitude":21.017532,"reserved":0,"last_update":"0001-01-01T00:00:00Z","name_a2s":"","protocol":0,"map":"","folder":"","game":"","app_id":0,"player_count":0,"max_players":0,"Bots":0,"server_type":"","server_os":"","password":false,"vac":false,"version":"","steam_id":0,"keywords":null,"game_id":0,"stv_port":0,"stv_name":"","players":null},{"server_id":50,"name":"Uncletopia | Warsaw | 2 | All Maps","name_short":"waw-2","host":"waw-1.pl.uncletopia.com","port":27025,"enabled":true,"region":"eu","cc":"pl","latitude":52.2297,"longitude":21.017532,"reserved":0,"last_update":"0001-01-01T00:00:00Z","name_a2s":"Uncletopia | Warsaw | 2 | All Maps","protocol":17,"map":"pl_swiftwater_final1","folder":"tf","game":"Team Fortress","app_id":440,"player_count":0,"max_players":24,"Bots":0,"server_type":"Dedicated","server_os":"Linux","password":true,"vac":true,"version":"7882260","steam_id":85568392925397851,"keywords":["nocrits","nodmgspread","payload","uncletopia"],"game_id":440,"stv_port":27026,"stv_name":"Uncletopia | Warsaw | 2 | All Maps | STV","players":null},{"server_id":51,"name":"Uncletopia | Warsaw | 3 | All Maps","name_short":"waw-3","host":"waw-1.pl.uncletopia.com","port":27035,"enabled":true,"region":"eu","cc":"pl","latitude":52.2297,"longitude":21.017532,"reserved":0,"last_update":"0001-01-01T00:00:00Z","name_a2s":"Uncletopia | Warsaw | 3 | All Maps","protocol":17,"map":"cp_mountainlab","folder":"tf","game":"Team Fortress","app_id":440,"player_count":0,"max_players":24,"Bots":0,"server_type":"Dedicated","server_os":"Linux","password":true,"vac":true,"version":"7882260","steam_id":85568392925397852,"keywords":["cp","nocrits","nodmgspread","uncletopia"],"game_id":440,"stv_port":27036,"stv_name":"Uncletopia | Warsaw | 3 | All Maps | STV","players":null},{"server_id":52,"name":"Uncletopia | Warsaw | 4 | All Maps","name_short":"waw-4","host":"waw-1.pl.uncletopia.com","port":27045,"enabled":true,"region":"eu","cc":"pl","latitude":52.2297,"longitude":21.017532,"reserved":0,"last_update":"0001-01-01T00:00:00Z","name_a2s":"Uncletopia | Warsaw | 4 | All Maps","protocol":17,"map":"koth_highpass","folder":"tf","game":"Team Fortress","app_id":440,"player_count":0,"max_players":24,"Bots":0,"server_type":"Dedicated","server_os":"Linux","password":true,"vac":true,"version":"7882260","steam_id":85568392925397853,"keywords":["cp","nocrits","nodmgspread","uncletopia"],"game_id":440,"stv_port":27046,"stv_name":"Uncletopia | Warsaw | 4 | All Maps | STV","players":null},{"server_id":53,"name":"Uncletopia | Warsaw | 5 | Stopwatch Beta","name_short":"waw-5","host":"waw-1.pl.uncletopia.com","port":27055,"enabled":true,"region":"eu","cc":"pl","latitude":52.2297,"longitude":21.017532,"reserved":0,"last_update":"0001-01-01T00:00:00Z","name_a2s":"Uncletopia | Warsaw | 5 | Stopwatch Beta","protocol":17,"map":"cp_mountainlab","folder":"tf","game":"Team Fortress","app_id":440,"player_count":0,"max_players":24,"Bots":0,"server_type":"Dedicated","server_os":"Linux","password":true,"vac":true,"version":"7882260","steam_id":85568392925397854,"keywords":["cp","nocrits","nodmgspread","uncletopia"],"game_id":440,"stv_port":27056,"stv_name":"Uncletopia | Warsaw | 5 | Stopwatch Beta | STV","players":null},{"server_id":54,"name":"Uncletopia | Warsaw | 6 | Community","name_short":"waw-6","host":"waw-1.pl.uncletopia.com","port":27065,"enabled":true,"region":"eu","cc":"pl","latitude":52.2297,"longitude":21.017532,"reserved":0,"last_update":"0001-01-01T00:00:00Z","name_a2s":"Uncletopia | Warsaw | 6 | Community","protocol":17,"map":"koth_viaduct","folder":"tf","game":"Team Fortress","app_id":440,"player_count":0,"max_players":24,"Bots":0,"server_type":"Dedicated","server_os":"Linux","password":true,"vac":true,"version":"7882260","steam_id":85568392925397856,"keywords":["cp","nocrits","nodmgspread","uncletopia"],"game_id":440,"stv_port":27066,"stv_name":"Uncletopia | Warsaw | 6 | Community | STV","players":null}]}