{"status":true,"message":"","result":[{"server_id":9,"name":"Uncletopia | Atlanta | 1 | All Maps","name_short":"atl-1","host":"atl-1.us.uncletopia.com","port":27015,"enabled":true,"region":"us-east","cc":"us","latitude":33.753746,"longitude":-84.38633,"reserved":0,"last_update":"0001-01-01T00:00:00Z","name_a2s":"Uncletopia | Atlanta | 1 | All Maps","protocol":17,"map":"pl_thundermountain","folder":"tf","game":"Team Fortress","app_id":440,"player_count":24,"max_players":24,"Bots":0,"server_type":"Dedicated","server_os":"Linux","password":true,"vac":true,"version":"7708610","steam_id":85568392924469982,"keywords":["nocrits","nodmgspread","payload","uncletopia"],"game_id":440,"stv_port":27016,"stv_name":"Uncletopia | Atlanta | 1 | All Maps | STV","players":[{"user_id":318,"name":"Gamnic","steam_id":76561198264963731,"connected_time":975000000000,"state":"active","ping":67},{"user_id":298,"name":"Duncan Idaho","steam_id":76561197988963861,"connected_time":2317000000000,"state":"active","ping":63},{"user_id":299,"name":"Walmart Employee","steam_id":76561198840373909,"connected_time":2292000000000,"state":"active","ping":73},{"user_id":307,"name":"Ether","steam_id":76561198054806528,"connected_time":2052000000000,"state":"active","ping":73},{"user_id":324,"name":"Uung","steam_id":76561198183956731,"connected_time":251000000000,"state":"active","ping":49},{"user_id":266,"name":"GlassesMann","steam_id":76561198970055773,"connected_time":3194000000000,"state":"active","ping":45},{"user_id":322,"name":"hoboways","steam_id":76561198168035195,"connected_time":493000000000,"state":"active","ping":88},{"user_id":236,"name":"Nyle","steam_id":76561198045652639,"connected_time":5677000000000,"state":"active","ping":114},{"user_id":328,"name":"ATL1 | Dec the halls","steam_id":76561199045608372,"connected_time":2000000000,"state":"spawning","ping":98},{"user_id":172,"name":"sansa musa","steam_id":76561198163723555,"connected_time":8415000000000,"state":"active","ping":75},{"user_id":316,"name":"ATL1 | Crystron","steam_id":76561198880437428,"connected_time":1312000000000,"state":"active","ping":84},{"user_id":267,"name":"Mr.Oxiclean","steam_id":76561198144729009,"connected_time":3151000000000,"state":"active","ping":56},{"user_id":310,"name":"Pills","steam_id":76561198799440163,"connected_time":1716000000000,"state":"active","ping":90},{"user_id":320,"name":"[slug]","steam_id":76561197989592178,"connected_time":623000000000,"state":"active","ping":93},{"user_id":302,"name":"Loogey03","steam_id":76561198155483586,"connected_time":2254000000000,"state":"active","ping":69},{"user_id":321,"name":"Lusa","steam_id":76561199435564731,"connected_time":595000000000,"state":"active","ping":187},{"user_id":313,"name":"Aniz","steam_id":76561199226665024,"connected_time":1557000000000,"state":"active","ping":153},{"user_id":319,"name":"Oakspace_","steam_id":76561198132487015,"connected_time":719000000000,"state":"active","ping":80},{"user_id":326,"name":"BojackWojack","steam_id":76561198422425920,"connected_time":229000000000,"state":"active","ping":67},{"user_id":323,"name":"carrion goat","steam_id":76561198262064871,"connected_time":306000000000,"state":"active","ping":61},{"user_id":297,"name":"cola","steam_id":76561198374390458,"connected_time":2328000000000,"state":"active","ping":58},{"user_id":274,"name":"Dr. Large","steam_id":76561198114236108,"connected_time":2946000000000,"state":"active","ping":50},{"user_id":327,"name":"barry from jetpack joyride","steam_id":76561198881575174,"connected_time":28000000000,"state":"spawning","ping":196},{"user_id":296,"name":"rare","steam_id":76561198323980839,"connected_time":2345000000000,"state":"active","ping":77}]},{"server_id":400,"name":"Uncletopia | Atlanta | 3 | All Maps","name_short":"atl-3","host":"atl-1.us.uncletopia.com","port":27035,"enabled":true,"region":"us-east","cc":"us","latitude":33.753746,"longitude":-84.38633,"reserved":0,"last_update":"0001-01-01T00:00:00Z","name_a2s":"Uncletopia | Atlanta | 3 | All Maps","protocol":17,"map":"cp_snakewater_final1","folder":"tf","game":"Team Fortress","app_id":440,"player_count":0,"max_players":24,"Bots":0,"server_type":"Dedicated","server_os":"Linux","password":true,"vac":true,"version":"7708610","steam_id":85568392924515187,"keywords":["cp","nocrits","nodmgspread","uncletopia"],"game_id":440,"stv_port":27036,"stv_name":"Uncletopia | Atlanta | 3 | All Maps | STV","players":null},{"server_id":401,"name":"Uncletopia | Atlanta | 4 | No Payload","name_short":"atl-4","host":"atl-1.us.uncletopia.com","port":27045,"enabled":true,"region":"us-east","cc":"us","latitude":33.753746,"longitude":-84.38633,"reserved":0,"last_update":"0001-01-01T00:00:00Z","name_a2s":"Uncletopia | Atlanta | 4 | No Payload","protocol":17,"map":"pl_snowycoast","folder":"tf","game":"Team Fortress","app_id":440,"player_count":0,"max_players":24,"Bots":0,"server_type":"Dedicated","server_os":"Linux","password":true,"vac":true,"version":"7708610","steam_id":85568392924515188,"keywords":["nocrits","nodmgspread","payload","uncletopia"],"game_id":440,"stv_port":27046,"stv_name":"Uncletopia | Atlanta | 4 | No Payload | STV","players":null},{"server_id":2,"name":"Uncletopia | Chicago | 1 | All Maps","name_short":"chi-1","host":"chi-1.us.uncletopia.com","port":27015,"enabled":true,"region":"us-central","cc":"us","latitude":41.881832,"longitude":-87.62318,"reserved":0,"last_update":"0001-01-01T00:00:00Z","name_a2s":"Uncletopia | Chicago | 1 | All Maps","protocol":17,"map":"pl_goldrush","folder":"tf","game":"Team Fortress","app_id":440,"player_count":24,"max_players":24,"Bots":0,"server_type":"Dedicated","server_os":"Linux","password":true,"vac":true,"version":"7708610","steam_id":85568392924469984,"keywords":["nocrits","nodmgspread","payload","uncletopia"],"game_id":440,"stv_port":27016,"stv_name":"Uncletopia | Chicago | 1 | All Maps | STV","players":[{"user_id":174,"name":"earthbound393","steam_id":76561199444276547,"connected_time":263000000000,"state":"active","ping":161},{"user_id":172,"name":"Klip","steam_id":76561198316254429,"connected_time":338000000000,"state":"active","ping":81},{"user_id":159,"name":"Sh3ba Spaniel","steam_id":76561198047412394,"connected_time":1132000000000,"state":"active","ping":68},{"user_id":155,"name":"erivez77","steam_id":76561199054409738,"connected_time":1289000000000,"state":"active","ping":115},{"user_id":110,"name":"Phroliax","steam_id":76561198207075529,"connected_time":3056000000000,"state":"active","ping":99},{"user_id":156,"name":"IGotTheLettuce","steam_id":76561198062473897,"connected_time":1265000000000,"state":"active","ping":80},{"user_id":173,"name":"kirby7","steam_id":76561199167006749,"connected_time":290000000000,"state":"active","ping":128},{"user_id":168,"name":"Jeffenthropus","steam_id":76561198134204248,"connected_time":545000000000,"state":"active","ping":72},{"user_id":180,"name":"Sicko Mode (Chris Pratt Cover)","steam_id":76561198315786174,"connected_time":175000000000,"state":"active","ping":168},{"user_id":104,"name":"A Pyro Main","steam_id":76561198421760112,"connected_time":3504000000000,"state":"active","ping":48},{"user_id":175,"name":"Le0901","steam_id":76561198372891244,"connected_time":263000000000,"state":"active","ping":94},{"user_id":164,"name":"Mr.CoreyTubbz","steam_id":76561198109067617,"connected_time":859000000000,"state":"active","ping":78},{"user_id":148,"name":"Goob","steam_id":76561198326469586,"connected_time":1795000000000,"state":"active","ping":83},{"user_id":151,"name":"The Sinister Potion","steam_id":76561198131280715,"connected_time":1573000000000,"state":"active","ping":68},{"user_id":179,"name":"ඞ","steam_id":76561198212111977,"connected_time":205000000000,"state":"active","ping":107},{"user_id":177,"name":"Bogg","steam_id":76561198111417325,"connected_time":228000000000,"state":"active","ping":59},{"user_id":182,"name":"Extract","steam_id":76561198192277113,"connected_time":106000000000,"state":"active","ping":87},{"user_id":167,"name":"Quantify45","steam_id":76561198044400135,"connected_time":632000000000,"state":"active","ping":104},{"user_id":170,"name":"ChozoChorizo","steam_id":76561198272609196,"connected_time":457000000000,"state":"active","ping":83},{"user_id":178,"name":"Spain Without The N","steam_id":76561198851536991,"connected_time":215000000000,"state":"active","ping":105},{"user_id":109,"name":"RawLawson","steam_id":76561198398752800,"connected_time":3086000000000,"state":"active","ping":74},{"user_id":166,"name":"Dragoon","steam_id":76561198143785423,"connected_time":690000000000,"state":"active","ping":87},{"user_id":181,"name":"s.Twig™","steam_id":76561198070138375,"connected_time":170000000000,"state":"active","ping":51},{"user_id":144,"name":"Sulfolobus solfataricus","steam_id":76561197990989868,"connected_time":1914000000000,"state":"active","ping":74}]},{"server_id":106,"name":"Uncletopia | Chicago | 2 | All Maps","name_short":"chi-2","host":"chi-1.us.uncletopia.com","port":27025,"enabled":true,"region":"us-central","cc":"us","latitude":41.881832,"longitude":-87.62318,"reserved":0,"last_update":"0001-01-01T00:00:00Z","name_a2s":"Uncletopia | Chicago | 2 | All Maps","protocol":17,"map":"pl_badwater","folder":"tf","game":"Team Fortress","app_id":440,"player_count":24,"max_players":24,"Bots":0,"server_type":"Dedicated","server_os":"Linux","password":true,"vac":true,"version":"7708610","steam_id":85568392924469985,"keywords":["nocrits","nodmgspread","payload","uncletopia"],"game_id":440,"stv_port":27026,"stv_name":"Uncletopia | Chicago | 2 | All Maps | STV","players":[{"user_id":7,"name":"Rornir","steam_id":76561198081829615,"connected_time":5937000000000,"state":"active","ping":33},{"user_id":136,"name":"Olitude","steam_id":76561199238964574,"connected_time":120000000000,"state":"active","ping":68},{"user_id":85,"name":"Gerald Jay Sussman","steam_id":76561198114515026,"connected_time":1932000000000,"state":"active","ping":53},{"user_id":99,"name":"Dictatorial Karelian","steam_id":76561198196736457,"connected_time":1022000000000,"state":"active","ping":150},{"user_id":137,"name":"Regi","steam_id":76561198271508598,"connected_time":120000000000,"state":"active","ping":58},{"user_id":12,"name":"PeptoBismol135","steam_id":76561198135387121,"connected_time":5633000000000,"state":"active","ping":70},{"user_id":95,"name":"Slondermin","steam_id":76561198320301349,"connected_time":1343000000000,"state":"active","ping":75},{"user_id":59,"name":"McNamJam","steam_id":76561198028128686,"connected_time":3628000000000,"state":"active","ping":93},{"user_id":97,"name":"asfd","steam_id":76561198012566405,"connected_time":1086000000000,"state":"active","ping":61},{"user_id":133,"name":"papa","steam_id":76561198109308860,"connected_time":228000000000,"state":"active","ping":65},{"user_id":144,"name":"Mikael_01","steam_id":76561199080253129,"connected_time":40000000000,"state":"active","ping":182},{"user_id":100,"name":"SubWay #SaveTf2","steam_id":76561198336722096,"connected_time":1020000000000,"state":"active","ping":85},{"user_id":135,"name":"El mono sucio","steam_id":76561198080054116,"connected_time":213000000000,"state":"active","ping":65},{"user_id":102,"name":"Sigiferd","steam_id":76561198148788110,"connected_time":910000000000,"state":"active","ping":123},{"user_id":134,"name":"weed eater","steam_id":76561198121871878,"connected_time":218000000000,"state":"active","ping":75},{"user_id":87,"name":"Huntib01","steam_id":76561199084860565,"connected_time":1821000000000,"state":"active","ping":56},{"user_id":139,"name":"SlimGrady","steam_id":76561198451231329,"connected_time":88000000000,"state":"active","ping":60},{"user_id":140,"name":"ryce","steam_id":76561198114572309,"connected_time":88000000000,"state":"active","ping":78},{"user_id":104,"name":"FireQuiz","steam_id":76561198107357249,"connected_time":843000000000,"state":"active","ping":104},{"user_id":141,"name":"Halcyon","steam_id":76561197999409268,"connected_time":71000000000,"state":"spawning","ping":83},{"user_id":142,"name":"sisto majesto","steam_id":76561198073532776,"connected_time":68000000000,"state":"active","ping":233},{"user_id":108,"name":"do you remember poptropica?","steam_id":76561199025227085,"connected_time":681000000000,"state":"active","ping":60},{"user_id":68,"name":"William Wallace","steam_id":76561199343316814,"connected_time":3252000000000,"state":"active","ping":70},{"user_id":143,"name":"?","steam_id":76561199116413509,"connected_time":53000000000,"state":"active","ping":167}]},{"server_id":402,"name":"Uncletopia | Chicago | 3 | All Maps","name_short":"chi-3","host":"chi-1.us.uncletopia.com","port":27035,"enabled":true,"region":"us-central","cc":"us","latitude":41.881832,"longitude":-87.62318,"reserved":0,"last_update":"0001-01-01T00:00:00Z","name_a2s":"Uncletopia | Chicago | 3 | All Maps","protocol":17,"map":"pl_upward","folder":"tf","game":"Team Fortress","app_id":440,"player_count":24,"max_players":24,"Bots":0,"server_type":"Dedicated","server_os":"Linux","password":true,"vac":true,"version":"7708610","steam_id":85568392924515191,"keywords":["nocrits","nodmgspread","payload","uncletopia"],"game_id":440,"stv_port":27036,"stv_name":"Uncletopia | Chicago | 3 | All Maps | STV","players":[{"user_id":347,"name":"Kleine","steam_id":76561198042556857,"connected_time":2209000000000,"state":"active","ping":49},{"user_id":372,"name":"Diesel","steam_id":76561198448815852,"connected_time":314000000000,"state":"active","ping":89},{"user_id":371,"name":"Im already Tarcer","steam_id":76561198256886614,"connected_time":344000000000,"state":"active","ping":90},{"user_id":360,"name":"Kritzburgh","steam_id":76561198149466938,"connected_time":1272000000000,"state":"active","ping":67},{"user_id":368,"name":"懐かしい","steam_id":76561198153500627,"connected_time":530000000000,"state":"active","ping":62},{"user_id":362,"name":"BOTBOT","steam_id":76561198271928618,"connected_time":1077000000000,"state":"active","ping":92},{"user_id":340,"name":"Mythical Lag","steam_id":76561198347031281,"connected_time":2764000000000,"state":"active","ping":72},{"user_id":369,"name":"wile","steam_id":76561198125261443,"connected_time":353000000000,"state":"active","ping":102},{"user_id":366,"name":"Pennis the Menace","steam_id":76561198254878037,"connected_time":960000000000,"state":"active","ping":72},{"user_id":365,"name":"Volkan","steam_id":76561198401314312,"connected_time":1004000000000,"state":"active","ping":112},{"user_id":359,"name":"Vox Vulpera","steam_id":76561198796227041,"connected_time":1319000000000,"state":"active","ping":64},{"user_id":342,"name":"SouerLuigi","steam_id":76561198261896480,"connected_time":2709000000000,"state":"active","ping":68},{"user_id":330,"name":"battle clown","steam_id":76561198045788371,"connected_time":3707000000000,"state":"active","ping":64},{"user_id":346,"name":"Nefy","steam_id":76561198030017316,"connected_time":2252000000000,"state":"active","ping":68},{"user_id":272,"name":"I_Am_Lazy","steam_id":76561199030283067,"connected_time":6737000000000,"state":"active","ping":83},{"user_id":352,"name":"joey","steam_id":76561198841173082,"connected_time":1688000000000,"state":"active","ping":99},{"user_id":353,"name":"Dewgong (real)","steam_id":76561198045999391,"connected_time":1685000000000,"state":"active","ping":80},{"user_id":335,"name":"Mason","steam_id":76561198125358775,"connected_time":3104000000000,"state":"active","ping":106},{"user_id":370,"name":"LocaKola","steam_id":76561198173435430,"connected_time":353000000000,"state":"active","ping":64},{"user_id":373,"name":"HellRaiser","steam_id":76561199051660033,"connected_time":293000000000,"state":"active","ping":67},{"user_id":313,"name":"jan kili","steam_id":76561198289894834,"connected_time":4409000000000,"state":"active","ping":76},{"user_id":354,"name":"Snake Handler","steam_id":76561198027198306,"connected_time":1655000000000,"state":"active","ping":52},{"user_id":325,"name":"Wilhelmktx","steam_id":76561198158102295,"connected_time":3858000000000,"state":"active","ping":54},{"user_id":334,"name":"catgirl giantess in heat","steam_id":76561198439042583,"connected_time":3118000000000,"state":"active","ping":87}]},{"server_id":403,"name":"Uncletopia | Chicago | 4 | All Maps","name_short":"chi-4","host":"chi-1.us.uncletopia.com","port":27045,"enabled":true,"region":"us-central","cc":"us","latitude":41.881832,"longitude":-87.62318,"reserved":0,"last_update":"0001-01-01T00:00:00Z","name_a2s":"Uncletopia | Chicago | 4 | All Maps","protocol":17,"map":"ctf_turbine","folder":"tf","game":"Team Fortress","app_id":440,"player_count":5,"max_players":24,"Bots":0,"server_type":"Dedicated","server_os":"Linux","password":true,"vac":true,"version":"7708610","steam_id":85568392924515193,"keywords":["ctf","nocrits","nodmgspread","uncletopia"],"game_id":440,"stv_port":27046,"stv_name":"Uncletopia | Chicago | 4 | All Maps | STV","players":[{"user_id":70,"name":"Nexo Fighter","steam_id":76561199187418090,"connected_time":505000000000,"state":"active","ping":196},{"user_id":74,"name":"Themarinaraman","steam_id":76561198819873321,"connected_time":379000000000,"state":"active","ping":77},{"user_id":16,"name":"neptune","steam_id":76561198383404869,"connected_time":5323000000000,"state":"active","ping":115},{"user_id":56,"name":"Big Tobacco","steam_id":76561198130165656,"connected_time":1949000000000,"state":"active","ping":52},{"user_id":51,"name":"Dr. Birb","steam_id":76561198141939154,"connected_time":2578000000000,"state":"active","ping":85}]},{"server_id":36,"name":"Uncletopia | Chicago | 5 | All Maps","name_short":"chi-5","host":"chi-2.us.uncletopia.com","port":27015,"enabled":true,"region":"us-central","cc":"us","latitude":41.881832,"longitude":-87.62318,"reserved":0,"last_update":"0001-01-01T00:00:00Z","name_a2s":"Uncletopia | Chicago | 5 | All Maps","protocol":17,"map":"pl_swiftwater_final1","folder":"tf","game":"Team Fortress","app_id":440,"player_count":0,"max_players":24,"Bots":0,"server_type":"Dedicated","server_os":"Linux","password":true,"vac":true,"version":"7708610","steam_id":85568392924866362,"keywords":["nocrits","nodmgspread","payload","uncletopia"],"game_id":440,"stv_port":27016,"stv_name":"Uncletopia | Chicago | 5 | All Maps | STV","players":null},{"server_id":37,"name":"Uncletopia | Chicago | 6 | All Maps","name_short":"chi-6","host":"chi-2.us.uncletopia.com","port":27025,"enabled":true,"region":"us-central","cc":"us","latitude":41.881832,"longitude":-87.62318,"reserved":0,"last_update":"0001-01-01T00:00:00Z","name_a2s":"Uncletopia | Chicago | 6 | All Maps","protocol":17,"map":"koth_viaduct","folder":"tf","game":"Team Fortress","app_id":440,"player_count":0,"max_players":24,"Bots":0,"server_type":"Dedicated","server_os":"Linux","password":true,"vac":true,"version":"7708610","steam_id":85568392924866363,"keywords":["cp","nocrits","nodmgspread","uncletopia"],"game_id":440,"stv_port":27026,"stv_name":"Uncletopia | Chicago | 6 | All Maps | STV","players":null},{"server_id":38,"name":"Uncletopia | Chicago | 7 | Stopwatch (test)","name_short":"chi-7","host":"chi-2.us.uncletopia.com","port":27035,"enabled":true,"region":"us-central","cc":"us","latitude":41.881832,"longitude":-87.62318,"reserved":0,"last_update":"0001-01-01T00:00:00Z","name_a2s":"Uncletopia | Chicago | 7 | Stopwatch (test)","protocol":17,"map":"pl_swiftwater_final1","folder":"tf","game":"Team Fortress","app_id":440,"player_count":0,"max_players":24,"Bots":0,"server_type":"Dedicated","server_os":"Linux","password":true,"vac":true,"version":"7708610","steam_id":85568392924866364,"keywords":["nocrits","nodmgspread","payload","uncletopia"],"game_id":440,"stv_port":27036,"stv_name":"Uncletopia | Chicago | 7 | Stopwatch (test) | STV","players":null},{"server_id":39,"name":"Uncletopia | Chicago | 8 | Community","name_short":"chi-8","host":"chi-2.us.uncletopia.com","port":27045,"enabled":true,"region":"us-central","cc":"us","latitude":41.881832,"longitude":-87.62318,"reserved":0,"last_update":"0001-01-01T00:00:00Z","name_a2s":"Uncletopia | Chicago | 8 | Community","protocol":17,"map":"pl_barnblitz","folder":"tf","game":"Team Fortress","app_id":440,"player_count":0,"max_players":24,"Bots":0,"server_type":"Dedicated","server_os":"Linux","password":true,"vac":true,"version":"7708610","steam_id":85568392924866365,"keywords":["nocrits","nodmgspread","payload","uncletopia"],"game_id":440,"stv_port":27046,"stv_name":"Uncletopia | Chicago | 8 | Community | STV","players":null},{"server_id":8,"name":"Uncletopia | Dallas | 1 | All Maps","name_short":"dal-1","host":"dal-1.us.uncletopia.com","port":27015,"enabled":true,"region":"us-central","cc":"us","latitude":32.779167,"longitude":-96.80889,"reserved":0,"last_update":"0001-01-01T00:00:00Z","name_a2s":"Uncletopia | Dallas | 1 | All Maps","protocol":17,"map":"koth_viaduct","folder":"tf","game":"Team Fortress","app_id":440,"player_count":0,"max_players":24,"Bots":0,"server_type":"Dedicated","server_os":"Linux","password":true,"vac":true,"version":"7708610","steam_id":85568392924469986,"keywords":["cp","nocrits","nodmgspread","uncletopia"],"game_id":440,"stv_port":27016,"stv_name":"Uncletopia | Dallas | 1 | All Maps | STV","players":null},{"server_id":108,"name":"Uncletopia | Dallas | 2 | All Maps","name_short":"dal-2","host":"dal-1.us.uncletopia.com","port":27025,"enabled":true,"region":"us-central","cc":"us","latitude":32.779167,"longitude":-96.80889,"reserved":0,"last_update":"0001-01-01T00:00:00Z","name_a2s":"Uncletopia | Dallas | 2 | All Maps","protocol":17,"map":"koth_highpass","folder":"tf","game":"Team Fortress","app_id":440,"player_count":0,"max_players":24,"Bots":0,"server_type":"Dedicated","server_os":"Linux","password":true,"vac":true,"version":"7708610","steam_id":85568392924469988,"keywords":["cp","nocrits","nodmgspread","uncletopia"],"game_id":440,"stv_port":27026,"stv_name":"Uncletopia | Dallas | 2 | All Maps | STV","players":null},{"server_id":5,"name":"Uncletopia | Frankfurt | 1 | All Maps","name_short":"frk-1","host":"frk-1.de.uncletopia.com","port":27015,"enabled":true,"region":"eu","cc":"de","latitude":50.110924,"longitude":8.682127,"reserved":0,"last_update":"0001-01-01T00:00:00Z","name_a2s":"Uncletopia | Frankfurt | 1 | All Maps","protocol":17,"map":"cp_mercenarypark","folder":"tf","game":"Team Fortress","app_id":440,"player_count":20,"max_players":24,"Bots":0,"server_type":"Dedicated","server_os":"Linux","password":true,"vac":true,"version":"7708610","steam_id":85568392924469989,"keywords":["cp","nocrits","nodmgspread","uncletopia"],"game_id":440,"stv_port":27016,"stv_name":"Uncletopia | Frankfurt | 1 | All Maps | STV","players":[{"user_id":398,"name":"GAJtheSPY","steam_id":76561198256080023,"connected_time":125000000000,"state":"active","ping":62},{"user_id":399,"name":"Gay Potato","steam_id":76561198018859519,"connected_time":116000000000,"state":"active","ping":61},{"user_id":404,"name":"TSx* Osa__PL","steam_id":76561198027016799,"connected_time":48000000000,"state":"active","ping":64},{"user_id":400,"name":"Deadly Queen","steam_id":76561198352144873,"connected_time":92000000000,"state":"active","ping":78},{"user_id":363,"name":"Piepsgedoodle","steam_id":76561198405764302,"connected_time":3353000000000,"state":"active","ping":49},{"user_id":394,"name":"DeepBlue","steam_id":76561198140075795,"connected_time":1136000000000,"state":"active","ping":54},{"user_id":326,"name":"moser23","steam_id":76561197960543171,"connected_time":4803000000000,"state":"active","ping":32},{"user_id":330,"name":"Persephone \u003c3","steam_id":76561198045694137,"connected_time":4350000000000,"state":"active","ping":79},{"user_id":401,"name":"D *","steam_id":76561198086304421,"connected_time":67000000000,"state":"active","ping":76},{"user_id":391,"name":"Lepek","steam_id":76561198092532526,"connected_time":1461000000000,"state":"active","ping":61},{"user_id":402,"name":"anian","steam_id":76561198061874598,"connected_time":65000000000,"state":"active","ping":55},{"user_id":315,"name":"X-tis","steam_id":76561198043837480,"connected_time":5359000000000,"state":"active","ping":75},{"user_id":403,"name":"Kruthal","steam_id":76561198245726582,"connected_time":54000000000,"state":"active","ping":68},{"user_id":405,"name":"the thingamabob","steam_id":76561198372639514,"connected_time":29000000000,"state":"active","ping":79},{"user_id":406,"name":"TSx* Naxer","steam_id":76561198011986779,"connected_time":24000000000,"state":"spawning","ping":73},{"user_id":397,"name":"Watereater","steam_id":76561198833220967,"connected_time":150000000000,"state":"active","ping":62},{"user_id":407,"name":"miev","steam_id":76561198078278737,"connected_time":23000000000,"state":"active","ping":51},{"user_id":408,"name":"t.tv/LavenderJayJay04","steam_id":76561198966667657,"connected_time":14000000000,"state":"active","ping":105},{"user_id":337,"name":"beurgeur","steam_id":76561198872426314,"connected_time":4238000000000,"state":"active","ping":45},{"user_id":376,"name":"Fat Pigeon","steam_id":76561198817940142,"connected_time":2426000000000,"state":"active","ping":50}]},{"server_id":110,"name":"Uncletopia | Frankfurt | 2 | All Maps","name_short":"frk-2","host":"frk-1.de.uncletopia.com","port":27025,"enabled":true,"region":"eu","cc":"de","latitude":50.110924,"longitude":8.682127,"reserved":0,"last_update":"0001-01-01T00:00:00Z","name_a2s":"Uncletopia | Frankfurt | 2 | All Maps","protocol":17,"map":"cp_altitude","folder":"tf","game":"Team Fortress","app_id":440,"player_count":4,"max_players":24,"Bots":0,"server_type":"Dedicated","server_os":"Linux","password":true,"vac":true,"version":"7708610","steam_id":85568392924469990,"keywords":["cp","nocrits","nodmgspread","uncletopia"],"game_id":440,"stv_port":27026,"stv_name":"Uncletopia | Frankfurt | 2 | All Maps | STV","players":[{"user_id":21,"name":"Chameleongamer44","steam_id":76561198987167079,"connected_time":552000000000,"state":"active","ping":54},{"user_id":23,"name":"Luke SpyWalker","steam_id":76561198008643276,"connected_time":512000000000,"state":"active","ping":58},{"user_id":24,"name":"Chysa","steam_id":76561198131794145,"connected_time":508000000000,"state":"active","ping":46},{"user_id":26,"name":"HatMann","steam_id":76561198821664938,"connected_time":251000000000,"state":"active","ping":90}]},{"server_id":308,"name":"Uncletopia | Frankfurt | 3 | All Maps","name_short":"frk-3","host":"frk-1.de.uncletopia.com","port":27035,"enabled":true,"region":"eu","cc":"de","latitude":50.110924,"longitude":8.682127,"reserved":0,"last_update":"0001-01-01T00:00:00Z","name_a2s":"Uncletopia | Frankfurt | 3 | All Maps","protocol":17,"map":"pl_frontier_final","folder":"tf","game":"Team Fortress","app_id":440,"player_count":24,"max_players":24,"Bots":0,"server_type":"Dedicated","server_os":"Linux","password":true,"vac":true,"version":"7708610","steam_id":85568392924504274,"keywords":["nocrits","nodmgspread","payload","uncletopia"],"game_id":440,"stv_port":27036,"stv_name":"Uncletopia | Frankfurt | 3 | All Maps | STV","players":[{"user_id":198,"name":"nah.","steam_id":76561199069489046,"connected_time":2975000000000,"state":"active","ping":55},{"user_id":234,"name":"real baller","steam_id":76561198119605175,"connected_time":637000000000,"state":"active","ping":66},{"user_id":216,"name":"AvocadoConstant","steam_id":76561198343031982,"connected_time":1291000000000,"state":"active","ping":75},{"user_id":223,"name":"Michał","steam_id":76561198320346362,"connected_time":893000000000,"state":"active","ping":66},{"user_id":247,"name":"the rizzard of oz","steam_id":76561198066631833,"connected_time":160000000000,"state":"active","ping":75},{"user_id":240,"name":"Mayor Wank from Wanker Town","steam_id":76561197998253588,"connected_time":378000000000,"state":"active","ping":57},{"user_id":237,"name":"Sweetcheesus","steam_id":76561198022299033,"connected_time":455000000000,"state":"active","ping":66},{"user_id":221,"name":"hushhx","steam_id":76561198216200092,"connected_time":1019000000000,"state":"active","ping":68},{"user_id":241,"name":"Pastoss","steam_id":76561198379098260,"connected_time":369000000000,"state":"active","ping":75},{"user_id":238,"name":"ImrichDaGrim","steam_id":76561198418180628,"connected_time":451000000000,"state":"active","ping":64},{"user_id":178,"name":"DeCypher","steam_id":76561198171992619,"connected_time":4442000000000,"state":"active","ping":66},{"user_id":225,"name":"Your friend (maybe)","steam_id":76561198240278328,"connected_time":885000000000,"state":"active","ping":75},{"user_id":226,"name":"Torrii","steam_id":76561198307916635,"connected_time":851000000000,"state":"active","ping":76},{"user_id":243,"name":"Redmailbox","steam_id":76561198042930322,"connected_time":313000000000,"state":"active","ping":60},{"user_id":244,"name":"tf2 enjoyer","steam_id":76561199043416615,"connected_time":308000000000,"state":"active","ping":58},{"user_id":209,"name":"Sweat Plantation","steam_id":76561198025086883,"connected_time":2182000000000,"state":"active","ping":86},{"user_id":213,"name":"Hey, I´m Andy!","steam_id":76561198060337777,"connected_time":1546000000000,"state":"active","ping":69},{"user_id":245,"name":"Dragonmitri","steam_id":76561198144683775,"connected_time":305000000000,"state":"active","ping":88},{"user_id":230,"name":"Fan","steam_id":76561198210792815,"connected_time":817000000000,"state":"active","ping":75},{"user_id":207,"name":"Lord of the Lockerroom","steam_id":76561198080619697,"connected_time":2387000000000,"state":"active","ping":96},{"user_id":246,"name":"Dakkafex","steam_id":76561198020254869,"connected_time":287000000000,"state":"active","ping":48},{"user_id":231,"name":"FreeZ","steam_id":76561199070093469,"connected_time":794000000000,"state":"active","ping":70},{"user_id":215,"name":"mocca","steam_id":76561198045388806,"connected_time":1360000000000,"state":"active","ping":73},{"user_id":232,"name":"fas2roger","steam_id":76561198199226627,"connected_time":760000000000,"state":"active","ping":89}]},{"server_id":309,"name":"Uncletopia | Frankfurt | 4 | All Maps","name_short":"frk-4","host":"frk-1.de.uncletopia.com","port":27045,"enabled":true,"region":"eu","cc":"de","latitude":50.110924,"longitude":8.682127,"reserved":0,"last_update":"0001-01-01T00:00:00Z","name_a2s":"Uncletopia | Frankfurt | 4 | All Maps","protocol":17,"map":"koth_viaduct","folder":"tf","game":"Team Fortress","app_id":440,"player_count":23,"max_players":24,"Bots":0,"server_type":"Dedicated","server_os":"Linux","password":true,"vac":true,"version":"7708610","steam_id":85568392924504275,"keywords":["cp","nocrits","nodmgspread","uncletopia"],"game_id":440,"stv_port":27046,"stv_name":"Uncletopia | Frankfurt | 4 | All Maps | STV","players":[{"user_id":212,"name":"advanced polish lifeform","steam_id":76561198062107879,"connected_time":1538000000000,"state":"active","ping":150},{"user_id":197,"name":"Emily","steam_id":76561198013829850,"connected_time":2227000000000,"state":"active","ping":94},{"user_id":122,"name":"jorj3821","steam_id":76561198844794367,"connected_time":6157000000000,"state":"active","ping":65},{"user_id":205,"name":"jan09102004","steam_id":76561198445458615,"connected_time":1764000000000,"state":"active","ping":74},{"user_id":218,"name":"Wheeler,Rawson","steam_id":76561198429658370,"connected_time":1036000000000,"state":"active","ping":135},{"user_id":219,"name":"makso","steam_id":76561198929491723,"connected_time":1026000000000,"state":"active","ping":79},{"user_id":210,"name":"low-income polish city","steam_id":76561199433578516,"connected_time":1623000000000,"state":"active","ping":156},{"user_id":198,"name":"lvl. 50 honkler","steam_id":76561198061688660,"connected_time":2159000000000,"state":"active","ping":98},{"user_id":229,"name":"TK","steam_id":76561199384193338,"connected_time":169000000000,"state":"active","ping":56},{"user_id":213,"name":"Battered polish loafer","steam_id":76561198126398022,"connected_time":1469000000000,"state":"active","ping":80},{"user_id":224,"name":"bananen pizza","steam_id":76561199212990079,"connected_time":690000000000,"state":"active","ping":47},{"user_id":226,"name":"chuckskull","steam_id":76561198300216921,"connected_time":364000000000,"state":"active","ping":92},{"user_id":199,"name":"Mr.GameR.","steam_id":76561198252127576,"connected_time":2135000000000,"state":"active","ping":91},{"user_id":227,"name":"The Right Hand Of Vegeta","steam_id":76561198048481082,"connected_time":289000000000,"state":"active","ping":70},{"user_id":230,"name":"Dr. Sex \"The Ultimate Being\"","steam_id":76561198309277839,"connected_time":112000000000,"state":"active","ping":87},{"user_id":228,"name":"traplord bobby","steam_id":76561198259218647,"connected_time":261000000000,"state":"active","ping":45},{"user_id":180,"name":"dddd","steam_id":76561198120894372,"connected_time":3371000000000,"state":"active","ping":97},{"user_id":193,"name":"Stepoface","steam_id":76561198091569863,"connected_time":2510000000000,"state":"active","ping":59},{"user_id":221,"name":"Alfred","steam_id":76561198097740064,"connected_time":1010000000000,"state":"active","ping":72},{"user_id":225,"name":"tallen","steam_id":76561198061708595,"connected_time":379000000000,"state":"active","ping":82},{"user_id":223,"name":"G/3","steam_id":76561198234844188,"connected_time":932000000000,"state":"active","ping":62},{"user_id":163,"name":"Clitorina","steam_id":76561198077570815,"connected_time":3864000000000,"state":"active","ping":55},{"user_id":231,"name":"weaselmeister","steam_id":76561199059841173,"connected_time":101000000000,"state":"active","ping":64}]},{"server_id":310,"name":"Uncletopia | Frankfurt | 5 | All Maps","name_short":"frk-5","host":"frk-1.de.uncletopia.com","port":27055,"enabled":true,"region":"eu","cc":"de","latitude":50.110924,"longitude":8.682127,"reserved":0,"last_update":"0001-01-01T00:00:00Z","name_a2s":"Uncletopia | Frankfurt | 5 | All Maps","protocol":17,"map":"pl_upward","folder":"tf","game":"Team Fortress","app_id":440,"player_count":21,"max_players":24,"Bots":0,"server_type":"Dedicated","server_os":"Linux","password":true,"vac":true,"version":"7708610","steam_id":85568392924504277,"keywords":["nocrits","nodmgspread","payload","uncletopia"],"game_id":440,"stv_port":27056,"stv_name":"Uncletopia | Frankfurt | 5 | All Maps | STV","players":[{"user_id":125,"name":"gojoel","steam_id":76561198251181946,"connected_time":2501000000000,"state":"active","ping":56},{"user_id":156,"name":"Mr.Schnittlauch","steam_id":76561198295868113,"connected_time":1203000000000,"state":"active","ping":54},{"user_id":154,"name":"SantiThePug #ReviveTheCaber","steam_id":76561199049615996,"connected_time":1231000000000,"state":"active","ping":67},{"user_id":49,"name":"glyph","steam_id":76561197980736364,"connected_time":7676000000000,"state":"active","ping":76},{"user_id":129,"name":"Caliban","steam_id":76561197999696839,"connected_time":2293000000000,"state":"active","ping":82},{"user_id":163,"name":"Charles Darwin","steam_id":76561197973496139,"connected_time":596000000000,"state":"active","ping":60},{"user_id":141,"name":"Wulpenstein","steam_id":76561198060873866,"connected_time":1860000000000,"state":"active","ping":81},{"user_id":165,"name":"big potato #savetf2","steam_id":76561199009525001,"connected_time":474000000000,"state":"active","ping":62},{"user_id":166,"name":"The brown part of the banana","steam_id":76561198323425034,"connected_time":50000000000,"state":"active","ping":68},{"user_id":159,"name":"night.s","steam_id":76561198326287823,"connected_time":1067000000000,"state":"active","ping":85},{"user_id":134,"name":"pkp86","steam_id":76561198259581671,"connected_time":2127000000000,"state":"active","ping":90},{"user_id":135,"name":"default","steam_id":76561198186182298,"connected_time":2097000000000,"state":"active","ping":59},{"user_id":167,"name":"AcidRaindrop996","steam_id":76561199234628123,"connected_time":19000000000,"state":"spawning","ping":63},{"user_id":30,"name":"surny","steam_id":76561198044355417,"connected_time":8455000000000,"state":"active","ping":51},{"user_id":157,"name":"Dark Lord","steam_id":76561198047359132,"connected_time":1161000000000,"state":"active","ping":64},{"user_id":113,"name":"gorgie","steam_id":76561199032591040,"connected_time":3079000000000,"state":"active","ping":81},{"user_id":168,"name":"Karewa.","steam_id":76561198201109002,"connected_time":6000000000,"state":"spawning","ping":79},{"user_id":139,"name":"pawcio2091","steam_id":76561198262515197,"connected_time":1915000000000,"state":"active","ping":101},{"user_id":161,"name":"imrealylazy","steam_id":76561198878574518,"connected_time":845000000000,"state":"active","ping":61},{"user_id":148,"name":"Scary Perry","steam_id":76561198237464516,"connected_time":1587000000000,"state":"active","ping":51},{"user_id":138,"name":"Rat head","steam_id":76561198184360615,"connected_time":2083000000000,"state":"active","ping":132}]},{"server_id":311,"name":"Uncletopia | Frankfurt | 6 | All Maps","name_short":"frk-6","host":"frk-1.de.uncletopia.com","port":27065,"enabled":true,"region":"eu","cc":"de","latitude":50.110924,"longitude":8.682127,"reserved":0,"last_update":"0001-01-01T00:00:00Z","name_a2s":"Uncletopia | Frankfurt | 6 | All Maps","protocol":17,"map":"pl_frontier_final","folder":"tf","game":"Team Fortress","app_id":440,"player_count":18,"max_players":24,"Bots":0,"server_type":"Dedicated","server_os":"Linux","password":true,"vac":true,"version":"7708610","steam_id":85568392924504278,"keywords":["nocrits","nodmgspread","payload","uncletopia"],"game_id":440,"stv_port":27066,"stv_name":"Uncletopia | Frankfurt | 6 | All Maps | STV","players":[{"user_id":148,"name":"fogings","steam_id":76561198044165284,"connected_time":3946000000000,"state":"spawning","ping":136},{"user_id":229,"name":"Accident","steam_id":76561198115160396,"connected_time":66000000000,"state":"spawning","ping":84},{"user_id":205,"name":"Blyatwork","steam_id":76561198825379598,"connected_time":1631000000000,"state":"spawning","ping":36},{"user_id":206,"name":"Fine and dandy","steam_id":76561198171370022,"connected_time":1547000000000,"state":"spawning","ping":63},{"user_id":231,"name":"R3inis","steam_id":76561199030393569,"connected_time":13000000000,"state":"spawning","ping":163},{"user_id":230,"name":"untalented","steam_id":76561199183716081,"connected_time":45000000000,"state":"spawning","ping":92},{"user_id":232,"name":"zinzyk","steam_id":76561198128011822,"connected_time":4000000000,"state":"spawning","ping":59},{"user_id":165,"name":"( ]KROAN[ )","steam_id":76561198022840710,"connected_time":3194000000000,"state":"spawning","ping":77},{"user_id":208,"name":"the manager","steam_id":76561198058656179,"connected_time":1461000000000,"state":"spawning","ping":66},{"user_id":215,"name":"Nick","steam_id":76561198036109469,"connected_time":1106000000000,"state":"spawning","ping":94},{"user_id":220,"name":"Newax","steam_id":76561198020758511,"connected_time":815000000000,"state":"spawning","ping":63},{"user_id":189,"name":"Hexagon","steam_id":76561198151205758,"connected_time":2257000000000,"state":"spawning","ping":63},{"user_id":221,"name":"Plastic","steam_id":76561198026307715,"connected_time":800000000000,"state":"spawning","ping":61},{"user_id":190,"name":"Frank","steam_id":76561198086672774,"connected_time":2257000000000,"state":"spawning","ping":77},{"user_id":191,"name":"Mr. Mundy","steam_id":76561198132008918,"connected_time":2244000000000,"state":"spawning","ping":114},{"user_id":209,"name":"Alonmire","steam_id":76561198882281665,"connected_time":1435000000000,"state":"spawning","ping":134},{"user_id":224,"name":"Combat Wombat","steam_id":76561197994720068,"connected_time":648000000000,"state":"spawning","ping":88},{"user_id":226,"name":"Mr_Miklus","steam_id":76561198255696846,"connected_time":579000000000,"state":"spawning","ping":160}]},{"server_id":23,"name":"Uncletopia | Frankfurt | 7 | No Payload","name_short":"frk-7","host":"frk-1.de.uncletopia.com","port":27075,"enabled":true,"region":"eu","cc":"de","latitude":50.110924,"longitude":8.682127,"reserved":0,"last_update":"0001-01-01T00:00:00Z","name_a2s":"Uncletopia | Frankfurt | 7 | No Payload","protocol":17,"map":"koth_viaduct","folder":"tf","game":"Team Fortress","app_id":440,"player_count":0,"max_players":24,"Bots":0,"server_type":"Dedicated","server_os":"Linux","password":true,"vac":true,"version":"7708610","steam_id":85568392924742827,"keywords":["cp","nocrits","nodmgspread","uncletopia"],"game_id":440,"stv_port":27076,"stv_name":"Uncletopia | Frankfurt | 7 | No Payload | STV","players":null},{"server_id":24,"name":"Uncletopia | Frankfurt | 8 | Community","name_short":"frk-8","host":"frk-1.de.uncletopia.com","port":27085,"enabled":true,"region":"eu","cc":"de","latitude":50.110924,"longitude":8.682127,"reserved":0,"last_update":"0001-01-01T00:00:00Z","name_a2s":"Uncletopia | Frankfurt | 8 | Community","protocol":17,"map":"workshop/cp_overgrown_rc7b.ugc503939302","folder":"tf","game":"Team Fortress","app_id":440,"player_count":0,"max_players":24,"Bots":0,"server_type":"Dedicated","server_os":"Linux","password":true,"vac":true,"version":"7708610","steam_id":85568392924742828,"keywords":["cp","nocrits","nodmgspread","uncletopia"],"game_id":440,"stv_port":27086,"stv_name":"Uncletopia | Frankfurt | 8 | Community | STV","players":null},{"server_id":202,"name":"Uncletopia | Hong Kong | 1 | All Maps","name_short":"hgk-1","host":"hgk-1.hk.uncletopia.com","port":27015,"enabled":true,"region":"asia","cc":"hk","latitude":22.302711,"longitude":114.177216,"reserved":0,"last_update":"0001-01-01T00:00:00Z","name_a2s":"Uncletopia | Hong Kong | 1 | All Maps","protocol":17,"map":"koth_cascade","folder":"tf","game":"Team Fortress","app_id":440,"player_count":0,"max_players":24,"Bots":0,"server_type":"Dedicated","server_os":"Linux","password":true,"vac":true,"version":"7708610","steam_id":85568392924494504,"keywords":["cp","nocrits","nodmgspread","uncletopia"],"game_id":440,"stv_port":27016,"stv_name":"Uncletopia | Hong Kong | 1 | All Maps | STV","players":null},{"server_id":1,"name":"Uncletopia | Los Angeles | 1 | All Maps","name_short":"lax-1","host":"lax-1.us.uncletopia.com","port":27015,"enabled":true,"region":"us-west","cc":"us","latitude":33.94279,"longitude":-118.41004,"reserved":0,"last_update":"0001-01-01T00:00:00Z","name_a2s":"Uncletopia | Los Angeles | 1 | All Maps","protocol":17,"map":"pl_snowycoast","folder":"tf","game":"Team Fortress","app_id":440,"player_count":16,"max_players":24,"Bots":0,"server_type":"Dedicated","server_os":"Linux","password":true,"vac":true,"version":"7708610","steam_id":85568392924469991,"keywords":["nocrits","nodmgspread","payload","uncletopia"],"game_id":440,"stv_port":27016,"stv_name":"Uncletopia | Los Angeles | 1 | All Maps | STV","players":[{"user_id":135,"name":"Schlame-O","steam_id":76561198042518365,"connected_time":638000000000,"state":"active","ping":49},{"user_id":136,"name":"MediScout","steam_id":76561198353371841,"connected_time":632000000000,"state":"active","ping":94},{"user_id":138,"name":"RedPeng1","steam_id":76561198979539470,"connected_time":203000000000,"state":"active","ping":83},{"user_id":137,"name":"TJ Zensuke","steam_id":76561198033371196,"connected_time":522000000000,"state":"active","ping":108},{"user_id":131,"name":"MinusSoup918","steam_id":76561198060902773,"connected_time":1183000000000,"state":"active","ping":62},{"user_id":139,"name":"Medicated Thembo","steam_id":76561198035868181,"connected_time":182000000000,"state":"active","ping":60},{"user_id":140,"name":"dale","steam_id":76561198144570602,"connected_time":172000000000,"state":"active","ping":95},{"user_id":141,"name":"MisterDanny8","steam_id":76561198048847182,"connected_time":159000000000,"state":"active","ping":66},{"user_id":122,"name":"Armstrong The Giant","steam_id":76561198065068213,"connected_time":1941000000000,"state":"active","ping":48},{"user_id":126,"name":"Belle","steam_id":76561198441739585,"connected_time":1445000000000,"state":"active","ping":91},{"user_id":127,"name":"the greedy grinner","steam_id":76561198120498226,"connected_time":1432000000000,"state":"active","ping":89},{"user_id":128,"name":"Bernaners","steam_id":76561198142665643,"connected_time":1427000000000,"state":"active","ping":121},{"user_id":129,"name":"bit","steam_id":76561198056087333,"connected_time":1408000000000,"state":"active","ping":66},{"user_id":132,"name":"Zogovro","steam_id":76561199163618880,"connected_time":1144000000000,"state":"active","ping":60},{"user_id":133,"name":"jungus","steam_id":76561198129862008,"connected_time":940000000000,"state":"active","ping":41},{"user_id":134,"name":"shines.","steam_id":76561198056704526,"connected_time":791000000000,"state":"active","ping":60}]},{"server_id":112,"name":"Uncletopia | Los Angeles | 2 | All Maps","name_short":"lax-2","host":"lax-1.us.uncletopia.com","port":27025,"enabled":true,"region":"us-west","cc":"us","latitude":33.94279,"longitude":-118.41004,"reserved":0,"last_update":"0001-01-01T00:00:00Z","name_a2s":"Uncletopia | Los Angeles | 2 | All Maps","protocol":17,"map":"cp_egypt_final","folder":"tf","game":"Team Fortress","app_id":440,"player_count":0,"max_players":24,"Bots":0,"server_type":"Dedicated","server_os":"Linux","password":true,"vac":true,"version":"7708610","steam_id":85568392924469992,"keywords":["cp","nocrits","nodmgspread","uncletopia"],"game_id":440,"stv_port":27026,"stv_name":"Uncletopia | Los Angeles | 2 | All Maps | STV","players":null},{"server_id":324,"name":"Uncletopia | Los Angeles | 3 | All Maps","name_short":"lax-3","host":"lax-1.us.uncletopia.com","port":27035,"enabled":true,"region":"us-west","cc":"us","latitude":33.94279,"longitude":-118.41004,"reserved":0,"last_update":"0001-01-01T00:00:00Z","name_a2s":"Uncletopia | Los Angeles | 3 | All Maps","protocol":17,"map":"koth_viaduct","folder":"tf","game":"Team Fortress","app_id":440,"player_count":0,"max_players":24,"Bots":0,"server_type":"Dedicated","server_os":"Linux","password":true,"vac":true,"version":"7708610","steam_id":85568392924510198,"keywords":["cp","nocrits","nodmgspread","uncletopia"],"game_id":440,"stv_port":27036,"stv_name":"Uncletopia | Los Angeles | 3 | All Maps | STV","players":null},{"server_id":25,"name":"Uncletopia | Los Angeles | 4 | No Payload","name_short":"lax-4","host":"lax-1.us.uncletopia.com","port":27045,"enabled":true,"region":"us-west","cc":"us","latitude":33.94279,"longitude":-118.41004,"reserved":0,"last_update":"0001-01-01T00:00:00Z","name_a2s":"Uncletopia | Los Angeles | 4 | No Payload","protocol":17,"map":"cp_mountainlab","folder":"tf","game":"Team Fortress","app_id":440,"player_count":0,"max_players":24,"Bots":0,"server_type":"Dedicated","server_os":"Linux","password":true,"vac":true,"version":"7708610","steam_id":85568392924510199,"keywords":["cp","nocrits","nodmgspread","uncletopia"],"game_id":440,"stv_port":27046,"stv_name":"Uncletopia | Los Angeles | 4 | No Payload | STV","players":null},{"server_id":11,"name":"Uncletopia | London | 1 | All Maps","name_short":"lon-1","host":"lon-1.uk.uncletopia.com","port":27015,"enabled":true,"region":"eu","cc":"gb","latitude":51.509865,"longitude":-0.118092,"reserved":0,"last_update":"0001-01-01T00:00:00Z","name_a2s":"Uncletopia | London | 1 | All Maps","protocol":17,"map":"pl_badwater","folder":"tf","game":"Team Fortress","app_id":440,"player_count":22,"max_players":24,"Bots":0,"server_type":"Dedicated","server_os":"Linux","password":true,"vac":true,"version":"7708610","steam_id":85568392924367362,"keywords":["nocrits","nodmgspread","payload","uncletopia"],"game_id":440,"stv_port":27016,"stv_name":"Uncletopia | London | 1 | All Maps | STV","players":[{"user_id":372,"name":"whatever dude - injury reserve","steam_id":76561199026097466,"connected_time":595000000000,"state":"spawning","ping":131},{"user_id":367,"name":"Jam","steam_id":76561198090409013,"connected_time":984000000000,"state":"spawning","ping":162},{"user_id":357,"name":"coachnetworkoperared514","steam_id":76561198236015392,"connected_time":1342000000000,"state":"spawning","ping":202},{"user_id":365,"name":"viora ✨","steam_id":76561198054979849,"connected_time":1063000000000,"state":"spawning","ping":85},{"user_id":376,"name":"airshotter","steam_id":76561198154406495,"connected_time":437000000000,"state":"spawning","ping":58},{"user_id":308,"name":"Solid","steam_id":76561198357049292,"connected_time":4184000000000,"state":"spawning","ping":176},{"user_id":323,"name":"Chefatron","steam_id":76561198218808579,"connected_time":3579000000000,"state":"spawning","ping":97},{"user_id":351,"name":"Acid","steam_id":76561198102110680,"connected_time":1881000000000,"state":"spawning","ping":200},{"user_id":375,"name":"darkwater","steam_id":76561197986978738,"connected_time":566000000000,"state":"spawning","ping":91},{"user_id":368,"name":"your dads bald spot","steam_id":76561199383437138,"connected_time":982000000000,"state":"spawning","ping":198},{"user_id":374,"name":"Gormbrain","steam_id":76561198020079511,"connected_time":571000000000,"state":"spawning","ping":73},{"user_id":371,"name":"gnarly business","steam_id":76561198832688767,"connected_time":600000000000,"state":"spawning","ping":91},{"user_id":300,"name":"Thesis","steam_id":76561199308784371,"connected_time":4417000000000,"state":"spawning","ping":105},{"user_id":358,"name":"Peggle Extreme","steam_id":76561198101451654,"connected_time":1321000000000,"state":"spawning","ping":84},{"user_id":359,"name":"Slipskip","steam_id":76561198018493540,"connected_time":1308000000000,"state":"spawning","ping":122},{"user_id":345,"name":"eggslut","steam_id":76561198010752241,"connected_time":2311000000000,"state":"spawning","ping":137},{"user_id":363,"name":"Hermitcrack","steam_id":76561198149216441,"connected_time":1183000000000,"state":"spawning","ping":143},{"user_id":338,"name":"giorno giovanna","steam_id":76561198993161087,"connected_time":2464000000000,"state":"spawning","ping":101},{"user_id":373,"name":"Aaron","steam_id":76561197990046953,"connected_time":578000000000,"state":"spawning","ping":133},{"user_id":377,"name":"KingConnamonBun","steam_id":76561199124509744,"connected_time":435000000000,"state":"spawning","ping":82},{"user_id":360,"name":"Gold","steam_id":76561198094384339,"connected_time":1299000000000,"state":"spawning","ping":145},{"user_id":380,"name":"✪ J","steam_id":76561198094911581,"connected_time":18000000000,"state":"spawning","ping":89}]},{"server_id":114,"name":"Uncletopia | London | 2 | All Maps","name_short":"lon-2","host":"lon-1.uk.uncletopia.com","port":27025,"enabled":true,"region":"eu","cc":"gb","latitude":51.509865,"longitude":-0.118092,"reserved":0,"last_update":"0001-01-01T00:00:00Z","name_a2s":"Uncletopia | London | 2 | All Maps","protocol":17,"map":"pl_badwater","folder":"tf","game":"Team Fortress","app_id":440,"player_count":24,"max_players":24,"Bots":0,"server_type":"Dedicated","server_os":"Linux","password":true,"vac":true,"version":"7708610","steam_id":85568392924470941,"keywords":["nocrits","nodmgspread","payload","uncletopia"],"game_id":440,"stv_port":27026,"stv_name":"Uncletopia | London | 2 | All Maps | STV","players":[{"user_id":50,"name":"average U.K resident","steam_id":76561198846784757,"connected_time":642000000000,"state":"active","ping":50},{"user_id":23,"name":"Vinyl :3","steam_id":76561197999631733,"connected_time":2854000000000,"state":"active","ping":81},{"user_id":24,"name":"SliQster","steam_id":76561198036797969,"connected_time":2853000000000,"state":"active","ping":76},{"user_id":25,"name":"Pagon","steam_id":76561197997804336,"connected_time":2850000000000,"state":"active","ping":70},{"user_id":26,"name":"_Context_","steam_id":76561199163359312,"connected_time":2558000000000,"state":"active","ping":45},{"user_id":58,"name":"Cheese","steam_id":76561198146419076,"connected_time":221000000000,"state":"active","ping":102},{"user_id":28,"name":"Pauler le one","steam_id":76561198398152855,"connected_time":2251000000000,"state":"active","ping":80},{"user_id":29,"name":"Frazzles","steam_id":76561199228009586,"connected_time":2129000000000,"state":"active","ping":47},{"user_id":30,"name":"Purinose","steam_id":76561199050050310,"connected_time":1972000000000,"state":"active","ping":66},{"user_id":64,"name":"Mogwai","steam_id":76561198078832314,"connected_time":6000000000,"state":"spawning","ping":110},{"user_id":35,"name":"newbie","steam_id":76561199419533757,"connected_time":1021000000000,"state":"active","ping":78},{"user_id":63,"name":"xXx_Twink_Hunter_xXx","steam_id":76561198397024973,"connected_time":52000000000,"state":"active","ping":31},{"user_id":37,"name":"Mr_Flou","steam_id":76561198021584293,"connected_time":986000000000,"state":"active","ping":57},{"user_id":51,"name":"roygbiv","steam_id":76561198344281978,"connected_time":629000000000,"state":"active","ping":38},{"user_id":39,"name":"Harpenden, Harpenden, Harpenden","steam_id":76561198118138546,"connected_time":954000000000,"state":"active","ping":44},{"user_id":46,"name":"goblinninja110","steam_id":76561198269159354,"connected_time":733000000000,"state":"active","ping":63},{"user_id":48,"name":"Cheshireycat","steam_id":76561198067204908,"connected_time":672000000000,"state":"active","ping":56},{"user_id":42,"name":"i am bread","steam_id":76561199180277321,"connected_time":890000000000,"state":"active","ping":51},{"user_id":52,"name":"lun4tic","steam_id":76561198850496647,"connected_time":597000000000,"state":"active","ping":70},{"user_id":53,"name":"makarov","steam_id":76561198363892870,"connected_time":566000000000,"state":"active","ping":74},{"user_id":54,"name":"CouT1nho","steam_id":76561198203926376,"connected_time":554000000000,"state":"active","ping":45},{"user_id":55,"name":"fanyul","steam_id":76561198030894721,"connected_time":541000000000,"state":"active","ping":81},{"user_id":62,"name":"КОСЪ 387","steam_id":76561198071830760,"connected_time":124000000000,"state":"active","ping":103},{"user_id":57,"name":"alego","steam_id":76561198974622852,"connected_time":485000000000,"state":"active","ping":50}]},{"server_id":320,"name":"Uncletopia | London | 3 | All Maps","name_short":"lon-3","host":"lon-1.uk.uncletopia.com","port":27035,"enabled":true,"region":"eu","cc":"gb","latitude":51.509865,"longitude":-0.118092,"reserved":0,"last_update":"0001-01-01T00:00:00Z","name_a2s":"Uncletopia | London | 3 | All Maps","protocol":17,"map":"pl_borneo","folder":"tf","game":"Team Fortress","app_id":440,"player_count":24,"max_players":24,"Bots":0,"server_type":"Dedicated","server_os":"Linux","password":true,"vac":true,"version":"7708610","steam_id":85568392924510192,"keywords":["nocrits","nodmgspread","payload","uncletopia"],"game_id":440,"stv_port":27036,"stv_name":"Uncletopia | London | 3 | All Maps | STV","players":[{"user_id":418,"name":"Mr. Hunts","steam_id":76561197981910397,"connected_time":1308000000000,"state":"active","ping":61},{"user_id":416,"name":"Diana Ball","steam_id":76561198382533813,"connected_time":1428000000000,"state":"active","ping":46},{"user_id":436,"name":"Bgm_","steam_id":76561198056452044,"connected_time":259000000000,"state":"active","ping":76},{"user_id":419,"name":"NotFionn","steam_id":76561198890525176,"connected_time":1297000000000,"state":"active","ping":67},{"user_id":444,"name":"Derek Pappalardo Gaming","steam_id":76561198215428069,"connected_time":105000000000,"state":"active","ping":62},{"user_id":404,"name":"wandermelon","steam_id":76561198158198738,"connected_time":2117000000000,"state":"active","ping":136},{"user_id":427,"name":"[GHT]walkofsoul","steam_id":76561198053646282,"connected_time":780000000000,"state":"active","ping":52},{"user_id":421,"name":"sHIFTINGvORTEX","steam_id":76561198231648332,"connected_time":1271000000000,"state":"active","ping":60},{"user_id":400,"name":"bimbo blow up doll! \u003c3","steam_id":76561198959541006,"connected_time":2223000000000,"state":"active","ping":135},{"user_id":428,"name":"Swank","steam_id":76561198110829070,"connected_time":754000000000,"state":"active","ping":75},{"user_id":440,"name":"Sloppyspider","steam_id":76561198178869441,"connected_time":178000000000,"state":"active","ping":50},{"user_id":430,"name":"Gui","steam_id":76561198072054467,"connected_time":734000000000,"state":"active","ping":76},{"user_id":402,"name":"confused screaming","steam_id":76561198368807487,"connected_time":2157000000000,"state":"active","ping":55},{"user_id":441,"name":"o","steam_id":76561199104087244,"connected_time":155000000000,"state":"active","ping":50},{"user_id":442,"name":"Eui","steam_id":76561198080355745,"connected_time":138000000000,"state":"active","ping":66},{"user_id":443,"name":"cow tools","steam_id":76561198216447231,"connected_time":137000000000,"state":"active","ping":62},{"user_id":405,"name":"Billus","steam_id":76561199001397854,"connected_time":2111000000000,"state":"active","ping":104},{"user_id":332,"name":"Some of you will Gry","steam_id":76561198053961616,"connected_time":6608000000000,"state":"active","ping":58},{"user_id":375,"name":"Gearslut","steam_id":76561198114601678,"connected_time":3499000000000,"state":"active","ping":54},{"user_id":434,"name":"Piki","steam_id":76561199209287968,"connected_time":523000000000,"state":"active","ping":93},{"user_id":414,"name":"YEEET","steam_id":76561198914938199,"connected_time":1511000000000,"state":"active","ping":98},{"user_id":417,"name":"AB.defender","steam_id":76561199070851841,"connected_time":1427000000000,"state":"active","ping":46},{"user_id":389,"name":"r0la","steam_id":76561198128315340,"connected_time":2782000000000,"state":"active","ping":78},{"user_id":367,"name":"blue mean-eyes","steam_id":76561198060105180,"connected_time":3970000000000,"state":"active","ping":65}]},{"server_id":321,"name":"Uncletopia | London | 4 | All Maps","name_short":"lon-4","host":"lon-1.uk.uncletopia.com","port":27045,"enabled":true,"region":"eu","cc":"gb","latitude":51.509865,"longitude":-0.118092,"reserved":0,"last_update":"0001-01-01T00:00:00Z","name_a2s":"Uncletopia | London | 4 | All Maps","protocol":17,"map":"cp_dustbowl","folder":"tf","game":"Team Fortress","app_id":440,"player_count":24,"max_players":24,"Bots":0,"server_type":"Dedicated","server_os":"Linux","password":true,"vac":true,"version":"7708610","steam_id":85568392924510193,"keywords":["cp","nocrits","nodmgspread","uncletopia"],"game_id":440,"stv_port":27046,"stv_name":"Uncletopia | London | 4 | All Maps | STV","players":[{"user_id":585,"name":"After8","steam_id":76561198090750865,"connected_time":5288000000000,"state":"active","ping":75},{"user_id":663,"name":"Totalsmash","steam_id":76561198140293950,"connected_time":581000000000,"state":"active","ping":180},{"user_id":658,"name":"Нікітрон","steam_id":76561198044401080,"connected_time":704000000000,"state":"active","ping":63},{"user_id":650,"name":"Sparky","steam_id":76561198036754195,"connected_time":1305000000000,"state":"active","ping":45},{"user_id":676,"name":"|Bobby|","steam_id":76561198154208319,"connected_time":230000000000,"state":"active","ping":64},{"user_id":660,"name":"Masquerade queen","steam_id":76561198218299273,"connected_time":645000000000,"state":"active","ping":95},{"user_id":664,"name":"KhorneBread ︻デ 一","steam_id":76561198097069958,"connected_time":538000000000,"state":"active","ping":131},{"user_id":636,"name":"ashsbhop","steam_id":76561199155075476,"connected_time":1837000000000,"state":"active","ping":89},{"user_id":637,"name":"Acucutl","steam_id":76561198133867096,"connected_time":1837000000000,"state":"active","ping":79},{"user_id":665,"name":"Pruff","steam_id":76561198377084417,"connected_time":500000000000,"state":"active","ping":64},{"user_id":643,"name":"Pizza/Cheese/Pepperoni","steam_id":76561198174510235,"connected_time":1564000000000,"state":"active","ping":50},{"user_id":668,"name":"Madoga0 EU","steam_id":76561198102371701,"connected_time":440000000000,"state":"active","ping":105},{"user_id":659,"name":"zigi☂","steam_id":76561198113209142,"connected_time":666000000000,"state":"active","ping":81},{"user_id":666,"name":"lofimonkeyjazz","steam_id":76561198117059662,"connected_time":480000000000,"state":"active","ping":68},{"user_id":667,"name":"Drunk Stormtrooper","steam_id":76561198263075743,"connected_time":468000000000,"state":"active","ping":91},{"user_id":669,"name":"Oak","steam_id":76561198067315672,"connected_time":411000000000,"state":"active","ping":49},{"user_id":641,"name":"Arizona","steam_id":76561198113748347,"connected_time":1671000000000,"state":"active","ping":168},{"user_id":672,"name":"Bones","steam_id":76561198065081225,"connected_time":327000000000,"state":"active","ping":41},{"user_id":561,"name":"lulu","steam_id":76561199147764133,"connected_time":5950000000000,"state":"active","ping":90},{"user_id":679,"name":"TheRocketKnight","steam_id":76561199139597566,"connected_time":30000000000,"state":"active","ping":91},{"user_id":673,"name":"medic","steam_id":76561198197962579,"connected_time":307000000000,"state":"active","ping":77},{"user_id":674,"name":"You Don't Nomi.","steam_id":76561197969137836,"connected_time":299000000000,"state":"active","ping":115},{"user_id":678,"name":"KFC Enjoyer","steam_id":76561198840259819,"connected_time":177000000000,"state":"active","ping":55},{"user_id":677,"name":"!_Silon_!","steam_id":76561198341800810,"connected_time":201000000000,"state":"active","ping":70}]},{"server_id":21,"name":"Uncletopia | London | 5 | All Maps","name_short":"lon-5","host":"lon-1.uk.uncletopia.com","port":27055,"enabled":true,"region":"eu","cc":"gb","latitude":51.509865,"longitude":-0.118092,"reserved":0,"last_update":"0001-01-01T00:00:00Z","name_a2s":"Uncletopia | London | 5 | All Maps","protocol":17,"map":"koth_highpass","folder":"tf","game":"Team Fortress","app_id":440,"player_count":22,"max_players":24,"Bots":0,"server_type":"Dedicated","server_os":"Linux","password":true,"vac":true,"version":"7708610","steam_id":85568392924742829,"keywords":["cp","nocrits","nodmgspread","uncletopia"],"game_id":440,"stv_port":27056,"stv_name":"Uncletopia | London | 5 | All Maps | STV","players":[{"user_id":595,"name":"[-[     ]|\\\\===//|[     ]-]","steam_id":76561198049687798,"connected_time":352000000000,"state":"active","ping":56},{"user_id":509,"name":"fuo","steam_id":76561197995536944,"connected_time":5405000000000,"state":"active","ping":34},{"user_id":574,"name":"Kyeel_Smeel","steam_id":76561199164471622,"connected_time":1209000000000,"state":"active","ping":59},{"user_id":523,"name":"Gardvord","steam_id":76561198120715753,"connected_time":4259000000000,"state":"active","ping":62},{"user_id":506,"name":"nedilya","steam_id":76561198039692077,"connected_time":5464000000000,"state":"active","ping":65},{"user_id":542,"name":"ciliorkun18","steam_id":76561198228942500,"connected_time":3587000000000,"state":"active","ping":114},{"user_id":560,"name":"jollyperson","steam_id":76561199376144500,"connected_time":2484000000000,"state":"active","ping":40},{"user_id":575,"name":"sv_MrGibbs","steam_id":76561198114071972,"connected_time":1200000000000,"state":"active","ping":43},{"user_id":587,"name":"ThiccMedicc","steam_id":76561198413675639,"connected_time":663000000000,"state":"active","ping":74},{"user_id":588,"name":"Haggabah,WhoPliesTheUmbralPath","steam_id":76561198846984399,"connected_time":642000000000,"state":"active","ping":102},{"user_id":578,"name":"TrocheDrewno","steam_id":76561198043662503,"connected_time":1179000000000,"state":"active","ping":63},{"user_id":579,"name":"Ross","steam_id":76561198965967986,"connected_time":1173000000000,"state":"active","ping":58},{"user_id":598,"name":"lupe.-","steam_id":76561198079813788,"connected_time":237000000000,"state":"active","ping":73},{"user_id":535,"name":"「◆Raku• 」","steam_id":76561198059283183,"connected_time":3706000000000,"state":"active","ping":79},{"user_id":589,"name":"akakez","steam_id":76561198095432821,"connected_time":621000000000,"state":"active","ping":134},{"user_id":585,"name":"Hoodiebud","steam_id":76561198335687042,"connected_time":865000000000,"state":"active","ping":78},{"user_id":590,"name":"Kongbyg","steam_id":76561198125835919,"connected_time":618000000000,"state":"active","ping":74},{"user_id":594,"name":"Vershal Smershal","steam_id":76561198116223995,"connected_time":485000000000,"state":"active","ping":57},{"user_id":586,"name":"tshirt","steam_id":76561198040757844,"connected_time":701000000000,"state":"active","ping":80},{"user_id":583,"name":"Bob Salami","steam_id":76561198150681340,"connected_time":1031000000000,"state":"active","ping":89},{"user_id":592,"name":"JugoTopia","steam_id":76561197996067209,"connected_time":560000000000,"state":"active","ping":143},{"user_id":593,"name":"AsuX","steam_id":76561197990333289,"connected_time":555000000000,"state":"active","ping":60}]},{"server_id":22,"name":"Uncletopia | London | 6 | All Maps","name_short":"lon-6","host":"lon-1.uk.uncletopia.com","port":27065,"enabled":true,"region":"eu","cc":"gb","latitude":51.509865,"longitude":-0.118092,"reserved":0,"last_update":"0001-01-01T00:00:00Z","name_a2s":"Uncletopia | London | 6 | All Maps","protocol":17,"map":"pl_frontier_final","folder":"tf","game":"Team Fortress","app_id":440,"player_count":0,"max_players":24,"Bots":0,"server_type":"Dedicated","server_os":"Linux","password":true,"vac":true,"version":"7708610","steam_id":85568392924742830,"keywords":["nocrits","nodmgspread","payload","uncletopia"],"game_id":440,"stv_port":27066,"stv_name":"Uncletopia | London | 6 | All Maps | STV","players":null},{"server_id":40,"name":"Uncletopia | London | 7 | No Payload","name_short":"lon-7","host":"lon-1.uk.uncletopia.com","port":27075,"enabled":true,"region":"eu","cc":"gb","latitude":51.509865,"longitude":-0.118092,"reserved":0,"last_update":"0001-01-01T00:00:00Z","name_a2s":"Uncletopia | London | 7 | No Payload","protocol":17,"map":"koth_lakeside_final","folder":"tf","game":"Team Fortress","app_id":440,"player_count":0,"max_players":24,"Bots":0,"server_type":"Dedicated","server_os":"Linux","password":true,"vac":true,"version":"7708610","steam_id":85568392924964314,"keywords":["cp","nocrits","nodmgspread","uncletopia"],"game_id":440,"stv_port":27076,"stv_name":"Uncletopia | London | 7 | No Payload | STV","players":null},{"server_id":41,"name":"Uncletopia | London | 8 | Community","name_short":"lon-8","host":"lon-1.uk.uncletopia.com","port":27085,"enabled":true,"region":"eu","cc":"gb","latitude":51.509865,"longitude":-0.118092,"reserved":0,"last_update":"0001-01-01T00:00:00Z","name_a2s":"Uncletopia | London | 8 | Community","protocol":17,"map":"workshop/pl_fifthcurve_rc1.ugc648227046","folder":"tf","game":"Team Fortress","app_id":440,"player_count":0,"max_players":24,"Bots":0,"server_type":"Dedicated","server_os":"Linux","password":true,"vac":true,"version":"7708610","steam_id":85568392924964315,"keywords":["nocrits","nodmgspread","payload","uncletopia"],"game_id":440,"stv_port":27086,"stv_name":"Uncletopia | London | 8 | Community | STV","players":null},{"server_id":300,"name":"Uncletopia | Montréal | 1 | All Maps","name_short":"mtl-1","host":"mtl-1.ca.uncletopia.com","port":27015,"enabled":true,"region":"us-east","cc":"ca","latitude":45.50889,"longitude":-73.56167,"reserved":0,"last_update":"0001-01-01T00:00:00Z","name_a2s":"Uncletopia | Montréal | 1 | All Maps","protocol":17,"map":"pl_frontier_final","folder":"tf","game":"Team Fortress","app_id":440,"player_count":0,"max_players":24,"Bots":0,"server_type":"Dedicated","server_os":"Linux","password":true,"vac":true,"version":"7708610","steam_id":85568392924500087,"keywords":["nocrits","nodmgspread","payload","uncletopia"],"game_id":440,"stv_port":27016,"stv_name":"Uncletopia | Montréal | 1 | All Maps | STV","players":null},{"server_id":301,"name":"Uncletopia | Montréal | 2 | All Maps","name_short":"mtl-2","host":"mtl-1.ca.uncletopia.com","port":27025,"enabled":true,"region":"us-east","cc":"ca","latitude":45.50889,"longitude":-73.56167,"reserved":0,"last_update":"0001-01-01T00:00:00Z","name_a2s":"Uncletopia | Montréal | 2 | All Maps","protocol":17,"map":"pl_borneo","folder":"tf","game":"Team Fortress","app_id":440,"player_count":0,"max_players":24,"Bots":0,"server_type":"Dedicated","server_os":"Linux","password":true,"vac":true,"version":"7708610","steam_id":85568392924500088,"keywords":["nocrits","nodmgspread","payload","uncletopia"],"game_id":440,"stv_port":27026,"stv_name":"Uncletopia | Montréal | 2 | All Maps | STV","players":null},{"server_id":302,"name":"Uncletopia | Montréal | 3 | All Maps","name_short":"mtl-3","host":"mtl-1.ca.uncletopia.com","port":27035,"enabled":true,"region":"us-east","cc":"ca","latitude":45.50889,"longitude":-73.56167,"reserved":0,"last_update":"0001-01-01T00:00:00Z","name_a2s":"Uncletopia | Montréal | 3 | All Maps","protocol":17,"map":"cp_snakewater_final1","folder":"tf","game":"Team Fortress","app_id":440,"player_count":0,"max_players":24,"Bots":0,"server_type":"Dedicated","server_os":"Linux","password":true,"vac":true,"version":"7708610","steam_id":85568392924500089,"keywords":["cp","nocrits","nodmgspread","uncletopia"],"game_id":440,"stv_port":27036,"stv_name":"Uncletopia | Montréal | 3 | All Maps | STV","players":null},{"server_id":303,"name":"Uncletopia | Montréal | 4 | No Payload","name_short":"mtl-4","host":"mtl-1.ca.uncletopia.com","port":27045,"enabled":true,"region":"us-east","cc":"ca","latitude":45.50889,"longitude":-73.56167,"reserved":0,"last_update":"0001-01-01T00:00:00Z","name_a2s":"Uncletopia | Montréal | 4 | No Payload","protocol":17,"map":"cp_snakewater_final1","folder":"tf","game":"Team Fortress","app_id":440,"player_count":0,"max_players":24,"Bots":0,"server_type":"Dedicated","server_os":"Linux","password":true,"vac":true,"version":"7708610","steam_id":85568392924500090,"keywords":["cp","nocrits","nodmgspread","uncletopia"],"game_id":440,"stv_port":27046,"stv_name":"Uncletopia | Montréal | 4 | No Payload | STV","players":null},{"server_id":13,"name":"Uncletopia | New York City | 1 | All Maps","name_short":"nyc-1","host":"nyc-1.us.uncletopia.com","port":27015,"enabled":true,"region":"us-east","cc":"us","latitude":40.73061,"longitude":-73.93524,"reserved":0,"last_update":"0001-01-01T00:00:00Z","name_a2s":"Uncletopia | New York City | 1 | All Maps","protocol":17,"map":"pl_swiftwater_final1","folder":"tf","game":"Team Fortress","app_id":440,"player_count":2,"max_players":24,"Bots":0,"server_type":"Dedicated","server_os":"Linux","password":true,"vac":true,"version":"7708610","steam_id":85568392924469993,"keywords":["nocrits","nodmgspread","payload","uncletopia"],"game_id":440,"stv_port":27016,"stv_name":"Uncletopia | New York City | 1 | All Maps | STV","players":[{"user_id":7,"name":"turntechCathead","steam_id":76561198351249088,"connected_time":431000000000,"state":"active","ping":130},{"user_id":8,"name":"HydroGalaxy","steam_id":76561199106605342,"connected_time":423000000000,"state":"active","ping":96}]},{"server_id":14,"name":"Uncletopia | New York City | 2 | All Maps","name_short":"nyc-2","host":"nyc-1.us.uncletopia.com","port":27025,"enabled":true,"region":"us-east","cc":"us","latitude":40.73061,"longitude":-73.93524,"reserved":0,"last_update":"0001-01-01T00:00:00Z","name_a2s":"Uncletopia | New York City | 2 | All Maps","protocol":17,"map":"pl_badwater","folder":"tf","game":"Team Fortress","app_id":440,"player_count":0,"max_players":24,"Bots":0,"server_type":"Dedicated","server_os":"Linux","password":true,"vac":true,"version":"7708610","steam_id":85568392924469994,"keywords":["nocrits","nodmgspread","payload","uncletopia"],"game_id":440,"stv_port":27026,"stv_name":"Uncletopia | New York City | 2 | All Maps | STV","players":null},{"server_id":15,"name":"Uncletopia | New York City | 3 | All Maps","name_short":"nyc-3","host":"nyc-1.us.uncletopia.com","port":27035,"enabled":true,"region":"us-east","cc":"us","latitude":40.73061,"longitude":-73.93524,"reserved":0,"last_update":"0001-01-01T00:00:00Z","name_a2s":"Uncletopia | New York City | 3 | All Maps","protocol":17,"map":"cp_mountainlab","folder":"tf","game":"Team Fortress","app_id":440,"player_count":0,"max_players":24,"Bots":0,"server_type":"Dedicated","server_os":"Linux","password":true,"vac":true,"version":"7708610","steam_id":85568392924742820,"keywords":["cp","nocrits","nodmgspread","uncletopia"],"game_id":440,"stv_port":27036,"stv_name":"Uncletopia | New York City | 3 | All Maps | STV","players":null},{"server_id":16,"name":"Uncletopia | New York City | 4 | Community","name_short":"nyc-4","host":"nyc-1.us.uncletopia.com","port":27045,"enabled":true,"region":"us-east","cc":"us","latitude":40.73061,"longitude":-73.93524,"reserved":0,"last_update":"0001-01-01T00:00:00Z","name_a2s":"Uncletopia | New York City | 4 | Community","protocol":17,"map":"pl_barnblitz","folder":"tf","game":"Team Fortress","app_id":440,"player_count":0,"max_players":24,"Bots":0,"server_type":"Dedicated","server_os":"Linux","password":true,"vac":true,"version":"7708610","steam_id":85568392924742821,"keywords":["nocrits","nodmgspread","payload","uncletopia"],"game_id":440,"stv_port":27046,"stv_name":"Uncletopia | New York City | 4 | Community | STV","players":null},{"server_id":142,"name":"Uncletopia | São Paulo | 1 | All Maps","name_short":"sao-1","host":"sao-1.br.uncletopia.com","port":27015,"enabled":true,"region":"sa","cc":"br","latitude":-23.533773,"longitude":-46.62529,"reserved":0,"last_update":"0001-01-01T00:00:00Z","name_a2s":"Uncletopia | São Paulo | 1 | All Maps","protocol":17,"map":"pl_upward","folder":"tf","game":"Team Fortress","app_id":440,"player_count":15,"max_players":24,"Bots":0,"server_type":"Dedicated","server_os":"Linux","password":true,"vac":true,"version":"7708610","steam_id":85568392924469996,"keywords":["nocrits","nodmgspread","payload","uncletopia"],"game_id":440,"stv_port":27016,"stv_name":"Uncletopia | São Paulo | 1 | All Maps | STV","players":[{"user_id":90,"name":"hat","steam_id":76561199059544454,"connected_time":766000000000,"state":"active","ping":49},{"user_id":46,"name":"Sublime157","steam_id":76561198202847430,"connected_time":5742000000000,"state":"active","ping":69},{"user_id":66,"name":"siirtyaoliveira","steam_id":76561199176805537,"connected_time":3566000000000,"state":"active","ping":39},{"user_id":96,"name":"N☆V","steam_id":76561198101972840,"connected_time":449000000000,"state":"active","ping":74},{"user_id":92,"name":"Styx","steam_id":76561198202297515,"connected_time":637000000000,"state":"active","ping":85},{"user_id":68,"name":"(teu pai morreu O_O)","steam_id":76561199247537921,"connected_time":3249000000000,"state":"active","ping":32},{"user_id":75,"name":"YekkuUwU","steam_id":76561199349215012,"connected_time":2567000000000,"state":"active","ping":36},{"user_id":97,"name":"Zodd","steam_id":76561198940541282,"connected_time":416000000000,"state":"active","ping":64},{"user_id":76,"name":"GabrielNotSoOnline","steam_id":76561199096928424,"connected_time":2546000000000,"state":"active","ping":78},{"user_id":81,"name":"me","steam_id":76561199193659906,"connected_time":1892000000000,"state":"active","ping":57},{"user_id":94,"name":"ailuros","steam_id":76561198171349369,"connected_time":494000000000,"state":"active","ping":38},{"user_id":82,"name":"Pcreeper","steam_id":76561198342542456,"connected_time":1865000000000,"state":"active","ping":53},{"user_id":87,"name":"Pendrive is Insane","steam_id":76561199427354854,"connected_time":1066000000000,"state":"active","ping":47},{"user_id":99,"name":"Neferious Acts Enjoyer","steam_id":76561198354898457,"connected_time":208000000000,"state":"active","ping":43},{"user_id":100,"name":"yamandu","steam_id":76561199444348327,"connected_time":152000000000,"state":"active","ping":246}]},{"server_id":143,"name":"Uncletopia | São Paulo | 2 | All Maps","name_short":"sao-2","host":"sao-2.br.uncletopia.com","port":27015,"enabled":true,"region":"sa","cc":"br","latitude":-23.533773,"longitude":-46.62529,"reserved":0,"last_update":"0001-01-01T00:00:00Z","name_a2s":"Uncletopia | São Paulo | 2 | All Maps","protocol":17,"map":"koth_viaduct","folder":"tf","game":"Team Fortress","app_id":440,"player_count":0,"max_players":24,"Bots":0,"server_type":"Dedicated","server_os":"Linux","password":true,"vac":true,"version":"7708610","steam_id":85568392924485349,"keywords":["cp","nocrits","nodmgspread","uncletopia"],"game_id":440,"stv_port":27016,"stv_name":"Uncletopia | São Paulo | 2 | All Maps | STV","players":null},{"server_id":7,"name":"Uncletopia | Seattle | 1 | All Maps","name_short":"sea-1","host":"sea-1.us.uncletopia.com","port":27015,"enabled":true,"region":"us-west","cc":"us","latitude":47.608013,"longitude":-122.33517,"reserved":0,"last_update":"0001-01-01T00:00:00Z","name_a2s":"Uncletopia | Seattle | 1 | All Maps","protocol":17,"map":"cp_process_final","folder":"tf","game":"Team Fortress","app_id":440,"player_count":2,"max_players":24,"Bots":0,"server_type":"Dedicated","server_os":"Linux","password":true,"vac":true,"version":"7708610","steam_id":85568392924469997,"keywords":["cp","nocrits","nodmgspread","uncletopia"],"game_id":440,"stv_port":27016,"stv_name":"Uncletopia | Seattle | 1 | All Maps | STV","players":[{"user_id":5,"name":"D34dR4bbit","steam_id":76561198167411455,"connected_time":2172000000000,"state":"active","ping":49},{"user_id":8,"name":"oo","steam_id":76561198119626492,"connected_time":129000000000,"state":"active","ping":91}]},{"server_id":119,"name":"Uncletopia | Seattle | 2 | All Maps","name_short":"sea-2","host":"sea-1.us.uncletopia.com","port":27025,"enabled":true,"region":"us-west","cc":"us","latitude":47.608013,"longitude":-122.33517,"reserved":0,"last_update":"0001-01-01T00:00:00Z","name_a2s":"Uncletopia | Seattle | 2 | All Maps","protocol":17,"map":"pl_pier","folder":"tf","game":"Team Fortress","app_id":440,"player_count":0,"max_players":24,"Bots":0,"server_type":"Dedicated","server_os":"Linux","password":true,"vac":true,"version":"7708610","steam_id":85568392924469998,"keywords":["nocrits","nodmgspread","payload","uncletopia"],"game_id":440,"stv_port":27026,"stv_name":"Uncletopia | Seattle | 2 | All Maps | STV","players":null},{"server_id":17,"name":"Uncletopia | San Francisco | 1 | All Maps","name_short":"sfo-1","host":"sfo-1.us.uncletopia.com","port":27015,"enabled":true,"region":"us-west","cc":"us","latitude":37.77397,"longitude":-122.4313,"reserved":0,"last_update":"0001-01-01T00:00:00Z","name_a2s":"Uncletopia | San Francisco | 1 | All Maps","protocol":17,"map":"pl_barnblitz","folder":"tf","game":"Team Fortress","app_id":440,"player_count":0,"max_players":24,"Bots":0,"server_type":"Dedicated","server_os":"Linux","password":true,"vac":true,"version":"7708610","steam_id":85568392924469999,"keywords":["nocrits","nodmgspread","payload","uncletopia"],"game_id":440,"stv_port":27016,"stv_name":"Uncletopia | San Francisco | 1 | All Maps | STV","players":null},{"server_id":18,"name":"Uncletopia | San Francisco | 2 | All Maps","name_short":"sfo-2","host":"sfo-1.us.uncletopia.com","port":27025,"enabled":true,"region":"us-west","cc":"us","latitude":37.77397,"longitude":-122.4313,"reserved":0,"last_update":"0001-01-01T00:00:00Z","name_a2s":"Uncletopia | San Francisco | 2 | All Maps","protocol":17,"map":"pl_upward","folder":"tf","game":"Team Fortress","app_id":440,"player_count":0,"max_players":24,"Bots":0,"server_type":"Dedicated","server_os":"Linux","password":true,"vac":true,"version":"7708610","steam_id":85568392924470000,"keywords":["nocrits","nodmgspread","payload","uncletopia"],"game_id":440,"stv_port":27026,"stv_name":"Uncletopia | San Francisco | 2 | All Maps | STV","players":null},{"server_id":19,"name":"Uncletopia | San Francisco | 3 | No Payload","name_short":"sfo-3","host":"sfo-1.us.uncletopia.com","port":27035,"enabled":true,"region":"us-west","cc":"us","latitude":37.77397,"longitude":-122.4313,"reserved":0,"last_update":"0001-01-01T00:00:00Z","name_a2s":"Uncletopia | San Francisco | 3 | No Payload","protocol":17,"map":"pl_borneo","folder":"tf","game":"Team Fortress","app_id":440,"player_count":0,"max_players":24,"Bots":0,"server_type":"Dedicated","server_os":"Linux","password":true,"vac":true,"version":"7708610","steam_id":85568392924742824,"keywords":["nocrits","nodmgspread","payload","uncletopia"],"game_id":440,"stv_port":27036,"stv_name":"Uncletopia | San Francisco | 3 | No Payload | STV","players":null},{"server_id":20,"name":"Uncletopia | San Francisco | 4 | Community","name_short":"sfo-4","host":"sfo-1.us.uncletopia.com","port":27045,"enabled":true,"region":"us-west","cc":"us","latitude":37.77397,"longitude":-122.4313,"reserved":0,"last_update":"0001-01-01T00:00:00Z","name_a2s":"Uncletopia | San Francisco | 4 | Community","protocol":17,"map":"pl_frontier_final","folder":"tf","game":"Team Fortress","app_id":440,"player_count":0,"max_players":24,"Bots":0,"server_type":"Dedicated","server_os":"Linux","password":true,"vac":true,"version":"7708610","steam_id":85568392924742826,"keywords":["nocrits","nodmgspread","payload","uncletopia"],"game_id":440,"stv_port":27046,"stv_name":"Uncletopia | San Francisco | 4 | Community | STV","players":null},{"server_id":141,"name":"Uncletopia | Sydney | 1 | All Maps","name_short":"syd-1","host":"syd-1.au.uncletopia.com","port":27015,"enabled":true,"region":"au","cc":"au","latitude":-33.865143,"longitude":151.2099,"reserved":0,"last_update":"0001-01-01T00:00:00Z","name_a2s":"Uncletopia | Sydney | 1 | All Maps","protocol":17,"map":"koth_cascade","folder":"tf","game":"Team Fortress","app_id":440,"player_count":0,"max_players":24,"Bots":0,"server_type":"Dedicated","server_os":"Linux","password":true,"vac":true,"version":"7708610","steam_id":85568392924470001,"keywords":["cp","nocrits","nodmgspread","uncletopia"],"game_id":440,"stv_port":27016,"stv_name":"Uncletopia | Sydney | 1 | All Maps | STV","players":null},{"server_id":123,"name":"Uncletopia | Sydney | 2 | All Maps","name_short":"syd-2","host":"syd-1.au.uncletopia.com","port":27025,"enabled":true,"region":"au","cc":"au","latitude":-33.865143,"longitude":151.2099,"reserved":0,"last_update":"0001-01-01T00:00:00Z","name_a2s":"Uncletopia | Sydney | 2 | All Maps","protocol":17,"map":"pl_barnblitz","folder":"tf","game":"Team Fortress","app_id":440,"player_count":0,"max_players":24,"Bots":0,"server_type":"Dedicated","server_os":"Linux","password":true,"vac":true,"version":"7708610","steam_id":85568392924470002,"keywords":["nocrits","nodmgspread","payload","uncletopia"],"game_id":440,"stv_port":27026,"stv_name":"Uncletopia | Sydney | 2 | All Maps | STV","players":null},{"server_id":395,"name":"Uncletopia | Sydney | 3 | All Maps","name_short":"syd-3","host":"syd-1.au.uncletopia.com","port":27035,"enabled":true,"region":"au","cc":"au","latitude":-33.865143,"longitude":151.2099,"reserved":0,"last_update":"0001-01-01T00:00:00Z","name_a2s":"Uncletopia | Sydney | 3 | All Maps","protocol":17,"map":"koth_viaduct","folder":"tf","game":"Team Fortress","app_id":440,"player_count":0,"max_players":24,"Bots":0,"server_type":"Dedicated","server_os":"Linux","password":true,"vac":true,"version":"7708610","steam_id":85568392925194467,"keywords":["cp","nocrits","nodmgspread","uncletopia"],"game_id":440,"stv_port":27036,"stv_name":"Uncletopia | Sydney | 3 | All Maps | STV","players":null},{"server_id":396,"name":"Uncletopia | Sydney | 4 | All Maps","name_short":"syd-4","host":"syd-1.au.uncletopia.com","port":27045,"enabled":true,"region":"au","cc":"au","latitude":-33.865143,"longitude":151.2099,"reserved":0,"last_update":"0001-01-01T00:00:00Z","name_a2s":"Uncletopia | Sydney | 4 | All Maps","protocol":17,"map":"pl_frontier_final","folder":"tf","game":"Team Fortress","app_id":440,"player_count":0,"max_players":24,"Bots":0,"server_type":"Dedicated","server_os":"Linux","password":true,"vac":true,"version":"7708610","steam_id":85568392925397958,"keywords":["nocrits","nodmgspread","payload","uncletopia"],"game_id":440,"stv_port":27046,"stv_name":"Uncletopia | Sydney | 4 | All Maps | STV","players":null},{"server_id":58,"name":"Uncletopia | Sydney | 5 | No Payload","name_short":"syd-5","host":"syd-1.au.uncletopia.com","port":27055,"enabled":true,"region":"au","cc":"au","latitude":-33.865143,"longitude":151.2099,"reserved":0,"last_update":"0001-01-01T00:00:00Z","name_a2s":"Uncletopia | Sydney | 5 | No Payload","protocol":17,"map":"pl_pier","folder":"tf","game":"Team Fortress","app_id":440,"player_count":0,"max_players":24,"Bots":0,"server_type":"Dedicated","server_os":"Linux","password":true,"vac":true,"version":"7708610","steam_id":85568392925397959,"keywords":["nocrits","nodmgspread","payload","uncletopia"],"game_id":440,"stv_port":27056,"stv_name":"Uncletopia | Sydney | 5 | No Payload | STV","players":null},{"server_id":59,"name":"Uncletopia | Sydney | 6 | Community","name_short":"syd-6","host":"syd-1.au.uncletopia.com","port":27065,"enabled":true,"region":"au","cc":"au","latitude":-33.865143,"longitude":151.2099,"reserved":0,"last_update":"0001-01-01T00:00:00Z","name_a2s":"Uncletopia | Sydney | 6 | Community","protocol":17,"map":"pl_badwater","folder":"tf","game":"Team Fortress","app_id":440,"player_count":0,"max_players":24,"Bots":0,"server_type":"Dedicated","server_os":"Linux","password":true,"vac":true,"version":"7708610","steam_id":85568392925397960,"keywords":["nocrits","nodmgspread","payload","uncletopia"],"game_id":440,"stv_port":27066,"stv_name":"Uncletopia | Sydney | 6 | Community | STV","players":null},{"server_id":49,"name":"Uncletopia | Warsaw | 1 | All Maps","name_short":"waw-1","host":"waw-1.pl.uncletopia.com","port":27015,"enabled":true,"region":"eu","cc":"pl","latitude":52.2297,"longitude":21.017532,"reserved":0,"last_update":"0001-01-01T00:00:00Z","name_a2s":"Uncletopia | Warsaw | 1 | All Maps","protocol":17,"map":"cp_snakewater_final1","folder":"tf","game":"Team Fortress","app_id":440,"player_count":0,"max_players":24,"Bots":0,"server_type":"Dedicated","server_os":"Linux","password":true,"vac":true,"version":"7708610","steam_id":85568392925397850,"keywords":["cp","nocrits","nodmgspread","uncletopia"],"game_id":440,"stv_port":27016,"stv_name":"Uncletopia | Warsaw | 1 | All Maps | STV","players":null},{"server_id":50,"name":"Uncletopia | Warsaw | 2 | All Maps","name_short":"waw-2","host":"waw-1.pl.uncletopia.com","port":27025,"enabled":true,"region":"eu","cc":"pl","latitude":52.2297,"longitude":21.017532,"reserved":0,"last_update":"0001-01-01T00:00:00Z","name_a2s":"Uncletopia | Warsaw | 2 | All Maps","protocol":17,"map":"pl_pier","folder":"tf","game":"Team Fortress","app_id":440,"player_count":2,"max_players":24,"Bots":0,"server_type":"Dedicated","server_os":"Linux","password":true,"vac":true,"version":"7708610","steam_id":85568392925397851,"keywords":["nocrits","nodmgspread","payload","uncletopia"],"game_id":440,"stv_port":27026,"stv_name":"Uncletopia | Warsaw | 2 | All Maps | STV","players":[{"user_id":49,"name":"Holiday Puncher","steam_id":76561198970762992,"connected_time":2978000000000,"state":"active","ping":67},{"user_id":27,"name":"Barbatruc","steam_id":76561198119019916,"connected_time":3751000000000,"state":"active","ping":78}]},{"server_id":51,"name":"Uncletopia | Warsaw | 3 | All Maps","name_short":"waw-3","host":"waw-1.pl.uncletopia.com","port":27035,"enabled":true,"region":"eu","cc":"pl","latitude":52.2297,"longitude":21.017532,"reserved":0,"last_update":"0001-01-01T00:00:00Z","name_a2s":"Uncletopia | Warsaw | 3 | All Maps","protocol":17,"map":"koth_highpass","folder":"tf","game":"Team Fortress","app_id":440,"player_count":0,"max_players":24,"Bots":0,"server_type":"Dedicated","server_os":"Linux","password":true,"vac":true,"version":"7708610","steam_id":85568392925397852,"keywords":["cp","nocrits","nodmgspread","uncletopia"],"game_id":440,"stv_port":27036,"stv_name":"Uncletopia | Warsaw | 3 | All Maps | STV","players":null},{"server_id":52,"name":"Uncletopia | Warsaw | 4 | All Maps","name_short":"waw-4","host":"waw-1.pl.uncletopia.com","port":27045,"enabled":true,"region":"eu","cc":"pl","latitude":52.2297,"longitude":21.017532,"reserved":0,"last_update":"0001-01-01T00:00:00Z","name_a2s":"Uncletopia | Warsaw | 4 | All Maps","protocol":17,"map":"koth_cascade","folder":"tf","game":"Team Fortress","app_id":440,"player_count":0,"max_players":24,"Bots":0,"server_type":"Dedicated","server_os":"Linux","password":true,"vac":true,"version":"7708610","steam_id":85568392925397853,"keywords":["cp","nocrits","nodmgspread","uncletopia"],"game_id":440,"stv_port":27046,"stv_name":"Uncletopia | Warsaw | 4 | All Maps | STV","players":null},{"server_id":53,"name":"Uncletopia | Warsaw | 5 | No Payload","name_short":"waw-5","host":"waw-1.pl.uncletopia.com","port":27055,"enabled":true,"region":"eu","cc":"pl","latitude":52.2297,"longitude":21.017532,"reserved":0,"last_update":"0001-01-01T00:00:00Z","name_a2s":"Uncletopia | Warsaw | 5 | No Payload","protocol":17,"map":"pl_borneo","folder":"tf","game":"Team Fortress","app_id":440,"player_count":0,"max_players":24,"Bots":0,"server_type":"Dedicated","server_os":"Linux","password":true,"vac":true,"version":"7708610","steam_id":85568392925397854,"keywords":["nocrits","nodmgspread","payload","uncletopia"],"game_id":440,"stv_port":27056,"stv_name":"Uncletopia | Warsaw | 5 | No Payload | STV","players":null},{"server_id":54,"name":"Uncletopia | Warsaw | 6 | Community","name_short":"waw-6","host":"waw-1.pl.uncletopia.com","port":27065,"enabled":true,"region":"eu","cc":"pl","latitude":52.2297,"longitude":21.017532,"reserved":0,"last_update":"0001-01-01T00:00:00Z","name_a2s":"Uncletopia | Warsaw | 6 | Community","protocol":17,"map":"pl_swiftwater_final1","folder":"tf","game":"Team Fortress","app_id":440,"player_count":0,"max_players":24,"Bots":0,"server_type":"Dedicated","server_os":"Linux","password":true,"vac":true,"version":"7708610","steam_id":85568392925397856,"keywords":["nocrits","nodmgspread","payload","uncletopia"],"game_id":440,"stv_port":27066,"stv_name":"Uncletopia | Warsaw | 6 | Community | STV","players":null}]}