{"status":true,"message":"","result":[{"server_id":9,"name":"Uncletopia | Atlanta | 1 | All Maps","name_short":"atl-1","host":"atl-1.us.uncletopia.com","port":27015,"enabled":true,"region":"us-east","cc":"us","latitude":33.753746,"longitude":-84.38633,"reserved":0,"last_update":"0001-01-01T00:00:00Z","name_a2s":"Uncletopia | Atlanta | 1 | All Maps","protocol":17,"map":"pl_barnblitz","folder":"tf","game":"Team Fortress","app_id":440,"player_count":24,"max_players":24,"Bots":0,"server_type":"Dedicated","server_os":"Linux","password":true,"vac":true,"version":"7757534","steam_id":85568392924469982,"keywords":["nocrits","nodmgspread","payload","uncletopia"],"game_id":440,"stv_port":27016,"stv_name":"Uncletopia | Atlanta | 1 | All Maps | STV","players":[{"user_id":264,"name":"Snitch Of The Year","steam_id":76561198397009880,"connected_time":366000000000,"state":"active","ping":48},{"user_id":230,"name":"mbs","steam_id":76561198013079739,"connected_time":2847000000000,"state":"active","ping":62},{"user_id":263,"name":"Mal","steam_id":76561198066074151,"connected_time":395000000000,"state":"active","ping":61},{"user_id":258,"name":"Open Mailbox","steam_id":76561198051933580,"connected_time":1027000000000,"state":"active","ping":84},{"user_id":248,"name":"zooqooo","steam_id":76561198043674914,"connected_time":1601000000000,"state":"active","ping":81},{"user_id":228,"name":"Valeee","steam_id":76561198169897086,"connected_time":2917000000000,"state":"active","ping":106},{"user_id":266,"name":"abolish the federal reserve","steam_id":76561198047796437,"connected_time":226000000000,"state":"active","ping":105},{"user_id":231,"name":"Quick-Fix Fan","steam_id":76561198872845740,"connected_time":2843000000000,"state":"active","ping":68},{"user_id":260,"name":"BORN IN GOOP RAISED IN POOP","steam_id":76561198095909397,"connected_time":886000000000,"state":"active","ping":56},{"user_id":243,"name":"sPoOkED yUh","steam_id":76561197990595352,"connected_time":2140000000000,"state":"active","ping":69},{"user_id":261,"name":"Kuddly Kay (She/Her)","steam_id":76561198353432576,"connected_time":613000000000,"state":"active","ping":96},{"user_id":213,"name":"Michael Scarn","steam_id":76561198035740143,"connected_time":4276000000000,"state":"active","ping":65},{"user_id":253,"name":"walidov","steam_id":76561198079965605,"connected_time":1322000000000,"state":"active","ping":91},{"user_id":250,"name":"Screwyelk","steam_id":76561198086163313,"connected_time":1411000000000,"state":"active","ping":67},{"user_id":245,"name":"Davidbruh","steam_id":76561199374143638,"connected_time":2000000000000,"state":"active","ping":73},{"user_id":215,"name":"toastman","steam_id":76561198207073088,"connected_time":4128000000000,"state":"active","ping":100},{"user_id":259,"name":"floppy muppet","steam_id":76561198003076261,"connected_time":994000000000,"state":"active","ping":71},{"user_id":254,"name":"bigconkeldurrfan3000","steam_id":76561198258062078,"connected_time":1316000000000,"state":"active","ping":74},{"user_id":233,"name":"Max Headroom","steam_id":76561198023176757,"connected_time":2834000000000,"state":"active","ping":163},{"user_id":206,"name":"Nephs","steam_id":76561198136763403,"connected_time":4768000000000,"state":"active","ping":75},{"user_id":255,"name":"DuckKey","steam_id":76561198904477889,"connected_time":1311000000000,"state":"active","ping":59},{"user_id":239,"name":"faxxy","steam_id":76561198079621240,"connected_time":2314000000000,"state":"active","ping":95},{"user_id":220,"name":"Boop","steam_id":76561198376703875,"connected_time":3820000000000,"state":"active","ping":65},{"user_id":265,"name":"Spoof","steam_id":76561198283928331,"connected_time":303000000000,"state":"active","ping":49}]},{"server_id":400,"name":"Uncletopia | Atlanta | 3 | Stopwatch Beta","name_short":"atl-3","host":"atl-1.us.uncletopia.com","port":27035,"enabled":true,"region":"us-east","cc":"us","latitude":33.753746,"longitude":-84.38633,"reserved":0,"last_update":"0001-01-01T00:00:00Z","name_a2s":"Uncletopia | Atlanta | 3 | Stopwatch Beta","protocol":17,"map":"pl_upward","folder":"tf","game":"Team Fortress","app_id":440,"player_count":0,"max_players":24,"Bots":0,"server_type":"Dedicated","server_os":"Linux","password":true,"vac":true,"version":"7757534","steam_id":85568392924515187,"keywords":["nocrits","nodmgspread","payload","uncletopia"],"game_id":440,"stv_port":27036,"stv_name":"Uncletopia | Atlanta | 3 | Stopwatch Beta | STV","players":null},{"server_id":401,"name":"Uncletopia | Atlanta | 4 | No Payload","name_short":"atl-4","host":"atl-1.us.uncletopia.com","port":27045,"enabled":true,"region":"us-east","cc":"us","latitude":33.753746,"longitude":-84.38633,"reserved":0,"last_update":"0001-01-01T00:00:00Z","name_a2s":"Uncletopia | Atlanta | 4 | No Payload","protocol":17,"map":"pl_pier","folder":"tf","game":"Team Fortress","app_id":440,"player_count":0,"max_players":24,"Bots":0,"server_type":"Dedicated","server_os":"Linux","password":true,"vac":true,"version":"7723704","steam_id":85568392924515188,"keywords":["nocrits","nodmgspread","payload","uncletopia"],"game_id":440,"stv_port":27046,"stv_name":"Uncletopia | Atlanta | 4 | No Payload | STV","players":null},{"server_id":2,"name":"Uncletopia | Chicago | 1 | All Maps","name_short":"chi-1","host":"chi-1.us.uncletopia.com","port":27015,"enabled":true,"region":"us-central","cc":"us","latitude":41.881832,"longitude":-87.62318,"reserved":0,"last_update":"0001-01-01T00:00:00Z","name_a2s":"Uncletopia | Chicago | 1 | All Maps","protocol":17,"map":"pl_pier","folder":"tf","game":"Team Fortress","app_id":440,"player_count":24,"max_players":24,"Bots":0,"server_type":"Dedicated","server_os":"Linux","password":true,"vac":true,"version":"7757534","steam_id":85568392924469984,"keywords":["nocrits","nodmgspread","payload","uncletopia"],"game_id":440,"stv_port":27016,"stv_name":"Uncletopia | Chicago | 1 | All Maps | STV","players":[{"user_id":483,"name":"Gabinator32","steam_id":76561198872467183,"connected_time":941000000000,"state":"active","ping":46},{"user_id":467,"name":"nuclear bomb plans (used)","steam_id":76561198849316769,"connected_time":2753000000000,"state":"active","ping":55},{"user_id":485,"name":"Morbius","steam_id":76561198387984694,"connected_time":796000000000,"state":"active","ping":75},{"user_id":457,"name":"Two-Ton Heavy Thing","steam_id":76561198201724274,"connected_time":3372000000000,"state":"active","ping":83},{"user_id":468,"name":"GREG","steam_id":76561198073021168,"connected_time":2497000000000,"state":"active","ping":64},{"user_id":432,"name":"KingCrawful","steam_id":76561198104291657,"connected_time":4203000000000,"state":"active","ping":53},{"user_id":428,"name":"ThatOneKnight","steam_id":76561198388583650,"connected_time":4277000000000,"state":"active","ping":56},{"user_id":488,"name":"avaeragebonkenjoyer","steam_id":76561198313518948,"connected_time":461000000000,"state":"active","ping":80},{"user_id":360,"name":"Weshmek","steam_id":76561198009950743,"connected_time":9250000000000,"state":"active","ping":57},{"user_id":465,"name":"Quentin","steam_id":76561198032941413,"connected_time":2860000000000,"state":"active","ping":71},{"user_id":448,"name":"The Trash Man","steam_id":76561198071375772,"connected_time":3636000000000,"state":"active","ping":54},{"user_id":475,"name":"MysticTF2","steam_id":76561198857357381,"connected_time":2083000000000,"state":"active","ping":54},{"user_id":431,"name":"Fuegan Ra","steam_id":76561198287923849,"connected_time":4247000000000,"state":"active","ping":46},{"user_id":474,"name":"Bloodx","steam_id":76561197971439068,"connected_time":2150000000000,"state":"active","ping":61},{"user_id":478,"name":"B45Guy","steam_id":76561198117290531,"connected_time":1792000000000,"state":"active","ping":60},{"user_id":430,"name":"Nolan","steam_id":76561198169648081,"connected_time":4263000000000,"state":"active","ping":86},{"user_id":422,"name":"Cupidmeh","steam_id":76561198138669654,"connected_time":4695000000000,"state":"active","ping":70},{"user_id":481,"name":"FiveStryker","steam_id":76561198366172207,"connected_time":993000000000,"state":"active","ping":39},{"user_id":471,"name":"Verily","steam_id":76561198200558318,"connected_time":2363000000000,"state":"active","ping":67},{"user_id":487,"name":"Big Phony","steam_id":76561199092395311,"connected_time":711000000000,"state":"active","ping":64},{"user_id":453,"name":"zed","steam_id":76561198033499175,"connected_time":3455000000000,"state":"active","ping":72},{"user_id":429,"name":"Snugboo","steam_id":76561198147970327,"connected_time":4277000000000,"state":"active","ping":55},{"user_id":473,"name":"Daksuki","steam_id":76561198084127751,"connected_time":2209000000000,"state":"active","ping":75},{"user_id":464,"name":"ThatGuy","steam_id":76561199017934530,"connected_time":2954000000000,"state":"active","ping":79}]},{"server_id":106,"name":"Uncletopia | Chicago | 2 | All Maps","name_short":"chi-2","host":"chi-1.us.uncletopia.com","port":27025,"enabled":true,"region":"us-central","cc":"us","latitude":41.881832,"longitude":-87.62318,"reserved":0,"last_update":"0001-01-01T00:00:00Z","name_a2s":"Uncletopia | Chicago | 2 | All Maps","protocol":17,"map":"pl_upward","folder":"tf","game":"Team Fortress","app_id":440,"player_count":24,"max_players":24,"Bots":0,"server_type":"Dedicated","server_os":"Linux","password":true,"vac":true,"version":"7757534","steam_id":85568392924469985,"keywords":["nocrits","nodmgspread","payload","uncletopia"],"game_id":440,"stv_port":27026,"stv_name":"Uncletopia | Chicago | 2 | All Maps | STV","players":[{"user_id":337,"name":"Merach","steam_id":76561197994544587,"connected_time":886000000000,"state":"active","ping":63},{"user_id":274,"name":"Furious George","steam_id":76561198405111646,"connected_time":4640000000000,"state":"active","ping":100},{"user_id":346,"name":"beethan","steam_id":76561198148199120,"connected_time":174000000000,"state":"active","ping":88},{"user_id":324,"name":"magicbeetle","steam_id":76561199160422863,"connected_time":1531000000000,"state":"active","ping":125},{"user_id":334,"name":"_(:3 „Äç‚à†)_","steam_id":76561198370487545,"connected_time":910000000000,"state":"active","ping":74},{"user_id":276,"name":"Navigatxr","steam_id":76561199185153789,"connected_time":4629000000000,"state":"active","ping":86},{"user_id":305,"name":"Violet42","steam_id":76561198072927887,"connected_time":2244000000000,"state":"active","ping":71},{"user_id":300,"name":"no","steam_id":76561198248853140,"connected_time":3038000000000,"state":"active","ping":45},{"user_id":336,"name":"OMG!!!!","steam_id":76561198069600113,"connected_time":902000000000,"state":"active","ping":58},{"user_id":349,"name":"defs98","steam_id":76561198134813102,"connected_time":148000000000,"state":"active","ping":54},{"user_id":345,"name":"yeyoi","steam_id":76561198069821885,"connected_time":195000000000,"state":"active","ping":60},{"user_id":341,"name":"a cow","steam_id":76561198342340057,"connected_time":847000000000,"state":"active","ping":82},{"user_id":287,"name":"KrashBoomBang","steam_id":76561199002978777,"connected_time":3840000000000,"state":"active","ping":77},{"user_id":328,"name":"Anji's onlyfans","steam_id":76561198353160282,"connected_time":1358000000000,"state":"active","ping":89},{"user_id":312,"name":"Kurt Biscuitmaker","steam_id":76561198331701823,"connected_time":2131000000000,"state":"active","ping":82},{"user_id":332,"name":"Verilog","steam_id":76561197975820283,"connected_time":1147000000000,"state":"active","ping":91},{"user_id":323,"name":"Oli B\u003eQS/BP/Bulk w/ 500+ keys","steam_id":76561198140316312,"connected_time":1557000000000,"state":"active","ping":57},{"user_id":348,"name":"*Karin's laugh*","steam_id":76561198040186048,"connected_time":170000000000,"state":"active","ping":80},{"user_id":330,"name":"Mad Cow‚Äª","steam_id":76561198132498594,"connected_time":1205000000000,"state":"active","ping":49},{"user_id":317,"name":"ADOLF RIZZLER","steam_id":76561198811554257,"connected_time":2103000000000,"state":"active","ping":55},{"user_id":333,"name":"4ling","steam_id":76561197994398381,"connected_time":1002000000000,"state":"active","ping":72},{"user_id":320,"name":"Ejaculation Zach","steam_id":76561198203765200,"connected_time":2074000000000,"state":"active","ping":58},{"user_id":343,"name":"Coenot","steam_id":76561198052566996,"connected_time":833000000000,"state":"active","ping":70},{"user_id":344,"name":"tree","steam_id":76561198116885731,"connected_time":829000000000,"state":"active","ping":54}]},{"server_id":402,"name":"Uncletopia | Chicago | 3 | All Maps","name_short":"chi-3","host":"chi-1.us.uncletopia.com","port":27035,"enabled":true,"region":"us-central","cc":"us","latitude":41.881832,"longitude":-87.62318,"reserved":0,"last_update":"0001-01-01T00:00:00Z","name_a2s":"Uncletopia | Chicago | 3 | All Maps","protocol":17,"map":"pl_barnblitz","folder":"tf","game":"Team Fortress","app_id":440,"player_count":23,"max_players":24,"Bots":0,"server_type":"Dedicated","server_os":"Linux","password":true,"vac":true,"version":"7757534","steam_id":85568392924515191,"keywords":["nocrits","nodmgspread","payload","uncletopia"],"game_id":440,"stv_port":27036,"stv_name":"Uncletopia | Chicago | 3 | All Maps | STV","players":[{"user_id":56,"name":"Walkiing","steam_id":76561198074473413,"connected_time":199000000000,"state":"active","ping":33},{"user_id":55,"name":"DerpFestival","steam_id":76561198046489801,"connected_time":436000000000,"state":"active","ping":103},{"user_id":60,"name":"Nodin","steam_id":76561198135757376,"connected_time":46000000000,"state":"active","ping":46},{"user_id":20,"name":"No Toast ( ¬∞‚ñ°¬∞Ôºâ Ô∏µ","steam_id":76561198062452835,"connected_time":2189000000000,"state":"active","ping":75},{"user_id":59,"name":"boombox","steam_id":76561198237013798,"connected_time":68000000000,"state":"active","ping":75},{"user_id":23,"name":"silentpieceofbacon","steam_id":76561198869323351,"connected_time":1671000000000,"state":"active","ping":65},{"user_id":24,"name":"‚ä∞Aero‚ä±","steam_id":76561198084648457,"connected_time":1571000000000,"state":"active","ping":54},{"user_id":54,"name":"Robin","steam_id":76561198121165149,"connected_time":681000000000,"state":"active","ping":36},{"user_id":58,"name":"Zicky Nee","steam_id":76561198042601111,"connected_time":153000000000,"state":"active","ping":75},{"user_id":28,"name":"Dastardly_Devious","steam_id":76561198103939491,"connected_time":1416000000000,"state":"active","ping":114},{"user_id":61,"name":"tinkercrab11","steam_id":76561198881792140,"connected_time":23000000000,"state":"active","ping":111},{"user_id":62,"name":"(Mow)","steam_id":76561198370673794,"connected_time":16000000000,"state":"active","ping":150},{"user_id":31,"name":"Lil Glac (Inept)","steam_id":76561198105395149,"connected_time":1370000000000,"state":"active","ping":105},{"user_id":32,"name":"Solo.","steam_id":76561198090308641,"connected_time":1351000000000,"state":"active","ping":61},{"user_id":36,"name":"DerpFamous","steam_id":76561198046167888,"connected_time":1243000000000,"state":"active","ping":64},{"user_id":63,"name":"xXiNSanEXx_CoBrA","steam_id":76561199036450881,"connected_time":12000000000,"state":"spawning","ping":113},{"user_id":38,"name":"cokersworld","steam_id":76561198039731344,"connected_time":1183000000000,"state":"active","ping":86},{"user_id":51,"name":"girlboss","steam_id":76561197989019617,"connected_time":820000000000,"state":"active","ping":45},{"user_id":57,"name":"Warsh Cloth","steam_id":76561198059761344,"connected_time":175000000000,"state":"active","ping":62},{"user_id":47,"name":"meghan trainor's bass","steam_id":76561198075858067,"connected_time":1028000000000,"state":"active","ping":60},{"user_id":44,"name":"SomeScuffedKid","steam_id":76561198086113234,"connected_time":1095000000000,"state":"active","ping":62},{"user_id":45,"name":"ValacPAB","steam_id":76561198272692721,"connected_time":1095000000000,"state":"active","ping":94},{"user_id":46,"name":"SquirrelAway‚Ñ¢","steam_id":76561197998828619,"connected_time":1088000000000,"state":"active","ping":66}]},{"server_id":403,"name":"Uncletopia | Chicago | 4 | All Maps","name_short":"chi-4","host":"chi-1.us.uncletopia.com","port":27045,"enabled":true,"region":"us-central","cc":"us","latitude":41.881832,"longitude":-87.62318,"reserved":0,"last_update":"0001-01-01T00:00:00Z","name_a2s":"Uncletopia | Chicago | 4 | All Maps","protocol":17,"map":"pl_upward","folder":"tf","game":"Team Fortress","app_id":440,"player_count":23,"max_players":24,"Bots":0,"server_type":"Dedicated","server_os":"Linux","password":true,"vac":true,"version":"7757534","steam_id":85568392924515193,"keywords":["nocrits","nodmgspread","payload","uncletopia"],"game_id":440,"stv_port":27046,"stv_name":"Uncletopia | Chicago | 4 | All Maps | STV","players":[{"user_id":111,"name":"Fudgely","steam_id":76561198039425862,"connected_time":11968000000000,"state":"active","ping":74},{"user_id":277,"name":"Rukks","steam_id":76561197993918954,"connected_time":734000000000,"state":"active","ping":91},{"user_id":266,"name":"illya","steam_id":76561198063099828,"connected_time":1885000000000,"state":"active","ping":48},{"user_id":246,"name":"Tyrone","steam_id":76561198189429665,"connected_time":3090000000000,"state":"active","ping":71},{"user_id":278,"name":"kris736","steam_id":76561198038208255,"connected_time":389000000000,"state":"active","ping":54},{"user_id":222,"name":"survivalist keeda","steam_id":76561198277979851,"connected_time":5551000000000,"state":"active","ping":86},{"user_id":259,"name":"cixcin","steam_id":76561199215821942,"connected_time":2424000000000,"state":"active","ping":73},{"user_id":258,"name":"Public Library Gamer","steam_id":76561198066405611,"connected_time":2489000000000,"state":"active","ping":89},{"user_id":262,"name":"hooley","steam_id":76561198041923067,"connected_time":2389000000000,"state":"active","ping":70},{"user_id":279,"name":"Menlymen","steam_id":76561198046508051,"connected_time":360000000000,"state":"active","ping":74},{"user_id":272,"name":"Floattube","steam_id":76561198005720144,"connected_time":1126000000000,"state":"active","ping":61},{"user_id":254,"name":"psy","steam_id":76561198013195018,"connected_time":2903000000000,"state":"active","ping":77},{"user_id":150,"name":"mountain","steam_id":76561198078395002,"connected_time":10223000000000,"state":"active","ping":62},{"user_id":276,"name":"pat","steam_id":76561198448282321,"connected_time":789000000000,"state":"active","ping":48},{"user_id":280,"name":"Wooper","steam_id":76561198047491931,"connected_time":359000000000,"state":"active","ping":61},{"user_id":281,"name":"Godfinger","steam_id":76561198426346549,"connected_time":327000000000,"state":"active","ping":64},{"user_id":282,"name":"Rat Bastard -{A‚òÖT}-","steam_id":76561197979905804,"connected_time":317000000000,"state":"active","ping":67},{"user_id":283,"name":"tonka with all of the minions","steam_id":76561198295985520,"connected_time":53000000000,"state":"active","ping":73},{"user_id":267,"name":"Sirpiggy","steam_id":76561198294985303,"connected_time":1798000000000,"state":"active","ping":97},{"user_id":273,"name":"Cool Ranch Buddha","steam_id":76561197982863756,"connected_time":1122000000000,"state":"active","ping":76},{"user_id":99,"name":"sweppy","steam_id":76561198035457667,"connected_time":13642000000000,"state":"active","ping":73},{"user_id":269,"name":"HaphazardHazel","steam_id":76561198316812693,"connected_time":1327000000000,"state":"active","ping":91},{"user_id":275,"name":"kingeibon","steam_id":76561198056238702,"connected_time":1008000000000,"state":"active","ping":74}]},{"server_id":36,"name":"Uncletopia | Chicago | 5 | All Maps","name_short":"chi-5","host":"chi-2.us.uncletopia.com","port":27015,"enabled":true,"region":"us-central","cc":"us","latitude":41.881832,"longitude":-87.62318,"reserved":0,"last_update":"0001-01-01T00:00:00Z","name_a2s":"Uncletopia | Chicago | 5 | All Maps","protocol":17,"map":"pl_pier","folder":"tf","game":"Team Fortress","app_id":440,"player_count":24,"max_players":24,"Bots":0,"server_type":"Dedicated","server_os":"Linux","password":true,"vac":true,"version":"7757534","steam_id":85568392924866362,"keywords":["nocrits","nodmgspread","payload","uncletopia"],"game_id":440,"stv_port":27016,"stv_name":"Uncletopia | Chicago | 5 | All Maps | STV","players":[{"user_id":87,"name":"PeterPumpkinEater69","steam_id":76561198070635731,"connected_time":3439000000000,"state":"active","ping":65},{"user_id":106,"name":"heist","steam_id":76561197960430077,"connected_time":1225000000000,"state":"active","ping":66},{"user_id":92,"name":"raphaim #bb","steam_id":76561198089649422,"connected_time":3137000000000,"state":"active","ping":99},{"user_id":110,"name":"Dokki","steam_id":76561198355935693,"connected_time":691000000000,"state":"active","ping":49},{"user_id":80,"name":"CHIEF","steam_id":76561198011209422,"connected_time":4581000000000,"state":"active","ping":75},{"user_id":27,"name":"daemon","steam_id":76561198001541433,"connected_time":7343000000000,"state":"active","ping":49},{"user_id":36,"name":"[Scout_Fungus] SNOW_TRAINING","steam_id":76561198026701863,"connected_time":6964000000000,"state":"active","ping":78},{"user_id":29,"name":"--_Cook_--","steam_id":76561198080855748,"connected_time":7284000000000,"state":"active","ping":46},{"user_id":95,"name":"NilYdna","steam_id":76561198129747459,"connected_time":2836000000000,"state":"active","ping":66},{"user_id":104,"name":"Kitt(eh) ‚àë:3","steam_id":76561198110858518,"connected_time":1242000000000,"state":"active","ping":60},{"user_id":103,"name":"Glory","steam_id":76561198013975080,"connected_time":1693000000000,"state":"active","ping":83},{"user_id":35,"name":"starfungus","steam_id":76561198158312789,"connected_time":6998000000000,"state":"active","ping":83},{"user_id":66,"name":"vanxi","steam_id":76561198089852954,"connected_time":5683000000000,"state":"active","ping":89},{"user_id":45,"name":"sock","steam_id":76561199117597830,"connected_time":6639000000000,"state":"active","ping":57},{"user_id":108,"name":"golden","steam_id":76561198068141943,"connected_time":1146000000000,"state":"active","ping":83},{"user_id":98,"name":"Syrix","steam_id":76561198017328672,"connected_time":2501000000000,"state":"active","ping":68},{"user_id":46,"name":"Dispenser (Twan)","steam_id":76561197991064908,"connected_time":6639000000000,"state":"active","ping":61},{"user_id":109,"name":"Fredrick","steam_id":76561197981419964,"connected_time":1142000000000,"state":"active","ping":77},{"user_id":48,"name":"weeb_whacker #Jenius","steam_id":76561198187098041,"connected_time":6603000000000,"state":"active","ping":54},{"user_id":111,"name":"Gliglamesh","steam_id":76561198058221449,"connected_time":496000000000,"state":"active","ping":56},{"user_id":107,"name":"Rein","steam_id":76561198300340427,"connected_time":1224000000000,"state":"active","ping":62},{"user_id":55,"name":"Azula's #1 Fan","steam_id":76561198133111058,"connected_time":6435000000000,"state":"active","ping":74},{"user_id":99,"name":"Emprial","steam_id":76561198195574594,"connected_time":2497000000000,"state":"active","ping":85},{"user_id":75,"name":"tommy salami","steam_id":76561198172454407,"connected_time":4782000000000,"state":"active","ping":93}]},{"server_id":37,"name":"Uncletopia | Chicago | 6 | All Maps","name_short":"chi-6","host":"chi-2.us.uncletopia.com","port":27025,"enabled":true,"region":"us-central","cc":"us","latitude":41.881832,"longitude":-87.62318,"reserved":0,"last_update":"0001-01-01T00:00:00Z","name_a2s":"Uncletopia | Chicago | 6 | All Maps","protocol":17,"map":"pl_pier","folder":"tf","game":"Team Fortress","app_id":440,"player_count":21,"max_players":24,"Bots":0,"server_type":"Dedicated","server_os":"Linux","password":true,"vac":true,"version":"7757534","steam_id":85568392924866363,"keywords":["nocrits","nodmgspread","payload","uncletopia"],"game_id":440,"stv_port":27026,"stv_name":"Uncletopia | Chicago | 6 | All Maps | STV","players":[{"user_id":275,"name":"Cat in Your Backyard","steam_id":76561197979078330,"connected_time":3534000000000,"state":"active","ping":60},{"user_id":282,"name":"Y0C0 B3NITO","steam_id":76561198072200952,"connected_time":3101000000000,"state":"active","ping":101},{"user_id":313,"name":"dahperson","steam_id":76561198067207467,"connected_time":1588000000000,"state":"active","ping":59},{"user_id":278,"name":"Mr.Pan","steam_id":76561198069030613,"connected_time":3163000000000,"state":"active","ping":74},{"user_id":306,"name":"Kanye is my Biggest Fan","steam_id":76561198162363747,"connected_time":1951000000000,"state":"active","ping":72},{"user_id":308,"name":"Doost44","steam_id":76561198115785902,"connected_time":1858000000000,"state":"active","ping":76},{"user_id":323,"name":"womthedom","steam_id":76561198088768287,"connected_time":267000000000,"state":"active","ping":53},{"user_id":309,"name":"Cryo_Dave","steam_id":76561198796748347,"connected_time":1849000000000,"state":"active","ping":129},{"user_id":293,"name":"Pancetta's vore window","steam_id":76561198428086758,"connected_time":2535000000000,"state":"active","ping":83},{"user_id":287,"name":"Atomic Waffles","steam_id":76561197970935570,"connected_time":2744000000000,"state":"active","ping":75},{"user_id":255,"name":"WhoIsFrosty","steam_id":76561198880588117,"connected_time":5108000000000,"state":"active","ping":51},{"user_id":321,"name":"Johnny Lawrence #JohnnyMaxxing","steam_id":76561199367141671,"connected_time":393000000000,"state":"active","ping":60},{"user_id":325,"name":"NobodyWasHere","steam_id":76561198320952498,"connected_time":213000000000,"state":"active","ping":66},{"user_id":314,"name":"Epic Gamer Move","steam_id":76561198146369617,"connected_time":1555000000000,"state":"active","ping":94},{"user_id":317,"name":"Inevitable","steam_id":76561198210050169,"connected_time":903000000000,"state":"active","ping":67},{"user_id":265,"name":"Fuzzy Toast","steam_id":76561198028067781,"connected_time":3946000000000,"state":"active","ping":45},{"user_id":312,"name":"JamesSaysRelax","steam_id":76561198055687973,"connected_time":1600000000000,"state":"active","ping":63},{"user_id":210,"name":"Oruo the Husky","steam_id":76561199028788094,"connected_time":7137000000000,"state":"active","ping":93},{"user_id":322,"name":"Panckakebro","steam_id":76561198106419992,"connected_time":294000000000,"state":"active","ping":81},{"user_id":276,"name":"$3.99 Shrimps","steam_id":76561198077272494,"connected_time":3282000000000,"state":"active","ping":50},{"user_id":301,"name":"Zoawsome","steam_id":76561198018758753,"connected_time":2333000000000,"state":"active","ping":51}]},{"server_id":38,"name":"Uncletopia | Chicago | 7 | Stopwatch Beta","name_short":"chi-7","host":"chi-2.us.uncletopia.com","port":27035,"enabled":true,"region":"us-central","cc":"us","latitude":41.881832,"longitude":-87.62318,"reserved":0,"last_update":"0001-01-01T00:00:00Z","name_a2s":"Uncletopia | Chicago | 7 | Stopwatch Beta","protocol":17,"map":"koth_highpass","folder":"tf","game":"Team Fortress","app_id":440,"player_count":0,"max_players":24,"Bots":0,"server_type":"Dedicated","server_os":"Linux","password":true,"vac":true,"version":"7757534","steam_id":85568392924866364,"keywords":["cp","nocrits","nodmgspread","uncletopia"],"game_id":440,"stv_port":27036,"stv_name":"Uncletopia | Chicago | 7 | Stopwatch Beta | STV","players":null},{"server_id":39,"name":"Uncletopia | Chicago | 8 | Community","name_short":"chi-8","host":"chi-2.us.uncletopia.com","port":27045,"enabled":true,"region":"us-central","cc":"us","latitude":41.881832,"longitude":-87.62318,"reserved":0,"last_update":"0001-01-01T00:00:00Z","name_a2s":"Uncletopia | Chicago | 8 | Community","protocol":17,"map":"workshop/cp_sulfur_rc2.ugc619869471","folder":"tf","game":"Team Fortress","app_id":440,"player_count":0,"max_players":24,"Bots":0,"server_type":"Dedicated","server_os":"Linux","password":true,"vac":true,"version":"7757534","steam_id":85568392924866365,"keywords":["cp","nocrits","nodmgspread","uncletopia"],"game_id":440,"stv_port":27046,"stv_name":"Uncletopia | Chicago | 8 | Community | STV","players":null},{"server_id":8,"name":"Uncletopia | Dallas | 1 | All Maps","name_short":"dal-1","host":"dal-1.us.uncletopia.com","port":27015,"enabled":true,"region":"us-central","cc":"us","latitude":32.779167,"longitude":-96.80889,"reserved":0,"last_update":"0001-01-01T00:00:00Z","name_a2s":"Uncletopia | Dallas | 1 | All Maps","protocol":17,"map":"pl_barnblitz","folder":"tf","game":"Team Fortress","app_id":440,"player_count":24,"max_players":24,"Bots":0,"server_type":"Dedicated","server_os":"Linux","password":true,"vac":true,"version":"7757534","steam_id":85568392924469986,"keywords":["nocrits","nodmgspread","payload","uncletopia"],"game_id":440,"stv_port":27016,"stv_name":"Uncletopia | Dallas | 1 | All Maps | STV","players":[{"user_id":355,"name":"Astrocircuit","steam_id":76561198014437544,"connected_time":1271000000000,"state":"active","ping":82},{"user_id":352,"name":"punkly","steam_id":76561198129831492,"connected_time":1391000000000,"state":"active","ping":58},{"user_id":313,"name":"üê∫-Iwky-ü¶ä","steam_id":76561198185616311,"connected_time":3711000000000,"state":"active","ping":68},{"user_id":368,"name":"Coffeemelon","steam_id":76561198285891257,"connected_time":436000000000,"state":"active","ping":105},{"user_id":359,"name":"dan","steam_id":76561198061589465,"connected_time":1074000000000,"state":"active","ping":89},{"user_id":369,"name":"Thequirka","steam_id":76561198968058652,"connected_time":420000000000,"state":"active","ping":131},{"user_id":324,"name":"Junky","steam_id":76561198049612322,"connected_time":2971000000000,"state":"active","ping":78},{"user_id":339,"name":"Riboflavin","steam_id":76561198077328593,"connected_time":1823000000000,"state":"active","ping":61},{"user_id":372,"name":"one tiny arm","steam_id":76561198000564263,"connected_time":254000000000,"state":"active","ping":74},{"user_id":366,"name":"gay ass bunny","steam_id":76561198342449098,"connected_time":700000000000,"state":"active","ping":48},{"user_id":370,"name":"ansoonii","steam_id":76561198092494136,"connected_time":318000000000,"state":"active","ping":49},{"user_id":345,"name":"aidenmc3","steam_id":76561198062209166,"connected_time":1657000000000,"state":"active","ping":45},{"user_id":332,"name":"Tribute","steam_id":76561198081594043,"connected_time":2475000000000,"state":"active","ping":58},{"user_id":342,"name":"ChefMike","steam_id":76561198414034069,"connected_time":1691000000000,"state":"active","ping":86},{"user_id":356,"name":"Certified Hood Classic","steam_id":76561199086159354,"connected_time":1191000000000,"state":"active","ping":58},{"user_id":376,"name":"hey beautiful!","steam_id":76561198224614084,"connected_time":179000000000,"state":"active","ping":90},{"user_id":360,"name":"superx","steam_id":76561198044976613,"connected_time":1062000000000,"state":"active","ping":90},{"user_id":373,"name":"lanoc","steam_id":76561198055415367,"connected_time":245000000000,"state":"active","ping":60},{"user_id":361,"name":"Melon Doge","steam_id":76561199006526991,"connected_time":1043000000000,"state":"active","ping":76},{"user_id":379,"name":"Anthrax Consumer","steam_id":76561198099296029,"connected_time":113000000000,"state":"active","ping":41},{"user_id":381,"name":"java","steam_id":76561198030276792,"connected_time":82000000000,"state":"active","ping":76},{"user_id":363,"name":"barbara","steam_id":76561198072417792,"connected_time":992000000000,"state":"active","ping":95},{"user_id":328,"name":"Looneymunkey","steam_id":76561198414675183,"connected_time":2671000000000,"state":"active","ping":62},{"user_id":382,"name":"MonkyBoo„ÉÑ","steam_id":76561198304371716,"connected_time":38000000000,"state":"active","ping":53}]},{"server_id":108,"name":"Uncletopia | Dallas | 2 | All Maps","name_short":"dal-2","host":"dal-1.us.uncletopia.com","port":27025,"enabled":true,"region":"us-central","cc":"us","latitude":32.779167,"longitude":-96.80889,"reserved":0,"last_update":"0001-01-01T00:00:00Z","name_a2s":"Uncletopia | Dallas | 2 | All Maps","protocol":17,"map":"pl_barnblitz","folder":"tf","game":"Team Fortress","app_id":440,"player_count":24,"max_players":24,"Bots":0,"server_type":"Dedicated","server_os":"Linux","password":true,"vac":true,"version":"7757534","steam_id":85568392924469988,"keywords":["nocrits","nodmgspread","payload","uncletopia"],"game_id":440,"stv_port":27026,"stv_name":"Uncletopia | Dallas | 2 | All Maps | STV","players":[{"user_id":173,"name":"brr skibidi dop dop dop","steam_id":76561198991982630,"connected_time":1857000000000,"state":"active","ping":78},{"user_id":164,"name":"Drakon","steam_id":76561198078210822,"connected_time":2561000000000,"state":"active","ping":90},{"user_id":181,"name":"mineblast99","steam_id":76561199065648954,"connected_time":559000000000,"state":"active","ping":76},{"user_id":171,"name":"Parker","steam_id":76561198046044893,"connected_time":1909000000000,"state":"active","ping":69},{"user_id":172,"name":"Ros","steam_id":76561199055963822,"connected_time":1872000000000,"state":"active","ping":75},{"user_id":166,"name":"Cement Drinker","steam_id":76561198143315013,"connected_time":2362000000000,"state":"active","ping":77},{"user_id":138,"name":"Serene Salamander","steam_id":76561198001094770,"connected_time":3628000000000,"state":"active","ping":86},{"user_id":158,"name":"bigboimarven","steam_id":76561198844778810,"connected_time":2853000000000,"state":"active","ping":62},{"user_id":174,"name":"banana97286","steam_id":76561199367847817,"connected_time":1841000000000,"state":"active","ping":76},{"user_id":183,"name":"Glow","steam_id":76561199360481336,"connected_time":306000000000,"state":"active","ping":74},{"user_id":184,"name":"KritzKow","steam_id":76561198086164003,"connected_time":290000000000,"state":"active","ping":86},{"user_id":165,"name":"Whoa","steam_id":76561197970353496,"connected_time":2499000000000,"state":"active","ping":80},{"user_id":151,"name":"[GUT] RiDiK¬Æ","steam_id":76561197969756446,"connected_time":3364000000000,"state":"active","ping":83},{"user_id":147,"name":"Insert Sonic catchphrase here","steam_id":76561198367340750,"connected_time":3461000000000,"state":"active","ping":75},{"user_id":185,"name":"cirno","steam_id":76561198166081596,"connected_time":268000000000,"state":"active","ping":69},{"user_id":148,"name":"Jeugh","steam_id":76561198073498865,"connected_time":3442000000000,"state":"active","ping":120},{"user_id":186,"name":"Sham Cow","steam_id":76561198064556977,"connected_time":264000000000,"state":"active","ping":68},{"user_id":163,"name":"Mellou","steam_id":76561198212048740,"connected_time":2814000000000,"state":"active","ping":112},{"user_id":189,"name":"Zoey","steam_id":76561198035409859,"connected_time":168000000000,"state":"active","ping":105},{"user_id":134,"name":"D(b) Hell","steam_id":76561198067869016,"connected_time":4491000000000,"state":"active","ping":74},{"user_id":178,"name":"John Dungus (the real one)","steam_id":76561198049191027,"connected_time":1160000000000,"state":"active","ping":55},{"user_id":179,"name":"idiot normie","steam_id":76561198397662124,"connected_time":904000000000,"state":"active","ping":65},{"user_id":175,"name":"gaming","steam_id":76561199208549381,"connected_time":1827000000000,"state":"active","ping":105},{"user_id":157,"name":"SmokeyGalaxy","steam_id":76561198118780516,"connected_time":2888000000000,"state":"active","ping":65}]},{"server_id":5,"name":"Uncletopia | Frankfurt | 1 | All Maps","name_short":"frk-1","host":"frk-1.de.uncletopia.com","port":27015,"enabled":true,"region":"eu","cc":"de","latitude":50.110924,"longitude":8.682127,"reserved":0,"last_update":"0001-01-01T00:00:00Z","name_a2s":"Uncletopia | Frankfurt | 1 | All Maps","protocol":17,"map":"cp_mountainlab","folder":"tf","game":"Team Fortress","app_id":440,"player_count":24,"max_players":24,"Bots":0,"server_type":"Dedicated","server_os":"Linux","password":true,"vac":true,"version":"7757534","steam_id":85568392924469989,"keywords":["cp","nocrits","nodmgspread","uncletopia"],"game_id":440,"stv_port":27016,"stv_name":"Uncletopia | Frankfurt | 1 | All Maps | STV","players":[{"user_id":650,"name":"galaxy","steam_id":76561198164819022,"connected_time":2392000000000,"state":"active","ping":65},{"user_id":670,"name":"true","steam_id":76561198031145243,"connected_time":884000000000,"state":"active","ping":84},{"user_id":582,"name":"CRAZY VIKING","steam_id":76561198061440669,"connected_time":6713000000000,"state":"active","ping":65},{"user_id":666,"name":"The cum policeman","steam_id":76561198338129578,"connected_time":930000000000,"state":"active","ping":47},{"user_id":680,"name":"weed fairy","steam_id":76561197998843096,"connected_time":607000000000,"state":"active","ping":75},{"user_id":627,"name":"GamingClemence","steam_id":76561198271679142,"connected_time":3966000000000,"state":"active","ping":66},{"user_id":664,"name":"fogings","steam_id":76561198044165284,"connected_time":970000000000,"state":"active","ping":45},{"user_id":677,"name":"Mr. Culture","steam_id":76561199073315428,"connected_time":727000000000,"state":"active","ping":87},{"user_id":658,"name":"Gio'sMonkey","steam_id":76561198892432223,"connected_time":2116000000000,"state":"active","ping":83},{"user_id":683,"name":"Orochi","steam_id":76561198265192382,"connected_time":532000000000,"state":"active","ping":63},{"user_id":668,"name":"lobzade","steam_id":76561198195685370,"connected_time":924000000000,"state":"active","ping":54},{"user_id":669,"name":"BŒ£NZOIC","steam_id":76561198875665995,"connected_time":919000000000,"state":"active","ping":82},{"user_id":598,"name":"burger","steam_id":76561198071674964,"connected_time":6327000000000,"state":"active","ping":66},{"user_id":639,"name":"NerofromDmc5","steam_id":76561198390314734,"connected_time":3313000000000,"state":"active","ping":60},{"user_id":672,"name":"swallowed 10 pennies please hel","steam_id":76561198055816412,"connected_time":864000000000,"state":"active","ping":64},{"user_id":596,"name":"skittish maiden","steam_id":76561198096856475,"connected_time":6374000000000,"state":"active","ping":45},{"user_id":678,"name":"lanzer","steam_id":76561198049983016,"connected_time":721000000000,"state":"active","ping":92},{"user_id":685,"name":"Rigby","steam_id":76561198021552128,"connected_time":178000000000,"state":"active","ping":100},{"user_id":684,"name":"Major Tom","steam_id":76561198117525443,"connected_time":322000000000,"state":"active","ping":61},{"user_id":673,"name":"Fiendish Beandish","steam_id":76561198095237028,"connected_time":855000000000,"state":"active","ping":70},{"user_id":682,"name":"marty","steam_id":76561198082934864,"connected_time":550000000000,"state":"active","ping":75},{"user_id":661,"name":"barry","steam_id":76561198324316160,"connected_time":1936000000000,"state":"active","ping":68},{"user_id":676,"name":"eple","steam_id":76561198017686306,"connected_time":829000000000,"state":"active","ping":60},{"user_id":647,"name":"The Shartiest Man","steam_id":76561199055566944,"connected_time":2652000000000,"state":"active","ping":79}]},{"server_id":110,"name":"Uncletopia | Frankfurt | 2 | All Maps","name_short":"frk-2","host":"frk-1.de.uncletopia.com","port":27025,"enabled":true,"region":"eu","cc":"de","latitude":50.110924,"longitude":8.682127,"reserved":0,"last_update":"0001-01-01T00:00:00Z","name_a2s":"Uncletopia | Frankfurt | 2 | All Maps","protocol":17,"map":"pl_barnblitz","folder":"tf","game":"Team Fortress","app_id":440,"player_count":24,"max_players":24,"Bots":0,"server_type":"Dedicated","server_os":"Linux","password":true,"vac":true,"version":"7757534","steam_id":85568392924469990,"keywords":["nocrits","nodmgspread","payload","uncletopia"],"game_id":440,"stv_port":27026,"stv_name":"Uncletopia | Frankfurt | 2 | All Maps | STV","players":[{"user_id":608,"name":"Duck_gaming","steam_id":76561198841587079,"connected_time":2009000000000,"state":"active","ping":68},{"user_id":482,"name":"Carrot Arc","steam_id":76561198164957006,"connected_time":9810000000000,"state":"active","ping":84},{"user_id":633,"name":"waffle toaster","steam_id":76561198799089628,"connected_time":274000000000,"state":"active","ping":59},{"user_id":639,"name":"KingDozer","steam_id":76561198088491018,"connected_time":99000000000,"state":"active","ping":65},{"user_id":583,"name":"Qastrol","steam_id":76561198053551284,"connected_time":3318000000000,"state":"active","ping":56},{"user_id":581,"name":"zyzamo","steam_id":76561198048264521,"connected_time":3374000000000,"state":"active","ping":66},{"user_id":622,"name":"ralek","steam_id":76561198337027746,"connected_time":697000000000,"state":"active","ping":90},{"user_id":601,"name":"Taskyy","steam_id":76561198134901175,"connected_time":2312000000000,"state":"active","ping":83},{"user_id":623,"name":"persian terrorist (EdD) vrain.h","steam_id":76561199203608558,"connected_time":516000000000,"state":"active","ping":106},{"user_id":635,"name":"T1 (ted1)","steam_id":76561199229022826,"connected_time":240000000000,"state":"active","ping":110},{"user_id":570,"name":"HimpoX","steam_id":76561198043946778,"connected_time":3998000000000,"state":"active","ping":102},{"user_id":632,"name":"Zero (Orbital Gear Mastermind)","steam_id":76561198017416816,"connected_time":316000000000,"state":"active","ping":62},{"user_id":587,"name":"Russenluster","steam_id":76561198118016220,"connected_time":3210000000000,"state":"active","ping":58},{"user_id":604,"name":"KANA MASTA","steam_id":76561198035515825,"connected_time":2214000000000,"state":"active","ping":46},{"user_id":579,"name":"( Õ° Õ°¬∞ Õú  ñ Õ° Õ°¬∞) \\ ‚òû","steam_id":76561198084597975,"connected_time":3550000000000,"state":"active","ping":58},{"user_id":636,"name":"Na'vi Misato (by popular demand","steam_id":76561198130860698,"connected_time":229000000000,"state":"active","ping":59},{"user_id":620,"name":".::[SerafeTTiN]::.","steam_id":76561198009471724,"connected_time":761000000000,"state":"active","ping":84},{"user_id":637,"name":"Matring","steam_id":76561198142068926,"connected_time":188000000000,"state":"active","ping":95},{"user_id":628,"name":"HOT HENTAI GIRL","steam_id":76561198104438656,"connected_time":423000000000,"state":"active","ping":60},{"user_id":573,"name":"ivanmixo","steam_id":76561198160213989,"connected_time":3942000000000,"state":"active","ping":61},{"user_id":621,"name":"HotPotatoGuy","steam_id":76561198059231776,"connected_time":728000000000,"state":"active","ping":67},{"user_id":606,"name":"juupel","steam_id":76561198000562317,"connected_time":2121000000000,"state":"active","ping":75},{"user_id":619,"name":"Dspi","steam_id":76561198279656499,"connected_time":1026000000000,"state":"active","ping":79},{"user_id":638,"name":"Ê†∏nucleone„ÉÑ","steam_id":76561198099372569,"connected_time":188000000000,"state":"active","ping":60}]},{"server_id":308,"name":"Uncletopia | Frankfurt | 3 | All Maps","name_short":"frk-3","host":"frk-1.de.uncletopia.com","port":27035,"enabled":true,"region":"eu","cc":"de","latitude":50.110924,"longitude":8.682127,"reserved":0,"last_update":"0001-01-01T00:00:00Z","name_a2s":"Uncletopia | Frankfurt | 3 | All Maps","protocol":17,"map":"pl_barnblitz","folder":"tf","game":"Team Fortress","app_id":440,"player_count":24,"max_players":24,"Bots":0,"server_type":"Dedicated","server_os":"Linux","password":true,"vac":true,"version":"7757534","steam_id":85568392924504274,"keywords":["nocrits","nodmgspread","payload","uncletopia"],"game_id":440,"stv_port":27036,"stv_name":"Uncletopia | Frankfurt | 3 | All Maps | STV","players":[{"user_id":154,"name":"Man behind the slaughter","steam_id":76561199121979061,"connected_time":1014000000000,"state":"active","ping":54},{"user_id":157,"name":"Gordon Birdman","steam_id":76561198013382324,"connected_time":965000000000,"state":"active","ping":68},{"user_id":141,"name":"GinoFastidio","steam_id":76561198075830259,"connected_time":2374000000000,"state":"active","ping":125},{"user_id":158,"name":"Kira","steam_id":76561198204168909,"connected_time":414000000000,"state":"active","ping":100},{"user_id":105,"name":"Lateguy","steam_id":76561198069446079,"connected_time":5528000000000,"state":"active","ping":98},{"user_id":156,"name":"camion","steam_id":76561199230091758,"connected_time":979000000000,"state":"active","ping":76},{"user_id":163,"name":"jovi_","steam_id":76561198449280552,"connected_time":165000000000,"state":"active","ping":61},{"user_id":165,"name":"Vitun Jonne","steam_id":76561198401737380,"connected_time":3000000000,"state":"spawning","ping":58},{"user_id":161,"name":"Marko Rutto","steam_id":76561198124226614,"connected_time":209000000000,"state":"active","ping":46},{"user_id":136,"name":"Pipper","steam_id":76561197970326616,"connected_time":2542000000000,"state":"active","ping":55},{"user_id":150,"name":"Conan the Librarian","steam_id":76561198007224654,"connected_time":1389000000000,"state":"active","ping":48},{"user_id":46,"name":"tekt","steam_id":76561198044554387,"connected_time":8999000000000,"state":"active","ping":109},{"user_id":164,"name":"BiPlan","steam_id":76561199366164884,"connected_time":163000000000,"state":"active","ping":57},{"user_id":144,"name":"big noob","steam_id":76561198281332748,"connected_time":2182000000000,"state":"active","ping":68},{"user_id":152,"name":"Amon Gus","steam_id":76561199094540960,"connected_time":1360000000000,"state":"active","ping":64},{"user_id":138,"name":"Xie Xil Ling","steam_id":76561198053394831,"connected_time":2519000000000,"state":"active","ping":71},{"user_id":117,"name":"Mr.Schnittlauch","steam_id":76561198295868113,"connected_time":4176000000000,"state":"active","ping":60},{"user_id":135,"name":"poopcorn","steam_id":76561198435246575,"connected_time":2546000000000,"state":"active","ping":64},{"user_id":73,"name":"scantron","steam_id":76561199103959197,"connected_time":7821000000000,"state":"active","ping":93},{"user_id":111,"name":"big hoops","steam_id":76561198004703799,"connected_time":4896000000000,"state":"active","ping":47},{"user_id":160,"name":"ike","steam_id":76561198039845647,"connected_time":341000000000,"state":"active","ping":74},{"user_id":123,"name":"Miles","steam_id":76561198084891833,"connected_time":3646000000000,"state":"active","ping":60},{"user_id":140,"name":"Le Pepp","steam_id":76561198042427803,"connected_time":2515000000000,"state":"active","ping":65},{"user_id":143,"name":"SIR MEPHEDRONE","steam_id":76561198302623594,"connected_time":2279000000000,"state":"active","ping":94}]},{"server_id":309,"name":"Uncletopia | Frankfurt | 4 | All Maps","name_short":"frk-4","host":"frk-1.de.uncletopia.com","port":27045,"enabled":true,"region":"eu","cc":"de","latitude":50.110924,"longitude":8.682127,"reserved":0,"last_update":"0001-01-01T00:00:00Z","name_a2s":"Uncletopia | Frankfurt | 4 | All Maps","protocol":17,"map":"cp_snakewater_final1","folder":"tf","game":"Team Fortress","app_id":440,"player_count":23,"max_players":24,"Bots":0,"server_type":"Dedicated","server_os":"Linux","password":true,"vac":true,"version":"7757534","steam_id":85568392924504275,"keywords":["cp","nocrits","nodmgspread","uncletopia"],"game_id":440,"stv_port":27046,"stv_name":"Uncletopia | Frankfurt | 4 | All Maps | STV","players":[{"user_id":333,"name":"‚ò© Knightz ‚ò©","steam_id":76561198040936414,"connected_time":2256000000000,"state":"active","ping":120},{"user_id":332,"name":"Aimbob","steam_id":76561198276682591,"connected_time":2408000000000,"state":"active","ping":63},{"user_id":246,"name":"Pastoss","steam_id":76561198379098260,"connected_time":9510000000000,"state":"active","ping":56},{"user_id":358,"name":"FJADL","steam_id":76561198237008214,"connected_time":1335000000000,"state":"active","ping":56},{"user_id":365,"name":"zak","steam_id":76561197998895428,"connected_time":764000000000,"state":"active","ping":57},{"user_id":359,"name":"Welder","steam_id":76561198355300561,"connected_time":829000000000,"state":"active","ping":63},{"user_id":283,"name":"Lord of the Lockerroom","steam_id":76561198080619697,"connected_time":7249000000000,"state":"active","ping":86},{"user_id":281,"name":"Paul B√§umer","steam_id":76561198308302932,"connected_time":7437000000000,"state":"active","ping":95},{"user_id":336,"name":"eeeeee","steam_id":76561198017786875,"connected_time":2241000000000,"state":"active","ping":68},{"user_id":353,"name":"sexo","steam_id":76561199088284199,"connected_time":1714000000000,"state":"active","ping":66},{"user_id":360,"name":"Bottom of the barrel terrorist","steam_id":76561198929386604,"connected_time":803000000000,"state":"active","ping":85},{"user_id":366,"name":"e36 1.8","steam_id":76561198134203031,"connected_time":684000000000,"state":"active","ping":63},{"user_id":339,"name":"rummy","steam_id":76561197997573379,"connected_time":2220000000000,"state":"active","ping":54},{"user_id":285,"name":"Sweat Plantation","steam_id":76561198025086883,"connected_time":7101000000000,"state":"active","ping":86},{"user_id":286,"name":"SgtRookie","steam_id":76561198030230427,"connected_time":6666000000000,"state":"active","ping":90},{"user_id":361,"name":"Silva_mlon","steam_id":76561199310242047,"connected_time":803000000000,"state":"active","ping":75},{"user_id":352,"name":"kul","steam_id":76561198065179630,"connected_time":1752000000000,"state":"active","ping":53},{"user_id":362,"name":"gxoul","steam_id":76561199091006994,"connected_time":794000000000,"state":"active","ping":71},{"user_id":342,"name":"Carrotcracker","steam_id":76561198034862396,"connected_time":2199000000000,"state":"active","ping":81},{"user_id":363,"name":"Kraiti","steam_id":76561198847296908,"connected_time":791000000000,"state":"active","ping":163},{"user_id":367,"name":"Kai","steam_id":76561198097986175,"connected_time":346000000000,"state":"active","ping":75},{"user_id":356,"name":"Hexabit","steam_id":76561198028625661,"connected_time":1634000000000,"state":"active","ping":70},{"user_id":357,"name":"toe eater","steam_id":76561199272782484,"connected_time":1626000000000,"state":"active","ping":106}]},{"server_id":310,"name":"Uncletopia | Frankfurt | 5 | All Maps","name_short":"frk-5","host":"frk-1.de.uncletopia.com","port":27055,"enabled":true,"region":"eu","cc":"de","latitude":50.110924,"longitude":8.682127,"reserved":0,"last_update":"0001-01-01T00:00:00Z","name_a2s":"Uncletopia | Frankfurt | 5 | All Maps","protocol":17,"map":"pl_upward","folder":"tf","game":"Team Fortress","app_id":440,"player_count":24,"max_players":24,"Bots":0,"server_type":"Dedicated","server_os":"Linux","password":true,"vac":true,"version":"7757534","steam_id":85568392924504277,"keywords":["nocrits","nodmgspread","payload","uncletopia"],"game_id":440,"stv_port":27056,"stv_name":"Uncletopia | Frankfurt | 5 | All Maps | STV","players":[{"user_id":432,"name":"the rizzard of oz","steam_id":76561198066631833,"connected_time":40000000000,"state":"active","ping":73},{"user_id":411,"name":"historicalpoultry","steam_id":76561198148422688,"connected_time":2092000000000,"state":"active","ping":36},{"user_id":395,"name":"video game enjoyer","steam_id":76561198045505082,"connected_time":3615000000000,"state":"active","ping":66},{"user_id":387,"name":"CyberBuddha [RU/EN]","steam_id":76561198075853329,"connected_time":5579000000000,"state":"active","ping":131},{"user_id":428,"name":"1 in a Trillion Football Moment","steam_id":76561199075279565,"connected_time":770000000000,"state":"active","ping":135},{"user_id":325,"name":"[Erathia]ARKHALIS","steam_id":76561198993900003,"connected_time":8089000000000,"state":"active","ping":72},{"user_id":412,"name":"Volcyy","steam_id":76561198063979124,"connected_time":2085000000000,"state":"active","ping":44},{"user_id":430,"name":"I'm high on crack","steam_id":76561198175433731,"connected_time":686000000000,"state":"active","ping":84},{"user_id":410,"name":"Cobb Salads","steam_id":76561197971140507,"connected_time":2318000000000,"state":"active","ping":68},{"user_id":398,"name":"Cosmetic brain","steam_id":76561198055936410,"connected_time":3559000000000,"state":"active","ping":84},{"user_id":397,"name":"poorchel","steam_id":76561198056905953,"connected_time":3589000000000,"state":"active","ping":121},{"user_id":425,"name":"Senko","steam_id":76561198149361291,"connected_time":1221000000000,"state":"active","ping":48},{"user_id":423,"name":"Giovine Killjoy","steam_id":76561198059375315,"connected_time":1375000000000,"state":"active","ping":70},{"user_id":415,"name":"Eskimo","steam_id":76561198154147392,"connected_time":2065000000000,"state":"active","ping":45},{"user_id":349,"name":"that guy","steam_id":76561198202990635,"connected_time":7089000000000,"state":"active","ping":65},{"user_id":421,"name":"Dr. Mario","steam_id":76561199125182282,"connected_time":1631000000000,"state":"active","ping":53},{"user_id":429,"name":"Superiumentarius","steam_id":76561198081642249,"connected_time":760000000000,"state":"active","ping":55},{"user_id":326,"name":"{CPBR}SPRSTR","steam_id":76561197998887733,"connected_time":8084000000000,"state":"active","ping":102},{"user_id":431,"name":"john fortress 2","steam_id":76561198202668788,"connected_time":682000000000,"state":"active","ping":63},{"user_id":390,"name":"TylowStar","steam_id":76561198357107806,"connected_time":4615000000000,"state":"active","ping":76},{"user_id":405,"name":"kelsey","steam_id":76561198426604784,"connected_time":3182000000000,"state":"active","ping":66},{"user_id":422,"name":"aph","steam_id":76561198057722639,"connected_time":1608000000000,"state":"active","ping":64},{"user_id":419,"name":"muehlbacher","steam_id":76561199046112419,"connected_time":2014000000000,"state":"active","ping":68},{"user_id":382,"name":"subway vergil","steam_id":76561199110064166,"connected_time":5978000000000,"state":"active","ping":83}]},{"server_id":311,"name":"Uncletopia | Frankfurt | 6 | All Maps","name_short":"frk-6","host":"frk-1.de.uncletopia.com","port":27065,"enabled":true,"region":"eu","cc":"de","latitude":50.110924,"longitude":8.682127,"reserved":0,"last_update":"0001-01-01T00:00:00Z","name_a2s":"Uncletopia | Frankfurt | 6 | All Maps","protocol":17,"map":"koth_lakeside_final","folder":"tf","game":"Team Fortress","app_id":440,"player_count":24,"max_players":24,"Bots":0,"server_type":"Dedicated","server_os":"Linux","password":true,"vac":true,"version":"7757534","steam_id":85568392924504278,"keywords":["cp","nocrits","nodmgspread","uncletopia"],"game_id":440,"stv_port":27066,"stv_name":"Uncletopia | Frankfurt | 6 | All Maps | STV","players":[{"user_id":243,"name":"Chespia chda","steam_id":76561198097507847,"connected_time":6318000000000,"state":"active","ping":75},{"user_id":328,"name":"Dragco","steam_id":76561198133902802,"connected_time":1930000000000,"state":"active","ping":69},{"user_id":358,"name":"Dr. Le Quack","steam_id":76561197995711176,"connected_time":624000000000,"state":"active","ping":86},{"user_id":363,"name":"dagaminking","steam_id":76561198144209072,"connected_time":177000000000,"state":"active","ping":53},{"user_id":361,"name":"cazzoneporcodio","steam_id":76561198337994909,"connected_time":350000000000,"state":"active","ping":76},{"user_id":332,"name":"DeSepp","steam_id":76561198063149086,"connected_time":1915000000000,"state":"active","ping":55},{"user_id":342,"name":"roblan11","steam_id":76561198066839258,"connected_time":1417000000000,"state":"active","ping":52},{"user_id":364,"name":"HOI","steam_id":76561198061182117,"connected_time":147000000000,"state":"active","ping":60},{"user_id":279,"name":"Videogamer","steam_id":76561198106012909,"connected_time":5338000000000,"state":"active","ping":67},{"user_id":360,"name":"Mr Aldi","steam_id":76561198426522902,"connected_time":365000000000,"state":"active","ping":66},{"user_id":351,"name":"Premysl","steam_id":76561198075584825,"connected_time":920000000000,"state":"active","ping":59},{"user_id":304,"name":"suna militisto","steam_id":76561198352926998,"connected_time":3906000000000,"state":"active","ping":90},{"user_id":359,"name":"Terry","steam_id":76561198062444723,"connected_time":390000000000,"state":"active","ping":53},{"user_id":357,"name":"Arturias","steam_id":76561198188720263,"connected_time":731000000000,"state":"active","ping":55},{"user_id":365,"name":"Ebaklak","steam_id":76561198016102699,"connected_time":95000000000,"state":"active","ping":89},{"user_id":314,"name":"Duke Fishlord","steam_id":76561198079928327,"connected_time":3063000000000,"state":"active","ping":59},{"user_id":353,"name":"Sad Man","steam_id":76561197960857993,"connected_time":887000000000,"state":"active","ping":150},{"user_id":298,"name":"twitch.tv/biofun_","steam_id":76561198170609049,"connected_time":4483000000000,"state":"active","ping":70},{"user_id":340,"name":"Hanƒ±mSever23","steam_id":76561198142124751,"connected_time":1546000000000,"state":"active","ping":116},{"user_id":355,"name":"Uncle Henk","steam_id":76561198067863614,"connected_time":831000000000,"state":"active","ping":71},{"user_id":362,"name":"r/sonofelicenellafece","steam_id":76561198262231733,"connected_time":264000000000,"state":"active","ping":74},{"user_id":323,"name":"shillvan","steam_id":76561198415391988,"connected_time":2224000000000,"state":"active","ping":60},{"user_id":291,"name":"Cheshie cdna","steam_id":76561198067204908,"connected_time":5037000000000,"state":"active","ping":66},{"user_id":346,"name":"Magiccomplex","steam_id":76561199203555188,"connected_time":1364000000000,"state":"active","ping":49}]},{"server_id":23,"name":"Uncletopia | Frankfurt | 7 | Stopwatch Beta","name_short":"frk-7","host":"frk-1.de.uncletopia.com","port":27075,"enabled":true,"region":"eu","cc":"de","latitude":50.110924,"longitude":8.682127,"reserved":0,"last_update":"0001-01-01T00:00:00Z","name_a2s":"Uncletopia | Frankfurt | 7 | Stopwatch Beta","protocol":17,"map":"pl_borneo","folder":"tf","game":"Team Fortress","app_id":440,"player_count":0,"max_players":24,"Bots":0,"server_type":"Dedicated","server_os":"Linux","password":true,"vac":true,"version":"7757534","steam_id":85568392924742827,"keywords":["nocrits","nodmgspread","payload","uncletopia"],"game_id":440,"stv_port":27076,"stv_name":"Uncletopia | Frankfurt | 7 | Stopwatch Beta | STV","players":null},{"server_id":24,"name":"Uncletopia | Frankfurt | 8 | Community","name_short":"frk-8","host":"frk-1.de.uncletopia.com","port":27085,"enabled":true,"region":"eu","cc":"de","latitude":50.110924,"longitude":8.682127,"reserved":0,"last_update":"0001-01-01T00:00:00Z","name_a2s":"Uncletopia | Frankfurt | 8 | Community","protocol":17,"map":"koth_cascade","folder":"tf","game":"Team Fortress","app_id":440,"player_count":0,"max_players":24,"Bots":0,"server_type":"Dedicated","server_os":"Linux","password":true,"vac":true,"version":"7757534","steam_id":85568392924742828,"keywords":["cp","nocrits","nodmgspread","uncletopia"],"game_id":440,"stv_port":27086,"stv_name":"Uncletopia | Frankfurt | 8 | Community | STV","players":null},{"server_id":202,"name":"Uncletopia | Hong Kong | 1 | All Maps","name_short":"hgk-1","host":"hgk-1.hk.uncletopia.com","port":27015,"enabled":true,"region":"asia","cc":"hk","latitude":22.302711,"longitude":114.177216,"reserved":0,"last_update":"0001-01-01T00:00:00Z","name_a2s":"Uncletopia | Hong Kong | 1 | All Maps","protocol":17,"map":"plr_hightower","folder":"tf","game":"Team Fortress","app_id":440,"player_count":0,"max_players":24,"Bots":0,"server_type":"Dedicated","server_os":"Linux","password":true,"vac":true,"version":"7757534","steam_id":85568392924494504,"keywords":["nocrits","nodmgspread","payload","uncletopia"],"game_id":440,"stv_port":27016,"stv_name":"Uncletopia | Hong Kong | 1 | All Maps | STV","players":null},{"server_id":1,"name":"Uncletopia | Los Angeles | 1 | All Maps","name_short":"lax-1","host":"lax-1.us.uncletopia.com","port":27015,"enabled":true,"region":"us-west","cc":"us","latitude":33.94279,"longitude":-118.41004,"reserved":0,"last_update":"0001-01-01T00:00:00Z","name_a2s":"Uncletopia | Los Angeles | 1 | All Maps","protocol":17,"map":"koth_viaduct","folder":"tf","game":"Team Fortress","app_id":440,"player_count":23,"max_players":24,"Bots":0,"server_type":"Dedicated","server_os":"Linux","password":true,"vac":true,"version":"7757534","steam_id":85568392924469991,"keywords":["cp","nocrits","nodmgspread","uncletopia"],"game_id":440,"stv_port":27016,"stv_name":"Uncletopia | Los Angeles | 1 | All Maps | STV","players":[{"user_id":56,"name":"Tumbleweed","steam_id":76561198880710930,"connected_time":334000000000,"state":"active","ping":73},{"user_id":51,"name":"wahoo","steam_id":76561198329677892,"connected_time":450000000000,"state":"active","ping":59},{"user_id":58,"name":"West Coast Psycho","steam_id":76561198026737783,"connected_time":258000000000,"state":"active","ping":54},{"user_id":50,"name":"Alexx","steam_id":76561198258332607,"connected_time":463000000000,"state":"active","ping":97},{"user_id":52,"name":"Algerian Egirl :3c","steam_id":76561198349345477,"connected_time":449000000000,"state":"active","ping":59},{"user_id":25,"name":"Hong Kong Sniper","steam_id":76561198013049988,"connected_time":1095000000000,"state":"active","ping":115},{"user_id":55,"name":"jturner1nm","steam_id":76561198344493652,"connected_time":381000000000,"state":"active","ping":103},{"user_id":27,"name":"‡ØµCorn Syrup Mutant ‚úî","steam_id":76561198015087906,"connected_time":1035000000000,"state":"active","ping":98},{"user_id":28,"name":"Aldreon","steam_id":76561198022452189,"connected_time":1025000000000,"state":"active","ping":93},{"user_id":57,"name":"plastiquemonk","steam_id":76561198126035719,"connected_time":296000000000,"state":"active","ping":58},{"user_id":35,"name":"Back with the milk","steam_id":76561199020105501,"connected_time":927000000000,"state":"active","ping":104},{"user_id":39,"name":"hoOmIN","steam_id":76561198334947079,"connected_time":762000000000,"state":"active","ping":39},{"user_id":32,"name":"Ytown","steam_id":76561198165879751,"connected_time":987000000000,"state":"active","ping":67},{"user_id":40,"name":"Encore","steam_id":76561198029433812,"connected_time":725000000000,"state":"active","ping":90},{"user_id":34,"name":"dwnkins","steam_id":76561198856016840,"connected_time":946000000000,"state":"active","ping":116},{"user_id":41,"name":"Saodde","steam_id":76561198119653709,"connected_time":698000000000,"state":"active","ping":64},{"user_id":42,"name":"Uprightmoss7528","steam_id":76561199200138486,"connected_time":696000000000,"state":"active","ping":57},{"user_id":48,"name":"Bri","steam_id":76561198089908485,"connected_time":610000000000,"state":"active","ping":134},{"user_id":44,"name":"Glitchybyte","steam_id":76561199124805880,"connected_time":670000000000,"state":"active","ping":74},{"user_id":45,"name":"Axio","steam_id":76561198062072555,"connected_time":665000000000,"state":"active","ping":101},{"user_id":46,"name":"Pally","steam_id":76561199365736447,"connected_time":634000000000,"state":"active","ping":102},{"user_id":47,"name":"shellaa","steam_id":76561198044124102,"connected_time":627000000000,"state":"active","ping":72},{"user_id":49,"name":"üçÉSmellyPineappleüçÉ","steam_id":76561198043248645,"connected_time":601000000000,"state":"active","ping":57}]},{"server_id":112,"name":"Uncletopia | Los Angeles | 2 | All Maps","name_short":"lax-2","host":"lax-1.us.uncletopia.com","port":27025,"enabled":true,"region":"us-west","cc":"us","latitude":33.94279,"longitude":-118.41004,"reserved":0,"last_update":"0001-01-01T00:00:00Z","name_a2s":"Uncletopia | Los Angeles | 2 | All Maps","protocol":17,"map":"pl_barnblitz","folder":"tf","game":"Team Fortress","app_id":440,"player_count":0,"max_players":24,"Bots":0,"server_type":"Dedicated","server_os":"Linux","password":true,"vac":true,"version":"7757534","steam_id":85568392924469992,"keywords":["nocrits","nodmgspread","payload","uncletopia"],"game_id":440,"stv_port":27026,"stv_name":"Uncletopia | Los Angeles | 2 | All Maps | STV","players":null},{"server_id":324,"name":"Uncletopia | Los Angeles | 3 | All Maps","name_short":"lax-3","host":"lax-1.us.uncletopia.com","port":27035,"enabled":true,"region":"us-west","cc":"us","latitude":33.94279,"longitude":-118.41004,"reserved":0,"last_update":"0001-01-01T00:00:00Z","name_a2s":"Uncletopia | Los Angeles | 3 | All Maps","protocol":17,"map":"pl_barnblitz","folder":"tf","game":"Team Fortress","app_id":440,"player_count":3,"max_players":24,"Bots":0,"server_type":"Dedicated","server_os":"Linux","password":true,"vac":true,"version":"7757534","steam_id":85568392924510198,"keywords":["nocrits","nodmgspread","payload","uncletopia"],"game_id":440,"stv_port":27036,"stv_name":"Uncletopia | Los Angeles | 3 | All Maps | STV","players":[{"user_id":9,"name":"MikotoNui","steam_id":76561198049607369,"connected_time":181000000000,"state":"spawning","ping":300},{"user_id":10,"name":"JCTheAllStar","steam_id":76561198080123011,"connected_time":148000000000,"state":"active","ping":116},{"user_id":12,"name":"GoseiDaiShogun","steam_id":76561197999069310,"connected_time":117000000000,"state":"active","ping":114}]},{"server_id":25,"name":"Uncletopia | Los Angeles | 4 | Stopwatch Beta","name_short":"lax-4","host":"lax-1.us.uncletopia.com","port":27045,"enabled":true,"region":"us-west","cc":"us","latitude":33.94279,"longitude":-118.41004,"reserved":0,"last_update":"0001-01-01T00:00:00Z","name_a2s":"Uncletopia | Los Angeles | 4 | Stopwatch Beta","protocol":17,"map":"koth_viaduct","folder":"tf","game":"Team Fortress","app_id":440,"player_count":0,"max_players":24,"Bots":0,"server_type":"Dedicated","server_os":"Linux","password":true,"vac":true,"version":"7757534","steam_id":85568392924510199,"keywords":["cp","nocrits","nodmgspread","uncletopia"],"game_id":440,"stv_port":27046,"stv_name":"Uncletopia | Los Angeles | 4 | Stopwatch Beta | STV","players":null},{"server_id":11,"name":"Uncletopia | London | 1 | All Maps","name_short":"lon-1","host":"lon-1.uk.uncletopia.com","port":27015,"enabled":true,"region":"eu","cc":"gb","latitude":51.509865,"longitude":-0.118092,"reserved":0,"last_update":"0001-01-01T00:00:00Z","name_a2s":"Uncletopia | London | 1 | All Maps","protocol":17,"map":"pl_barnblitz","folder":"tf","game":"Team Fortress","app_id":440,"player_count":21,"max_players":24,"Bots":0,"server_type":"Dedicated","server_os":"Linux","password":true,"vac":true,"version":"7757534","steam_id":85568392924367362,"keywords":["nocrits","nodmgspread","payload","uncletopia"],"game_id":440,"stv_port":27016,"stv_name":"Uncletopia | London | 1 | All Maps | STV","players":[{"user_id":529,"name":"Fat Pigeon","steam_id":76561198817940142,"connected_time":7149000000000,"state":"active","ping":46},{"user_id":603,"name":"Bad and Wuji","steam_id":76561199385280253,"connected_time":154000000000,"state":"active","ping":123},{"user_id":600,"name":"J3LLY","steam_id":76561198048453764,"connected_time":226000000000,"state":"active","ping":51},{"user_id":577,"name":"Durham.","steam_id":76561199013125141,"connected_time":3714000000000,"state":"active","ping":62},{"user_id":555,"name":"Jofiah/TTV","steam_id":76561197977233962,"connected_time":5665000000000,"state":"active","ping":39},{"user_id":581,"name":"ThrobbingFerret","steam_id":76561199075576606,"connected_time":3309000000000,"state":"active","ping":68},{"user_id":542,"name":"player","steam_id":76561198054474684,"connected_time":6799000000000,"state":"active","ping":77},{"user_id":590,"name":"Bgm_","steam_id":76561198056452044,"connected_time":1890000000000,"state":"active","ping":69},{"user_id":579,"name":"dec","steam_id":76561198009660168,"connected_time":3450000000000,"state":"active","ping":59},{"user_id":599,"name":"Udinese Dion","steam_id":76561198067931573,"connected_time":290000000000,"state":"active","ping":48},{"user_id":593,"name":"Kernel Panic","steam_id":76561198215811047,"connected_time":1273000000000,"state":"active","ping":43},{"user_id":552,"name":"NLSAM","steam_id":76561199111154916,"connected_time":5785000000000,"state":"active","ping":58},{"user_id":604,"name":"Levin","steam_id":76561198106530561,"connected_time":89000000000,"state":"active","ping":90},{"user_id":605,"name":"SEMIK","steam_id":76561199088506542,"connected_time":27000000000,"state":"active","ping":61},{"user_id":596,"name":"Pablo.Gonzalez.2012","steam_id":76561199244675657,"connected_time":855000000000,"state":"active","ping":141},{"user_id":602,"name":".quickfast.","steam_id":76561199438900919,"connected_time":206000000000,"state":"active","ping":45},{"user_id":563,"name":"dominus.","steam_id":76561199065917088,"connected_time":5424000000000,"state":"active","ping":62},{"user_id":560,"name":"Mor'du","steam_id":76561198274105878,"connected_time":5637000000000,"state":"active","ping":89},{"user_id":564,"name":"turtlemode","steam_id":76561198047725928,"connected_time":5414000000000,"state":"active","ping":51},{"user_id":582,"name":"(_ _).ÔΩ°o‚óã","steam_id":76561198298576765,"connected_time":2768000000000,"state":"active","ping":72},{"user_id":587,"name":"dunduu","steam_id":76561198875240717,"connected_time":2497000000000,"state":"active","ping":80}]},{"server_id":114,"name":"Uncletopia | London | 2 | All Maps","name_short":"lon-2","host":"lon-1.uk.uncletopia.com","port":27025,"enabled":true,"region":"eu","cc":"gb","latitude":51.509865,"longitude":-0.118092,"reserved":0,"last_update":"0001-01-01T00:00:00Z","name_a2s":"Uncletopia | London | 2 | All Maps","protocol":17,"map":"pl_frontier_final","folder":"tf","game":"Team Fortress","app_id":440,"player_count":23,"max_players":24,"Bots":0,"server_type":"Dedicated","server_os":"Linux","password":true,"vac":true,"version":"7757534","steam_id":85568392924470941,"keywords":["nocrits","nodmgspread","payload","uncletopia"],"game_id":440,"stv_port":27026,"stv_name":"Uncletopia | London | 2 | All Maps | STV","players":[{"user_id":819,"name":"spada dell'islam","steam_id":76561198038748489,"connected_time":931000000000,"state":"active","ping":75},{"user_id":815,"name":"GARbageTrash","steam_id":76561199101269633,"connected_time":1352000000000,"state":"active","ping":100},{"user_id":793,"name":"MelvinIsANiceBoy","steam_id":76561198178415634,"connected_time":2290000000000,"state":"active","ping":55},{"user_id":817,"name":"Sodsboy","steam_id":76561198030482006,"connected_time":1024000000000,"state":"active","ping":42},{"user_id":822,"name":"Dr. Uberschwein","steam_id":76561198111367431,"connected_time":769000000000,"state":"active","ping":93},{"user_id":790,"name":"rat performance","steam_id":76561198065854668,"connected_time":2663000000000,"state":"active","ping":43},{"user_id":818,"name":"Lovelessvaccuum","steam_id":76561198079555422,"connected_time":1006000000000,"state":"active","ping":30},{"user_id":827,"name":"SnasTheSkeleton","steam_id":76561199469223463,"connected_time":558000000000,"state":"active","ping":50},{"user_id":762,"name":"Yatsuzume","steam_id":76561198059762108,"connected_time":5085000000000,"state":"active","ping":55},{"user_id":829,"name":"FairlyFatFungus","steam_id":76561199152828854,"connected_time":359000000000,"state":"active","ping":52},{"user_id":779,"name":"Nifi","steam_id":76561198102682566,"connected_time":3768000000000,"state":"active","ping":75},{"user_id":781,"name":"‚ú™ qua ‚ú™","steam_id":76561198066408333,"connected_time":3675000000000,"state":"active","ping":76},{"user_id":788,"name":"Ed","steam_id":76561198135081318,"connected_time":2710000000000,"state":"active","ping":54},{"user_id":805,"name":"duster cat","steam_id":76561198832231975,"connected_time":1955000000000,"state":"active","ping":92},{"user_id":807,"name":"Slav-matros","steam_id":76561198251977912,"connected_time":1821000000000,"state":"active","ping":69},{"user_id":698,"name":"john fortress","steam_id":76561198013237629,"connected_time":8780000000000,"state":"active","ping":94},{"user_id":795,"name":"Crunchy","steam_id":76561198184973203,"connected_time":2221000000000,"state":"active","ping":54},{"user_id":824,"name":"Vismund33 „É¥„Ç£„Çπ„É†„É≥„Éâ33","steam_id":76561198143773948,"connected_time":748000000000,"state":"active","ping":50},{"user_id":825,"name":"Okonell[HUN]","steam_id":76561198032216617,"connected_time":741000000000,"state":"active","ping":83},{"user_id":814,"name":"Oaknight","steam_id":76561198030824146,"connected_time":1514000000000,"state":"active","ping":45},{"user_id":789,"name":"BeS","steam_id":76561198045752247,"connected_time":2708000000000,"state":"active","ping":65},{"user_id":831,"name":"12Adam12","steam_id":76561198037882443,"connected_time":57000000000,"state":"active","ping":55},{"user_id":766,"name":"slifty","steam_id":76561198166682199,"connected_time":4207000000000,"state":"active","ping":56}]},{"server_id":320,"name":"Uncletopia | London | 3 | All Maps","name_short":"lon-3","host":"lon-1.uk.uncletopia.com","port":27035,"enabled":true,"region":"eu","cc":"gb","latitude":51.509865,"longitude":-0.118092,"reserved":0,"last_update":"0001-01-01T00:00:00Z","name_a2s":"Uncletopia | London | 3 | All Maps","protocol":17,"map":"pl_upward","folder":"tf","game":"Team Fortress","app_id":440,"player_count":23,"max_players":24,"Bots":0,"server_type":"Dedicated","server_os":"Linux","password":true,"vac":true,"version":"7757534","steam_id":85568392924510192,"keywords":["nocrits","nodmgspread","payload","uncletopia"],"game_id":440,"stv_port":27036,"stv_name":"Uncletopia | London | 3 | All Maps | STV","players":[{"user_id":483,"name":"Kris","steam_id":76561198240638652,"connected_time":1116000000000,"state":"active","ping":44},{"user_id":472,"name":"kbbq","steam_id":76561198346638308,"connected_time":2186000000000,"state":"active","ping":49},{"user_id":470,"name":"Dr. Chapstick","steam_id":76561198331857270,"connected_time":2567000000000,"state":"active","ping":114},{"user_id":482,"name":"gosi","steam_id":76561198084111532,"connected_time":1280000000000,"state":"active","ping":69},{"user_id":418,"name":"BobMarleyGod","steam_id":76561198344966538,"connected_time":4892000000000,"state":"active","ping":53},{"user_id":487,"name":"R!not","steam_id":76561197986328786,"connected_time":141000000000,"state":"active","ping":44},{"user_id":421,"name":"Lady Maria","steam_id":76561198953210459,"connected_time":4847000000000,"state":"active","ping":97},{"user_id":486,"name":"hawkblob","steam_id":76561198803720565,"connected_time":187000000000,"state":"active","ping":59},{"user_id":481,"name":"CEO of Pen Island","steam_id":76561198037212191,"connected_time":1391000000000,"state":"active","ping":69},{"user_id":485,"name":"Mr_Pulse_","steam_id":76561198095001602,"connected_time":454000000000,"state":"active","ping":102},{"user_id":488,"name":"Monsteh","steam_id":76561198325898181,"connected_time":139000000000,"state":"active","ping":73},{"user_id":389,"name":"Anri Okita's Massive Milkers","steam_id":76561199186352720,"connected_time":6945000000000,"state":"active","ping":58},{"user_id":491,"name":"Mr. Gobling","steam_id":76561199096778623,"connected_time":55000000000,"state":"active","ping":67},{"user_id":492,"name":":)","steam_id":76561198977420882,"connected_time":36000000000,"state":"active","ping":39},{"user_id":469,"name":"big al","steam_id":76561198800662675,"connected_time":2606000000000,"state":"active","ping":103},{"user_id":466,"name":"Dedarrict","steam_id":76561198286179783,"connected_time":2744000000000,"state":"active","ping":100},{"user_id":493,"name":"Caerot","steam_id":76561198839000676,"connected_time":23000000000,"state":"spawning","ping":73},{"user_id":474,"name":"Swayer","steam_id":76561198056192460,"connected_time":2171000000000,"state":"active","ping":67},{"user_id":477,"name":"Sam","steam_id":76561198203070687,"connected_time":1807000000000,"state":"active","ping":56},{"user_id":475,"name":"jesus in hell","steam_id":76561199186426296,"connected_time":2169000000000,"state":"active","ping":120},{"user_id":463,"name":"AndLogin","steam_id":76561198108601962,"connected_time":2854000000000,"state":"active","ping":100},{"user_id":464,"name":"saus","steam_id":76561198114729364,"connected_time":2850000000000,"state":"active","ping":60},{"user_id":484,"name":"Scipionemiliano","steam_id":76561198027646559,"connected_time":967000000000,"state":"active","ping":101}]},{"server_id":321,"name":"Uncletopia | London | 4 | All Maps","name_short":"lon-4","host":"lon-1.uk.uncletopia.com","port":27045,"enabled":true,"region":"eu","cc":"gb","latitude":51.509865,"longitude":-0.118092,"reserved":0,"last_update":"0001-01-01T00:00:00Z","name_a2s":"Uncletopia | London | 4 | All Maps","protocol":17,"map":"pl_swiftwater_final1","folder":"tf","game":"Team Fortress","app_id":440,"player_count":23,"max_players":24,"Bots":0,"server_type":"Dedicated","server_os":"Linux","password":true,"vac":true,"version":"7757534","steam_id":85568392924510193,"keywords":["nocrits","nodmgspread","payload","uncletopia"],"game_id":440,"stv_port":27046,"stv_name":"Uncletopia | London | 4 | All Maps | STV","players":[{"user_id":420,"name":"darktheif54","steam_id":76561198043650119,"connected_time":2095000000000,"state":"active","ping":53},{"user_id":425,"name":"Cynical","steam_id":76561198077084694,"connected_time":1823000000000,"state":"active","ping":46},{"user_id":428,"name":"scarecrow jones","steam_id":76561198258267182,"connected_time":1764000000000,"state":"active","ping":154},{"user_id":422,"name":"sent from my iphone","steam_id":76561198259668029,"connected_time":2018000000000,"state":"active","ping":55},{"user_id":451,"name":"majora's boostio","steam_id":76561198392628642,"connected_time":386000000000,"state":"active","ping":37},{"user_id":364,"name":"Syd","steam_id":76561198020515027,"connected_time":6368000000000,"state":"active","ping":63},{"user_id":434,"name":"Rawrins","steam_id":76561198014462899,"connected_time":1507000000000,"state":"active","ping":97},{"user_id":452,"name":"MefedronDow√≥z24h","steam_id":76561198107166530,"connected_time":337000000000,"state":"active","ping":128},{"user_id":442,"name":"logo in the foam","steam_id":76561198188642265,"connected_time":856000000000,"state":"active","ping":53},{"user_id":453,"name":"yup it's gamer time","steam_id":76561198064463244,"connected_time":321000000000,"state":"active","ping":136},{"user_id":444,"name":"Professional Cookie Stealer","steam_id":76561198358029722,"connected_time":849000000000,"state":"active","ping":65},{"user_id":459,"name":"Mushii","steam_id":76561198354492217,"connected_time":99000000000,"state":"active","ping":51},{"user_id":456,"name":"o_o","steam_id":76561198113045011,"connected_time":287000000000,"state":"active","ping":92},{"user_id":454,"name":"Lucky","steam_id":76561198849854665,"connected_time":317000000000,"state":"active","ping":51},{"user_id":450,"name":"Lune ‚ô•","steam_id":76561198013043575,"connected_time":412000000000,"state":"active","ping":48},{"user_id":438,"name":"Nak0y","steam_id":76561197998582249,"connected_time":880000000000,"state":"active","ping":115},{"user_id":423,"name":"WW2 Untamed Gorilla Ass","steam_id":76561198423902979,"connected_time":2000000000000,"state":"active","ping":48},{"user_id":455,"name":"Johnny Cockroach","steam_id":76561198049648277,"connected_time":317000000000,"state":"active","ping":107},{"user_id":407,"name":"NooN","steam_id":76561198077791570,"connected_time":3029000000000,"state":"active","ping":72},{"user_id":457,"name":"Alegz","steam_id":76561198287810139,"connected_time":280000000000,"state":"active","ping":85},{"user_id":416,"name":"R","steam_id":76561198148030229,"connected_time":2390000000000,"state":"active","ping":72},{"user_id":354,"name":"Hercules","steam_id":76561198041164170,"connected_time":7187000000000,"state":"active","ping":66},{"user_id":436,"name":"Paska, perse vittu","steam_id":76561198093000666,"connected_time":1456000000000,"state":"active","ping":90}]},{"server_id":21,"name":"Uncletopia | London | 5 | All Maps","name_short":"lon-5","host":"lon-1.uk.uncletopia.com","port":27055,"enabled":true,"region":"eu","cc":"gb","latitude":51.509865,"longitude":-0.118092,"reserved":0,"last_update":"0001-01-01T00:00:00Z","name_a2s":"Uncletopia | London | 5 | All Maps","protocol":17,"map":"cp_sunshine","folder":"tf","game":"Team Fortress","app_id":440,"player_count":23,"max_players":24,"Bots":0,"server_type":"Dedicated","server_os":"Linux","password":true,"vac":true,"version":"7757534","steam_id":85568392924742829,"keywords":["cp","nocrits","nodmgspread","uncletopia"],"game_id":440,"stv_port":27056,"stv_name":"Uncletopia | London | 5 | All Maps | STV","players":[{"user_id":204,"name":"Fish 'n' Chips","steam_id":76561198033476886,"connected_time":1576000000000,"state":"active","ping":52},{"user_id":221,"name":"kieran","steam_id":76561198115357403,"connected_time":52000000000,"state":"active","ping":63},{"user_id":198,"name":"Nithle","steam_id":76561198025372740,"connected_time":2078000000000,"state":"active","ping":59},{"user_id":189,"name":"not drunk","steam_id":76561199184873889,"connected_time":3707000000000,"state":"active","ping":62},{"user_id":205,"name":"plaier123457","steam_id":76561198993969194,"connected_time":1488000000000,"state":"active","ping":85},{"user_id":209,"name":"Glam Stachee‚òÜ","steam_id":76561198115252607,"connected_time":1156000000000,"state":"active","ping":97},{"user_id":214,"name":"Owlet","steam_id":76561198065613974,"connected_time":454000000000,"state":"active","ping":69},{"user_id":199,"name":"Rintse","steam_id":76561198065679312,"connected_time":2073000000000,"state":"active","ping":45},{"user_id":211,"name":"Dr.Sees [F2P]","steam_id":76561199219233587,"connected_time":1083000000000,"state":"active","ping":77},{"user_id":215,"name":"pindab0ter","steam_id":76561197965906255,"connected_time":412000000000,"state":"active","ping":44},{"user_id":178,"name":"timvs5","steam_id":76561198136646312,"connected_time":4759000000000,"state":"active","ping":61},{"user_id":216,"name":"Pasta sauce","steam_id":76561198232919072,"connected_time":394000000000,"state":"active","ping":40},{"user_id":218,"name":"alvinulv","steam_id":76561198024487177,"connected_time":332000000000,"state":"active","ping":59},{"user_id":220,"name":"1couver","steam_id":76561198168553215,"connected_time":128000000000,"state":"active","ping":100},{"user_id":175,"name":"The Alien","steam_id":76561198185817713,"connected_time":4987000000000,"state":"active","ping":156},{"user_id":194,"name":"Jess","steam_id":76561198015022965,"connected_time":3509000000000,"state":"active","ping":55},{"user_id":195,"name":"Cosmic Gamer","steam_id":76561198027357981,"connected_time":3176000000000,"state":"active","ping":98},{"user_id":212,"name":"‚ò†Holy(cz)‚ò†","steam_id":76561197985535494,"connected_time":864000000000,"state":"active","ping":101},{"user_id":197,"name":"mordecai.nmc","steam_id":76561197997223851,"connected_time":2633000000000,"state":"active","ping":45},{"user_id":201,"name":"mge bro","steam_id":76561198796600155,"connected_time":2063000000000,"state":"active","ping":100},{"user_id":219,"name":"Artemis","steam_id":76561198199091801,"connected_time":309000000000,"state":"active","ping":45},{"user_id":210,"name":"Ach Wheesht","steam_id":76561197996993222,"connected_time":1148000000000,"state":"active","ping":33},{"user_id":160,"name":"Man URINATES on fellow Passenge","steam_id":76561198983900735,"connected_time":5523000000000,"state":"active","ping":62}]},{"server_id":22,"name":"Uncletopia | London | 6 | All Maps","name_short":"lon-6","host":"lon-1.uk.uncletopia.com","port":27065,"enabled":true,"region":"eu","cc":"gb","latitude":51.509865,"longitude":-0.118092,"reserved":0,"last_update":"0001-01-01T00:00:00Z","name_a2s":"Uncletopia | London | 6 | All Maps","protocol":17,"map":"pl_barnblitz","folder":"tf","game":"Team Fortress","app_id":440,"player_count":24,"max_players":24,"Bots":0,"server_type":"Dedicated","server_os":"Linux","password":true,"vac":true,"version":"7757534","steam_id":85568392924742830,"keywords":["nocrits","nodmgspread","payload","uncletopia"],"game_id":440,"stv_port":27066,"stv_name":"Uncletopia | London | 6 | All Maps | STV","players":[{"user_id":582,"name":"Vezage","steam_id":76561198064916164,"connected_time":1789000000000,"state":"active","ping":70},{"user_id":560,"name":"Wariaciik","steam_id":76561199051205537,"connected_time":4000000000000,"state":"active","ping":79},{"user_id":453,"name":"Nin","steam_id":76561198227246584,"connected_time":11559000000000,"state":"active","ping":65},{"user_id":574,"name":"ricky pee pee","steam_id":76561198152620745,"connected_time":2648000000000,"state":"active","ping":57},{"user_id":603,"name":"Fran","steam_id":76561198339019518,"connected_time":602000000000,"state":"active","ping":67},{"user_id":602,"name":"KyraMelody","steam_id":76561198030308767,"connected_time":611000000000,"state":"active","ping":69},{"user_id":599,"name":"ELON MUSK","steam_id":76561198132788284,"connected_time":969000000000,"state":"active","ping":56},{"user_id":583,"name":"Mata_FM11","steam_id":76561198044824504,"connected_time":1724000000000,"state":"active","ping":74},{"user_id":589,"name":"woosh (poopy joe)","steam_id":76561198061127604,"connected_time":1290000000000,"state":"active","ping":45},{"user_id":604,"name":"Quesin","steam_id":76561198064603429,"connected_time":576000000000,"state":"active","ping":77},{"user_id":569,"name":"Mad Cat Kivima","steam_id":76561198028959678,"connected_time":2928000000000,"state":"active","ping":104},{"user_id":605,"name":"When Life gives you Lemons","steam_id":76561198318290663,"connected_time":547000000000,"state":"active","ping":60},{"user_id":607,"name":"≈†ajke","steam_id":76561198162695930,"connected_time":261000000000,"state":"active","ping":91},{"user_id":596,"name":"the discord call sound. (real)","steam_id":76561198139404261,"connected_time":1073000000000,"state":"active","ping":42},{"user_id":546,"name":"sleuth","steam_id":76561198102752414,"connected_time":4491000000000,"state":"active","ping":60},{"user_id":528,"name":"Dinges360","steam_id":76561198042032834,"connected_time":5858000000000,"state":"active","ping":50},{"user_id":606,"name":"AwterSix","steam_id":76561198042561678,"connected_time":477000000000,"state":"active","ping":63},{"user_id":424,"name":":)","steam_id":76561198103988618,"connected_time":14033000000000,"state":"active","ping":60},{"user_id":584,"name":"KFC Enjoyer","steam_id":76561198840259819,"connected_time":1702000000000,"state":"active","ping":47},{"user_id":550,"name":"Kubino148","steam_id":76561198028756615,"connected_time":4183000000000,"state":"active","ping":93},{"user_id":568,"name":"marsel","steam_id":76561198116168271,"connected_time":2959000000000,"state":"active","ping":75},{"user_id":572,"name":"bad at gaem","steam_id":76561198072373587,"connected_time":2800000000000,"state":"active","ping":59},{"user_id":577,"name":"fregaropa","steam_id":76561198150806166,"connected_time":2405000000000,"state":"active","ping":85},{"user_id":562,"name":"YourDoom","steam_id":76561198080790857,"connected_time":3659000000000,"state":"active","ping":45}]},{"server_id":40,"name":"Uncletopia | London | 7 | No Payload","name_short":"lon-7","host":"lon-1.uk.uncletopia.com","port":27075,"enabled":true,"region":"eu","cc":"gb","latitude":51.509865,"longitude":-0.118092,"reserved":0,"last_update":"0001-01-01T00:00:00Z","name_a2s":"Uncletopia | London | 7 | No Payload","protocol":17,"map":"cp_dustbowl","folder":"tf","game":"Team Fortress","app_id":440,"player_count":24,"max_players":24,"Bots":0,"server_type":"Dedicated","server_os":"Linux","password":true,"vac":true,"version":"7757534","steam_id":85568392924964314,"keywords":["cp","nocrits","nodmgspread","uncletopia"],"game_id":440,"stv_port":27076,"stv_name":"Uncletopia | London | 7 | No Payload | STV","players":[{"user_id":556,"name":"Mery","steam_id":76561198060952754,"connected_time":669000000000,"state":"active","ping":85},{"user_id":568,"name":"Hasamnas","steam_id":76561199125038537,"connected_time":474000000000,"state":"active","ping":57},{"user_id":552,"name":"N.","steam_id":76561198017274851,"connected_time":848000000000,"state":"active","ping":32},{"user_id":528,"name":"KobraTikiTiki","steam_id":76561198422102397,"connected_time":2702000000000,"state":"active","ping":71},{"user_id":529,"name":"weaponised autism","steam_id":76561199223139797,"connected_time":2654000000000,"state":"active","ping":56},{"user_id":530,"name":"Mis Foskitos","steam_id":76561198884078922,"connected_time":2600000000000,"state":"active","ping":94},{"user_id":569,"name":"Glaxxhoy","steam_id":76561199023685679,"connected_time":432000000000,"state":"active","ping":102},{"user_id":577,"name":"Swift","steam_id":76561197998799889,"connected_time":66000000000,"state":"active","ping":42},{"user_id":535,"name":"Sebz","steam_id":76561198145857913,"connected_time":2203000000000,"state":"active","ping":56},{"user_id":536,"name":"Quannix","steam_id":76561198058924848,"connected_time":2178000000000,"state":"active","ping":108},{"user_id":578,"name":"RadioEight","steam_id":76561199016447352,"connected_time":8000000000,"state":"active","ping":212},{"user_id":543,"name":"Spycrab101","steam_id":76561198141836805,"connected_time":1385000000000,"state":"active","ping":57},{"user_id":566,"name":"Laurie","steam_id":76561198082951750,"connected_time":533000000000,"state":"active","ping":48},{"user_id":553,"name":"Sheerluck Holmes","steam_id":76561198051161936,"connected_time":818000000000,"state":"active","ping":48},{"user_id":554,"name":"meriones","steam_id":76561198034234373,"connected_time":817000000000,"state":"active","ping":40},{"user_id":570,"name":"JohnTraveltime","steam_id":76561199244281754,"connected_time":395000000000,"state":"active","ping":77},{"user_id":559,"name":"Fezlex","steam_id":76561198042511188,"connected_time":584000000000,"state":"active","ping":102},{"user_id":560,"name":"tori_spring","steam_id":76561199375975842,"connected_time":581000000000,"state":"active","ping":55},{"user_id":571,"name":"shoras","steam_id":76561198019680159,"connected_time":360000000000,"state":"active","ping":96},{"user_id":562,"name":"Linkedine Zidane","steam_id":76561197968575924,"connected_time":574000000000,"state":"active","ping":53},{"user_id":563,"name":"„Éå„Éô„Éº„É´ (Nubert)","steam_id":76561199121806567,"connected_time":560000000000,"state":"active","ping":55},{"user_id":564,"name":"Sin","steam_id":76561198975489819,"connected_time":556000000000,"state":"active","ping":67},{"user_id":574,"name":"toust","steam_id":76561199103417422,"connected_time":266000000000,"state":"active","ping":70},{"user_id":576,"name":"KingTubbaFlubba","steam_id":76561198203917424,"connected_time":233000000000,"state":"active","ping":57}]},{"server_id":41,"name":"Uncletopia | London | 8 | Community","name_short":"lon-8","host":"lon-1.uk.uncletopia.com","port":27085,"enabled":true,"region":"eu","cc":"gb","latitude":51.509865,"longitude":-0.118092,"reserved":0,"last_update":"0001-01-01T00:00:00Z","name_a2s":"Uncletopia | London | 8 | Community","protocol":17,"map":"workshop/koth_ashville_final.ugc2130459942","folder":"tf","game":"Team Fortress","app_id":440,"player_count":0,"max_players":24,"Bots":0,"server_type":"Dedicated","server_os":"Linux","password":true,"vac":true,"version":"7757534","steam_id":85568392924964315,"keywords":["cp","nocrits","nodmgspread","uncletopia"],"game_id":440,"stv_port":27086,"stv_name":"Uncletopia | London | 8 | Community | STV","players":null},{"server_id":300,"name":"Uncletopia | Montr√©al | 1 | All Maps","name_short":"mtl-1","host":"mtl-1.ca.uncletopia.com","port":27015,"enabled":true,"region":"us-east","cc":"ca","latitude":45.50889,"longitude":-73.56167,"reserved":0,"last_update":"0001-01-01T00:00:00Z","name_a2s":"Uncletopia | Montr√©al | 1 | All Maps","protocol":17,"map":"koth_cascade","folder":"tf","game":"Team Fortress","app_id":440,"player_count":0,"max_players":24,"Bots":0,"server_type":"Dedicated","server_os":"Linux","password":true,"vac":true,"version":"7757534","steam_id":85568392924500087,"keywords":["cp","nocrits","nodmgspread","uncletopia"],"game_id":440,"stv_port":27016,"stv_name":"Uncletopia | Montr√©al | 1 | All Maps | STV","players":null},{"server_id":301,"name":"Uncletopia | Montr√©al | 2 | All Maps","name_short":"mtl-2","host":"mtl-1.ca.uncletopia.com","port":27025,"enabled":true,"region":"us-east","cc":"ca","latitude":45.50889,"longitude":-73.56167,"reserved":0,"last_update":"0001-01-01T00:00:00Z","name_a2s":"Uncletopia | Montr√©al | 2 | All Maps","protocol":17,"map":"pl_borneo","folder":"tf","game":"Team Fortress","app_id":440,"player_count":0,"max_players":24,"Bots":0,"server_type":"Dedicated","server_os":"Linux","password":true,"vac":true,"version":"7757534","steam_id":85568392924500088,"keywords":["nocrits","nodmgspread","payload","uncletopia"],"game_id":440,"stv_port":27026,"stv_name":"Uncletopia | Montr√©al | 2 | All Maps | STV","players":null},{"server_id":302,"name":"Uncletopia | Montr√©al | 3 | All Maps","name_short":"mtl-3","host":"mtl-1.ca.uncletopia.com","port":27035,"enabled":true,"region":"us-east","cc":"ca","latitude":45.50889,"longitude":-73.56167,"reserved":0,"last_update":"0001-01-01T00:00:00Z","name_a2s":"Uncletopia | Montr√©al | 3 | All Maps","protocol":17,"map":"cp_sunshine","folder":"tf","game":"Team Fortress","app_id":440,"player_count":0,"max_players":24,"Bots":0,"server_type":"Dedicated","server_os":"Linux","password":true,"vac":true,"version":"7757534","steam_id":85568392924500089,"keywords":["cp","nocrits","nodmgspread","uncletopia"],"game_id":440,"stv_port":27036,"stv_name":"Uncletopia | Montr√©al | 3 | All Maps | STV","players":null},{"server_id":303,"name":"Uncletopia | Montr√©al | 4 | No Payload","name_short":"mtl-4","host":"mtl-1.ca.uncletopia.com","port":27045,"enabled":true,"region":"us-east","cc":"ca","latitude":45.50889,"longitude":-73.56167,"reserved":0,"last_update":"0001-01-01T00:00:00Z","name_a2s":"Uncletopia | Montr√©al | 4 | No Payload","protocol":17,"map":"koth_lakeside_final","folder":"tf","game":"Team Fortress","app_id":440,"player_count":0,"max_players":24,"Bots":0,"server_type":"Dedicated","server_os":"Linux","password":true,"vac":true,"version":"7757534","steam_id":85568392924500090,"keywords":["cp","nocrits","nodmgspread","uncletopia"],"game_id":440,"stv_port":27046,"stv_name":"Uncletopia | Montr√©al | 4 | No Payload | STV","players":null},{"server_id":13,"name":"Uncletopia | New York City | 1 | All Maps","name_short":"nyc-1","host":"nyc-1.us.uncletopia.com","port":27015,"enabled":true,"region":"us-east","cc":"us","latitude":40.73061,"longitude":-73.93524,"reserved":0,"last_update":"0001-01-01T00:00:00Z","name_a2s":"Uncletopia | New York City | 1 | All Maps","protocol":17,"map":"koth_lakeside_final","folder":"tf","game":"Team Fortress","app_id":440,"player_count":7,"max_players":24,"Bots":0,"server_type":"Dedicated","server_os":"Linux","password":true,"vac":true,"version":"7757534","steam_id":85568392924469993,"keywords":["cp","nocrits","nodmgspread","uncletopia"],"game_id":440,"stv_port":27016,"stv_name":"Uncletopia | New York City | 1 | All Maps | STV","players":[{"user_id":42,"name":"Genie","steam_id":76561198070858815,"connected_time":951000000000,"state":"active","ping":57},{"user_id":43,"name":"Banana","steam_id":76561198996230924,"connected_time":919000000000,"state":"active","ping":81},{"user_id":44,"name":"Marinecomb100","steam_id":76561199122676961,"connected_time":894000000000,"state":"active","ping":92},{"user_id":45,"name":"Professor farnsworth","steam_id":76561199092595513,"connected_time":881000000000,"state":"active","ping":117},{"user_id":51,"name":"QWERTY_KKL","steam_id":76561199156419203,"connected_time":120000000000,"state":"active","ping":58},{"user_id":47,"name":"gerge","steam_id":76561199160149960,"connected_time":669000000000,"state":"active","ping":150},{"user_id":48,"name":"basilberry","steam_id":76561198145275937,"connected_time":645000000000,"state":"active","ping":83}]},{"server_id":14,"name":"Uncletopia | New York City | 2 | All Maps","name_short":"nyc-2","host":"nyc-1.us.uncletopia.com","port":27025,"enabled":true,"region":"us-east","cc":"us","latitude":40.73061,"longitude":-73.93524,"reserved":0,"last_update":"0001-01-01T00:00:00Z","name_a2s":"Uncletopia | New York City | 2 | All Maps","protocol":17,"map":"pl_snowycoast","folder":"tf","game":"Team Fortress","app_id":440,"player_count":24,"max_players":24,"Bots":0,"server_type":"Dedicated","server_os":"Linux","password":true,"vac":true,"version":"7757534","steam_id":85568392924469994,"keywords":["nocrits","nodmgspread","payload","uncletopia"],"game_id":440,"stv_port":27026,"stv_name":"Uncletopia | New York City | 2 | All Maps | STV","players":[{"user_id":99,"name":"localization files","steam_id":76561197997139225,"connected_time":13125000000000,"state":"active","ping":50},{"user_id":199,"name":"Vibe‚Ñ¢","steam_id":76561198156083411,"connected_time":4654000000000,"state":"active","ping":49},{"user_id":179,"name":"Unlucky Pedestrian","steam_id":76561198140369514,"connected_time":6291000000000,"state":"active","ping":56},{"user_id":217,"name":"Ballin \u0026 Can't Get Up","steam_id":76561198047394013,"connected_time":2185000000000,"state":"active","ping":58},{"user_id":214,"name":"roo the observer","steam_id":76561198120684348,"connected_time":2483000000000,"state":"active","ping":74},{"user_id":228,"name":"suspostor","steam_id":76561198200554173,"connected_time":968000000000,"state":"active","ping":57},{"user_id":235,"name":"M@verick","steam_id":76561198006363519,"connected_time":355000000000,"state":"active","ping":66},{"user_id":224,"name":"B","steam_id":76561198015740144,"connected_time":1060000000000,"state":"active","ping":83},{"user_id":229,"name":"grace","steam_id":76561198132364510,"connected_time":606000000000,"state":"active","ping":103},{"user_id":202,"name":"SpinetinglingToast","steam_id":76561198099470670,"connected_time":4451000000000,"state":"active","ping":56},{"user_id":221,"name":"Sapphireblitz","steam_id":76561198272635379,"connected_time":1736000000000,"state":"active","ping":70},{"user_id":230,"name":"uppercase thing","steam_id":76561199238480644,"connected_time":540000000000,"state":"active","ping":58},{"user_id":237,"name":"masterfish","steam_id":76561198421208838,"connected_time":287000000000,"state":"active","ping":69},{"user_id":223,"name":"Evil rat","steam_id":76561198117181511,"connected_time":1077000000000,"state":"active","ping":62},{"user_id":188,"name":"yellow gatorade","steam_id":76561198413125750,"connected_time":5721000000000,"state":"active","ping":48},{"user_id":232,"name":"superdeathmegasupremskullman201","steam_id":76561198296539957,"connected_time":454000000000,"state":"active","ping":59},{"user_id":234,"name":"Stock Medic","steam_id":76561198065479730,"connected_time":419000000000,"state":"active","ping":63},{"user_id":236,"name":"cognitiveAfflatus","steam_id":76561198295181426,"connected_time":325000000000,"state":"active","ping":48},{"user_id":238,"name":"The Night In Dark Armor","steam_id":76561198321340506,"connected_time":283000000000,"state":"active","ping":63},{"user_id":239,"name":"Fierian","steam_id":76561198132771619,"connected_time":231000000000,"state":"active","ping":79},{"user_id":210,"name":"Nobody","steam_id":76561198286486517,"connected_time":3647000000000,"state":"active","ping":70},{"user_id":204,"name":"PizzaPasta","steam_id":76561199125109082,"connected_time":4268000000000,"state":"active","ping":55},{"user_id":222,"name":"CouT1nho","steam_id":76561198203926376,"connected_time":1332000000000,"state":"active","ping":109},{"user_id":201,"name":"Havok","steam_id":76561198063455003,"connected_time":4649000000000,"state":"active","ping":52}]},{"server_id":15,"name":"Uncletopia | New York City | 3 | Stopwatch Beta","name_short":"nyc-3","host":"nyc-1.us.uncletopia.com","port":27035,"enabled":true,"region":"us-east","cc":"us","latitude":40.73061,"longitude":-73.93524,"reserved":0,"last_update":"0001-01-01T00:00:00Z","name_a2s":"Uncletopia | New York City | 3 | Stopwatch Beta","protocol":17,"map":"koth_lakeside_final","folder":"tf","game":"Team Fortress","app_id":440,"player_count":0,"max_players":24,"Bots":0,"server_type":"Dedicated","server_os":"Linux","password":true,"vac":true,"version":"7757534","steam_id":85568392924742820,"keywords":["cp","nocrits","nodmgspread","uncletopia"],"game_id":440,"stv_port":27036,"stv_name":"Uncletopia | New York City | 3 | Stopwatch Beta | STV","players":null},{"server_id":16,"name":"Uncletopia | New York City | 4 | Community","name_short":"nyc-4","host":"nyc-1.us.uncletopia.com","port":27045,"enabled":true,"region":"us-east","cc":"us","latitude":40.73061,"longitude":-73.93524,"reserved":0,"last_update":"0001-01-01T00:00:00Z","name_a2s":"Uncletopia | New York City | 4 | Community","protocol":17,"map":"workshop/pl_cactuscanyon_redux_rc4b.ugc2579644293","folder":"tf","game":"Team Fortress","app_id":440,"player_count":0,"max_players":24,"Bots":0,"server_type":"Dedicated","server_os":"Linux","password":true,"vac":true,"version":"7757534","steam_id":85568392924742821,"keywords":["nocrits","nodmgspread","payload","uncletopia"],"game_id":440,"stv_port":27046,"stv_name":"Uncletopia | New York City | 4 | Community | STV","players":null},{"server_id":142,"name":"Uncletopia | S√£o Paulo | 1 | All Maps","name_short":"sao-1","host":"sao-1.br.uncletopia.com","port":27015,"enabled":true,"region":"sa","cc":"br","latitude":-23.533773,"longitude":-46.62529,"reserved":0,"last_update":"0001-01-01T00:00:00Z","name_a2s":"Uncletopia | S√£o Paulo | 1 | All Maps","protocol":17,"map":"koth_highpass","folder":"tf","game":"Team Fortress","app_id":440,"player_count":0,"max_players":24,"Bots":0,"server_type":"Dedicated","server_os":"Linux","password":true,"vac":true,"version":"7757534","steam_id":85568392924469996,"keywords":["cp","nocrits","nodmgspread","uncletopia"],"game_id":440,"stv_port":27016,"stv_name":"Uncletopia | S√£o Paulo | 1 | All Maps | STV","players":null},{"server_id":143,"name":"Uncletopia | S√£o Paulo | 2 | All Maps","name_short":"sao-2","host":"sao-2.br.uncletopia.com","port":27015,"enabled":true,"region":"sa","cc":"br","latitude":-23.533773,"longitude":-46.62529,"reserved":0,"last_update":"0001-01-01T00:00:00Z","name_a2s":"Uncletopia | S√£o Paulo | 2 | All Maps","protocol":17,"map":"cp_process_final","folder":"tf","game":"Team Fortress","app_id":440,"player_count":0,"max_players":24,"Bots":0,"server_type":"Dedicated","server_os":"Linux","password":true,"vac":true,"version":"7757534","steam_id":85568392924485349,"keywords":["cp","nocrits","nodmgspread","uncletopia"],"game_id":440,"stv_port":27016,"stv_name":"Uncletopia | S√£o Paulo | 2 | All Maps | STV","players":null},{"server_id":7,"name":"Uncletopia | Seattle | 1 | All Maps","name_short":"sea-1","host":"sea-1.us.uncletopia.com","port":27015,"enabled":true,"region":"us-west","cc":"us","latitude":47.608013,"longitude":-122.33517,"reserved":0,"last_update":"0001-01-01T00:00:00Z","name_a2s":"Uncletopia | Seattle | 1 | All Maps","protocol":17,"map":"cp_process_final","folder":"tf","game":"Team Fortress","app_id":440,"player_count":24,"max_players":24,"Bots":0,"server_type":"Dedicated","server_os":"Linux","password":true,"vac":true,"version":"7757534","steam_id":85568392924469997,"keywords":["cp","nocrits","nodmgspread","uncletopia"],"game_id":440,"stv_port":27016,"stv_name":"Uncletopia | Seattle | 1 | All Maps | STV","players":[{"user_id":163,"name":"Major Rabbit","steam_id":76561198086047613,"connected_time":1507000000000,"state":"active","ping":123},{"user_id":150,"name":"rajas","steam_id":76561198049099910,"connected_time":1923000000000,"state":"active","ping":102},{"user_id":99,"name":"Fh","steam_id":76561198000903511,"connected_time":3309000000000,"state":"active","ping":62},{"user_id":165,"name":"Tom Skirrett","steam_id":76561198014600788,"connected_time":1239000000000,"state":"active","ping":71},{"user_id":170,"name":"krootonitron","steam_id":76561198114113037,"connected_time":840000000000,"state":"active","ping":56},{"user_id":175,"name":"Cam(era)","steam_id":76561198285054047,"connected_time":496000000000,"state":"active","ping":80},{"user_id":147,"name":"YuuriDaThrilla","steam_id":76561198184814466,"connected_time":2087000000000,"state":"active","ping":38},{"user_id":156,"name":"Themasterman75","steam_id":76561199385573293,"connected_time":1722000000000,"state":"active","ping":70},{"user_id":173,"name":"NoobLuckSomehow","steam_id":76561198268796387,"connected_time":605000000000,"state":"active","ping":85},{"user_id":141,"name":"Synergy","steam_id":76561198098630198,"connected_time":2238000000000,"state":"active","ping":45},{"user_id":166,"name":"mhmyeah_yeahmhm","steam_id":76561198341190679,"connected_time":1091000000000,"state":"active","ping":55},{"user_id":160,"name":"mostly void, partially stars","steam_id":76561197991015780,"connected_time":1568000000000,"state":"active","ping":71},{"user_id":98,"name":"zzrat","steam_id":76561198014925415,"connected_time":3669000000000,"state":"active","ping":55},{"user_id":167,"name":"2u1t3500_______","steam_id":76561198870649125,"connected_time":985000000000,"state":"active","ping":88},{"user_id":171,"name":"Platinum","steam_id":76561198052463484,"connected_time":809000000000,"state":"active","ping":82},{"user_id":81,"name":"oo","steam_id":76561198119626492,"connected_time":4698000000000,"state":"active","ping":81},{"user_id":155,"name":"BigBubble42","steam_id":76561198136286123,"connected_time":1767000000000,"state":"active","ping":82},{"user_id":176,"name":"Salazar9","steam_id":76561198049903973,"connected_time":44000000000,"state":"active","ping":46},{"user_id":116,"name":"sockman","steam_id":76561198108408235,"connected_time":2887000000000,"state":"active","ping":90},{"user_id":121,"name":"omg","steam_id":76561198108685037,"connected_time":2734000000000,"state":"active","ping":77},{"user_id":162,"name":"The Population of Sweden","steam_id":76561198202201644,"connected_time":1544000000000,"state":"active","ping":34},{"user_id":123,"name":"hug a bee","steam_id":76561198119635547,"connected_time":2709000000000,"state":"active","ping":51},{"user_id":172,"name":"‚óãB33Z3CHXRG3R‚óã","steam_id":76561198041017977,"connected_time":678000000000,"state":"active","ping":126},{"user_id":83,"name":"Tealim","steam_id":76561198330085713,"connected_time":4673000000000,"state":"active","ping":137}]},{"server_id":119,"name":"Uncletopia | Seattle | 2 | All Maps","name_short":"sea-2","host":"sea-1.us.uncletopia.com","port":27025,"enabled":true,"region":"us-west","cc":"us","latitude":47.608013,"longitude":-122.33517,"reserved":0,"last_update":"0001-01-01T00:00:00Z","name_a2s":"Uncletopia | Seattle | 2 | All Maps","protocol":17,"map":"pl_barnblitz","folder":"tf","game":"Team Fortress","app_id":440,"player_count":24,"max_players":24,"Bots":0,"server_type":"Dedicated","server_os":"Linux","password":true,"vac":true,"version":"7757534","steam_id":85568392924469998,"keywords":["nocrits","nodmgspread","payload","uncletopia"],"game_id":440,"stv_port":27026,"stv_name":"Uncletopia | Seattle | 2 | All Maps | STV","players":[{"user_id":7,"name":"Birdman743","steam_id":76561198799636748,"connected_time":4160000000000,"state":"active","ping":57},{"user_id":59,"name":"Ryback","steam_id":76561197988711455,"connected_time":647000000000,"state":"active","ping":39},{"user_id":43,"name":"Jacknerik","steam_id":76561198041365662,"connected_time":2336000000000,"state":"active","ping":129},{"user_id":24,"name":"Julien","steam_id":76561199389584938,"connected_time":2998000000000,"state":"active","ping":40},{"user_id":46,"name":"Peppy","steam_id":76561198866629645,"connected_time":2307000000000,"state":"active","ping":56},{"user_id":48,"name":"Black Mesa Scientist","steam_id":76561198064466577,"connected_time":2184000000000,"state":"active","ping":81},{"user_id":56,"name":"Hakuyer","steam_id":76561198098618247,"connected_time":782000000000,"state":"active","ping":55},{"user_id":19,"name":"Iroquois Pliskin","steam_id":76561198056704533,"connected_time":3260000000000,"state":"active","ping":98},{"user_id":61,"name":"Vortigaunt","steam_id":76561198058653274,"connected_time":581000000000,"state":"active","ping":105},{"user_id":17,"name":"Smile","steam_id":76561198110008786,"connected_time":3377000000000,"state":"active","ping":45},{"user_id":55,"name":"Wusigi Doctor","steam_id":76561198044204700,"connected_time":1160000000000,"state":"active","ping":78},{"user_id":20,"name":"Awildrock","steam_id":76561198040401086,"connected_time":3256000000000,"state":"active","ping":111},{"user_id":72,"name":"Alpharius","steam_id":76561197996284353,"connected_time":385000000000,"state":"active","ping":75},{"user_id":63,"name":"skia (nyan)","steam_id":76561198053818001,"connected_time":554000000000,"state":"active","ping":87},{"user_id":73,"name":"JTcatlord","steam_id":76561199079397866,"connected_time":296000000000,"state":"active","ping":44},{"user_id":68,"name":"Algibruh","steam_id":76561199221599415,"connected_time":478000000000,"state":"active","ping":60},{"user_id":67,"name":"warpig","steam_id":76561199226313309,"connected_time":501000000000,"state":"active","ping":114},{"user_id":58,"name":"Too Lame 2 Name","steam_id":76561198390863385,"connected_time":765000000000,"state":"active","ping":99},{"user_id":69,"name":"keffers","steam_id":76561198202338796,"connected_time":466000000000,"state":"active","ping":107},{"user_id":51,"name":"AmiableNebula","steam_id":76561198094306627,"connected_time":2131000000000,"state":"active","ping":76},{"user_id":60,"name":"aimee","steam_id":76561198834309212,"connected_time":647000000000,"state":"active","ping":134},{"user_id":70,"name":"Scansy","steam_id":76561198140528754,"connected_time":451000000000,"state":"active","ping":45},{"user_id":62,"name":"Fermenting Kiwi","steam_id":76561198253303497,"connected_time":579000000000,"state":"active","ping":77},{"user_id":71,"name":"North","steam_id":76561199173696836,"connected_time":444000000000,"state":"active","ping":73}]},{"server_id":406,"name":"Uncletopia | Seattle | 3 | Stopwatch Beta","name_short":"sea-3","host":"sea-1.us.uncletopia.com","port":27035,"enabled":true,"region":"us-west","cc":"us","latitude":47.608013,"longitude":-122.33517,"reserved":0,"last_update":"0001-01-01T00:00:00Z","name_a2s":"Uncletopia | Seattle | 3 | Stopwatch Beta","protocol":17,"map":"workshop/pl_barnblitz_pro7.ugc582280235","folder":"tf","game":"Team Fortress","app_id":440,"player_count":0,"max_players":24,"Bots":0,"server_type":"Dedicated","server_os":"Linux","password":true,"vac":true,"version":"7757534","steam_id":85568392924515217,"keywords":["nocrits","nodmgspread","payload","uncletopia"],"game_id":440,"stv_port":27036,"stv_name":"Uncletopia | Seattle | 3 | Stopwatch Beta | STV","players":null},{"server_id":17,"name":"Uncletopia | San Francisco | 1 | All Maps","name_short":"sfo-1","host":"sfo-1.us.uncletopia.com","port":27015,"enabled":true,"region":"us-west","cc":"us","latitude":37.77397,"longitude":-122.4313,"reserved":0,"last_update":"0001-01-01T00:00:00Z","name_a2s":"Uncletopia | San Francisco | 1 | All Maps","protocol":17,"map":"pl_borneo","folder":"tf","game":"Team Fortress","app_id":440,"player_count":24,"max_players":24,"Bots":0,"server_type":"Dedicated","server_os":"Linux","password":true,"vac":true,"version":"7757534","steam_id":85568392924469999,"keywords":["nocrits","nodmgspread","payload","uncletopia"],"game_id":440,"stv_port":27016,"stv_name":"Uncletopia | San Francisco | 1 | All Maps | STV","players":[{"user_id":285,"name":"Flooder","steam_id":76561198043792818,"connected_time":1199000000000,"state":"active","ping":87},{"user_id":292,"name":"Birrd","steam_id":76561198409096300,"connected_time":654000000000,"state":"active","ping":120},{"user_id":250,"name":"ray (the based god)","steam_id":76561198311984941,"connected_time":3025000000000,"state":"active","ping":93},{"user_id":280,"name":"The Axeman","steam_id":76561199061316781,"connected_time":1420000000000,"state":"active","ping":88},{"user_id":294,"name":"A Random Guy","steam_id":76561198052725191,"connected_time":334000000000,"state":"active","ping":70},{"user_id":266,"name":"Chuck Finley","steam_id":76561198027411284,"connected_time":2249000000000,"state":"active","ping":96},{"user_id":295,"name":"Amogous Supreme","steam_id":76561198025476774,"connected_time":29000000000,"state":"active","ping":57},{"user_id":284,"name":"Lawnmower","steam_id":76561198186680197,"connected_time":1207000000000,"state":"active","ping":44},{"user_id":194,"name":"bronk","steam_id":76561198181109553,"connected_time":8489000000000,"state":"active","ping":56},{"user_id":283,"name":"The engineer","steam_id":76561199234860030,"connected_time":1213000000000,"state":"active","ping":118},{"user_id":267,"name":"RoastBeefSalad","steam_id":76561198098181497,"connected_time":2163000000000,"state":"active","ping":70},{"user_id":282,"name":"A00Deadman00","steam_id":76561198396831708,"connected_time":1219000000000,"state":"active","ping":73},{"user_id":249,"name":"benhameen","steam_id":76561198446837615,"connected_time":3064000000000,"state":"active","ping":47},{"user_id":228,"name":"ForAPessimistImPrettyOptimistic","steam_id":76561198170128009,"connected_time":5076000000000,"state":"active","ping":59},{"user_id":291,"name":"HAT-WEARING‚Ñ¢ Maggot Gamer Cat","steam_id":76561197973992705,"connected_time":835000000000,"state":"active","ping":65},{"user_id":289,"name":"Drive-By-Fish-Guy","steam_id":76561198105513652,"connected_time":988000000000,"state":"active","ping":69},{"user_id":255,"name":"Oberaffengeil","steam_id":76561197987025017,"connected_time":2944000000000,"state":"active","ping":103},{"user_id":231,"name":"The Squid Gamer‚Ñ¢","steam_id":76561198340621517,"connected_time":5020000000000,"state":"active","ping":88},{"user_id":281,"name":"Never1","steam_id":76561199470435421,"connected_time":1390000000000,"state":"active","ping":86},{"user_id":293,"name":"nav","steam_id":76561198872608266,"connected_time":489000000000,"state":"active","ping":147},{"user_id":286,"name":"Satori Komeiji","steam_id":76561198158211423,"connected_time":1178000000000,"state":"active","ping":56},{"user_id":259,"name":"bergly","steam_id":76561198811650078,"connected_time":2888000000000,"state":"active","ping":125},{"user_id":287,"name":"flavored soap","steam_id":76561198970014265,"connected_time":1162000000000,"state":"active","ping":84},{"user_id":277,"name":"Mike Bean Burritos","steam_id":76561198173430607,"connected_time":1760000000000,"state":"active","ping":74}]},{"server_id":18,"name":"Uncletopia | San Francisco | 2 | All Maps","name_short":"sfo-2","host":"sfo-1.us.uncletopia.com","port":27025,"enabled":true,"region":"us-west","cc":"us","latitude":37.77397,"longitude":-122.4313,"reserved":0,"last_update":"0001-01-01T00:00:00Z","name_a2s":"Uncletopia | San Francisco | 2 | All Maps","protocol":17,"map":"koth_cascade","folder":"tf","game":"Team Fortress","app_id":440,"player_count":0,"max_players":24,"Bots":0,"server_type":"Dedicated","server_os":"Linux","password":true,"vac":true,"version":"7757534","steam_id":85568392924470000,"keywords":["cp","nocrits","nodmgspread","uncletopia"],"game_id":440,"stv_port":27026,"stv_name":"Uncletopia | San Francisco | 2 | All Maps | STV","players":null},{"server_id":19,"name":"Uncletopia | San Francisco | 3 | Stopwatch Beta","name_short":"sfo-3","host":"sfo-1.us.uncletopia.com","port":27035,"enabled":true,"region":"us-west","cc":"us","latitude":37.77397,"longitude":-122.4313,"reserved":0,"last_update":"0001-01-01T00:00:00Z","name_a2s":"Uncletopia | San Francisco | 3 | Stopwatch Beta","protocol":17,"map":"koth_viaduct","folder":"tf","game":"Team Fortress","app_id":440,"player_count":0,"max_players":24,"Bots":0,"server_type":"Dedicated","server_os":"Linux","password":true,"vac":true,"version":"7757534","steam_id":85568392924742824,"keywords":["cp","nocrits","nodmgspread","uncletopia"],"game_id":440,"stv_port":27036,"stv_name":"Uncletopia | San Francisco | 3 | Stopwatch Beta | STV","players":null},{"server_id":20,"name":"Uncletopia | San Francisco | 4 | Community","name_short":"sfo-4","host":"sfo-1.us.uncletopia.com","port":27045,"enabled":true,"region":"us-west","cc":"us","latitude":37.77397,"longitude":-122.4313,"reserved":0,"last_update":"0001-01-01T00:00:00Z","name_a2s":"Uncletopia | San Francisco | 4 | Community","protocol":17,"map":"workshop/pl_barnblitz_pro7.ugc582280235","folder":"tf","game":"Team Fortress","app_id":440,"player_count":21,"max_players":24,"Bots":0,"server_type":"Dedicated","server_os":"Linux","password":true,"vac":true,"version":"7757534","steam_id":85568392924742826,"keywords":["nocrits","nodmgspread","payload","uncletopia"],"game_id":440,"stv_port":27046,"stv_name":"Uncletopia | San Francisco | 4 | Community | STV","players":[{"user_id":117,"name":"Daz","steam_id":76561198041431938,"connected_time":3365000000000,"state":"active","ping":114},{"user_id":134,"name":"your mom","steam_id":76561198044400135,"connected_time":2833000000000,"state":"active","ping":69},{"user_id":163,"name":"A jpeg of Robert Downey Jr","steam_id":76561198993010853,"connected_time":187000000000,"state":"active","ping":111},{"user_id":151,"name":"epic cheeseburger","steam_id":76561198041995180,"connected_time":1272000000000,"state":"active","ping":124},{"user_id":116,"name":"the big pisser","steam_id":76561198143132686,"connected_time":3565000000000,"state":"active","ping":78},{"user_id":61,"name":"Mr. Mystical Perfection","steam_id":76561198036444997,"connected_time":6222000000000,"state":"active","ping":60},{"user_id":161,"name":"themadlad67","steam_id":76561199309554436,"connected_time":310000000000,"state":"active","ping":70},{"user_id":162,"name":"Are ya winning Dad?","steam_id":76561198118963840,"connected_time":293000000000,"state":"active","ping":129},{"user_id":165,"name":"GamerGuy88","steam_id":76561199059733640,"connected_time":159000000000,"state":"active","ping":65},{"user_id":160,"name":"AmericanKitsune8","steam_id":76561199252894094,"connected_time":477000000000,"state":"active","ping":77},{"user_id":166,"name":"Matches_                       ","steam_id":76561198048925904,"connected_time":108000000000,"state":"active","ping":72},{"user_id":121,"name":"schnedwob","steam_id":76561197999146588,"connected_time":3336000000000,"state":"active","ping":84},{"user_id":147,"name":"jamaican email scam business","steam_id":76561198035817862,"connected_time":1529000000000,"state":"active","ping":105},{"user_id":170,"name":"Discovery","steam_id":76561198841844093,"connected_time":26000000000,"state":"spawning","ping":198},{"user_id":124,"name":"FDR, The God King","steam_id":76561198300349976,"connected_time":3274000000000,"state":"active","ping":76},{"user_id":148,"name":"Praxis","steam_id":76561197960794303,"connected_time":1449000000000,"state":"active","ping":111},{"user_id":125,"name":"poo everywhere","steam_id":76561198379808804,"connected_time":3260000000000,"state":"active","ping":85},{"user_id":168,"name":"PageBoiSkull","steam_id":76561198237353578,"connected_time":64000000000,"state":"active","ping":60},{"user_id":154,"name":"Fear","steam_id":76561198063170079,"connected_time":1191000000000,"state":"active","ping":110},{"user_id":91,"name":"Course Brains","steam_id":76561198349105723,"connected_time":4414000000000,"state":"active","ping":58},{"user_id":159,"name":"Frog","steam_id":76561198065367779,"connected_time":550000000000,"state":"active","ping":79}]},{"server_id":141,"name":"Uncletopia | Sydney | 1 | All Maps","name_short":"syd-1","host":"syd-1.au.uncletopia.com","port":27015,"enabled":true,"region":"au","cc":"au","latitude":-33.865143,"longitude":151.2099,"reserved":0,"last_update":"0001-01-01T00:00:00Z","name_a2s":"Uncletopia | Sydney | 1 | All Maps","protocol":17,"map":"koth_lakeside_final","folder":"tf","game":"Team Fortress","app_id":440,"player_count":0,"max_players":24,"Bots":0,"server_type":"Dedicated","server_os":"Linux","password":true,"vac":true,"version":"7757534","steam_id":85568392924470001,"keywords":["cp","nocrits","nodmgspread","uncletopia"],"game_id":440,"stv_port":27016,"stv_name":"Uncletopia | Sydney | 1 | All Maps | STV","players":null},{"server_id":123,"name":"Uncletopia | Sydney | 2 | All Maps","name_short":"syd-2","host":"syd-1.au.uncletopia.com","port":27025,"enabled":true,"region":"au","cc":"au","latitude":-33.865143,"longitude":151.2099,"reserved":0,"last_update":"0001-01-01T00:00:00Z","name_a2s":"Uncletopia | Sydney | 2 | All Maps","protocol":17,"map":"koth_viaduct","folder":"tf","game":"Team Fortress","app_id":440,"player_count":0,"max_players":24,"Bots":0,"server_type":"Dedicated","server_os":"Linux","password":true,"vac":true,"version":"7757534","steam_id":85568392924470002,"keywords":["cp","nocrits","nodmgspread","uncletopia"],"game_id":440,"stv_port":27026,"stv_name":"Uncletopia | Sydney | 2 | All Maps | STV","players":null},{"server_id":395,"name":"Uncletopia | Sydney | 3 | All Maps","name_short":"syd-3","host":"syd-1.au.uncletopia.com","port":27035,"enabled":true,"region":"au","cc":"au","latitude":-33.865143,"longitude":151.2099,"reserved":0,"last_update":"0001-01-01T00:00:00Z","name_a2s":"Uncletopia | Sydney | 3 | All Maps","protocol":17,"map":"koth_viaduct","folder":"tf","game":"Team Fortress","app_id":440,"player_count":0,"max_players":24,"Bots":0,"server_type":"Dedicated","server_os":"Linux","password":true,"vac":true,"version":"7757534","steam_id":85568392925194467,"keywords":["cp","nocrits","nodmgspread","uncletopia"],"game_id":440,"stv_port":27036,"stv_name":"Uncletopia | Sydney | 3 | All Maps | STV","players":null},{"server_id":396,"name":"Uncletopia | Sydney | 4 | All Maps","name_short":"syd-4","host":"syd-1.au.uncletopia.com","port":27045,"enabled":true,"region":"au","cc":"au","latitude":-33.865143,"longitude":151.2099,"reserved":0,"last_update":"0001-01-01T00:00:00Z","name_a2s":"Uncletopia | Sydney | 4 | All Maps","protocol":17,"map":"cp_snakewater_final1","folder":"tf","game":"Team Fortress","app_id":440,"player_count":0,"max_players":24,"Bots":0,"server_type":"Dedicated","server_os":"Linux","password":true,"vac":true,"version":"7757534","steam_id":85568392925397958,"keywords":["cp","nocrits","nodmgspread","uncletopia"],"game_id":440,"stv_port":27046,"stv_name":"Uncletopia | Sydney | 4 | All Maps | STV","players":null},{"server_id":58,"name":"Uncletopia | Sydney | 5 | Stopwatch Beta","name_short":"syd-5","host":"syd-1.au.uncletopia.com","port":27055,"enabled":true,"region":"au","cc":"au","latitude":-33.865143,"longitude":151.2099,"reserved":0,"last_update":"0001-01-01T00:00:00Z","name_a2s":"Uncletopia | Sydney | 5 | Stopwatch Beta","protocol":17,"map":"pl_barnblitz","folder":"tf","game":"Team Fortress","app_id":440,"player_count":0,"max_players":24,"Bots":0,"server_type":"Dedicated","server_os":"Linux","password":true,"vac":true,"version":"7757534","steam_id":85568392925397959,"keywords":["nocrits","nodmgspread","payload","uncletopia"],"game_id":440,"stv_port":27056,"stv_name":"Uncletopia | Sydney | 5 | Stopwatch Beta | STV","players":null},{"server_id":59,"name":"Uncletopia | Sydney | 6 | Community","name_short":"syd-6","host":"syd-1.au.uncletopia.com","port":27065,"enabled":true,"region":"au","cc":"au","latitude":-33.865143,"longitude":151.2099,"reserved":0,"last_update":"0001-01-01T00:00:00Z","name_a2s":"Uncletopia | Sydney | 6 | Community","protocol":17,"map":"cp_mountainlab","folder":"tf","game":"Team Fortress","app_id":440,"player_count":0,"max_players":24,"Bots":0,"server_type":"Dedicated","server_os":"Linux","password":true,"vac":true,"version":"7757534","steam_id":85568392925397960,"keywords":["cp","nocrits","nodmgspread","uncletopia"],"game_id":440,"stv_port":27066,"stv_name":"Uncletopia | Sydney | 6 | Community | STV","players":null},{"server_id":49,"name":"Uncletopia | Warsaw | 1 | All Maps","name_short":"waw-1","host":"waw-1.pl.uncletopia.com","port":27015,"enabled":true,"region":"eu","cc":"pl","latitude":52.2297,"longitude":21.017532,"reserved":0,"last_update":"0001-01-01T00:00:00Z","name_a2s":"","protocol":0,"map":"","folder":"","game":"","app_id":0,"player_count":0,"max_players":0,"Bots":0,"server_type":"","server_os":"","password":false,"vac":false,"version":"","steam_id":0,"keywords":null,"game_id":0,"stv_port":0,"stv_name":"","players":null},{"server_id":50,"name":"Uncletopia | Warsaw | 2 | All Maps","name_short":"waw-2","host":"waw-1.pl.uncletopia.com","port":27025,"enabled":true,"region":"eu","cc":"pl","latitude":52.2297,"longitude":21.017532,"reserved":0,"last_update":"0001-01-01T00:00:00Z","name_a2s":"Uncletopia | Warsaw | 2 | All Maps","protocol":17,"map":"cp_process_final","folder":"tf","game":"Team Fortress","app_id":440,"player_count":0,"max_players":24,"Bots":0,"server_type":"Dedicated","server_os":"Linux","password":true,"vac":true,"version":"7757534","steam_id":85568392925397851,"keywords":["cp","nocrits","nodmgspread","uncletopia"],"game_id":440,"stv_port":27026,"stv_name":"Uncletopia | Warsaw | 2 | All Maps | STV","players":null},{"server_id":51,"name":"Uncletopia | Warsaw | 3 | All Maps","name_short":"waw-3","host":"waw-1.pl.uncletopia.com","port":27035,"enabled":true,"region":"eu","cc":"pl","latitude":52.2297,"longitude":21.017532,"reserved":0,"last_update":"0001-01-01T00:00:00Z","name_a2s":"Uncletopia | Warsaw | 3 | All Maps","protocol":17,"map":"koth_highpass","folder":"tf","game":"Team Fortress","app_id":440,"player_count":2,"max_players":24,"Bots":0,"server_type":"Dedicated","server_os":"Linux","password":true,"vac":true,"version":"7757534","steam_id":85568392925397852,"keywords":["cp","nocrits","nodmgspread","uncletopia"],"game_id":440,"stv_port":27036,"stv_name":"Uncletopia | Warsaw | 3 | All Maps | STV","players":[{"user_id":10,"name":"Truegr","steam_id":76561198811912339,"connected_time":1472000000000,"state":"active","ping":76},{"user_id":11,"name":"Kakograf","steam_id":76561198148375639,"connected_time":328000000000,"state":"active","ping":60}]},{"server_id":52,"name":"Uncletopia | Warsaw | 4 | All Maps","name_short":"waw-4","host":"waw-1.pl.uncletopia.com","port":27045,"enabled":true,"region":"eu","cc":"pl","latitude":52.2297,"longitude":21.017532,"reserved":0,"last_update":"0001-01-01T00:00:00Z","name_a2s":"Uncletopia | Warsaw | 4 | All Maps","protocol":17,"map":"koth_highpass","folder":"tf","game":"Team Fortress","app_id":440,"player_count":0,"max_players":24,"Bots":0,"server_type":"Dedicated","server_os":"Linux","password":true,"vac":true,"version":"7757534","steam_id":85568392925397853,"keywords":["cp","nocrits","nodmgspread","uncletopia"],"game_id":440,"stv_port":27046,"stv_name":"Uncletopia | Warsaw | 4 | All Maps | STV","players":null},{"server_id":53,"name":"Uncletopia | Warsaw | 5 | Stopwatch Beta","name_short":"waw-5","host":"waw-1.pl.uncletopia.com","port":27055,"enabled":true,"region":"eu","cc":"pl","latitude":52.2297,"longitude":21.017532,"reserved":0,"last_update":"0001-01-01T00:00:00Z","name_a2s":"Uncletopia | Warsaw | 5 | Stopwatch Beta","protocol":17,"map":"pl_borneo","folder":"tf","game":"Team Fortress","app_id":440,"player_count":0,"max_players":24,"Bots":0,"server_type":"Dedicated","server_os":"Linux","password":true,"vac":true,"version":"7757534","steam_id":85568392925397854,"keywords":["nocrits","nodmgspread","payload","uncletopia"],"game_id":440,"stv_port":27056,"stv_name":"Uncletopia | Warsaw | 5 | Stopwatch Beta | STV","players":null},{"server_id":54,"name":"Uncletopia | Warsaw | 6 | Community","name_short":"waw-6","host":"waw-1.pl.uncletopia.com","port":27065,"enabled":true,"region":"eu","cc":"pl","latitude":52.2297,"longitude":21.017532,"reserved":0,"last_update":"0001-01-01T00:00:00Z","name_a2s":"Uncletopia | Warsaw | 6 | Community","protocol":17,"map":"workshop/koth_bagel_rc5.ugc2514036946","folder":"tf","game":"Team Fortress","app_id":440,"player_count":12,"max_players":24,"Bots":0,"server_type":"Dedicated","server_os":"Linux","password":true,"vac":true,"version":"7757534","steam_id":85568392925397856,"keywords":["cp","nocrits","nodmgspread","uncletopia"],"game_id":440,"stv_port":27066,"stv_name":"Uncletopia | Warsaw | 6 | Community | STV","players":[{"user_id":66,"name":"saalvberg","steam_id":76561199409062000,"connected_time":1532000000000,"state":"active","ping":85},{"user_id":9,"name":"Karsapaali","steam_id":76561198322322739,"connected_time":4470000000000,"state":"active","ping":102},{"user_id":10,"name":"Yoda","steam_id":76561198802789400,"connected_time":4467000000000,"state":"active","ping":88},{"user_id":74,"name":"akakez","steam_id":76561198095432821,"connected_time":58000000000,"state":"active","ping":137},{"user_id":70,"name":"yazemava","steam_id":76561198277293706,"connected_time":687000000000,"state":"active","ping":70},{"user_id":71,"name":"The","steam_id":76561198359311605,"connected_time":656000000000,"state":"active","ping":71},{"user_id":72,"name":"Moti","steam_id":76561198262250211,"connected_time":532000000000,"state":"active","ping":107},{"user_id":75,"name":"Fit Crow mark","steam_id":76561198309246388,"connected_time":32000000000,"state":"active","ping":66},{"user_id":19,"name":"NezertorcheaT","steam_id":76561198874370220,"connected_time":3514000000000,"state":"active","ping":130},{"user_id":20,"name":"lisredlisred","steam_id":76561199468998882,"connected_time":3414000000000,"state":"active","ping":129},{"user_id":26,"name":"Tazerann","steam_id":76561198043743881,"connected_time":3102000000000,"state":"active","ping":69},{"user_id":36,"name":"·óúÀ∞·óú","steam_id":76561198148074472,"connected_time":2589000000000,"state":"active","ping":58}]}]}