{"status":true,"message":"","result":[{"server_id":9,"name":"Uncletopia | Atlanta | 1 | All Maps","name_short":"atl-1","host":"atl-1.us.uncletopia.com","port":27015,"enabled":true,"region":"us-east","cc":"us","latitude":33.753746,"longitude":-84.38633,"reserved":0,"last_update":"0001-01-01T00:00:00Z","name_a2s":"Uncletopia | Atlanta | 1 | All Maps","protocol":17,"map":"pl_barnblitz","folder":"tf","game":"Team Fortress","app_id":440,"player_count":24,"max_players":24,"Bots":0,"server_type":"Dedicated","server_os":"Linux","password":true,"vac":true,"version":"7961495","steam_id":85568392924469982,"keywords":["nocrits","nodmgspread","payload","uncletopia"],"game_id":440,"stv_port":27016,"stv_name":"Uncletopia | Atlanta | 1 | All Maps | STV","players":[{"user_id":108,"name":"under dale","steam_id":76561198081711979,"connected_time":119000000000,"state":"active","ping":106},{"user_id":33,"name":"n00tlad","steam_id":76561198205079821,"connected_time":4597000000000,"state":"active","ping":80},{"user_id":84,"name":"twitch.tv/Yoshi21 | TF2Pugs.com","steam_id":76561198002516729,"connected_time":1748000000000,"state":"active","ping":47},{"user_id":106,"name":"thomasdee725???","steam_id":76561199189526173,"connected_time":131000000000,"state":"active","ping":63},{"user_id":103,"name":"Malarkey","steam_id":76561198844473584,"connected_time":326000000000,"state":"active","ping":48},{"user_id":78,"name":"Dosux2","steam_id":76561198390916062,"connected_time":2383000000000,"state":"active","ping":136},{"user_id":94,"name":"Pharaxer‚Ñ¢","steam_id":76561198051236069,"connected_time":480000000000,"state":"active","ping":149},{"user_id":63,"name":"Sagoogoo","steam_id":76561198176061614,"connected_time":3401000000000,"state":"active","ping":63},{"user_id":41,"name":"captainspatklz","steam_id":76561198432167270,"connected_time":4224000000000,"state":"active","ping":46},{"user_id":35,"name":"Dixxy","steam_id":76561198010760019,"connected_time":4534000000000,"state":"active","ping":60},{"user_id":71,"name":"CoffeeZombi","steam_id":76561198172708053,"connected_time":3227000000000,"state":"active","ping":53},{"user_id":109,"name":"Real","steam_id":76561198405830028,"connected_time":114000000000,"state":"active","ping":99},{"user_id":80,"name":"lil hog","steam_id":76561199230929836,"connected_time":2112000000000,"state":"active","ping":84},{"user_id":89,"name":"Battery","steam_id":76561199053078059,"connected_time":1497000000000,"state":"active","ping":111},{"user_id":76,"name":"Witicka Dot Com","steam_id":76561198050361870,"connected_time":2798000000000,"state":"active","ping":61},{"user_id":110,"name":"Dr.Inkmix(femboy)","steam_id":76561198854070384,"connected_time":110000000000,"state":"active","ping":110},{"user_id":95,"name":"Jesus Burgess","steam_id":76561199343316814,"connected_time":475000000000,"state":"active","ping":47},{"user_id":72,"name":"HarryjusttHarry","steam_id":76561198982810452,"connected_time":3044000000000,"state":"active","ping":81},{"user_id":82,"name":"sansa musa","steam_id":76561198163723555,"connected_time":1791000000000,"state":"active","ping":62},{"user_id":52,"name":"SHUSH nikoOS","steam_id":76561198180020521,"connected_time":3869000000000,"state":"active","ping":100},{"user_id":111,"name":"Kc","steam_id":76561198210734407,"connected_time":106000000000,"state":"active","ping":50},{"user_id":100,"name":"Albino Jellyfish","steam_id":76561198208561097,"connected_time":381000000000,"state":"active","ping":56},{"user_id":101,"name":"ATL1 | on my hunting trip","steam_id":76561198315341646,"connected_time":374000000000,"state":"active","ping":61},{"user_id":70,"name":"Dynamic","steam_id":76561198204547960,"connected_time":3271000000000,"state":"active","ping":50}]},{"server_id":104,"name":"Uncletopia | Atlanta | 2 | All Maps","name_short":"atl-2","host":"atl-1.us.uncletopia.com","port":27025,"enabled":true,"region":"us-east","cc":"us","latitude":33.753746,"longitude":-84.38633,"reserved":0,"last_update":"0001-01-01T00:00:00Z","name_a2s":"Uncletopia | Atlanta | 2 | All Maps","protocol":17,"map":"koth_cascade","folder":"tf","game":"Team Fortress","app_id":440,"player_count":0,"max_players":24,"Bots":0,"server_type":"Dedicated","server_os":"Linux","password":true,"vac":true,"version":"7961495","steam_id":85568392924469983,"keywords":["cp","nocrits","nodmgspread","uncletopia"],"game_id":440,"stv_port":27026,"stv_name":"Uncletopia | Atlanta | 2 | All Maps | STV","players":null},{"server_id":400,"name":"Uncletopia | Atlanta | 3 | Stopwatch","name_short":"atl-3","host":"atl-1.us.uncletopia.com","port":27035,"enabled":true,"region":"us-east","cc":"us","latitude":33.753746,"longitude":-84.38633,"reserved":0,"last_update":"0001-01-01T00:00:00Z","name_a2s":"Uncletopia | Atlanta | 3 | Stopwatch","protocol":17,"map":"cp_sunshine","folder":"tf","game":"Team Fortress","app_id":440,"player_count":0,"max_players":24,"Bots":0,"server_type":"Dedicated","server_os":"Linux","password":true,"vac":true,"version":"7961495","steam_id":85568392924515187,"keywords":["cp","nocrits","nodmgspread","uncletopia"],"game_id":440,"stv_port":27036,"stv_name":"Uncletopia | Atlanta | 3 | Stopwatch | STV","players":null},{"server_id":401,"name":"Uncletopia | Atlanta | 4 | Community","name_short":"atl-4","host":"atl-1.us.uncletopia.com","port":27045,"enabled":true,"region":"us-east","cc":"us","latitude":33.753746,"longitude":-84.38633,"reserved":0,"last_update":"0001-01-01T00:00:00Z","name_a2s":"Uncletopia | Atlanta | 4 | Community","protocol":17,"map":"workshop/koth_bagel_rc6.ugc2514036946","folder":"tf","game":"Team Fortress","app_id":440,"player_count":16,"max_players":24,"Bots":0,"server_type":"Dedicated","server_os":"Linux","password":true,"vac":true,"version":"7961495","steam_id":85568392924515188,"keywords":["cp","nocrits","nodmgspread","uncletopia"],"game_id":440,"stv_port":27046,"stv_name":"Uncletopia | Atlanta | 4 | Community | STV","players":[{"user_id":3,"name":"SnoweyPunk|has she headphon in","steam_id":76561199090324935,"connected_time":3610000000000,"state":"active","ping":51},{"user_id":24,"name":"Miss Pauling","steam_id":76561198102043913,"connected_time":1330000000000,"state":"active","ping":61},{"user_id":43,"name":"Lord Scrubling","steam_id":76561198263744445,"connected_time":111000000000,"state":"active","ping":61},{"user_id":47,"name":"Junk","steam_id":76561198024382753,"connected_time":48000000000,"state":"active","ping":66},{"user_id":38,"name":"A Dubious Egg","steam_id":76561199045537554,"connected_time":597000000000,"state":"active","ping":52},{"user_id":44,"name":"Zhenaj","steam_id":76561199209016136,"connected_time":98000000000,"state":"active","ping":78},{"user_id":45,"name":"goopshit","steam_id":76561198126489501,"connected_time":94000000000,"state":"active","ping":67},{"user_id":46,"name":"lobear","steam_id":76561199229714255,"connected_time":79000000000,"state":"active","ping":149},{"user_id":30,"name":"Herman Bavinck","steam_id":76561197993190216,"connected_time":928000000000,"state":"active","ping":74},{"user_id":26,"name":"neet","steam_id":76561197968115168,"connected_time":1236000000000,"state":"active","ping":55},{"user_id":42,"name":"Metacarfoe","steam_id":76561198236016496,"connected_time":142000000000,"state":"active","ping":45},{"user_id":48,"name":"keffers","steam_id":76561198202338796,"connected_time":34000000000,"state":"active","ping":92},{"user_id":29,"name":"Drewey","steam_id":76561198369218784,"connected_time":954000000000,"state":"active","ping":76},{"user_id":21,"name":"Maywolf","steam_id":76561199047166336,"connected_time":1508000000000,"state":"active","ping":64},{"user_id":49,"name":"DenjiYui","steam_id":76561199081651988,"connected_time":29000000000,"state":"active","ping":60},{"user_id":50,"name":"FedSmoker","steam_id":76561198255854081,"connected_time":4000000000,"state":"spawning","ping":102}]},{"server_id":2,"name":"Uncletopia | Chicago | 1 | All Maps","name_short":"chi-1","host":"chi-1.us.uncletopia.com","port":27015,"enabled":true,"region":"us-central","cc":"us","latitude":41.881832,"longitude":-87.62318,"reserved":0,"last_update":"0001-01-01T00:00:00Z","name_a2s":"Uncletopia | Chicago | 1 | All Maps","protocol":17,"map":"pl_barnblitz","folder":"tf","game":"Team Fortress","app_id":440,"player_count":24,"max_players":24,"Bots":0,"server_type":"Dedicated","server_os":"Linux","password":true,"vac":true,"version":"7961495","steam_id":85568392924469984,"keywords":["nocrits","nodmgspread","payload","uncletopia"],"game_id":440,"stv_port":27016,"stv_name":"Uncletopia | Chicago | 1 | All Maps | STV","players":[{"user_id":231,"name":"icecxld","steam_id":76561198079018805,"connected_time":758000000000,"state":"active","ping":59},{"user_id":243,"name":"Thingy","steam_id":76561198140161202,"connected_time":431000000000,"state":"active","ping":73},{"user_id":232,"name":"inJuly","steam_id":76561198046811186,"connected_time":722000000000,"state":"active","ping":89},{"user_id":244,"name":"AkimboAoki","steam_id":76561198158323058,"connected_time":431000000000,"state":"active","ping":99},{"user_id":236,"name":"herb","steam_id":76561198185980055,"connected_time":580000000000,"state":"active","ping":62},{"user_id":238,"name":"Ursus Ludius","steam_id":76561198025470722,"connected_time":547000000000,"state":"active","ping":60},{"user_id":249,"name":"poot","steam_id":76561198095121758,"connected_time":6000000000,"state":"active","ping":413},{"user_id":217,"name":"Siz","steam_id":76561198072962154,"connected_time":2512000000000,"state":"active","ping":58},{"user_id":212,"name":"Poison","steam_id":76561198897783957,"connected_time":2733000000000,"state":"active","ping":144},{"user_id":211,"name":"Yam Jazzy Jim","steam_id":76561198000788950,"connected_time":2794000000000,"state":"active","ping":61},{"user_id":227,"name":"Pirus and Crips","steam_id":76561198395577807,"connected_time":1066000000000,"state":"active","ping":75},{"user_id":209,"name":"KingCrawful","steam_id":76561198104291657,"connected_time":3042000000000,"state":"active","ping":62},{"user_id":223,"name":"Tasty","steam_id":76561198084024711,"connected_time":2031000000000,"state":"active","ping":45},{"user_id":158,"name":"Rode hard, put away wet","steam_id":76561198062764039,"connected_time":5823000000000,"state":"active","ping":45},{"user_id":170,"name":"Krypa","steam_id":76561198144307152,"connected_time":5277000000000,"state":"active","ping":56},{"user_id":220,"name":"SandHanitizer","steam_id":76561198234676500,"connected_time":2416000000000,"state":"active","ping":60},{"user_id":239,"name":"Dwanor","steam_id":76561198039571887,"connected_time":536000000000,"state":"active","ping":62},{"user_id":233,"name":"Chadmander","steam_id":76561197974136337,"connected_time":628000000000,"state":"active","ping":45},{"user_id":221,"name":"Cyclops_672","steam_id":76561198080169497,"connected_time":2372000000000,"state":"active","ping":56},{"user_id":229,"name":"Feather","steam_id":76561199182209891,"connected_time":991000000000,"state":"active","ping":61},{"user_id":240,"name":"confield","steam_id":76561198004322265,"connected_time":533000000000,"state":"active","ping":63},{"user_id":127,"name":"guy","steam_id":76561198079925551,"connected_time":8747000000000,"state":"active","ping":61},{"user_id":235,"name":"Flimsical","steam_id":76561198174514205,"connected_time":617000000000,"state":"active","ping":61},{"user_id":245,"name":"Scribble","steam_id":76561198046115675,"connected_time":422000000000,"state":"active","ping":60}]},{"server_id":106,"name":"Uncletopia | Chicago | 2 | All Maps","name_short":"chi-2","host":"chi-1.us.uncletopia.com","port":27025,"enabled":true,"region":"us-central","cc":"us","latitude":41.881832,"longitude":-87.62318,"reserved":0,"last_update":"0001-01-01T00:00:00Z","name_a2s":"Uncletopia | Chicago | 2 | All Maps","protocol":17,"map":"koth_harvest_final","folder":"tf","game":"Team Fortress","app_id":440,"player_count":24,"max_players":24,"Bots":0,"server_type":"Dedicated","server_os":"Linux","password":true,"vac":true,"version":"7961495","steam_id":85568392924469985,"keywords":["cp","nocrits","nodmgspread","uncletopia"],"game_id":440,"stv_port":27026,"stv_name":"Uncletopia | Chicago | 2 | All Maps | STV","players":[{"user_id":343,"name":"Oni","steam_id":76561198112066584,"connected_time":961000000000,"state":"active","ping":62},{"user_id":305,"name":"Lae","steam_id":76561198185527278,"connected_time":3675000000000,"state":"active","ping":69},{"user_id":321,"name":"JohnFMX","steam_id":76561198175608097,"connected_time":3092000000000,"state":"active","ping":65},{"user_id":254,"name":"vv","steam_id":76561198134813102,"connected_time":6559000000000,"state":"active","ping":53},{"user_id":325,"name":"lcy13vv","steam_id":76561197995997446,"connected_time":2810000000000,"state":"active","ping":57},{"user_id":339,"name":"iUseDvorak","steam_id":76561198064439037,"connected_time":1168000000000,"state":"active","ping":62},{"user_id":310,"name":"edgebug b-roll","steam_id":76561198043558709,"connected_time":3358000000000,"state":"active","ping":91},{"user_id":344,"name":"Letters","steam_id":76561198035508148,"connected_time":955000000000,"state":"active","ping":70},{"user_id":342,"name":"beep","steam_id":76561199096448766,"connected_time":1023000000000,"state":"active","ping":69},{"user_id":345,"name":"subdromeda","steam_id":76561198884351860,"connected_time":948000000000,"state":"active","ping":60},{"user_id":348,"name":"get scrongled, idiot","steam_id":76561198115874625,"connected_time":453000000000,"state":"active","ping":62},{"user_id":329,"name":"Dokkibai","steam_id":76561198355935693,"connected_time":2575000000000,"state":"active","ping":57},{"user_id":224,"name":"The True Caniac","steam_id":76561198844434119,"connected_time":8713000000000,"state":"active","ping":110},{"user_id":304,"name":"TheGreythreat","steam_id":76561198021995538,"connected_time":3779000000000,"state":"active","ping":50},{"user_id":331,"name":"MoiMoi","steam_id":76561198873850038,"connected_time":2463000000000,"state":"active","ping":75},{"user_id":327,"name":"Pigeon","steam_id":76561199232498885,"connected_time":2772000000000,"state":"active","ping":73},{"user_id":347,"name":"BurgerPizza","steam_id":76561198151256410,"connected_time":771000000000,"state":"active","ping":142},{"user_id":346,"name":"LANDOFTAWN","steam_id":76561199180861116,"connected_time":947000000000,"state":"active","ping":80},{"user_id":332,"name":"mister slippery","steam_id":76561198057076267,"connected_time":2195000000000,"state":"active","ping":75},{"user_id":349,"name":"Admiral Angry","steam_id":76561198058199206,"connected_time":135000000000,"state":"active","ping":60},{"user_id":335,"name":"Paco „ÉÑ","steam_id":76561198084515903,"connected_time":1938000000000,"state":"active","ping":46},{"user_id":301,"name":"Robert","steam_id":76561198133200895,"connected_time":3909000000000,"state":"active","ping":63},{"user_id":179,"name":"Lennu","steam_id":76561198060730154,"connected_time":12585000000000,"state":"active","ping":72},{"user_id":341,"name":"Joebobio","steam_id":76561198024442760,"connected_time":1026000000000,"state":"active","ping":58}]},{"server_id":402,"name":"Uncletopia | Chicago | 3 | All Maps","name_short":"chi-3","host":"chi-1.us.uncletopia.com","port":27035,"enabled":true,"region":"us-central","cc":"us","latitude":41.881832,"longitude":-87.62318,"reserved":0,"last_update":"0001-01-01T00:00:00Z","name_a2s":"Uncletopia | Chicago | 3 | All Maps","protocol":17,"map":"pl_goldrush","folder":"tf","game":"Team Fortress","app_id":440,"player_count":24,"max_players":24,"Bots":0,"server_type":"Dedicated","server_os":"Linux","password":true,"vac":true,"version":"7961495","steam_id":85568392924515191,"keywords":["nocrits","nodmgspread","payload","uncletopia"],"game_id":440,"stv_port":27036,"stv_name":"Uncletopia | Chicago | 3 | All Maps | STV","players":[{"user_id":99,"name":"broomstick","steam_id":76561198302171600,"connected_time":6992000000000,"state":"active","ping":66},{"user_id":190,"name":"Load","steam_id":76561198135643594,"connected_time":403000000000,"state":"active","ping":68},{"user_id":170,"name":"ol' musty","steam_id":76561198081075865,"connected_time":1279000000000,"state":"active","ping":60},{"user_id":172,"name":"Its Dr.Stoned","steam_id":76561198079622791,"connected_time":932000000000,"state":"active","ping":77},{"user_id":121,"name":"Raizen","steam_id":76561199092445367,"connected_time":4527000000000,"state":"active","ping":56},{"user_id":188,"name":"dnasty","steam_id":76561199060575719,"connected_time":444000000000,"state":"active","ping":85},{"user_id":180,"name":"Demon's Eye","steam_id":76561198190614021,"connected_time":616000000000,"state":"active","ping":188},{"user_id":139,"name":"MoonShot","steam_id":76561198870926636,"connected_time":3433000000000,"state":"active","ping":76},{"user_id":157,"name":"Mirro","steam_id":76561198042182392,"connected_time":2447000000000,"state":"active","ping":56},{"user_id":193,"name":"Weltall","steam_id":76561198061079937,"connected_time":153000000000,"state":"active","ping":106},{"user_id":142,"name":"Leo","steam_id":76561198302526057,"connected_time":3406000000000,"state":"active","ping":74},{"user_id":177,"name":"MARIOPARTYDSFAN","steam_id":76561198872122117,"connected_time":658000000000,"state":"active","ping":74},{"user_id":162,"name":"Pedro","steam_id":76561198007530393,"connected_time":2356000000000,"state":"active","ping":59},{"user_id":90,"name":"opossum","steam_id":76561198148905570,"connected_time":8114000000000,"state":"active","ping":73},{"user_id":101,"name":"Nathan","steam_id":76561198127924646,"connected_time":6951000000000,"state":"active","ping":77},{"user_id":178,"name":"German Prick","steam_id":76561198181410637,"connected_time":650000000000,"state":"active","ping":149},{"user_id":167,"name":"Preston","steam_id":76561199130754110,"connected_time":1954000000000,"state":"active","ping":81},{"user_id":191,"name":"MeddyJed","steam_id":76561198018824031,"connected_time":399000000000,"state":"active","ping":51},{"user_id":174,"name":"mr.edderkopper","steam_id":76561198152614478,"connected_time":821000000000,"state":"active","ping":57},{"user_id":185,"name":"sharksa","steam_id":76561198799429978,"connected_time":472000000000,"state":"active","ping":105},{"user_id":119,"name":"lucky","steam_id":76561198323426623,"connected_time":5116000000000,"state":"active","ping":96},{"user_id":192,"name":"Scita","steam_id":76561198066861559,"connected_time":353000000000,"state":"active","ping":66},{"user_id":150,"name":"SleepyFluffyDragon","steam_id":76561198145533630,"connected_time":3043000000000,"state":"active","ping":56},{"user_id":186,"name":"jetlimon34","steam_id":76561199509770584,"connected_time":470000000000,"state":"active","ping":72}]},{"server_id":403,"name":"Uncletopia | Chicago | 4 | All Maps","name_short":"chi-4","host":"chi-1.us.uncletopia.com","port":27045,"enabled":true,"region":"us-central","cc":"us","latitude":41.881832,"longitude":-87.62318,"reserved":0,"last_update":"0001-01-01T00:00:00Z","name_a2s":"Uncletopia | Chicago | 4 | All Maps","protocol":17,"map":"cp_altitude","folder":"tf","game":"Team Fortress","app_id":440,"player_count":1,"max_players":24,"Bots":0,"server_type":"Dedicated","server_os":"Linux","password":true,"vac":true,"version":"7961495","steam_id":85568392924515193,"keywords":["cp","nocrits","nodmgspread","uncletopia"],"game_id":440,"stv_port":27046,"stv_name":"Uncletopia | Chicago | 4 | All Maps | STV","players":[{"user_id":10,"name":"monky (funky)","steam_id":76561198350027075,"connected_time":174000000000,"state":"active","ping":48}]},{"server_id":36,"name":"Uncletopia | Chicago | 5 | All Maps","name_short":"chi-5","host":"chi-2.us.uncletopia.com","port":27015,"enabled":true,"region":"us-central","cc":"us","latitude":41.881832,"longitude":-87.62318,"reserved":0,"last_update":"0001-01-01T00:00:00Z","name_a2s":"Uncletopia | Chicago | 5 | All Maps","protocol":17,"map":"cp_gorge","folder":"tf","game":"Team Fortress","app_id":440,"player_count":0,"max_players":24,"Bots":0,"server_type":"Dedicated","server_os":"Linux","password":true,"vac":true,"version":"7961495","steam_id":85568392924866362,"keywords":["cp","nocrits","nodmgspread","uncletopia"],"game_id":440,"stv_port":27016,"stv_name":"Uncletopia | Chicago | 5 | All Maps | STV","players":null},{"server_id":37,"name":"Uncletopia | Chicago | 6 | All Maps","name_short":"chi-6","host":"chi-2.us.uncletopia.com","port":27025,"enabled":true,"region":"us-central","cc":"us","latitude":41.881832,"longitude":-87.62318,"reserved":0,"last_update":"0001-01-01T00:00:00Z","name_a2s":"Uncletopia | Chicago | 6 | All Maps","protocol":17,"map":"koth_highpass","folder":"tf","game":"Team Fortress","app_id":440,"player_count":0,"max_players":24,"Bots":0,"server_type":"Dedicated","server_os":"Linux","password":true,"vac":true,"version":"7961495","steam_id":85568392924866363,"keywords":["cp","nocrits","nodmgspread","uncletopia"],"game_id":440,"stv_port":27026,"stv_name":"Uncletopia | Chicago | 6 | All Maps | STV","players":null},{"server_id":38,"name":"Uncletopia | Chicago | 7 | Stopwatch","name_short":"chi-7","host":"chi-2.us.uncletopia.com","port":27035,"enabled":true,"region":"us-central","cc":"us","latitude":41.881832,"longitude":-87.62318,"reserved":0,"last_update":"0001-01-01T00:00:00Z","name_a2s":"Uncletopia | Chicago | 7 | Stopwatch","protocol":17,"map":"cp_snakewater_final1","folder":"tf","game":"Team Fortress","app_id":440,"player_count":0,"max_players":24,"Bots":0,"server_type":"Dedicated","server_os":"Linux","password":true,"vac":true,"version":"7961495","steam_id":85568392924866364,"keywords":["cp","nocrits","nodmgspread","uncletopia"],"game_id":440,"stv_port":27036,"stv_name":"Uncletopia | Chicago | 7 | Stopwatch | STV","players":null},{"server_id":39,"name":"Uncletopia | Chicago | 8 | Community","name_short":"chi-8","host":"chi-2.us.uncletopia.com","port":27045,"enabled":true,"region":"us-central","cc":"us","latitude":41.881832,"longitude":-87.62318,"reserved":0,"last_update":"0001-01-01T00:00:00Z","name_a2s":"Uncletopia | Chicago | 8 | Community","protocol":17,"map":"workshop/koth_slaughter_rc1.ugc1712845210","folder":"tf","game":"Team Fortress","app_id":440,"player_count":0,"max_players":24,"Bots":0,"server_type":"Dedicated","server_os":"Linux","password":true,"vac":true,"version":"7961495","steam_id":85568392924866365,"keywords":["cp","nocrits","nodmgspread","uncletopia"],"game_id":440,"stv_port":27046,"stv_name":"Uncletopia | Chicago | 8 | Community | STV","players":null},{"server_id":8,"name":"Uncletopia | Dallas | 1 | All Maps","name_short":"dal-1","host":"dal-1.us.uncletopia.com","port":27015,"enabled":true,"region":"us-central","cc":"us","latitude":32.779167,"longitude":-96.80889,"reserved":0,"last_update":"0001-01-01T00:00:00Z","name_a2s":"Uncletopia | Dallas | 1 | All Maps","protocol":17,"map":"pl_borneo","folder":"tf","game":"Team Fortress","app_id":440,"player_count":19,"max_players":24,"Bots":0,"server_type":"Dedicated","server_os":"Linux","password":true,"vac":true,"version":"7961495","steam_id":85568392924469986,"keywords":["nocrits","nodmgspread","payload","uncletopia"],"game_id":440,"stv_port":27016,"stv_name":"Uncletopia | Dallas | 1 | All Maps | STV","players":[{"user_id":121,"name":"Fmr. Afghan Pres Ashraf Ghani","steam_id":76561199082027147,"connected_time":709000000000,"state":"spawning","ping":60},{"user_id":92,"name":"E4Estrogen","steam_id":76561198085813708,"connected_time":2245000000000,"state":"spawning","ping":50},{"user_id":9,"name":"thezranger","steam_id":76561198454086460,"connected_time":7327000000000,"state":"spawning","ping":73},{"user_id":126,"name":"Hobbes","steam_id":76561198087956236,"connected_time":554000000000,"state":"spawning","ping":81},{"user_id":85,"name":"Zero","steam_id":76561198033384990,"connected_time":2849000000000,"state":"spawning","ping":82},{"user_id":124,"name":"Liinde","steam_id":76561198140837602,"connected_time":633000000000,"state":"spawning","ping":65},{"user_id":101,"name":"Jt","steam_id":76561198049853548,"connected_time":1887000000000,"state":"active","ping":342},{"user_id":108,"name":"Soulman","steam_id":76561199012664006,"connected_time":1187000000000,"state":"spawning","ping":110},{"user_id":125,"name":"An Engineer","steam_id":76561198110381643,"connected_time":631000000000,"state":"spawning","ping":49},{"user_id":18,"name":"Kk","steam_id":76561198197211135,"connected_time":6785000000000,"state":"spawning","ping":42},{"user_id":127,"name":"effy","steam_id":76561198087137066,"connected_time":212000000000,"state":"spawning","ping":141},{"user_id":128,"name":"Dr. Bobo","steam_id":76561198271696761,"connected_time":34000000000,"state":"spawning","ping":169},{"user_id":21,"name":"FearMeisterMedusa","steam_id":76561198330311673,"connected_time":6680000000000,"state":"spawning","ping":55},{"user_id":117,"name":"Wyatt","steam_id":76561199068781227,"connected_time":889000000000,"state":"spawning","ping":52},{"user_id":111,"name":"TheGrassMan (He/Him)","steam_id":76561198118984048,"connected_time":1081000000000,"state":"spawning","ping":80},{"user_id":105,"name":"sufzu","steam_id":76561198112186325,"connected_time":1569000000000,"state":"spawning","ping":52},{"user_id":109,"name":"iiamiizzyy","steam_id":76561198355030751,"connected_time":1172000000000,"state":"spawning","ping":88},{"user_id":114,"name":"30-50 feral hogs","steam_id":76561198073587145,"connected_time":1051000000000,"state":"spawning","ping":73},{"user_id":123,"name":"Your dead Granmas yardloot","steam_id":76561198011675372,"connected_time":670000000000,"state":"spawning","ping":98}]},{"server_id":108,"name":"Uncletopia | Dallas | 2 | All Maps","name_short":"dal-2","host":"dal-1.us.uncletopia.com","port":27025,"enabled":true,"region":"us-central","cc":"us","latitude":32.779167,"longitude":-96.80889,"reserved":0,"last_update":"0001-01-01T00:00:00Z","name_a2s":"Uncletopia | Dallas | 2 | All Maps","protocol":17,"map":"pl_snowycoast","folder":"tf","game":"Team Fortress","app_id":440,"player_count":0,"max_players":24,"Bots":0,"server_type":"Dedicated","server_os":"Linux","password":true,"vac":true,"version":"7961495","steam_id":85568392924469988,"keywords":["nocrits","nodmgspread","payload","uncletopia"],"game_id":440,"stv_port":27026,"stv_name":"Uncletopia | Dallas | 2 | All Maps | STV","players":null},{"server_id":404,"name":"Uncletopia | Dallas | 3 | All Maps","name_short":"dal-3","host":"dal-1.us.uncletopia.com","port":27035,"enabled":true,"region":"us-central","cc":"us","latitude":32.779167,"longitude":-96.80889,"reserved":0,"last_update":"0001-01-01T00:00:00Z","name_a2s":"Uncletopia | Dallas | 3 | All Maps","protocol":17,"map":"pl_badwater","folder":"tf","game":"Team Fortress","app_id":440,"player_count":24,"max_players":24,"Bots":0,"server_type":"Dedicated","server_os":"Linux","password":true,"vac":true,"version":"7961495","steam_id":85568392924515219,"keywords":["nocrits","nodmgspread","payload","uncletopia"],"game_id":440,"stv_port":27036,"stv_name":"Uncletopia | Dallas | 3 | All Maps | STV","players":[{"user_id":64,"name":"Jimmy","steam_id":76561198857959855,"connected_time":7131000000000,"state":"active","ping":79},{"user_id":86,"name":"LLLFarm2012","steam_id":76561199199786915,"connected_time":5422000000000,"state":"active","ping":77},{"user_id":141,"name":"Steven","steam_id":76561198028606174,"connected_time":784000000000,"state":"active","ping":68},{"user_id":142,"name":"Kiril","steam_id":76561198051433762,"connected_time":745000000000,"state":"active","ping":140},{"user_id":106,"name":"Ryoko","steam_id":76561198084725087,"connected_time":3802000000000,"state":"active","ping":91},{"user_id":150,"name":"Jaflampe","steam_id":76561198175827647,"connected_time":223000000000,"state":"active","ping":66},{"user_id":143,"name":"jdm","steam_id":76561199497603020,"connected_time":738000000000,"state":"active","ping":75},{"user_id":128,"name":"MassMortar","steam_id":76561199019030973,"connected_time":2401000000000,"state":"active","ping":62},{"user_id":130,"name":"diip","steam_id":76561198345828288,"connected_time":1943000000000,"state":"active","ping":84},{"user_id":139,"name":"radicalPolio","steam_id":76561197961561855,"connected_time":833000000000,"state":"active","ping":46},{"user_id":144,"name":"Geneva Con 2021","steam_id":76561198112827218,"connected_time":683000000000,"state":"active","ping":76},{"user_id":145,"name":"Fireheart888","steam_id":76561198044555953,"connected_time":640000000000,"state":"active","ping":100},{"user_id":134,"name":"Little Nipples","steam_id":76561198060502578,"connected_time":1462000000000,"state":"active","ping":82},{"user_id":151,"name":"DWW","steam_id":76561198132274074,"connected_time":217000000000,"state":"active","ping":101},{"user_id":107,"name":"innocent spider (caleb)","steam_id":76561199013762986,"connected_time":3801000000000,"state":"active","ping":84},{"user_id":137,"name":"Tanner Jarring","steam_id":76561198172024365,"connected_time":1063000000000,"state":"active","ping":86},{"user_id":147,"name":"BOTH | Sunshine","steam_id":76561198885528098,"connected_time":623000000000,"state":"active","ping":101},{"user_id":135,"name":"DMM","steam_id":76561198065426171,"connected_time":1178000000000,"state":"active","ping":60},{"user_id":41,"name":"Jango","steam_id":76561198084589742,"connected_time":8483000000000,"state":"active","ping":75},{"user_id":140,"name":"Sceptimus","steam_id":76561198179580927,"connected_time":829000000000,"state":"active","ping":84},{"user_id":152,"name":"(TWoN Adric)","steam_id":76561197999304024,"connected_time":194000000000,"state":"active","ping":50},{"user_id":122,"name":"dantheman","steam_id":76561199486390813,"connected_time":2973000000000,"state":"active","ping":86},{"user_id":148,"name":"Serenue","steam_id":76561199040361250,"connected_time":612000000000,"state":"active","ping":118},{"user_id":121,"name":"i¬¥m actually naked","steam_id":76561198100768221,"connected_time":3032000000000,"state":"active","ping":89}]},{"server_id":405,"name":"Uncletopia | Dallas | 4 | Community","name_short":"dal-4","host":"dal-1.us.uncletopia.com","port":27045,"enabled":true,"region":"us-central","cc":"us","latitude":32.779167,"longitude":-96.80889,"reserved":0,"last_update":"0001-01-01T00:00:00Z","name_a2s":"Uncletopia | Dallas | 4 | Community","protocol":17,"map":"workshop/koth_synthetic_rc6a.ugc1549817316","folder":"tf","game":"Team Fortress","app_id":440,"player_count":0,"max_players":24,"Bots":0,"server_type":"Dedicated","server_os":"Linux","password":true,"vac":true,"version":"7961495","steam_id":85568392924515220,"keywords":["cp","nocrits","nodmgspread","uncletopia"],"game_id":440,"stv_port":27046,"stv_name":"Uncletopia | Dallas | 4 | Community | STV","players":null},{"server_id":5,"name":"Uncletopia | Frankfurt | 1 | All Maps","name_short":"frk-1","host":"frk-1.de.uncletopia.com","port":27015,"enabled":true,"region":"eu","cc":"de","latitude":50.110924,"longitude":8.682127,"reserved":0,"last_update":"0001-01-01T00:00:00Z","name_a2s":"Uncletopia | Frankfurt | 1 | All Maps","protocol":17,"map":"pl_frontier_final","folder":"tf","game":"Team Fortress","app_id":440,"player_count":24,"max_players":24,"Bots":0,"server_type":"Dedicated","server_os":"Linux","password":true,"vac":true,"version":"7961495","steam_id":85568392924469989,"keywords":["nocrits","nodmgspread","payload","uncletopia"],"game_id":440,"stv_port":27016,"stv_name":"Uncletopia | Frankfurt | 1 | All Maps | STV","players":[{"user_id":807,"name":"milkman","steam_id":76561198131031404,"connected_time":306000000000,"state":"active","ping":101},{"user_id":769,"name":"giclure :;","steam_id":76561197986362828,"connected_time":2701000000000,"state":"active","ping":51},{"user_id":783,"name":"info","steam_id":76561198119354946,"connected_time":1994000000000,"state":"active","ping":40},{"user_id":779,"name":"tallen","steam_id":76561198061708595,"connected_time":2136000000000,"state":"active","ping":80},{"user_id":784,"name":"Glorious Leader Xi Jinping","steam_id":76561198293811839,"connected_time":1871000000000,"state":"active","ping":45},{"user_id":797,"name":"Mankafa1i","steam_id":76561199022474109,"connected_time":1068000000000,"state":"active","ping":89},{"user_id":739,"name":"Decadence","steam_id":76561198206829379,"connected_time":4195000000000,"state":"active","ping":69},{"user_id":796,"name":"asimus","steam_id":76561199141433499,"connected_time":1154000000000,"state":"active","ping":177},{"user_id":785,"name":"kurd","steam_id":76561198116530769,"connected_time":1618000000000,"state":"active","ping":85},{"user_id":791,"name":"lokilolq","steam_id":76561198132316458,"connected_time":1447000000000,"state":"active","ping":93},{"user_id":806,"name":"romov","steam_id":76561199182288871,"connected_time":403000000000,"state":"active","ping":95},{"user_id":798,"name":"quickfast","steam_id":76561199438900919,"connected_time":1055000000000,"state":"active","ping":58},{"user_id":727,"name":"antlionguard","steam_id":76561198072747143,"connected_time":5266000000000,"state":"active","ping":109},{"user_id":799,"name":"Toyota","steam_id":76561198343882630,"connected_time":1043000000000,"state":"active","ping":85},{"user_id":795,"name":"terri_mik","steam_id":76561199047377351,"connected_time":1219000000000,"state":"active","ping":101},{"user_id":805,"name":"Johnson","steam_id":76561199382978934,"connected_time":434000000000,"state":"active","ping":91},{"user_id":763,"name":"Towercat","steam_id":76561198013141793,"connected_time":3440000000000,"state":"active","ping":45},{"user_id":793,"name":"we do a little tomfoolery","steam_id":76561198169208730,"connected_time":1389000000000,"state":"active","ping":82},{"user_id":804,"name":"m√ºlleimer √ºberhitzene","steam_id":76561198174135981,"connected_time":756000000000,"state":"active","ping":54},{"user_id":811,"name":"Kr√≥licki_","steam_id":76561199109915352,"connected_time":78000000000,"state":"active","ping":103},{"user_id":754,"name":"Jone","steam_id":76561198955248352,"connected_time":3798000000000,"state":"active","ping":74},{"user_id":808,"name":"Tupac alive in serbia","steam_id":76561198010978989,"connected_time":194000000000,"state":"active","ping":63},{"user_id":809,"name":"After8","steam_id":76561198090750865,"connected_time":190000000000,"state":"active","ping":62},{"user_id":802,"name":"Garito","steam_id":76561199243641744,"connected_time":1028000000000,"state":"active","ping":92}]},{"server_id":110,"name":"Uncletopia | Frankfurt | 2 | All Maps","name_short":"frk-2","host":"frk-1.de.uncletopia.com","port":27025,"enabled":true,"region":"eu","cc":"de","latitude":50.110924,"longitude":8.682127,"reserved":0,"last_update":"0001-01-01T00:00:00Z","name_a2s":"Uncletopia | Frankfurt | 2 | All Maps","protocol":17,"map":"cp_snakewater_final1","folder":"tf","game":"Team Fortress","app_id":440,"player_count":24,"max_players":24,"Bots":0,"server_type":"Dedicated","server_os":"Linux","password":true,"vac":true,"version":"7961495","steam_id":85568392924469990,"keywords":["cp","nocrits","nodmgspread","uncletopia"],"game_id":440,"stv_port":27026,"stv_name":"Uncletopia | Frankfurt | 2 | All Maps | STV","players":[{"user_id":486,"name":"Mortar 13","steam_id":76561198056038625,"connected_time":38000000000,"state":"active","ping":63},{"user_id":466,"name":"FlameEmerald","steam_id":76561198407696514,"connected_time":758000000000,"state":"active","ping":147},{"user_id":483,"name":"not poggers","steam_id":76561198237631092,"connected_time":226000000000,"state":"active","ping":76},{"user_id":441,"name":"Nyhde","steam_id":76561198012771416,"connected_time":2324000000000,"state":"active","ping":86},{"user_id":477,"name":"Silvestro","steam_id":76561198021660066,"connected_time":448000000000,"state":"active","ping":64},{"user_id":419,"name":"Begom","steam_id":76561199093369711,"connected_time":4420000000000,"state":"active","ping":90},{"user_id":392,"name":"Peekatew","steam_id":76561198024712439,"connected_time":5335000000000,"state":"active","ping":58},{"user_id":387,"name":"Kolodziej","steam_id":76561198088672385,"connected_time":5435000000000,"state":"active","ping":65},{"user_id":484,"name":"Deez nuts","steam_id":76561199429562693,"connected_time":169000000000,"state":"active","ping":72},{"user_id":485,"name":"Marlonge","steam_id":76561197982428414,"connected_time":87000000000,"state":"active","ping":62},{"user_id":478,"name":"Splarvis","steam_id":76561198007792525,"connected_time":389000000000,"state":"active","ping":52},{"user_id":452,"name":"mt","steam_id":76561197961319303,"connected_time":1668000000000,"state":"active","ping":45},{"user_id":465,"name":"SirClyan","steam_id":76561199196651938,"connected_time":856000000000,"state":"active","ping":53},{"user_id":479,"name":"G√º√ßl√ºAYraNsAƒû","steam_id":76561199184988396,"connected_time":387000000000,"state":"active","ping":96},{"user_id":467,"name":"Aeinzalot","steam_id":76561198195288449,"connected_time":586000000000,"state":"active","ping":62},{"user_id":461,"name":"Chiers","steam_id":76561198073461642,"connected_time":1271000000000,"state":"active","ping":59},{"user_id":422,"name":"Alyosha","steam_id":76561198032771167,"connected_time":4356000000000,"state":"active","ping":74},{"user_id":436,"name":"zdr","steam_id":76561198191074514,"connected_time":2656000000000,"state":"active","ping":61},{"user_id":476,"name":"Uganda Warrior","steam_id":76561198120502313,"connected_time":538000000000,"state":"active","ping":60},{"user_id":440,"name":"Gordon Birdman","steam_id":76561198013382324,"connected_time":2352000000000,"state":"active","ping":73},{"user_id":468,"name":"I Love Filtered Water","steam_id":76561198016042113,"connected_time":583000000000,"state":"active","ping":70},{"user_id":481,"name":"Trm","steam_id":76561198214951663,"connected_time":315000000000,"state":"active","ping":76},{"user_id":439,"name":"mugshot","steam_id":76561198363841749,"connected_time":2476000000000,"state":"active","ping":61},{"user_id":454,"name":"HIGHER THE KING OF THE SKY","steam_id":76561198173218318,"connected_time":1628000000000,"state":"active","ping":55}]},{"server_id":308,"name":"Uncletopia | Frankfurt | 3 | All Maps","name_short":"frk-3","host":"frk-1.de.uncletopia.com","port":27035,"enabled":true,"region":"eu","cc":"de","latitude":50.110924,"longitude":8.682127,"reserved":0,"last_update":"0001-01-01T00:00:00Z","name_a2s":"Uncletopia | Frankfurt | 3 | All Maps","protocol":17,"map":"pl_frontier_final","folder":"tf","game":"Team Fortress","app_id":440,"player_count":24,"max_players":24,"Bots":0,"server_type":"Dedicated","server_os":"Linux","password":true,"vac":true,"version":"7961495","steam_id":85568392924504274,"keywords":["nocrits","nodmgspread","payload","uncletopia"],"game_id":440,"stv_port":27036,"stv_name":"Uncletopia | Frankfurt | 3 | All Maps | STV","players":[{"user_id":341,"name":"Mike","steam_id":76561198228455736,"connected_time":600000000000,"state":"active","ping":85},{"user_id":319,"name":"luma","steam_id":76561198081649669,"connected_time":2498000000000,"state":"active","ping":61},{"user_id":354,"name":"Dill Killem","steam_id":76561199071571354,"connected_time":160000000000,"state":"active","ping":59},{"user_id":328,"name":"kingdead4","steam_id":76561198079576655,"connected_time":1319000000000,"state":"active","ping":50},{"user_id":317,"name":"VolcanicArts","steam_id":76561198063453246,"connected_time":2636000000000,"state":"active","ping":60},{"user_id":343,"name":"Drojdier","steam_id":76561198080789836,"connected_time":448000000000,"state":"active","ping":63},{"user_id":355,"name":"Mr Season","steam_id":76561198014005263,"connected_time":133000000000,"state":"active","ping":118},{"user_id":353,"name":"Cezaru7252","steam_id":76561198815955374,"connected_time":278000000000,"state":"active","ping":76},{"user_id":345,"name":"Cabbage","steam_id":76561198337155653,"connected_time":433000000000,"state":"active","ping":49},{"user_id":337,"name":"Strategic Pierogi","steam_id":76561198918807750,"connected_time":837000000000,"state":"active","ping":61},{"user_id":356,"name":"blickaroni and gun grease","steam_id":76561198074807915,"connected_time":126000000000,"state":"active","ping":56},{"user_id":357,"name":"Mozzaza","steam_id":76561198156316111,"connected_time":103000000000,"state":"active","ping":164},{"user_id":308,"name":"Murovelho","steam_id":76561198835081622,"connected_time":3183000000000,"state":"active","ping":108},{"user_id":348,"name":"Krefa12","steam_id":76561198268375393,"connected_time":372000000000,"state":"active","ping":77},{"user_id":325,"name":"RAT BASTARD","steam_id":76561199195985387,"connected_time":1483000000000,"state":"active","ping":75},{"user_id":347,"name":"Diggity","steam_id":76561198297157085,"connected_time":383000000000,"state":"active","ping":54},{"user_id":349,"name":"UJAGaming","steam_id":76561198147959101,"connected_time":359000000000,"state":"active","ping":83},{"user_id":351,"name":"‚ù§ToxicAngel‚ù§","steam_id":76561198062208751,"connected_time":336000000000,"state":"active","ping":60},{"user_id":336,"name":"Mortis","steam_id":76561198160658223,"connected_time":846000000000,"state":"active","ping":58},{"user_id":235,"name":"usuikui","steam_id":76561198093304268,"connected_time":8227000000000,"state":"active","ping":72},{"user_id":352,"name":"hwleo","steam_id":76561198090848620,"connected_time":314000000000,"state":"active","ping":79},{"user_id":358,"name":"AI | Davidoscki","steam_id":76561198129166046,"connected_time":54000000000,"state":"active","ping":76},{"user_id":316,"name":"Cencut","steam_id":76561198989449047,"connected_time":2732000000000,"state":"active","ping":126},{"user_id":340,"name":"Mr.Duck","steam_id":76561197983710667,"connected_time":646000000000,"state":"active","ping":80}]},{"server_id":309,"name":"Uncletopia | Frankfurt | 4 | All Maps","name_short":"frk-4","host":"frk-1.de.uncletopia.com","port":27045,"enabled":true,"region":"eu","cc":"de","latitude":50.110924,"longitude":8.682127,"reserved":0,"last_update":"0001-01-01T00:00:00Z","name_a2s":"Uncletopia | Frankfurt | 4 | All Maps","protocol":17,"map":"cp_dustbowl","folder":"tf","game":"Team Fortress","app_id":440,"player_count":24,"max_players":24,"Bots":0,"server_type":"Dedicated","server_os":"Linux","password":true,"vac":true,"version":"7961495","steam_id":85568392924504275,"keywords":["cp","nocrits","nodmgspread","uncletopia"],"game_id":440,"stv_port":27046,"stv_name":"Uncletopia | Frankfurt | 4 | All Maps | STV","players":[{"user_id":186,"name":"Spike","steam_id":76561197994537515,"connected_time":2746000000000,"state":"active","ping":44},{"user_id":225,"name":"kelm","steam_id":76561198027166144,"connected_time":546000000000,"state":"active","ping":81},{"user_id":192,"name":"Drift7114","steam_id":76561199044419505,"connected_time":2419000000000,"state":"active","ping":61},{"user_id":220,"name":"donatofina","steam_id":76561198353497885,"connected_time":1064000000000,"state":"active","ping":89},{"user_id":206,"name":"Mr. Culture","steam_id":76561199073315428,"connected_time":1787000000000,"state":"active","ping":66},{"user_id":223,"name":"boopy","steam_id":76561199030133025,"connected_time":914000000000,"state":"active","ping":49},{"user_id":191,"name":"–ö–∞—à–∞–∫","steam_id":76561198206102275,"connected_time":2459000000000,"state":"active","ping":58},{"user_id":229,"name":"Jack O'Neill","steam_id":76561198024268584,"connected_time":177000000000,"state":"active","ping":50},{"user_id":224,"name":"Karabast","steam_id":76561198041208332,"connected_time":633000000000,"state":"active","ping":65},{"user_id":211,"name":"GrumpyGrey","steam_id":76561199504695656,"connected_time":1700000000000,"state":"active","ping":58},{"user_id":207,"name":"Yuzu","steam_id":76561198121694613,"connected_time":1785000000000,"state":"active","ping":49},{"user_id":218,"name":"cl","steam_id":76561199436640904,"connected_time":1145000000000,"state":"active","ping":77},{"user_id":209,"name":"dog?","steam_id":76561199232839385,"connected_time":1754000000000,"state":"active","ping":88},{"user_id":183,"name":"Chambersite the Wizard","steam_id":76561198197022399,"connected_time":3033000000000,"state":"active","ping":56},{"user_id":222,"name":"Fancy Raccoon","steam_id":76561198176331663,"connected_time":978000000000,"state":"active","ping":52},{"user_id":196,"name":"bryophyta","steam_id":76561197968945306,"connected_time":2296000000000,"state":"active","ping":79},{"user_id":210,"name":"ChrisLuckycharm","steam_id":76561199490969322,"connected_time":1734000000000,"state":"active","ping":67},{"user_id":219,"name":"gionnibravo12","steam_id":76561199500492557,"connected_time":1140000000000,"state":"active","ping":71},{"user_id":204,"name":"dexter","steam_id":76561198937297906,"connected_time":1893000000000,"state":"active","ping":80},{"user_id":193,"name":"6mwtd","steam_id":76561198038583386,"connected_time":2413000000000,"state":"active","ping":53},{"user_id":177,"name":"ELDEN RING","steam_id":76561198065859753,"connected_time":3470000000000,"state":"active","ping":58},{"user_id":233,"name":"Carry Krypl","steam_id":76561198136938121,"connected_time":3000000000,"state":"spawning","ping":45},{"user_id":226,"name":"Nebula","steam_id":76561198131393448,"connected_time":374000000000,"state":"active","ping":60},{"user_id":216,"name":"Sugardaddy_pep","steam_id":76561198807512589,"connected_time":1421000000000,"state":"active","ping":66}]},{"server_id":310,"name":"Uncletopia | Frankfurt | 5 | All Maps","name_short":"frk-5","host":"frk-1.de.uncletopia.com","port":27055,"enabled":true,"region":"eu","cc":"de","latitude":50.110924,"longitude":8.682127,"reserved":0,"last_update":"0001-01-01T00:00:00Z","name_a2s":"Uncletopia | Frankfurt | 5 | All Maps","protocol":17,"map":"pl_thundermountain","folder":"tf","game":"Team Fortress","app_id":440,"player_count":24,"max_players":24,"Bots":0,"server_type":"Dedicated","server_os":"Linux","password":true,"vac":true,"version":"7961495","steam_id":85568392924504277,"keywords":["nocrits","nodmgspread","payload","uncletopia"],"game_id":440,"stv_port":27056,"stv_name":"Uncletopia | Frankfurt | 5 | All Maps | STV","players":[{"user_id":381,"name":"Doktor Glas","steam_id":76561198075963840,"connected_time":4845000000000,"state":"active","ping":57},{"user_id":365,"name":"TSx* Bargal","steam_id":76561198040266872,"connected_time":5537000000000,"state":"active","ping":60},{"user_id":369,"name":"TSx* Naxer","steam_id":76561198011986779,"connected_time":5499000000000,"state":"active","ping":62},{"user_id":437,"name":"DidoSquarepants","steam_id":76561198813776572,"connected_time":662000000000,"state":"active","ping":57},{"user_id":434,"name":"0xConnectUser","steam_id":76561198441513355,"connected_time":844000000000,"state":"active","ping":76},{"user_id":433,"name":"Zaakaroose","steam_id":76561198995514961,"connected_time":913000000000,"state":"active","ping":59},{"user_id":440,"name":"PoisionFox","steam_id":76561198864161505,"connected_time":298000000000,"state":"active","ping":65},{"user_id":427,"name":",","steam_id":76561198347020945,"connected_time":1798000000000,"state":"active","ping":88},{"user_id":436,"name":"Athudanu","steam_id":76561198052881337,"connected_time":778000000000,"state":"active","ping":58},{"user_id":368,"name":"TSx* EmperoT","steam_id":76561198018656942,"connected_time":5517000000000,"state":"active","ping":69},{"user_id":383,"name":"the wagoog","steam_id":76561198354604708,"connected_time":4612000000000,"state":"active","ping":45},{"user_id":419,"name":"FŒ±lB‚Ñ¢ \u003c3 ‚òÜ #ItalyWin #MKWC","steam_id":76561198885958059,"connected_time":2000000000000,"state":"active","ping":103},{"user_id":396,"name":"YuraGreek","steam_id":76561198050182252,"connected_time":3539000000000,"state":"active","ping":74},{"user_id":393,"name":"Phil","steam_id":76561198857522736,"connected_time":3772000000000,"state":"active","ping":73},{"user_id":441,"name":"Gay Truck","steam_id":76561198123648967,"connected_time":209000000000,"state":"active","ping":82},{"user_id":442,"name":"Gro√üvaterüåÜ","steam_id":76561198834993826,"connected_time":202000000000,"state":"active","ping":47},{"user_id":376,"name":"TSx* Dante","steam_id":76561198139309331,"connected_time":5395000000000,"state":"active","ping":67},{"user_id":372,"name":"TSx* Osa__PL","steam_id":76561198027016799,"connected_time":5492000000000,"state":"active","ping":63},{"user_id":443,"name":"DanDog","steam_id":76561198274722633,"connected_time":144000000000,"state":"active","ping":60},{"user_id":439,"name":"Errordood","steam_id":76561198263263692,"connected_time":447000000000,"state":"active","ping":67},{"user_id":421,"name":"Karakas","steam_id":76561198164290877,"connected_time":1986000000000,"state":"active","ping":76},{"user_id":438,"name":"Old Beavis","steam_id":76561198065951617,"connected_time":567000000000,"state":"active","ping":72},{"user_id":431,"name":"LivEssense","steam_id":76561198052476979,"connected_time":1188000000000,"state":"active","ping":76},{"user_id":424,"name":"Piquesque","steam_id":76561198286763046,"connected_time":1932000000000,"state":"active","ping":96}]},{"server_id":311,"name":"Uncletopia | Frankfurt | 6 | All Maps","name_short":"frk-6","host":"frk-1.de.uncletopia.com","port":27065,"enabled":true,"region":"eu","cc":"de","latitude":50.110924,"longitude":8.682127,"reserved":0,"last_update":"0001-01-01T00:00:00Z","name_a2s":"Uncletopia | Frankfurt | 6 | All Maps","protocol":17,"map":"pl_barnblitz","folder":"tf","game":"Team Fortress","app_id":440,"player_count":23,"max_players":24,"Bots":0,"server_type":"Dedicated","server_os":"Linux","password":true,"vac":true,"version":"7961495","steam_id":85568392924504278,"keywords":["nocrits","nodmgspread","payload","uncletopia"],"game_id":440,"stv_port":27066,"stv_name":"Uncletopia | Frankfurt | 6 | All Maps | STV","players":[{"user_id":300,"name":"Birdcat443","steam_id":76561199125582044,"connected_time":1231000000000,"state":"active","ping":64},{"user_id":274,"name":"Adamkarz","steam_id":76561198796428403,"connected_time":2407000000000,"state":"active","ping":80},{"user_id":289,"name":"ja","steam_id":76561199228540618,"connected_time":1543000000000,"state":"active","ping":53},{"user_id":299,"name":"–ø—É–ø—É–Ω–¥–µ–ª—å","steam_id":76561198370603695,"connected_time":1366000000000,"state":"active","ping":73},{"user_id":269,"name":"jona3838","steam_id":76561199097658195,"connected_time":2655000000000,"state":"active","ping":104},{"user_id":319,"name":"SENSITIVITY OVERDRIVE!!!!","steam_id":76561198163615254,"connected_time":144000000000,"state":"active","ping":60},{"user_id":321,"name":"post-nuke jerma","steam_id":76561198094268619,"connected_time":108000000000,"state":"active","ping":73},{"user_id":292,"name":"Skyrider of Spaceways","steam_id":76561197991678236,"connected_time":1500000000000,"state":"active","ping":130},{"user_id":307,"name":"silicon based life form","steam_id":76561199127121346,"connected_time":1056000000000,"state":"active","ping":59},{"user_id":287,"name":"ImStillAVergil","steam_id":76561199248763115,"connected_time":1611000000000,"state":"active","ping":52},{"user_id":294,"name":"Jethro Tull","steam_id":76561199034041634,"connected_time":1436000000000,"state":"active","ping":58},{"user_id":320,"name":"System","steam_id":76561199442503973,"connected_time":132000000000,"state":"active","ping":49},{"user_id":295,"name":"Just a table","steam_id":76561198008523445,"connected_time":1417000000000,"state":"active","ping":89},{"user_id":315,"name":"SODA!!!!!!!","steam_id":76561198107362485,"connected_time":447000000000,"state":"active","ping":108},{"user_id":256,"name":"Waffel","steam_id":76561198113552009,"connected_time":3845000000000,"state":"active","ping":97},{"user_id":310,"name":"Tom Cruise","steam_id":76561198871991529,"connected_time":793000000000,"state":"active","ping":68},{"user_id":316,"name":"imrealylazy","steam_id":76561198878574518,"connected_time":385000000000,"state":"active","ping":66},{"user_id":254,"name":"–ø–æ—á–µ–º—É?–Ω–µ –∑–Ω–∞—é.","steam_id":76561198413275515,"connected_time":4334000000000,"state":"active","ping":76},{"user_id":311,"name":"IHaveConsumed50KmofMeth","steam_id":76561199221172552,"connected_time":790000000000,"state":"active","ping":60},{"user_id":322,"name":"≈§ava SVK","steam_id":76561198208423756,"connected_time":81000000000,"state":"active","ping":51},{"user_id":266,"name":"HelwiiHill","steam_id":76561198066730552,"connected_time":3377000000000,"state":"active","ping":84},{"user_id":302,"name":"I'm past the point of insanity","steam_id":76561198800954471,"connected_time":1224000000000,"state":"active","ping":74},{"user_id":284,"name":"Duktigafred","steam_id":76561199211222396,"connected_time":2149000000000,"state":"active","ping":50}]},{"server_id":23,"name":"Uncletopia | Frankfurt | 7 | Stopwatch","name_short":"frk-7","host":"frk-1.de.uncletopia.com","port":27075,"enabled":true,"region":"eu","cc":"de","latitude":50.110924,"longitude":8.682127,"reserved":0,"last_update":"0001-01-01T00:00:00Z","name_a2s":"Uncletopia | Frankfurt | 7 | Stopwatch","protocol":17,"map":"workshop/koth_product_final.ugc454272353","folder":"tf","game":"Team Fortress","app_id":440,"player_count":0,"max_players":24,"Bots":0,"server_type":"Dedicated","server_os":"Linux","password":true,"vac":true,"version":"7961495","steam_id":85568392924742827,"keywords":["cp","nocrits","nodmgspread","uncletopia"],"game_id":440,"stv_port":27076,"stv_name":"Uncletopia | Frankfurt | 7 | Stopwatch | STV","players":null},{"server_id":24,"name":"Uncletopia | Frankfurt | 8 | Community","name_short":"frk-8","host":"frk-1.de.uncletopia.com","port":27085,"enabled":true,"region":"eu","cc":"de","latitude":50.110924,"longitude":8.682127,"reserved":0,"last_update":"0001-01-01T00:00:00Z","name_a2s":"Uncletopia | Frankfurt | 8 | Community","protocol":17,"map":"workshop/koth_product_final.ugc454272353","folder":"tf","game":"Team Fortress","app_id":440,"player_count":22,"max_players":24,"Bots":0,"server_type":"Dedicated","server_os":"Linux","password":true,"vac":true,"version":"7961495","steam_id":85568392924742828,"keywords":["cp","nocrits","nodmgspread","uncletopia"],"game_id":440,"stv_port":27086,"stv_name":"Uncletopia | Frankfurt | 8 | Community | STV","players":[{"user_id":122,"name":"P","steam_id":76561198399390201,"connected_time":110000000000,"state":"active","ping":74},{"user_id":120,"name":"alien","steam_id":76561199049321673,"connected_time":233000000000,"state":"active","ping":149},{"user_id":121,"name":"nojuskojos","steam_id":76561199060478662,"connected_time":190000000000,"state":"active","ping":68},{"user_id":97,"name":"Tekor","steam_id":76561198088542862,"connected_time":974000000000,"state":"active","ping":59},{"user_id":99,"name":"krzysby","steam_id":76561198340229275,"connected_time":857000000000,"state":"active","ping":80},{"user_id":123,"name":"HOI","steam_id":76561198061182117,"connected_time":54000000000,"state":"active","ping":60},{"user_id":23,"name":"PANAANI","steam_id":76561198322322739,"connected_time":4249000000000,"state":"active","ping":98},{"user_id":84,"name":"¬´‚ú™ œÅŒ±—Ç ‚ú™¬ª","steam_id":76561198271705433,"connected_time":1758000000000,"state":"active","ping":66},{"user_id":69,"name":"froufrou","steam_id":76561198129110010,"connected_time":2291000000000,"state":"active","ping":91},{"user_id":119,"name":"WAAGGHH Enjoyer","steam_id":76561198974205333,"connected_time":272000000000,"state":"active","ping":60},{"user_id":98,"name":"Kabouterluitenant 777","steam_id":76561198255500981,"connected_time":888000000000,"state":"active","ping":51},{"user_id":93,"name":"KingPotatoChips","steam_id":76561198035156465,"connected_time":1471000000000,"state":"active","ping":53},{"user_id":106,"name":"emil8lime","steam_id":76561199322577411,"connected_time":437000000000,"state":"active","ping":77},{"user_id":109,"name":"An Attack Pug","steam_id":76561198964804326,"connected_time":408000000000,"state":"active","ping":60},{"user_id":44,"name":"SeraphImp","steam_id":76561198835573359,"connected_time":2946000000000,"state":"active","ping":47},{"user_id":78,"name":"pip","steam_id":76561198089560908,"connected_time":2081000000000,"state":"active","ping":92},{"user_id":100,"name":"3L","steam_id":76561198007208996,"connected_time":836000000000,"state":"active","ping":45},{"user_id":65,"name":"Denton","steam_id":76561198367991717,"connected_time":2522000000000,"state":"active","ping":75},{"user_id":113,"name":"F√∂rf√∂ljaren","steam_id":76561198151550657,"connected_time":381000000000,"state":"active","ping":53},{"user_id":91,"name":"G.L.O.R.I.","steam_id":76561198134414380,"connected_time":1618000000000,"state":"active","ping":68},{"user_id":89,"name":"compact disc","steam_id":76561198154677956,"connected_time":1744000000000,"state":"active","ping":63},{"user_id":82,"name":"turkish Pride (small t intended","steam_id":76561198058587477,"connected_time":1923000000000,"state":"active","ping":59}]},{"server_id":202,"name":"Uncletopia | Hong Kong | 1 | All Maps","name_short":"hgk-1","host":"hgk-1.hk.uncletopia.com","port":27015,"enabled":true,"region":"asia","cc":"hk","latitude":22.302711,"longitude":114.177216,"reserved":0,"last_update":"0001-01-01T00:00:00Z","name_a2s":"Uncletopia | Hong Kong | 1 | All Maps","protocol":17,"map":"koth_cascade","folder":"tf","game":"Team Fortress","app_id":440,"player_count":0,"max_players":24,"Bots":0,"server_type":"Dedicated","server_os":"Linux","password":true,"vac":true,"version":"7961495","steam_id":85568392924494504,"keywords":["cp","nocrits","nodmgspread","uncletopia"],"game_id":440,"stv_port":27016,"stv_name":"Uncletopia | Hong Kong | 1 | All Maps | STV","players":null},{"server_id":1,"name":"Uncletopia | Los Angeles | 1 | All Maps","name_short":"lax-1","host":"lax-1.us.uncletopia.com","port":27015,"enabled":true,"region":"us-west","cc":"us","latitude":33.94279,"longitude":-118.41004,"reserved":0,"last_update":"0001-01-01T00:00:00Z","name_a2s":"Uncletopia | Los Angeles | 1 | All Maps","protocol":17,"map":"koth_highpass","folder":"tf","game":"Team Fortress","app_id":440,"player_count":5,"max_players":24,"Bots":0,"server_type":"Dedicated","server_os":"Linux","password":true,"vac":true,"version":"7961495","steam_id":85568392924469991,"keywords":["cp","nocrits","nodmgspread","uncletopia"],"game_id":440,"stv_port":27016,"stv_name":"Uncletopia | Los Angeles | 1 | All Maps | STV","players":[{"user_id":5,"name":"Twitch.tv/Jinx_VM","steam_id":76561198280150602,"connected_time":1536000000000,"state":"active","ping":62},{"user_id":7,"name":"Browix_Phoenix","steam_id":76561199076123618,"connected_time":1414000000000,"state":"active","ping":40},{"user_id":8,"name":"Unlimited_Trees","steam_id":76561198299141443,"connected_time":1265000000000,"state":"active","ping":57},{"user_id":9,"name":"ShadowZiki","steam_id":76561198145930013,"connected_time":670000000000,"state":"active","ping":43},{"user_id":11,"name":"will (vqinet)","steam_id":76561199055929199,"connected_time":115000000000,"state":"active","ping":59}]},{"server_id":112,"name":"Uncletopia | Los Angeles | 2 | All Maps","name_short":"lax-2","host":"lax-1.us.uncletopia.com","port":27025,"enabled":true,"region":"us-west","cc":"us","latitude":33.94279,"longitude":-118.41004,"reserved":0,"last_update":"0001-01-01T00:00:00Z","name_a2s":"Uncletopia | Los Angeles | 2 | All Maps","protocol":17,"map":"koth_cascade","folder":"tf","game":"Team Fortress","app_id":440,"player_count":0,"max_players":24,"Bots":0,"server_type":"Dedicated","server_os":"Linux","password":true,"vac":true,"version":"7961495","steam_id":85568392924469992,"keywords":["cp","nocrits","nodmgspread","uncletopia"],"game_id":440,"stv_port":27026,"stv_name":"Uncletopia | Los Angeles | 2 | All Maps | STV","players":null},{"server_id":324,"name":"Uncletopia | Los Angeles | 3 | All Maps","name_short":"lax-3","host":"lax-1.us.uncletopia.com","port":27035,"enabled":true,"region":"us-west","cc":"us","latitude":33.94279,"longitude":-118.41004,"reserved":0,"last_update":"0001-01-01T00:00:00Z","name_a2s":"Uncletopia | Los Angeles | 3 | All Maps","protocol":17,"map":"pl_hoodoo_final","folder":"tf","game":"Team Fortress","app_id":440,"player_count":0,"max_players":24,"Bots":0,"server_type":"Dedicated","server_os":"Linux","password":true,"vac":true,"version":"7961495","steam_id":85568392924510198,"keywords":["nocrits","nodmgspread","payload","uncletopia"],"game_id":440,"stv_port":27036,"stv_name":"Uncletopia | Los Angeles | 3 | All Maps | STV","players":null},{"server_id":25,"name":"Uncletopia | Los Angeles | 4 | Stopwatch","name_short":"lax-4","host":"lax-1.us.uncletopia.com","port":27045,"enabled":true,"region":"us-west","cc":"us","latitude":33.94279,"longitude":-118.41004,"reserved":0,"last_update":"0001-01-01T00:00:00Z","name_a2s":"Uncletopia | Los Angeles | 4 | Stopwatch","protocol":17,"map":"pl_upward","folder":"tf","game":"Team Fortress","app_id":440,"player_count":0,"max_players":24,"Bots":0,"server_type":"Dedicated","server_os":"Linux","password":true,"vac":true,"version":"7961495","steam_id":85568392924510199,"keywords":["nocrits","nodmgspread","payload","uncletopia"],"game_id":440,"stv_port":27046,"stv_name":"Uncletopia | Los Angeles | 4 | Stopwatch | STV","players":null},{"server_id":11,"name":"Uncletopia | London | 1 | All Maps","name_short":"lon-1","host":"lon-1.uk.uncletopia.com","port":27015,"enabled":true,"region":"eu","cc":"gb","latitude":51.509865,"longitude":-0.118092,"reserved":0,"last_update":"0001-01-01T00:00:00Z","name_a2s":"Uncletopia | London | 1 | All Maps","protocol":17,"map":"pl_badwater","folder":"tf","game":"Team Fortress","app_id":440,"player_count":24,"max_players":24,"Bots":0,"server_type":"Dedicated","server_os":"Linux","password":true,"vac":true,"version":"7961495","steam_id":85568392924367362,"keywords":["nocrits","nodmgspread","payload","uncletopia"],"game_id":440,"stv_port":27016,"stv_name":"Uncletopia | London | 1 | All Maps | STV","players":[{"user_id":503,"name":"doktor spiele","steam_id":76561199057953617,"connected_time":4946000000000,"state":"active","ping":61},{"user_id":537,"name":"[KZ] TenGr1_G4m3r","steam_id":76561198107460765,"connected_time":4594000000000,"state":"active","ping":45},{"user_id":550,"name":"hitbox criminal","steam_id":76561198079277466,"connected_time":2675000000000,"state":"active","ping":71},{"user_id":562,"name":"Mystical X‚Ñ¢","steam_id":76561198080927012,"connected_time":1557000000000,"state":"active","ping":74},{"user_id":455,"name":"Lyra","steam_id":76561198043601838,"connected_time":6352000000000,"state":"active","ping":60},{"user_id":554,"name":"FutabaUchiha","steam_id":76561199436467630,"connected_time":1720000000000,"state":"active","ping":128},{"user_id":463,"name":"png.png","steam_id":76561198444446521,"connected_time":6239000000000,"state":"active","ping":107},{"user_id":475,"name":"DDO1","steam_id":76561198348234399,"connected_time":5593000000000,"state":"active","ping":47},{"user_id":567,"name":"hqdefault.png","steam_id":76561198106049954,"connected_time":1428000000000,"state":"active","ping":78},{"user_id":569,"name":"acetamiprid","steam_id":76561198058012525,"connected_time":1300000000000,"state":"active","ping":61},{"user_id":546,"name":"Topia","steam_id":76561198163571788,"connected_time":3428000000000,"state":"active","ping":88},{"user_id":553,"name":"waahh im baby gugu gaga im cry","steam_id":76561198190583242,"connected_time":1875000000000,"state":"active","ping":104},{"user_id":570,"name":"trite","steam_id":76561197983765323,"connected_time":752000000000,"state":"active","ping":40},{"user_id":576,"name":"Kahvi","steam_id":76561198723244199,"connected_time":54000000000,"state":"active","ping":76},{"user_id":566,"name":"Leon S. Kennedy (B4DA$$)","steam_id":76561198168207306,"connected_time":1436000000000,"state":"active","ping":90},{"user_id":573,"name":"Kritz The Heavy","steam_id":76561198011857670,"connected_time":560000000000,"state":"active","ping":53},{"user_id":543,"name":"itransition UKRAINE","steam_id":76561198080912087,"connected_time":3621000000000,"state":"active","ping":60},{"user_id":481,"name":"Your honor Freebird was playing","steam_id":76561198017513012,"connected_time":5486000000000,"state":"active","ping":51},{"user_id":558,"name":"sareena","steam_id":76561198810194062,"connected_time":1675000000000,"state":"active","ping":74},{"user_id":446,"name":"Mr Boombastic","steam_id":76561199188883519,"connected_time":7001000000000,"state":"active","ping":44},{"user_id":540,"name":"Mea","steam_id":76561198353496134,"connected_time":3752000000000,"state":"active","ping":53},{"user_id":552,"name":"call me szmata18","steam_id":76561199042056825,"connected_time":2032000000000,"state":"active","ping":69},{"user_id":571,"name":"medick","steam_id":76561199380849468,"connected_time":705000000000,"state":"active","ping":59},{"user_id":575,"name":"rigel_","steam_id":76561198148640847,"connected_time":98000000000,"state":"active","ping":74}]},{"server_id":114,"name":"Uncletopia | London | 2 | All Maps","name_short":"lon-2","host":"lon-1.uk.uncletopia.com","port":27025,"enabled":true,"region":"eu","cc":"gb","latitude":51.509865,"longitude":-0.118092,"reserved":0,"last_update":"0001-01-01T00:00:00Z","name_a2s":"Uncletopia | London | 2 | All Maps","protocol":17,"map":"cp_dustbowl","folder":"tf","game":"Team Fortress","app_id":440,"player_count":24,"max_players":24,"Bots":0,"server_type":"Dedicated","server_os":"Linux","password":true,"vac":true,"version":"7961495","steam_id":85568392924470941,"keywords":["cp","nocrits","nodmgspread","uncletopia"],"game_id":440,"stv_port":27026,"stv_name":"Uncletopia | London | 2 | All Maps | STV","players":[{"user_id":67,"name":"ROX","steam_id":76561198272289320,"connected_time":1622000000000,"state":"active","ping":47},{"user_id":24,"name":"Ixsus\u003c3","steam_id":76561198094756869,"connected_time":3159000000000,"state":"active","ping":62},{"user_id":34,"name":"Keelan","steam_id":76561198013665543,"connected_time":2616000000000,"state":"active","ping":59},{"user_id":84,"name":"gagalak","steam_id":76561198089979108,"connected_time":491000000000,"state":"active","ping":131},{"user_id":60,"name":"robsan","steam_id":76561198137375391,"connected_time":2104000000000,"state":"active","ping":87},{"user_id":22,"name":"Alexandr","steam_id":76561198415594381,"connected_time":3831000000000,"state":"active","ping":66},{"user_id":80,"name":"The Goon","steam_id":76561198086913973,"connected_time":880000000000,"state":"active","ping":52},{"user_id":90,"name":"I'm using Tilt Controls.","steam_id":76561198077864552,"connected_time":210000000000,"state":"active","ping":48},{"user_id":65,"name":"ILoveKey2","steam_id":76561198814559564,"connected_time":1775000000000,"state":"active","ping":76},{"user_id":52,"name":"scarecrowshelper","steam_id":76561198072260553,"connected_time":2349000000000,"state":"active","ping":62},{"user_id":85,"name":"pqgers","steam_id":76561199116245778,"connected_time":455000000000,"state":"active","ping":105},{"user_id":88,"name":"StormyRice","steam_id":76561198129971386,"connected_time":241000000000,"state":"active","ping":45},{"user_id":61,"name":"MilkIsmo","steam_id":76561198078362135,"connected_time":2103000000000,"state":"active","ping":90},{"user_id":79,"name":"happy + wholesome babs","steam_id":76561198314919758,"connected_time":904000000000,"state":"active","ping":55},{"user_id":46,"name":"sriracha..","steam_id":76561198005560221,"connected_time":2438000000000,"state":"active","ping":75},{"user_id":71,"name":"yuno appreciator","steam_id":76561198083286511,"connected_time":1467000000000,"state":"active","ping":43},{"user_id":95,"name":"–û–ª–µ–∫—Å—ñ–π | UA","steam_id":76561198802594676,"connected_time":20000000000,"state":"active","ping":85},{"user_id":91,"name":"FieryPenguin","steam_id":76561198063866188,"connected_time":209000000000,"state":"active","ping":60},{"user_id":87,"name":"Oxy","steam_id":76561198058640737,"connected_time":283000000000,"state":"active","ping":41},{"user_id":59,"name":"Pirate Pete","steam_id":76561199027962230,"connected_time":2179000000000,"state":"active","ping":37},{"user_id":92,"name":"‚ò†The Boio‚ò†","steam_id":76561198114166378,"connected_time":207000000000,"state":"active","ping":72},{"user_id":93,"name":"Neyika","steam_id":76561199075639138,"connected_time":194000000000,"state":"active","ping":47},{"user_id":94,"name":"Avangarde","steam_id":76561198046286755,"connected_time":187000000000,"state":"active","ping":78},{"user_id":57,"name":"Big Basti","steam_id":76561198261804144,"connected_time":2289000000000,"state":"active","ping":60}]},{"server_id":320,"name":"Uncletopia | London | 3 | All Maps","name_short":"lon-3","host":"lon-1.uk.uncletopia.com","port":27035,"enabled":true,"region":"eu","cc":"gb","latitude":51.509865,"longitude":-0.118092,"reserved":0,"last_update":"0001-01-01T00:00:00Z","name_a2s":"Uncletopia | London | 3 | All Maps","protocol":17,"map":"pl_frontier_final","folder":"tf","game":"Team Fortress","app_id":440,"player_count":22,"max_players":24,"Bots":0,"server_type":"Dedicated","server_os":"Linux","password":true,"vac":true,"version":"7961495","steam_id":85568392924510192,"keywords":["nocrits","nodmgspread","payload","uncletopia"],"game_id":440,"stv_port":27036,"stv_name":"Uncletopia | London | 3 | All Maps | STV","players":[{"user_id":313,"name":"hide","steam_id":76561198918282467,"connected_time":26000000000,"state":"active","ping":35},{"user_id":143,"name":"BearJuice","steam_id":76561198999534523,"connected_time":3937000000000,"state":"active","ping":126},{"user_id":277,"name":"BigAA","steam_id":76561199477658677,"connected_time":1262000000000,"state":"active","ping":57},{"user_id":246,"name":"MEDiUM","steam_id":76561198112328561,"connected_time":1907000000000,"state":"active","ping":75},{"user_id":300,"name":"Plutocola","steam_id":76561198064657605,"connected_time":493000000000,"state":"active","ping":51},{"user_id":301,"name":"Oak","steam_id":76561198067315672,"connected_time":443000000000,"state":"active","ping":46},{"user_id":289,"name":"Ôº∏ Ôº• ÔºÆ","steam_id":76561198119343982,"connected_time":900000000000,"state":"active","ping":40},{"user_id":250,"name":"godmodule","steam_id":76561198165995444,"connected_time":1836000000000,"state":"active","ping":74},{"user_id":76,"name":"9c","steam_id":76561198315632083,"connected_time":6726000000000,"state":"active","ping":76},{"user_id":251,"name":"[1VS23] BAKELITE","steam_id":76561198190816499,"connected_time":1831000000000,"state":"active","ping":83},{"user_id":302,"name":"itsprobablynotmatthew","steam_id":76561198854177058,"connected_time":440000000000,"state":"active","ping":71},{"user_id":309,"name":"Zamorocian","steam_id":76561198076604017,"connected_time":254000000000,"state":"active","ping":41},{"user_id":275,"name":"C√∂ffee","steam_id":76561198115131952,"connected_time":1350000000000,"state":"active","ping":102},{"user_id":297,"name":"Officer Sins","steam_id":76561198263308943,"connected_time":651000000000,"state":"active","ping":75},{"user_id":176,"name":"Hercules","steam_id":76561198041164170,"connected_time":3100000000000,"state":"active","ping":68},{"user_id":281,"name":"The great wall","steam_id":76561198243125192,"connected_time":1168000000000,"state":"active","ping":70},{"user_id":310,"name":"razuepic_","steam_id":76561199441039847,"connected_time":250000000000,"state":"active","ping":131},{"user_id":308,"name":"soon","steam_id":76561198036289105,"connected_time":370000000000,"state":"active","ping":50},{"user_id":236,"name":"Spy","steam_id":76561198982824932,"connected_time":2210000000000,"state":"active","ping":119},{"user_id":255,"name":"Limber","steam_id":76561198406320611,"connected_time":1806000000000,"state":"active","ping":56},{"user_id":285,"name":"Plep","steam_id":76561198840259819,"connected_time":1020000000000,"state":"active","ping":57},{"user_id":215,"name":"Matt ‚ô•","steam_id":76561198263644467,"connected_time":2454000000000,"state":"active","ping":54}]},{"server_id":321,"name":"Uncletopia | London | 4 | All Maps","name_short":"lon-4","host":"lon-1.uk.uncletopia.com","port":27045,"enabled":true,"region":"eu","cc":"gb","latitude":51.509865,"longitude":-0.118092,"reserved":0,"last_update":"0001-01-01T00:00:00Z","name_a2s":"Uncletopia | London | 4 | All Maps","protocol":17,"map":"cp_vanguard","folder":"tf","game":"Team Fortress","app_id":440,"player_count":24,"max_players":24,"Bots":0,"server_type":"Dedicated","server_os":"Linux","password":true,"vac":true,"version":"7961495","steam_id":85568392924510193,"keywords":["cp","nocrits","nodmgspread","uncletopia"],"game_id":440,"stv_port":27046,"stv_name":"Uncletopia | London | 4 | All Maps | STV","players":[{"user_id":341,"name":"Kriv","steam_id":76561198344276348,"connected_time":365000000000,"state":"active","ping":78},{"user_id":332,"name":"Sr. COC√ì","steam_id":76561198254011269,"connected_time":1110000000000,"state":"active","ping":71},{"user_id":288,"name":"Jam","steam_id":76561198090409013,"connected_time":3763000000000,"state":"active","ping":161},{"user_id":333,"name":"Bart","steam_id":76561198276910428,"connected_time":1083000000000,"state":"active","ping":74},{"user_id":343,"name":"IceWaltz","steam_id":76561198146498522,"connected_time":336000000000,"state":"active","ping":36},{"user_id":307,"name":"hasky","steam_id":76561197986052798,"connected_time":2583000000000,"state":"active","ping":60},{"user_id":348,"name":"Cheshireycat","steam_id":76561198067204908,"connected_time":255000000000,"state":"active","ping":56},{"user_id":308,"name":"memesallot","steam_id":76561199488798273,"connected_time":2388000000000,"state":"active","ping":78},{"user_id":318,"name":"world's weakest tomboy enjoyer","steam_id":76561198025080577,"connected_time":1955000000000,"state":"active","ping":45},{"user_id":339,"name":"BigDikNRJ - Obismal","steam_id":76561198055309521,"connected_time":447000000000,"state":"active","ping":67},{"user_id":337,"name":"cockroach","steam_id":76561198841841656,"connected_time":701000000000,"state":"active","ping":65},{"user_id":335,"name":"soney","steam_id":76561198121177512,"connected_time":994000000000,"state":"active","ping":56},{"user_id":340,"name":"R8N - Obismal","steam_id":76561198007482714,"connected_time":434000000000,"state":"active","ping":75},{"user_id":234,"name":"walter","steam_id":76561198021950957,"connected_time":6809000000000,"state":"active","ping":81},{"user_id":328,"name":"CONAH","steam_id":76561198227685876,"connected_time":1245000000000,"state":"active","ping":46},{"user_id":330,"name":"goblin","steam_id":76561198170334258,"connected_time":1185000000000,"state":"active","ping":73},{"user_id":248,"name":"Lark","steam_id":76561198066937447,"connected_time":5746000000000,"state":"active","ping":92},{"user_id":304,"name":"Kysh","steam_id":76561198307287379,"connected_time":2965000000000,"state":"active","ping":75},{"user_id":320,"name":"Kiogeki","steam_id":76561197996707843,"connected_time":1848000000000,"state":"active","ping":43},{"user_id":287,"name":"Milca_11","steam_id":76561198848650365,"connected_time":3790000000000,"state":"active","ping":96},{"user_id":344,"name":"pizzaboob","steam_id":76561198097507847,"connected_time":281000000000,"state":"active","ping":90},{"user_id":349,"name":"Calsim","steam_id":76561198164877219,"connected_time":87000000000,"state":"active","ping":41},{"user_id":295,"name":"i try to be soldier.","steam_id":76561198244153804,"connected_time":3606000000000,"state":"active","ping":77},{"user_id":347,"name":"magnets, how do they work","steam_id":76561198170609049,"connected_time":271000000000,"state":"active","ping":60}]},{"server_id":21,"name":"Uncletopia | London | 5 | All Maps","name_short":"lon-5","host":"lon-1.uk.uncletopia.com","port":27055,"enabled":true,"region":"eu","cc":"gb","latitude":51.509865,"longitude":-0.118092,"reserved":0,"last_update":"0001-01-01T00:00:00Z","name_a2s":"Uncletopia | London | 5 | All Maps","protocol":17,"map":"pl_barnblitz","folder":"tf","game":"Team Fortress","app_id":440,"player_count":23,"max_players":24,"Bots":0,"server_type":"Dedicated","server_os":"Linux","password":true,"vac":true,"version":"7961495","steam_id":85568392924742829,"keywords":["nocrits","nodmgspread","payload","uncletopia"],"game_id":440,"stv_port":27056,"stv_name":"Uncletopia | London | 5 | All Maps | STV","players":[{"user_id":250,"name":"Kernel Panic","steam_id":76561198215811047,"connected_time":188000000000,"state":"active","ping":27},{"user_id":226,"name":"Estamie","steam_id":76561198058527691,"connected_time":1776000000000,"state":"active","ping":75},{"user_id":220,"name":"GazerBazer","steam_id":76561198879107565,"connected_time":2033000000000,"state":"active","ping":50},{"user_id":237,"name":"Keroz1n","steam_id":76561197998681491,"connected_time":1161000000000,"state":"active","ping":75},{"user_id":215,"name":"JamesPepega","steam_id":76561198019156154,"connected_time":2138000000000,"state":"active","ping":72},{"user_id":244,"name":"Sang","steam_id":76561198008510868,"connected_time":659000000000,"state":"active","ping":70},{"user_id":253,"name":"TurnaJ","steam_id":76561198189223495,"connected_time":33000000000,"state":"active","ping":58},{"user_id":254,"name":"Chromatic","steam_id":76561198355976286,"connected_time":0,"state":"connecting","ping":0},{"user_id":251,"name":"func_sam","steam_id":76561198122456936,"connected_time":166000000000,"state":"active","ping":60},{"user_id":246,"name":"Archbishop of Banterbury","steam_id":76561198274438729,"connected_time":635000000000,"state":"active","ping":61},{"user_id":248,"name":"apples","steam_id":76561198882658598,"connected_time":620000000000,"state":"active","ping":92},{"user_id":183,"name":",","steam_id":76561199383437138,"connected_time":4425000000000,"state":"active","ping":121},{"user_id":194,"name":"Lux","steam_id":76561198060417740,"connected_time":3589000000000,"state":"active","ping":46},{"user_id":243,"name":"Butt","steam_id":76561198115496457,"connected_time":704000000000,"state":"active","ping":43},{"user_id":249,"name":"permed ball hair gaming","steam_id":76561198294857933,"connected_time":449000000000,"state":"active","ping":47},{"user_id":252,"name":"The_Jaystone","steam_id":76561198126280691,"connected_time":116000000000,"state":"active","ping":40},{"user_id":200,"name":"sup3rfr3ddy.","steam_id":76561198119371683,"connected_time":3414000000000,"state":"active","ping":60},{"user_id":109,"name":"callthecounselortonight","steam_id":76561198236015392,"connected_time":7692000000000,"state":"active","ping":120},{"user_id":245,"name":"Smurfen","steam_id":76561198134994276,"connected_time":647000000000,"state":"active","ping":52},{"user_id":239,"name":"The Superior Gamer","steam_id":76561198244674514,"connected_time":1094000000000,"state":"active","ping":66},{"user_id":189,"name":"Fran","steam_id":76561199070516960,"connected_time":4057000000000,"state":"active","ping":75},{"user_id":140,"name":"dools18","steam_id":76561198880768062,"connected_time":6900000000000,"state":"active","ping":57},{"user_id":247,"name":"sudden Bee","steam_id":76561198077484975,"connected_time":635000000000,"state":"active","ping":57}]},{"server_id":22,"name":"Uncletopia | London | 6 | All Maps","name_short":"lon-6","host":"lon-1.uk.uncletopia.com","port":27065,"enabled":true,"region":"eu","cc":"gb","latitude":51.509865,"longitude":-0.118092,"reserved":0,"last_update":"0001-01-01T00:00:00Z","name_a2s":"Uncletopia | London | 6 | All Maps","protocol":17,"map":"koth_highpass","folder":"tf","game":"Team Fortress","app_id":440,"player_count":3,"max_players":24,"Bots":0,"server_type":"Dedicated","server_os":"Linux","password":true,"vac":true,"version":"7961495","steam_id":85568392924742830,"keywords":["cp","nocrits","nodmgspread","uncletopia"],"game_id":440,"stv_port":27066,"stv_name":"Uncletopia | London | 6 | All Maps | STV","players":[{"user_id":28,"name":"Mach","steam_id":76561198952487564,"connected_time":161000000000,"state":"active","ping":160},{"user_id":29,"name":"Magearna","steam_id":76561199159557324,"connected_time":122000000000,"state":"active","ping":31},{"user_id":30,"name":"Cooki3","steam_id":76561198065205097,"connected_time":115000000000,"state":"active","ping":46}]},{"server_id":40,"name":"Uncletopia | London | 7 | Stopwatch","name_short":"lon-7","host":"lon-1.uk.uncletopia.com","port":27075,"enabled":true,"region":"eu","cc":"gb","latitude":51.509865,"longitude":-0.118092,"reserved":0,"last_update":"0001-01-01T00:00:00Z","name_a2s":"Uncletopia | London | 7 | Stopwatch","protocol":17,"map":"koth_highpass","folder":"tf","game":"Team Fortress","app_id":440,"player_count":0,"max_players":24,"Bots":0,"server_type":"Dedicated","server_os":"Linux","password":true,"vac":true,"version":"7961495","steam_id":85568392924964314,"keywords":["cp","nocrits","nodmgspread","uncletopia"],"game_id":440,"stv_port":27076,"stv_name":"Uncletopia | London | 7 | Stopwatch | STV","players":null},{"server_id":41,"name":"Uncletopia | London | 8 | Community","name_short":"lon-8","host":"lon-1.uk.uncletopia.com","port":27085,"enabled":true,"region":"eu","cc":"gb","latitude":51.509865,"longitude":-0.118092,"reserved":0,"last_update":"0001-01-01T00:00:00Z","name_a2s":"Uncletopia | London | 8 | Community","protocol":17,"map":"workshop/pl_divulgence_b4b.ugc2884808746","folder":"tf","game":"Team Fortress","app_id":440,"player_count":1,"max_players":24,"Bots":0,"server_type":"Dedicated","server_os":"Linux","password":true,"vac":true,"version":"7961495","steam_id":85568392924964315,"keywords":["nocrits","nodmgspread","payload","uncletopia"],"game_id":440,"stv_port":27086,"stv_name":"Uncletopia | London | 8 | Community | STV","players":[{"user_id":5272,"name":"Waspinator","steam_id":76561198029629987,"connected_time":0,"state":"connecting","ping":0}]},{"server_id":300,"name":"Uncletopia | Montr√©al | 1 | One Thousand Uncles","name_short":"mtl-1","host":"mtl-1.ca.uncletopia.com","port":27015,"enabled":true,"region":"us-east","cc":"ca","latitude":45.50889,"longitude":-73.56167,"reserved":0,"last_update":"0001-01-01T00:00:00Z","name_a2s":"Uncletopia | Montr√©al | 1 | One Thousand Uncles","protocol":17,"map":"pl_chilly","folder":"tf","game":"Team Fortress","app_id":440,"player_count":0,"max_players":32,"Bots":0,"server_type":"Dedicated","server_os":"Linux","password":true,"vac":true,"version":"7961495","steam_id":85568392924500087,"keywords":["alltalk","danepve","increased_maxplayers","norespawntime","payload","uncletopia"],"game_id":440,"stv_port":0,"stv_name":"","players":null},{"server_id":301,"name":"Uncletopia | Montr√©al | 2 | One Thousand Uncles","name_short":"mtl-2","host":"mtl-1.ca.uncletopia.com","port":27025,"enabled":true,"region":"us-east","cc":"ca","latitude":45.50889,"longitude":-73.56167,"reserved":0,"last_update":"0001-01-01T00:00:00Z","name_a2s":"Uncletopia | Montr√©al | 2 | One Thousand Uncles","protocol":17,"map":"pl_chilly","folder":"tf","game":"Team Fortress","app_id":440,"player_count":0,"max_players":32,"Bots":0,"server_type":"Dedicated","server_os":"Linux","password":true,"vac":true,"version":"7961495","steam_id":85568392924500088,"keywords":["alltalk","danepve","increased_maxplayers","norespawntime","payload","uncletopia"],"game_id":440,"stv_port":0,"stv_name":"","players":null},{"server_id":302,"name":"Uncletopia | Montr√©al | 3 | One Thousand Uncles","name_short":"mtl-3","host":"mtl-1.ca.uncletopia.com","port":27035,"enabled":true,"region":"us-east","cc":"ca","latitude":45.50889,"longitude":-73.56167,"reserved":0,"last_update":"0001-01-01T00:00:00Z","name_a2s":"Uncletopia | Montr√©al | 3 | One Thousand Uncles","protocol":17,"map":"pl_hoodoo_final","folder":"tf","game":"Team Fortress","app_id":440,"player_count":0,"max_players":32,"Bots":0,"server_type":"Dedicated","server_os":"Linux","password":true,"vac":true,"version":"7961495","steam_id":85568392924500089,"keywords":["alltalk","danepve","increased_maxplayers","norespawntime","payload","uncletopia"],"game_id":440,"stv_port":0,"stv_name":"","players":null},{"server_id":13,"name":"Uncletopia | New York City | 1 | All Maps","name_short":"nyc-1","host":"nyc-1.us.uncletopia.com","port":27015,"enabled":true,"region":"us-east","cc":"us","latitude":40.73061,"longitude":-73.93524,"reserved":0,"last_update":"0001-01-01T00:00:00Z","name_a2s":"Uncletopia | New York City | 1 | All Maps","protocol":17,"map":"pl_barnblitz","folder":"tf","game":"Team Fortress","app_id":440,"player_count":0,"max_players":24,"Bots":0,"server_type":"Dedicated","server_os":"Linux","password":true,"vac":true,"version":"7961495","steam_id":85568392924469993,"keywords":["nocrits","nodmgspread","payload","uncletopia"],"game_id":440,"stv_port":27016,"stv_name":"Uncletopia | New York City | 1 | All Maps | STV","players":null},{"server_id":14,"name":"Uncletopia | New York City | 2 | All Maps","name_short":"nyc-2","host":"nyc-1.us.uncletopia.com","port":27025,"enabled":true,"region":"us-east","cc":"us","latitude":40.73061,"longitude":-73.93524,"reserved":0,"last_update":"0001-01-01T00:00:00Z","name_a2s":"Uncletopia | New York City | 2 | All Maps","protocol":17,"map":"pl_barnblitz","folder":"tf","game":"Team Fortress","app_id":440,"player_count":24,"max_players":24,"Bots":0,"server_type":"Dedicated","server_os":"Linux","password":true,"vac":true,"version":"7961495","steam_id":85568392924469994,"keywords":["nocrits","nodmgspread","payload","uncletopia"],"game_id":440,"stv_port":27026,"stv_name":"Uncletopia | New York City | 2 | All Maps | STV","players":[{"user_id":124,"name":"Some Octopus Wizard","steam_id":76561198005470354,"connected_time":941000000000,"state":"active","ping":75},{"user_id":112,"name":"peace dog","steam_id":76561198267988522,"connected_time":1794000000000,"state":"active","ping":51},{"user_id":132,"name":"now that's a good news","steam_id":76561198016826181,"connected_time":519000000000,"state":"active","ping":57},{"user_id":131,"name":"ToyBox","steam_id":76561199074735423,"connected_time":574000000000,"state":"active","ping":47},{"user_id":117,"name":"Ken","steam_id":76561198233988068,"connected_time":1686000000000,"state":"active","ping":57},{"user_id":125,"name":"Smormu","steam_id":76561198045429581,"connected_time":936000000000,"state":"active","ping":102},{"user_id":95,"name":"Harry S. Truman","steam_id":76561197993339757,"connected_time":2726000000000,"state":"active","ping":58},{"user_id":126,"name":"RADDIE","steam_id":76561198115610799,"connected_time":926000000000,"state":"active","ping":47},{"user_id":113,"name":"Joey","steam_id":76561198211826573,"connected_time":1783000000000,"state":"active","ping":72},{"user_id":133,"name":"Waltism","steam_id":76561199447676489,"connected_time":471000000000,"state":"active","ping":165},{"user_id":115,"name":"Koala Bear","steam_id":76561198118025990,"connected_time":1741000000000,"state":"active","ping":72},{"user_id":127,"name":"cift","steam_id":76561198309763491,"connected_time":867000000000,"state":"active","ping":74},{"user_id":109,"name":"Ratlympics Gold Medalist","steam_id":76561198064981004,"connected_time":2152000000000,"state":"active","ping":60},{"user_id":57,"name":"Zeek","steam_id":76561197987204351,"connected_time":5715000000000,"state":"active","ping":46},{"user_id":76,"name":"Ziath","steam_id":76561198094009164,"connected_time":4392000000000,"state":"active","ping":45},{"user_id":135,"name":"Ballistic is Dumb","steam_id":76561198030323714,"connected_time":374000000000,"state":"active","ping":50},{"user_id":59,"name":"Phish","steam_id":76561199068509900,"connected_time":5300000000000,"state":"active","ping":45},{"user_id":33,"name":"the keebler","steam_id":76561199486326945,"connected_time":7395000000000,"state":"active","ping":71},{"user_id":130,"name":"Iordani","steam_id":76561198811486693,"connected_time":781000000000,"state":"active","ping":52},{"user_id":134,"name":"‡∂û.BAT","steam_id":76561198049800120,"connected_time":436000000000,"state":"active","ping":105},{"user_id":122,"name":"Grizzled Old Prospector","steam_id":76561197995767385,"connected_time":1266000000000,"state":"active","ping":54},{"user_id":120,"name":"Tokyo_Timeshift_","steam_id":76561198048677523,"connected_time":1533000000000,"state":"active","ping":61},{"user_id":128,"name":"emotional suppport e-cigarette","steam_id":76561198172120615,"connected_time":864000000000,"state":"active","ping":38},{"user_id":136,"name":"jorjor wells","steam_id":76561199073429082,"connected_time":232000000000,"state":"active","ping":60}]},{"server_id":15,"name":"Uncletopia | New York City | 3 | Stopwatch","name_short":"nyc-3","host":"nyc-1.us.uncletopia.com","port":27035,"enabled":true,"region":"us-east","cc":"us","latitude":40.73061,"longitude":-73.93524,"reserved":0,"last_update":"0001-01-01T00:00:00Z","name_a2s":"Uncletopia | New York City | 3 | Stopwatch","protocol":17,"map":"workshop/koth_ashville_final.ugc2130459942","folder":"tf","game":"Team Fortress","app_id":440,"player_count":0,"max_players":24,"Bots":0,"server_type":"Dedicated","server_os":"Linux","password":true,"vac":true,"version":"7961495","steam_id":85568392924742820,"keywords":["cp","nocrits","nodmgspread","uncletopia"],"game_id":440,"stv_port":27036,"stv_name":"Uncletopia | New York City | 3 | Stopwatch | STV","players":null},{"server_id":16,"name":"Uncletopia | New York City | 4 | Community","name_short":"nyc-4","host":"nyc-1.us.uncletopia.com","port":27045,"enabled":true,"region":"us-east","cc":"us","latitude":40.73061,"longitude":-73.93524,"reserved":0,"last_update":"0001-01-01T00:00:00Z","name_a2s":"Uncletopia | New York City | 4 | Community","protocol":17,"map":"workshop/cp_overgrown_rc8.ugc503939302","folder":"tf","game":"Team Fortress","app_id":440,"player_count":0,"max_players":24,"Bots":0,"server_type":"Dedicated","server_os":"Linux","password":true,"vac":true,"version":"7961495","steam_id":85568392924742821,"keywords":["cp","nocrits","nodmgspread","uncletopia"],"game_id":440,"stv_port":27046,"stv_name":"Uncletopia | New York City | 4 | Community | STV","players":null},{"server_id":142,"name":"Uncletopia | S√£o Paulo | 1 | All Maps","name_short":"sao-1","host":"sao-1.br.uncletopia.com","port":27015,"enabled":true,"region":"sa","cc":"br","latitude":-23.533773,"longitude":-46.62529,"reserved":0,"last_update":"0001-01-01T00:00:00Z","name_a2s":"Uncletopia | S√£o Paulo | 1 | All Maps","protocol":17,"map":"cp_gorge","folder":"tf","game":"Team Fortress","app_id":440,"player_count":0,"max_players":24,"Bots":0,"server_type":"Dedicated","server_os":"Linux","password":true,"vac":true,"version":"7961495","steam_id":85568392924469996,"keywords":["cp","nocrits","nodmgspread","uncletopia"],"game_id":440,"stv_port":27016,"stv_name":"Uncletopia | S√£o Paulo | 1 | All Maps | STV","players":null},{"server_id":143,"name":"Uncletopia | S√£o Paulo | 2 | Community","name_short":"sao-2","host":"sao-2.br.uncletopia.com","port":27015,"enabled":true,"region":"sa","cc":"br","latitude":-23.533773,"longitude":-46.62529,"reserved":0,"last_update":"0001-01-01T00:00:00Z","name_a2s":"Uncletopia | S√£o Paulo | 2 | Community","protocol":17,"map":"workshop/cp_croissant_final.ugc458840209","folder":"tf","game":"Team Fortress","app_id":440,"player_count":0,"max_players":24,"Bots":0,"server_type":"Dedicated","server_os":"Linux","password":true,"vac":true,"version":"7961495","steam_id":85568392924485349,"keywords":["cp","nocrits","nodmgspread","uncletopia"],"game_id":440,"stv_port":27016,"stv_name":"Uncletopia | S√£o Paulo | 2 | Community | STV","players":null},{"server_id":7,"name":"Uncletopia | Seattle | 1 | All Maps","name_short":"sea-1","host":"sea-1.us.uncletopia.com","port":27015,"enabled":true,"region":"us-west","cc":"us","latitude":47.608013,"longitude":-122.33517,"reserved":0,"last_update":"0001-01-01T00:00:00Z","name_a2s":"Uncletopia | Seattle | 1 | All Maps","protocol":17,"map":"cp_snakewater_final1","folder":"tf","game":"Team Fortress","app_id":440,"player_count":24,"max_players":24,"Bots":0,"server_type":"Dedicated","server_os":"Linux","password":true,"vac":true,"version":"7961495","steam_id":85568392924469997,"keywords":["cp","nocrits","nodmgspread","uncletopia"],"game_id":440,"stv_port":27016,"stv_name":"Uncletopia | Seattle | 1 | All Maps | STV","players":[{"user_id":255,"name":"Nibotshooter","steam_id":76561199284825579,"connected_time":2650000000000,"state":"active","ping":77},{"user_id":284,"name":"Grimace D. Drippings","steam_id":76561198050849790,"connected_time":312000000000,"state":"active","ping":62},{"user_id":265,"name":"QueenCake575","steam_id":76561198996882407,"connected_time":2032000000000,"state":"active","ping":58},{"user_id":261,"name":"tabascomilk","steam_id":76561198355094896,"connected_time":2353000000000,"state":"active","ping":105},{"user_id":277,"name":"jayeskae","steam_id":76561198144220801,"connected_time":981000000000,"state":"active","ping":46},{"user_id":287,"name":"·µê·µâ·µí ∑","steam_id":76561199200969139,"connected_time":165000000000,"state":"active","ping":62},{"user_id":264,"name":"Leo x.x","steam_id":76561198309760791,"connected_time":2059000000000,"state":"active","ping":115},{"user_id":268,"name":"Hazel The Boy Maid","steam_id":76561199247095754,"connected_time":1890000000000,"state":"active","ping":61},{"user_id":269,"name":"Nom Skirrett","steam_id":76561198014600788,"connected_time":1804000000000,"state":"active","ping":60},{"user_id":209,"name":"Trips","steam_id":76561198054581597,"connected_time":5471000000000,"state":"active","ping":63},{"user_id":243,"name":"Daddy Topps","steam_id":76561198203594332,"connected_time":3219000000000,"state":"active","ping":44},{"user_id":286,"name":"Cave Dweller","steam_id":76561198374825685,"connected_time":248000000000,"state":"active","ping":74},{"user_id":274,"name":"Astrocards","steam_id":76561199184079830,"connected_time":1607000000000,"state":"active","ping":101},{"user_id":280,"name":"baunter","steam_id":76561198024311871,"connected_time":881000000000,"state":"active","ping":74},{"user_id":283,"name":"fart","steam_id":76561198074198286,"connected_time":345000000000,"state":"active","ping":91},{"user_id":281,"name":"CheeseCake488","steam_id":76561199407617942,"connected_time":769000000000,"state":"active","ping":92},{"user_id":276,"name":"Laxoloni","steam_id":76561199197045700,"connected_time":1318000000000,"state":"active","ping":75},{"user_id":220,"name":"Dog Hands Phone","steam_id":76561198090419068,"connected_time":4626000000000,"state":"active","ping":64},{"user_id":257,"name":"kn0n","steam_id":76561198249172818,"connected_time":2523000000000,"state":"active","ping":93},{"user_id":239,"name":"Sahalanthro","steam_id":76561199073298722,"connected_time":3479000000000,"state":"active","ping":90},{"user_id":272,"name":"MrYadaization","steam_id":76561198050770818,"connected_time":1762000000000,"state":"active","ping":56},{"user_id":260,"name":"Username","steam_id":76561198198918781,"connected_time":2370000000000,"state":"active","ping":80},{"user_id":238,"name":"Buswolley","steam_id":76561197995205571,"connected_time":3586000000000,"state":"active","ping":57},{"user_id":279,"name":"Baked Potato PC","steam_id":76561197994217512,"connected_time":953000000000,"state":"active","ping":120}]},{"server_id":119,"name":"Uncletopia | Seattle | 2 | All Maps","name_short":"sea-2","host":"sea-1.us.uncletopia.com","port":27025,"enabled":true,"region":"us-west","cc":"us","latitude":47.608013,"longitude":-122.33517,"reserved":0,"last_update":"0001-01-01T00:00:00Z","name_a2s":"Uncletopia | Seattle | 2 | All Maps","protocol":17,"map":"koth_cascade","folder":"tf","game":"Team Fortress","app_id":440,"player_count":0,"max_players":24,"Bots":0,"server_type":"Dedicated","server_os":"Linux","password":true,"vac":true,"version":"7961495","steam_id":85568392924469998,"keywords":["cp","nocrits","nodmgspread","uncletopia"],"game_id":440,"stv_port":27026,"stv_name":"Uncletopia | Seattle | 2 | All Maps | STV","players":null},{"server_id":406,"name":"Uncletopia | Seattle | 3 | Stopwatch","name_short":"sea-3","host":"sea-1.us.uncletopia.com","port":27035,"enabled":true,"region":"us-west","cc":"us","latitude":47.608013,"longitude":-122.33517,"reserved":0,"last_update":"0001-01-01T00:00:00Z","name_a2s":"Uncletopia | Seattle | 3 | Stopwatch","protocol":17,"map":"koth_highpass","folder":"tf","game":"Team Fortress","app_id":440,"player_count":0,"max_players":24,"Bots":0,"server_type":"Dedicated","server_os":"Linux","password":true,"vac":true,"version":"7961495","steam_id":85568392924515217,"keywords":["cp","nocrits","nodmgspread","uncletopia"],"game_id":440,"stv_port":27036,"stv_name":"Uncletopia | Seattle | 3 | Stopwatch | STV","players":null},{"server_id":17,"name":"Uncletopia | San Francisco | 1 | All Maps","name_short":"sfo-1","host":"sfo-1.us.uncletopia.com","port":27015,"enabled":true,"region":"us-west","cc":"us","latitude":37.77397,"longitude":-122.4313,"reserved":0,"last_update":"0001-01-01T00:00:00Z","name_a2s":"Uncletopia | San Francisco | 1 | All Maps","protocol":17,"map":"koth_highpass","folder":"tf","game":"Team Fortress","app_id":440,"player_count":0,"max_players":24,"Bots":0,"server_type":"Dedicated","server_os":"Linux","password":true,"vac":true,"version":"7961495","steam_id":85568392924469999,"keywords":["cp","nocrits","nodmgspread","uncletopia"],"game_id":440,"stv_port":27016,"stv_name":"Uncletopia | San Francisco | 1 | All Maps | STV","players":null},{"server_id":18,"name":"Uncletopia | San Francisco | 2 | All Maps","name_short":"sfo-2","host":"sfo-1.us.uncletopia.com","port":27025,"enabled":true,"region":"us-west","cc":"us","latitude":37.77397,"longitude":-122.4313,"reserved":0,"last_update":"0001-01-01T00:00:00Z","name_a2s":"Uncletopia | San Francisco | 2 | All Maps","protocol":17,"map":"koth_viaduct","folder":"tf","game":"Team Fortress","app_id":440,"player_count":0,"max_players":24,"Bots":0,"server_type":"Dedicated","server_os":"Linux","password":true,"vac":true,"version":"7961495","steam_id":85568392924470000,"keywords":["cp","nocrits","nodmgspread","uncletopia"],"game_id":440,"stv_port":27026,"stv_name":"Uncletopia | San Francisco | 2 | All Maps | STV","players":null},{"server_id":19,"name":"Uncletopia | San Francisco | 3 | Stopwatch","name_short":"sfo-3","host":"sfo-1.us.uncletopia.com","port":27035,"enabled":true,"region":"us-west","cc":"us","latitude":37.77397,"longitude":-122.4313,"reserved":0,"last_update":"0001-01-01T00:00:00Z","name_a2s":"Uncletopia | San Francisco | 3 | Stopwatch","protocol":17,"map":"workshop/koth_product_final.ugc454272353","folder":"tf","game":"Team Fortress","app_id":440,"player_count":0,"max_players":24,"Bots":0,"server_type":"Dedicated","server_os":"Linux","password":true,"vac":true,"version":"7961495","steam_id":85568392924742824,"keywords":["cp","nocrits","nodmgspread","uncletopia"],"game_id":440,"stv_port":27036,"stv_name":"Uncletopia | San Francisco | 3 | Stopwatch | STV","players":null},{"server_id":20,"name":"Uncletopia | San Francisco | 4 | Community","name_short":"sfo-4","host":"sfo-1.us.uncletopia.com","port":27045,"enabled":true,"region":"us-west","cc":"us","latitude":37.77397,"longitude":-122.4313,"reserved":0,"last_update":"0001-01-01T00:00:00Z","name_a2s":"Uncletopia | San Francisco | 4 | Community","protocol":17,"map":"workshop/pl_cactuscanyon_redux_final2.ugc2579644293","folder":"tf","game":"Team Fortress","app_id":440,"player_count":0,"max_players":24,"Bots":0,"server_type":"Dedicated","server_os":"Linux","password":true,"vac":true,"version":"7961495","steam_id":85568392924742826,"keywords":["nocrits","nodmgspread","payload","uncletopia"],"game_id":440,"stv_port":27046,"stv_name":"Uncletopia | San Francisco | 4 | Community | STV","players":null},{"server_id":141,"name":"Uncletopia | Sydney | 1 | All Maps","name_short":"syd-1","host":"syd-1.au.uncletopia.com","port":27015,"enabled":true,"region":"au","cc":"au","latitude":-33.865143,"longitude":151.2099,"reserved":0,"last_update":"0001-01-01T00:00:00Z","name_a2s":"Uncletopia | Sydney | 1 | All Maps","protocol":17,"map":"koth_viaduct","folder":"tf","game":"Team Fortress","app_id":440,"player_count":0,"max_players":24,"Bots":0,"server_type":"Dedicated","server_os":"Linux","password":true,"vac":true,"version":"7961495","steam_id":85568392924470001,"keywords":["cp","nocrits","nodmgspread","uncletopia"],"game_id":440,"stv_port":27016,"stv_name":"Uncletopia | Sydney | 1 | All Maps | STV","players":null},{"server_id":123,"name":"Uncletopia | Sydney | 2 | All Maps","name_short":"syd-2","host":"syd-1.au.uncletopia.com","port":27025,"enabled":true,"region":"au","cc":"au","latitude":-33.865143,"longitude":151.2099,"reserved":0,"last_update":"0001-01-01T00:00:00Z","name_a2s":"Uncletopia | Sydney | 2 | All Maps","protocol":17,"map":"cp_process_final","folder":"tf","game":"Team Fortress","app_id":440,"player_count":0,"max_players":24,"Bots":0,"server_type":"Dedicated","server_os":"Linux","password":true,"vac":true,"version":"7961495","steam_id":85568392924470002,"keywords":["cp","nocrits","nodmgspread","uncletopia"],"game_id":440,"stv_port":27026,"stv_name":"Uncletopia | Sydney | 2 | All Maps | STV","players":null},{"server_id":395,"name":"Uncletopia | Sydney | 3 | All Maps","name_short":"syd-3","host":"syd-1.au.uncletopia.com","port":27035,"enabled":true,"region":"au","cc":"au","latitude":-33.865143,"longitude":151.2099,"reserved":0,"last_update":"0001-01-01T00:00:00Z","name_a2s":"Uncletopia | Sydney | 3 | All Maps","protocol":17,"map":"cp_snakewater_final1","folder":"tf","game":"Team Fortress","app_id":440,"player_count":0,"max_players":24,"Bots":0,"server_type":"Dedicated","server_os":"Linux","password":true,"vac":true,"version":"7961495","steam_id":85568392925194467,"keywords":["cp","nocrits","nodmgspread","uncletopia"],"game_id":440,"stv_port":27036,"stv_name":"Uncletopia | Sydney | 3 | All Maps | STV","players":null},{"server_id":396,"name":"Uncletopia | Sydney | 4 | All Maps","name_short":"syd-4","host":"syd-1.au.uncletopia.com","port":27045,"enabled":true,"region":"au","cc":"au","latitude":-33.865143,"longitude":151.2099,"reserved":0,"last_update":"0001-01-01T00:00:00Z","name_a2s":"Uncletopia | Sydney | 4 | All Maps","protocol":17,"map":"koth_lakeside_final","folder":"tf","game":"Team Fortress","app_id":440,"player_count":0,"max_players":24,"Bots":0,"server_type":"Dedicated","server_os":"Linux","password":true,"vac":true,"version":"7961495","steam_id":85568392925397958,"keywords":["cp","nocrits","nodmgspread","uncletopia"],"game_id":440,"stv_port":27046,"stv_name":"Uncletopia | Sydney | 4 | All Maps | STV","players":null},{"server_id":58,"name":"Uncletopia | Sydney | 5 | Stopwatch","name_short":"syd-5","host":"syd-1.au.uncletopia.com","port":27055,"enabled":true,"region":"au","cc":"au","latitude":-33.865143,"longitude":151.2099,"reserved":0,"last_update":"0001-01-01T00:00:00Z","name_a2s":"Uncletopia | Sydney | 5 | Stopwatch","protocol":17,"map":"cp_snakewater_final1","folder":"tf","game":"Team Fortress","app_id":440,"player_count":0,"max_players":24,"Bots":0,"server_type":"Dedicated","server_os":"Linux","password":true,"vac":true,"version":"7961495","steam_id":85568392925397959,"keywords":["cp","nocrits","nodmgspread","uncletopia"],"game_id":440,"stv_port":27056,"stv_name":"Uncletopia | Sydney | 5 | Stopwatch | STV","players":null},{"server_id":59,"name":"Uncletopia | Sydney | 6 | Community","name_short":"syd-6","host":"syd-1.au.uncletopia.com","port":27065,"enabled":true,"region":"au","cc":"au","latitude":-33.865143,"longitude":151.2099,"reserved":0,"last_update":"0001-01-01T00:00:00Z","name_a2s":"Uncletopia | Sydney | 6 | Community","protocol":17,"map":"workshop/koth_trenchfoot_ab1.ugc731436616","folder":"tf","game":"Team Fortress","app_id":440,"player_count":0,"max_players":24,"Bots":0,"server_type":"Dedicated","server_os":"Linux","password":true,"vac":true,"version":"7961495","steam_id":85568392925397960,"keywords":["cp","nocrits","nodmgspread","uncletopia"],"game_id":440,"stv_port":27066,"stv_name":"Uncletopia | Sydney | 6 | Community | STV","players":null},{"server_id":49,"name":"Uncletopia | Warsaw | 1 | One Thousand Uncles","name_short":"waw-1","host":"waw-1.pl.uncletopia.com","port":27015,"enabled":true,"region":"eu","cc":"pl","latitude":52.2297,"longitude":21.017532,"reserved":0,"last_update":"0001-01-01T00:00:00Z","name_a2s":"Uncletopia | Warsaw | 1 | One Thousand Uncles","protocol":17,"map":"pl_chilly","folder":"tf","game":"Team Fortress","app_id":440,"player_count":31,"max_players":32,"Bots":16,"server_type":"Dedicated","server_os":"Linux","password":true,"vac":true,"version":"7961495","steam_id":85568392925397850,"keywords":["alltalk","bots","danepve","increased_maxplayers","norespawntime","payload","uncletopia"],"game_id":440,"stv_port":0,"stv_name":"","players":[{"user_id":491,"name":"SolidShade","steam_id":76561198219790681,"connected_time":2594000000000,"state":"active","ping":103},{"user_id":497,"name":"Tispy","steam_id":76561199207410049,"connected_time":2314000000000,"state":"active","ping":113},{"user_id":509,"name":"SHIZA69 [SGR]","steam_id":76561199104086365,"connected_time":902000000000,"state":"active","ping":91},{"user_id":454,"name":"IAmANoob21371","steam_id":76561199237128026,"connected_time":3942000000000,"state":"active","ping":33},{"user_id":498,"name":"Uncle Moomin","steam_id":76561198011628656,"connected_time":2269000000000,"state":"active","ping":88},{"user_id":506,"name":"Gen","steam_id":76561198021775885,"connected_time":1154000000000,"state":"active","ping":58},{"user_id":411,"name":"Yuxues","steam_id":76561199218188958,"connected_time":5806000000000,"state":"active","ping":95},{"user_id":455,"name":"I only uber spies","steam_id":76561198333241218,"connected_time":3931000000000,"state":"active","ping":57},{"user_id":510,"name":"BOT Grzegorz","steam_id":76561198317635320,"connected_time":803000000000,"state":"active","ping":39},{"user_id":464,"name":"Lipton","steam_id":76561198295394329,"connected_time":3172000000000,"state":"active","ping":45},{"user_id":508,"name":"Gus Fring Man","steam_id":76561198321570748,"connected_time":1060000000000,"state":"active","ping":65},{"user_id":523,"name":"Womanticore","steam_id":76561199235582031,"connected_time":88000000000,"state":"active","ping":245},{"user_id":461,"name":"Young trunks","steam_id":76561198807869634,"connected_time":3532000000000,"state":"active","ping":60},{"user_id":512,"name":"Squidiot","steam_id":76561198042754907,"connected_time":788000000000,"state":"active","ping":64},{"user_id":524,"name":"Antioch","steam_id":76561198363548450,"connected_time":82000000000,"state":"active","ping":63}]},{"server_id":50,"name":"Uncletopia | Warsaw | 2 | One Thousand Uncles","name_short":"waw-2","host":"waw-1.pl.uncletopia.com","port":27025,"enabled":true,"region":"eu","cc":"pl","latitude":52.2297,"longitude":21.017532,"reserved":0,"last_update":"0001-01-01T00:00:00Z","name_a2s":"Uncletopia | Warsaw | 2 | One Thousand Uncles","protocol":17,"map":"cp_egypt_final","folder":"tf","game":"Team Fortress","app_id":440,"player_count":0,"max_players":32,"Bots":0,"server_type":"Dedicated","server_os":"Linux","password":true,"vac":true,"version":"7961495","steam_id":85568392925397851,"keywords":["alltalk","cp","danepve","increased_maxplayers","norespawntime","uncletopia"],"game_id":440,"stv_port":0,"stv_name":"","players":null},{"server_id":51,"name":"Uncletopia | Warsaw | 3 | All Maps","name_short":"waw-3","host":"waw-1.pl.uncletopia.com","port":27035,"enabled":true,"region":"eu","cc":"pl","latitude":52.2297,"longitude":21.017532,"reserved":0,"last_update":"0001-01-01T00:00:00Z","name_a2s":"Uncletopia | Warsaw | 3 | All Maps","protocol":17,"map":"pl_upward","folder":"tf","game":"Team Fortress","app_id":440,"player_count":0,"max_players":24,"Bots":0,"server_type":"Dedicated","server_os":"Linux","password":true,"vac":true,"version":"7961495","steam_id":85568392925397852,"keywords":["nocrits","nodmgspread","payload","uncletopia"],"game_id":440,"stv_port":27036,"stv_name":"Uncletopia | Warsaw | 3 | All Maps | STV","players":null},{"server_id":52,"name":"Uncletopia | Warsaw | 4 | All Maps","name_short":"waw-4","host":"waw-1.pl.uncletopia.com","port":27045,"enabled":true,"region":"eu","cc":"pl","latitude":52.2297,"longitude":21.017532,"reserved":0,"last_update":"0001-01-01T00:00:00Z","name_a2s":"Uncletopia | Warsaw | 4 | All Maps","protocol":17,"map":"koth_highpass","folder":"tf","game":"Team Fortress","app_id":440,"player_count":0,"max_players":24,"Bots":0,"server_type":"Dedicated","server_os":"Linux","password":true,"vac":true,"version":"7961495","steam_id":85568392925397853,"keywords":["cp","nocrits","nodmgspread","uncletopia"],"game_id":440,"stv_port":27046,"stv_name":"Uncletopia | Warsaw | 4 | All Maps | STV","players":null},{"server_id":53,"name":"Uncletopia | Warsaw | 5 | Stopwatch","name_short":"waw-5","host":"waw-1.pl.uncletopia.com","port":27055,"enabled":true,"region":"eu","cc":"pl","latitude":52.2297,"longitude":21.017532,"reserved":0,"last_update":"0001-01-01T00:00:00Z","name_a2s":"Uncletopia | Warsaw | 5 | Stopwatch","protocol":17,"map":"workshop/koth_ashville_final.ugc2130459942","folder":"tf","game":"Team Fortress","app_id":440,"player_count":0,"max_players":24,"Bots":0,"server_type":"Dedicated","server_os":"Linux","password":true,"vac":true,"version":"7961495","steam_id":85568392925397854,"keywords":["cp","nocrits","nodmgspread","uncletopia"],"game_id":440,"stv_port":27056,"stv_name":"Uncletopia | Warsaw | 5 | Stopwatch | STV","players":null},{"server_id":54,"name":"Uncletopia | Warsaw | 6 | Community","name_short":"waw-6","host":"waw-1.pl.uncletopia.com","port":27065,"enabled":true,"region":"eu","cc":"pl","latitude":52.2297,"longitude":21.017532,"reserved":0,"last_update":"0001-01-01T00:00:00Z","name_a2s":"Uncletopia | Warsaw | 6 | Community","protocol":17,"map":"workshop/koth_jamram_rc1a.ugc2964065613","folder":"tf","game":"Team Fortress","app_id":440,"player_count":0,"max_players":24,"Bots":0,"server_type":"Dedicated","server_os":"Linux","password":true,"vac":true,"version":"7961495","steam_id":85568392925397856,"keywords":["cp","nocrits","nodmgspread","uncletopia"],"game_id":440,"stv_port":27066,"stv_name":"Uncletopia | Warsaw | 6 | Community | STV","players":null}]}