{"status":true,"message":"","result":[{"server_id":9,"name":"Uncletopia | Atlanta | 1 | All Maps","name_short":"atl-1","host":"atl-1.us.uncletopia.com","port":27015,"enabled":true,"region":"us-east","cc":"us","latitude":33.753746,"longitude":-84.38633,"reserved":0,"last_update":"0001-01-01T00:00:00Z","name_a2s":"Uncletopia | Atlanta | 1 | All Maps","protocol":17,"map":"pl_barnblitz","folder":"tf","game":"Team Fortress","app_id":440,"player_count":23,"max_players":24,"Bots":0,"server_type":"Dedicated","server_os":"Linux","password":true,"vac":true,"version":"7757534","steam_id":85568392924469982,"keywords":["nocrits","nodmgspread","payload","uncletopia"],"game_id":440,"stv_port":27016,"stv_name":"Uncletopia | Atlanta | 1 | All Maps | STV","players":[{"user_id":182,"name":"DuckKey","steam_id":76561198904477889,"connected_time":1263000000000,"state":"active","ping":56},{"user_id":166,"name":"Protoshake","steam_id":76561198840276176,"connected_time":2583000000000,"state":"active","ping":64},{"user_id":172,"name":"BlueKirbvii","steam_id":76561199021459412,"connected_time":2105000000000,"state":"active","ping":98},{"user_id":165,"name":"knotsofunny","steam_id":76561198071336304,"connected_time":2667000000000,"state":"active","ping":55},{"user_id":190,"name":"metalfan666","steam_id":76561198386344068,"connected_time":12000000000,"state":"spawning","ping":72},{"user_id":187,"name":"The Shiigster","steam_id":76561198919981160,"connected_time":513000000000,"state":"active","ping":69},{"user_id":173,"name":"Rin \"Hindwing\" Redtail","steam_id":76561199074865638,"connected_time":2088000000000,"state":"active","ping":51},{"user_id":183,"name":"ATL1 | Bandicario","steam_id":76561198432036026,"connected_time":939000000000,"state":"active","ping":42},{"user_id":110,"name":"Ejaculation Zach","steam_id":76561198203765200,"connected_time":7609000000000,"state":"active","ping":72},{"user_id":184,"name":"PomsonPug","steam_id":76561198049093575,"connected_time":844000000000,"state":"active","ping":86},{"user_id":189,"name":"The Spy from TF2","steam_id":76561199121276474,"connected_time":16000000000,"state":"active","ping":80},{"user_id":170,"name":"M@verick","steam_id":76561198006363519,"connected_time":2172000000000,"state":"active","ping":70},{"user_id":191,"name":"cheeks","steam_id":76561197993371179,"connected_time":11000000000,"state":"spawning","ping":43},{"user_id":186,"name":"MaximumAce","steam_id":76561198359596849,"connected_time":815000000000,"state":"active","ping":66},{"user_id":192,"name":"Big Man","steam_id":76561198353366625,"connected_time":8000000000,"state":"spawning","ping":107},{"user_id":179,"name":"glitchy","steam_id":76561199009135766,"connected_time":1806000000000,"state":"active","ping":62},{"user_id":161,"name":"Ashes!","steam_id":76561197998475441,"connected_time":3321000000000,"state":"active","ping":88},{"user_id":134,"name":"RED1 | vid_","steam_id":76561198065159053,"connected_time":6078000000000,"state":"active","ping":46},{"user_id":188,"name":"ATL1 | Kramer","steam_id":76561198083595936,"connected_time":166000000000,"state":"active","ping":71},{"user_id":148,"name":"Whoa","steam_id":76561197970353496,"connected_time":4433000000000,"state":"active","ping":73},{"user_id":154,"name":"hamal cine","steam_id":76561198079619374,"connected_time":3630000000000,"state":"active","ping":63},{"user_id":162,"name":"atserc","steam_id":76561197997570349,"connected_time":3266000000000,"state":"active","ping":75},{"user_id":185,"name":"HarryjusttHarry","steam_id":76561198982810452,"connected_time":843000000000,"state":"active","ping":77}]},{"server_id":400,"name":"Uncletopia | Atlanta | 3 | Stopwatch Beta","name_short":"atl-3","host":"atl-1.us.uncletopia.com","port":27035,"enabled":true,"region":"us-east","cc":"us","latitude":33.753746,"longitude":-84.38633,"reserved":0,"last_update":"0001-01-01T00:00:00Z","name_a2s":"Uncletopia | Atlanta | 3 | Stopwatch Beta","protocol":17,"map":"pl_borneo","folder":"tf","game":"Team Fortress","app_id":440,"player_count":0,"max_players":24,"Bots":0,"server_type":"Dedicated","server_os":"Linux","password":true,"vac":true,"version":"7757534","steam_id":85568392924515187,"keywords":["nocrits","nodmgspread","payload","uncletopia"],"game_id":440,"stv_port":27036,"stv_name":"Uncletopia | Atlanta | 3 | Stopwatch Beta | STV","players":null},{"server_id":401,"name":"Uncletopia | Atlanta | 4 | No Payload","name_short":"atl-4","host":"atl-1.us.uncletopia.com","port":27045,"enabled":true,"region":"us-east","cc":"us","latitude":33.753746,"longitude":-84.38633,"reserved":0,"last_update":"0001-01-01T00:00:00Z","name_a2s":"Uncletopia | Atlanta | 4 | No Payload","protocol":17,"map":"pl_pier","folder":"tf","game":"Team Fortress","app_id":440,"player_count":0,"max_players":24,"Bots":0,"server_type":"Dedicated","server_os":"Linux","password":true,"vac":true,"version":"7723704","steam_id":85568392924515188,"keywords":["nocrits","nodmgspread","payload","uncletopia"],"game_id":440,"stv_port":27046,"stv_name":"Uncletopia | Atlanta | 4 | No Payload | STV","players":null},{"server_id":2,"name":"Uncletopia | Chicago | 1 | All Maps","name_short":"chi-1","host":"chi-1.us.uncletopia.com","port":27015,"enabled":true,"region":"us-central","cc":"us","latitude":41.881832,"longitude":-87.62318,"reserved":0,"last_update":"0001-01-01T00:00:00Z","name_a2s":"Uncletopia | Chicago | 1 | All Maps","protocol":17,"map":"pl_barnblitz","folder":"tf","game":"Team Fortress","app_id":440,"player_count":23,"max_players":24,"Bots":0,"server_type":"Dedicated","server_os":"Linux","password":true,"vac":true,"version":"7757534","steam_id":85568392924469984,"keywords":["nocrits","nodmgspread","payload","uncletopia"],"game_id":440,"stv_port":27016,"stv_name":"Uncletopia | Chicago | 1 | All Maps | STV","players":[{"user_id":309,"name":"GREG","steam_id":76561198073021168,"connected_time":241000000000,"state":"active","ping":68},{"user_id":296,"name":"Jw. www.vaticancatholic.com","steam_id":76561198190170075,"connected_time":1572000000000,"state":"active","ping":58},{"user_id":260,"name":"PotatoChamp","steam_id":76561198074247215,"connected_time":3723000000000,"state":"active","ping":116},{"user_id":285,"name":"Skuntle Bingoid","steam_id":76561199097297812,"connected_time":2365000000000,"state":"active","ping":151},{"user_id":294,"name":"capybara","steam_id":76561198843437081,"connected_time":1737000000000,"state":"active","ping":105},{"user_id":241,"name":"creeeeeee","steam_id":76561198392539722,"connected_time":7053000000000,"state":"active","ping":86},{"user_id":301,"name":"stevemarshall","steam_id":76561198405982285,"connected_time":1149000000000,"state":"active","ping":43},{"user_id":303,"name":"Pixler544","steam_id":76561198240575132,"connected_time":1114000000000,"state":"active","ping":90},{"user_id":281,"name":"debin","steam_id":76561198070711217,"connected_time":2509000000000,"state":"active","ping":58},{"user_id":310,"name":"Iggy Dogg","steam_id":76561198059602545,"connected_time":211000000000,"state":"active","ping":52},{"user_id":304,"name":"Fudgely","steam_id":76561198039425862,"connected_time":1064000000000,"state":"active","ping":64},{"user_id":306,"name":"The Drunk Clown","steam_id":76561197986850426,"connected_time":556000000000,"state":"active","ping":75},{"user_id":302,"name":"warpig","steam_id":76561199226313309,"connected_time":1137000000000,"state":"active","ping":71},{"user_id":308,"name":"Fawful's Minion","steam_id":76561198090120779,"connected_time":521000000000,"state":"active","ping":116},{"user_id":305,"name":"The ghostly Piss MN","steam_id":76561198209197020,"connected_time":918000000000,"state":"active","ping":71},{"user_id":307,"name":"Whizzo the Clown","steam_id":76561197995910627,"connected_time":534000000000,"state":"active","ping":86},{"user_id":312,"name":"SKINGRAPH","steam_id":76561198082933650,"connected_time":134000000000,"state":"active","ping":94},{"user_id":291,"name":"üíï Bussy Gaming üíï","steam_id":76561198983966907,"connected_time":2236000000000,"state":"active","ping":71},{"user_id":282,"name":"Tyco","steam_id":76561197978414167,"connected_time":2437000000000,"state":"active","ping":75},{"user_id":276,"name":"R2D28MYFOOD","steam_id":76561198124315872,"connected_time":3224000000000,"state":"active","ping":85},{"user_id":273,"name":"Tones","steam_id":76561198039572032,"connected_time":3517000000000,"state":"active","ping":61},{"user_id":199,"name":"Dali","steam_id":76561198077593486,"connected_time":9672000000000,"state":"active","ping":125},{"user_id":298,"name":"1rhythm","steam_id":76561199159347310,"connected_time":1367000000000,"state":"active","ping":83}]},{"server_id":106,"name":"Uncletopia | Chicago | 2 | All Maps","name_short":"chi-2","host":"chi-1.us.uncletopia.com","port":27025,"enabled":true,"region":"us-central","cc":"us","latitude":41.881832,"longitude":-87.62318,"reserved":0,"last_update":"0001-01-01T00:00:00Z","name_a2s":"Uncletopia | Chicago | 2 | All Maps","protocol":17,"map":"cp_gorge","folder":"tf","game":"Team Fortress","app_id":440,"player_count":24,"max_players":24,"Bots":0,"server_type":"Dedicated","server_os":"Linux","password":true,"vac":true,"version":"7757534","steam_id":85568392924469985,"keywords":["cp","nocrits","nodmgspread","uncletopia"],"game_id":440,"stv_port":27026,"stv_name":"Uncletopia | Chicago | 2 | All Maps | STV","players":[{"user_id":11,"name":"The World's Softest Sandwich","steam_id":76561198015577707,"connected_time":6367000000000,"state":"active","ping":73},{"user_id":109,"name":"radboi","steam_id":76561198414544666,"connected_time":54000000000,"state":"active","ping":62},{"user_id":50,"name":"foxy is a good guy","steam_id":76561198367019006,"connected_time":4643000000000,"state":"active","ping":69},{"user_id":101,"name":"rico suave","steam_id":76561198093252989,"connected_time":263000000000,"state":"active","ping":99},{"user_id":110,"name":"Intellectually Challenged Cat","steam_id":76561198261157488,"connected_time":5000000000,"state":"spawning","ping":59},{"user_id":88,"name":"Sentry (Egg_toast)","steam_id":76561198392370897,"connected_time":504000000000,"state":"active","ping":71},{"user_id":89,"name":"GiraffeMan","steam_id":76561198042104084,"connected_time":467000000000,"state":"active","ping":71},{"user_id":97,"name":"Pablo.fortnite.2009@hotmail.com","steam_id":76561198855376206,"connected_time":361000000000,"state":"active","ping":54},{"user_id":92,"name":"ILOVEHOTMOMS","steam_id":76561198232617936,"connected_time":439000000000,"state":"active","ping":59},{"user_id":95,"name":"PzVIIIMaus","steam_id":76561198346559365,"connected_time":418000000000,"state":"active","ping":46},{"user_id":77,"name":"PonYOOOOOOO","steam_id":76561199067424111,"connected_time":1794000000000,"state":"active","ping":116},{"user_id":71,"name":"bhop","steam_id":76561198064885639,"connected_time":2256000000000,"state":"active","ping":72},{"user_id":94,"name":"Hermit_","steam_id":76561198013807290,"connected_time":429000000000,"state":"active","ping":82},{"user_id":78,"name":"tasty","steam_id":76561198083839061,"connected_time":1793000000000,"state":"active","ping":62},{"user_id":96,"name":"people are awesome compilation","steam_id":76561198099591549,"connected_time":403000000000,"state":"active","ping":71},{"user_id":98,"name":"horseshoe crab gordon","steam_id":76561198848479592,"connected_time":351000000000,"state":"active","ping":59},{"user_id":99,"name":"siggystar10","steam_id":76561199155065176,"connected_time":337000000000,"state":"active","ping":155},{"user_id":67,"name":"Sage","steam_id":76561198143101697,"connected_time":2549000000000,"state":"active","ping":103},{"user_id":64,"name":"bocchi la roca","steam_id":76561198025668771,"connected_time":2562000000000,"state":"active","ping":135},{"user_id":108,"name":"Uncle Majic the Hip Hop Magicia","steam_id":76561198107924303,"connected_time":122000000000,"state":"active","ping":60},{"user_id":102,"name":"TravelerFinis","steam_id":76561199181244690,"connected_time":246000000000,"state":"active","ping":101},{"user_id":81,"name":"Smeagol Thomas Peterson","steam_id":76561198127540797,"connected_time":1759000000000,"state":"active","ping":85},{"user_id":41,"name":"Fresh Lychee","steam_id":76561198045399559,"connected_time":5046000000000,"state":"active","ping":50},{"user_id":103,"name":"RandomInternetUser","steam_id":76561199230027049,"connected_time":246000000000,"state":"active","ping":62}]},{"server_id":402,"name":"Uncletopia | Chicago | 3 | All Maps","name_short":"chi-3","host":"chi-1.us.uncletopia.com","port":27035,"enabled":true,"region":"us-central","cc":"us","latitude":41.881832,"longitude":-87.62318,"reserved":0,"last_update":"0001-01-01T00:00:00Z","name_a2s":"Uncletopia | Chicago | 3 | All Maps","protocol":17,"map":"cp_process_final","folder":"tf","game":"Team Fortress","app_id":440,"player_count":24,"max_players":24,"Bots":0,"server_type":"Dedicated","server_os":"Linux","password":true,"vac":true,"version":"7757534","steam_id":85568392924515191,"keywords":["cp","nocrits","nodmgspread","uncletopia"],"game_id":440,"stv_port":27036,"stv_name":"Uncletopia | Chicago | 3 | All Maps | STV","players":[{"user_id":57,"name":"The Greendale Human Beings","steam_id":76561198055433422,"connected_time":1028000000000,"state":"active","ping":82},{"user_id":62,"name":"Colin102004","steam_id":76561198202384334,"connected_time":908000000000,"state":"active","ping":57},{"user_id":80,"name":"JHLO","steam_id":76561198074359967,"connected_time":325000000000,"state":"active","ping":65},{"user_id":11,"name":"rox!","steam_id":76561198307200753,"connected_time":3958000000000,"state":"active","ping":81},{"user_id":74,"name":"Ozone-flavored Starburst","steam_id":76561199163688421,"connected_time":674000000000,"state":"active","ping":94},{"user_id":60,"name":"Usman","steam_id":76561198430295625,"connected_time":943000000000,"state":"active","ping":52},{"user_id":48,"name":"tree","steam_id":76561198116885731,"connected_time":2348000000000,"state":"active","ping":49},{"user_id":72,"name":"DrummerDiddles","steam_id":76561198327364451,"connected_time":827000000000,"state":"active","ping":72},{"user_id":63,"name":"SuperFresh","steam_id":76561198200723198,"connected_time":902000000000,"state":"active","ping":41},{"user_id":69,"name":"Amish Robot","steam_id":76561198041156065,"connected_time":844000000000,"state":"active","ping":79},{"user_id":18,"name":"‚óÜPizzaPasta‚óÜ","steam_id":76561198161440852,"connected_time":3810000000000,"state":"active","ping":82},{"user_id":19,"name":"Transgender Vanny","steam_id":76561198297961039,"connected_time":3733000000000,"state":"active","ping":47},{"user_id":71,"name":"Birdbern","steam_id":76561198122383177,"connected_time":830000000000,"state":"active","ping":70},{"user_id":66,"name":"icarly","steam_id":76561198161199653,"connected_time":894000000000,"state":"active","ping":63},{"user_id":67,"name":"Depresso Amber","steam_id":76561198074209737,"connected_time":892000000000,"state":"active","ping":59},{"user_id":26,"name":"IPlayGamez","steam_id":76561198041387508,"connected_time":3441000000000,"state":"active","ping":67},{"user_id":58,"name":"athletesfoot","steam_id":76561197997331867,"connected_time":1020000000000,"state":"active","ping":58},{"user_id":68,"name":"Smorg","steam_id":76561198368999744,"connected_time":880000000000,"state":"active","ping":66},{"user_id":47,"name":"Kanye is my Biggest Fan","steam_id":76561198162363747,"connected_time":2359000000000,"state":"active","ping":74},{"user_id":52,"name":"Elders_Lord","steam_id":76561199012779980,"connected_time":1904000000000,"state":"active","ping":66},{"user_id":75,"name":"dirty dank","steam_id":76561198360904432,"connected_time":654000000000,"state":"active","ping":70},{"user_id":49,"name":"ICanOnlySeeMyHands02","steam_id":76561199467713448,"connected_time":2311000000000,"state":"active","ping":87},{"user_id":78,"name":"Uncle Meat","steam_id":76561198012534850,"connected_time":508000000000,"state":"active","ping":69},{"user_id":38,"name":"jstn","steam_id":76561198845283665,"connected_time":3276000000000,"state":"active","ping":74}]},{"server_id":403,"name":"Uncletopia | Chicago | 4 | All Maps","name_short":"chi-4","host":"chi-1.us.uncletopia.com","port":27045,"enabled":true,"region":"us-central","cc":"us","latitude":41.881832,"longitude":-87.62318,"reserved":0,"last_update":"0001-01-01T00:00:00Z","name_a2s":"Uncletopia | Chicago | 4 | All Maps","protocol":17,"map":"cp_altitude","folder":"tf","game":"Team Fortress","app_id":440,"player_count":8,"max_players":24,"Bots":0,"server_type":"Dedicated","server_os":"Linux","password":true,"vac":true,"version":"7757534","steam_id":85568392924515193,"keywords":["cp","nocrits","nodmgspread","uncletopia"],"game_id":440,"stv_port":27046,"stv_name":"Uncletopia | Chicago | 4 | All Maps | STV","players":[{"user_id":21,"name":"Grenade_Addict","steam_id":76561199212037850,"connected_time":136000000000,"state":"active","ping":97},{"user_id":12,"name":"Goober","steam_id":76561198988863807,"connected_time":1001000000000,"state":"active","ping":74},{"user_id":13,"name":"Biddy","steam_id":76561198255305591,"connected_time":782000000000,"state":"active","ping":114},{"user_id":14,"name":"psy","steam_id":76561198013195018,"connected_time":764000000000,"state":"active","ping":73},{"user_id":15,"name":"greenie tea","steam_id":76561198055172841,"connected_time":674000000000,"state":"active","ping":72},{"user_id":18,"name":"stupid ape","steam_id":76561198350027075,"connected_time":237000000000,"state":"active","ping":45},{"user_id":19,"name":"Not Engineer","steam_id":76561199141666764,"connected_time":222000000000,"state":"active","ping":79},{"user_id":20,"name":"RetroJay","steam_id":76561198041718682,"connected_time":190000000000,"state":"active","ping":137}]},{"server_id":36,"name":"Uncletopia | Chicago | 5 | All Maps","name_short":"chi-5","host":"chi-2.us.uncletopia.com","port":27015,"enabled":true,"region":"us-central","cc":"us","latitude":41.881832,"longitude":-87.62318,"reserved":0,"last_update":"0001-01-01T00:00:00Z","name_a2s":"Uncletopia | Chicago | 5 | All Maps","protocol":17,"map":"pl_snowycoast","folder":"tf","game":"Team Fortress","app_id":440,"player_count":22,"max_players":24,"Bots":0,"server_type":"Dedicated","server_os":"Linux","password":true,"vac":true,"version":"7757534","steam_id":85568392924866362,"keywords":["nocrits","nodmgspread","payload","uncletopia"],"game_id":440,"stv_port":27016,"stv_name":"Uncletopia | Chicago | 5 | All Maps | STV","players":[{"user_id":325,"name":"Xen","steam_id":76561198025311844,"connected_time":76000000000,"state":"active","ping":104},{"user_id":289,"name":"A Reliable 2004 Honda Civic","steam_id":76561198088071133,"connected_time":2126000000000,"state":"active","ping":84},{"user_id":297,"name":"Blorgus_J_Blart","steam_id":76561198430926135,"connected_time":1354000000000,"state":"active","ping":73},{"user_id":298,"name":"Piccadilly Willy","steam_id":76561198000312126,"connected_time":1298000000000,"state":"active","ping":48},{"user_id":299,"name":"John16Mark","steam_id":76561198119445407,"connected_time":1282000000000,"state":"active","ping":86},{"user_id":322,"name":"Christopher Jobin","steam_id":76561198434784247,"connected_time":154000000000,"state":"spawning","ping":138},{"user_id":318,"name":"SuperEvilPasta","steam_id":76561198078258907,"connected_time":267000000000,"state":"active","ping":91},{"user_id":319,"name":"NovaStar","steam_id":76561198421340963,"connected_time":239000000000,"state":"active","ping":81},{"user_id":320,"name":"landohickman10","steam_id":76561199396893327,"connected_time":232000000000,"state":"active","ping":108},{"user_id":281,"name":"John Wilkes Booth","steam_id":76561198062103069,"connected_time":3106000000000,"state":"active","ping":73},{"user_id":326,"name":"thecal","steam_id":76561198307893384,"connected_time":46000000000,"state":"spawning","ping":58},{"user_id":321,"name":"God of bread","steam_id":76561198373688035,"connected_time":214000000000,"state":"active","ping":60},{"user_id":310,"name":"DIZ","steam_id":76561199065119525,"connected_time":622000000000,"state":"active","ping":88},{"user_id":300,"name":"Cupidmeh","steam_id":76561198138669654,"connected_time":1281000000000,"state":"active","ping":73},{"user_id":291,"name":"Lennu","steam_id":76561198060730154,"connected_time":2016000000000,"state":"spawning","ping":81},{"user_id":286,"name":"Frogavious","steam_id":76561198067324603,"connected_time":3068000000000,"state":"active","ping":76},{"user_id":301,"name":"GooniOoni","steam_id":76561198102154561,"connected_time":1199000000000,"state":"active","ping":45},{"user_id":283,"name":"‚ú™kook ‚ô•  ‚ô•","steam_id":76561198037846151,"connected_time":3092000000000,"state":"active","ping":59},{"user_id":308,"name":"cooltool21","steam_id":76561197996817585,"connected_time":798000000000,"state":"active","ping":85},{"user_id":311,"name":"Smooth - Santana ft. Rob Thomas","steam_id":76561198145283389,"connected_time":608000000000,"state":"active","ping":67},{"user_id":309,"name":"JacknCheese","steam_id":76561198060295184,"connected_time":733000000000,"state":"active","ping":74},{"user_id":323,"name":"Stock Medic","steam_id":76561198065479730,"connected_time":142000000000,"state":"active","ping":44}]},{"server_id":37,"name":"Uncletopia | Chicago | 6 | All Maps","name_short":"chi-6","host":"chi-2.us.uncletopia.com","port":27025,"enabled":true,"region":"us-central","cc":"us","latitude":41.881832,"longitude":-87.62318,"reserved":0,"last_update":"0001-01-01T00:00:00Z","name_a2s":"Uncletopia | Chicago | 6 | All Maps","protocol":17,"map":"pl_borneo","folder":"tf","game":"Team Fortress","app_id":440,"player_count":24,"max_players":24,"Bots":0,"server_type":"Dedicated","server_os":"Linux","password":true,"vac":true,"version":"7757534","steam_id":85568392924866363,"keywords":["nocrits","nodmgspread","payload","uncletopia"],"game_id":440,"stv_port":27026,"stv_name":"Uncletopia | Chicago | 6 | All Maps | STV","players":[{"user_id":187,"name":"Kinbo2487","steam_id":76561198184714198,"connected_time":1688000000000,"state":"active","ping":79},{"user_id":201,"name":"vÔπè v** Íï§","steam_id":76561198126358045,"connected_time":1231000000000,"state":"active","ping":81},{"user_id":216,"name":"KingSteve42","steam_id":76561198409455888,"connected_time":624000000000,"state":"active","ping":105},{"user_id":205,"name":"Flying Emu","steam_id":76561198121632924,"connected_time":948000000000,"state":"active","ping":81},{"user_id":152,"name":"hey beautiful!","steam_id":76561198224614084,"connected_time":3026000000000,"state":"active","ping":74},{"user_id":172,"name":"Local","steam_id":76561198069537437,"connected_time":2470000000000,"state":"active","ping":116},{"user_id":141,"name":"Prime Sanity","steam_id":76561198395766307,"connected_time":4338000000000,"state":"active","ping":45},{"user_id":215,"name":"ShempTheWolf/TTV","steam_id":76561198000403355,"connected_time":661000000000,"state":"active","ping":60},{"user_id":212,"name":"BigHam","steam_id":76561198157249056,"connected_time":741000000000,"state":"active","ping":46},{"user_id":226,"name":"Just Business","steam_id":76561198106600085,"connected_time":196000000000,"state":"active","ping":61},{"user_id":224,"name":"Scum Knight","steam_id":76561198282444763,"connected_time":310000000000,"state":"active","ping":62},{"user_id":144,"name":"nnobi","steam_id":76561198878729277,"connected_time":4332000000000,"state":"active","ping":66},{"user_id":223,"name":"John Dungus (the real one)","steam_id":76561198049191027,"connected_time":452000000000,"state":"active","ping":56},{"user_id":207,"name":"Terry Bogard's beefin 12 inch","steam_id":76561198371133385,"connected_time":867000000000,"state":"active","ping":76},{"user_id":213,"name":"ZodiacThundaga","steam_id":76561199025117814,"connected_time":723000000000,"state":"active","ping":77},{"user_id":180,"name":"Clean Lines","steam_id":76561197960691518,"connected_time":2106000000000,"state":"active","ping":55},{"user_id":221,"name":"GeraldyJones65","steam_id":76561199122297098,"connected_time":494000000000,"state":"active","ping":76},{"user_id":220,"name":"Volkan, Pervert Extraordinaire","steam_id":76561198004569575,"connected_time":562000000000,"state":"active","ping":76},{"user_id":218,"name":"emctwo","steam_id":76561198095082517,"connected_time":584000000000,"state":"active","ping":62},{"user_id":225,"name":"Indigolake","steam_id":76561198202215807,"connected_time":281000000000,"state":"active","ping":78},{"user_id":227,"name":"[chef] iron","steam_id":76561197970888616,"connected_time":50000000000,"state":"active","ping":45},{"user_id":197,"name":"Skashur","steam_id":76561198364924060,"connected_time":1528000000000,"state":"active","ping":58},{"user_id":209,"name":"GlitchGame","steam_id":76561198935134697,"connected_time":849000000000,"state":"active","ping":52},{"user_id":211,"name":"Im totally a hacker","steam_id":76561198888005736,"connected_time":796000000000,"state":"active","ping":74}]},{"server_id":38,"name":"Uncletopia | Chicago | 7 | Stopwatch Beta","name_short":"chi-7","host":"chi-2.us.uncletopia.com","port":27035,"enabled":true,"region":"us-central","cc":"us","latitude":41.881832,"longitude":-87.62318,"reserved":0,"last_update":"0001-01-01T00:00:00Z","name_a2s":"Uncletopia | Chicago | 7 | Stopwatch Beta","protocol":17,"map":"cp_process_final","folder":"tf","game":"Team Fortress","app_id":440,"player_count":24,"max_players":24,"Bots":0,"server_type":"Dedicated","server_os":"Linux","password":true,"vac":true,"version":"7757534","steam_id":85568392924866364,"keywords":["cp","nocrits","nodmgspread","uncletopia"],"game_id":440,"stv_port":27036,"stv_name":"Uncletopia | Chicago | 7 | Stopwatch Beta | STV","players":[{"user_id":295,"name":"John the Faptist","steam_id":76561198119567552,"connected_time":2127000000000,"state":"active","ping":109},{"user_id":277,"name":"Mythos #SaveTF2","steam_id":76561198050243068,"connected_time":2719000000000,"state":"active","ping":68},{"user_id":324,"name":"jorjor wells","steam_id":76561199073429082,"connected_time":852000000000,"state":"active","ping":67},{"user_id":311,"name":"the back fat talked dirty to me","steam_id":76561198986534519,"connected_time":1488000000000,"state":"active","ping":91},{"user_id":328,"name":"Lempii","steam_id":76561198433507634,"connected_time":17000000000,"state":"active","ping":191},{"user_id":317,"name":"Soju","steam_id":76561198044130442,"connected_time":1182000000000,"state":"active","ping":70},{"user_id":307,"name":"prdxninja","steam_id":76561198170081774,"connected_time":1694000000000,"state":"active","ping":45},{"user_id":323,"name":"Night","steam_id":76561198377000809,"connected_time":1039000000000,"state":"active","ping":75},{"user_id":285,"name":"Snoopy","steam_id":76561198273735974,"connected_time":2515000000000,"state":"active","ping":96},{"user_id":287,"name":"Back with the milk","steam_id":76561199020105501,"connected_time":2471000000000,"state":"active","ping":73},{"user_id":322,"name":"Awesomesauce381","steam_id":76561198985556395,"connected_time":1107000000000,"state":"active","ping":89},{"user_id":290,"name":"the grungler!","steam_id":76561198058485742,"connected_time":2432000000000,"state":"active","ping":60},{"user_id":316,"name":"klevin","steam_id":76561198799106535,"connected_time":1226000000000,"state":"active","ping":85},{"user_id":318,"name":"Mara Roo","steam_id":76561198279341789,"connected_time":1172000000000,"state":"active","ping":113},{"user_id":296,"name":"_normal","steam_id":76561198338505734,"connected_time":2126000000000,"state":"active","ping":59},{"user_id":297,"name":"Meat Man","steam_id":76561198345602657,"connected_time":2109000000000,"state":"active","ping":57},{"user_id":319,"name":"submackeen","steam_id":76561198799855913,"connected_time":1161000000000,"state":"active","ping":68},{"user_id":320,"name":"space","steam_id":76561199012165476,"connected_time":1155000000000,"state":"active","ping":60},{"user_id":321,"name":"Wyro","steam_id":76561199176835169,"connected_time":1147000000000,"state":"active","ping":155},{"user_id":261,"name":"keysandrew","steam_id":76561198077178683,"connected_time":4340000000000,"state":"active","ping":89},{"user_id":329,"name":"FROYO domando","steam_id":76561199150367705,"connected_time":2000000000,"state":"spawning","ping":655},{"user_id":250,"name":"Fresh0c0","steam_id":76561198271933283,"connected_time":5571000000000,"state":"active","ping":63},{"user_id":327,"name":"Antknee","steam_id":76561198263793809,"connected_time":598000000000,"state":"active","ping":81},{"user_id":310,"name":"Weak","steam_id":76561198857135096,"connected_time":1590000000000,"state":"active","ping":73}]},{"server_id":39,"name":"Uncletopia | Chicago | 8 | Community","name_short":"chi-8","host":"chi-2.us.uncletopia.com","port":27045,"enabled":true,"region":"us-central","cc":"us","latitude":41.881832,"longitude":-87.62318,"reserved":0,"last_update":"0001-01-01T00:00:00Z","name_a2s":"Uncletopia | Chicago | 8 | Community","protocol":17,"map":"pl_pier","folder":"tf","game":"Team Fortress","app_id":440,"player_count":6,"max_players":24,"Bots":0,"server_type":"Dedicated","server_os":"Linux","password":true,"vac":true,"version":"7757534","steam_id":85568392924866365,"keywords":["nocrits","nodmgspread","payload","uncletopia"],"game_id":440,"stv_port":27046,"stv_name":"Uncletopia | Chicago | 8 | Community | STV","players":[{"user_id":5,"name":"cseffrinavon","steam_id":76561198055824628,"connected_time":166000000000,"state":"active","ping":89},{"user_id":6,"name":"Firaldae","steam_id":76561198025247359,"connected_time":161000000000,"state":"active","ping":133},{"user_id":7,"name":"eseffrin91","steam_id":76561198025725347,"connected_time":148000000000,"state":"active","ping":80},{"user_id":8,"name":"saseff58","steam_id":76561198263769868,"connected_time":129000000000,"state":"active","ping":91},{"user_id":9,"name":"Athaz","steam_id":76561198296557673,"connected_time":17000000000,"state":"active","ping":72},{"user_id":10,"name":"Carpicious","steam_id":76561198426619665,"connected_time":12000000000,"state":"spawning","ping":93}]},{"server_id":8,"name":"Uncletopia | Dallas | 1 | All Maps","name_short":"dal-1","host":"dal-1.us.uncletopia.com","port":27015,"enabled":true,"region":"us-central","cc":"us","latitude":32.779167,"longitude":-96.80889,"reserved":0,"last_update":"0001-01-01T00:00:00Z","name_a2s":"Uncletopia | Dallas | 1 | All Maps","protocol":17,"map":"pl_pier","folder":"tf","game":"Team Fortress","app_id":440,"player_count":24,"max_players":24,"Bots":0,"server_type":"Dedicated","server_os":"Linux","password":true,"vac":true,"version":"7757534","steam_id":85568392924469986,"keywords":["nocrits","nodmgspread","payload","uncletopia"],"game_id":440,"stv_port":27016,"stv_name":"Uncletopia | Dallas | 1 | All Maps | STV","players":[{"user_id":245,"name":"DOMO_MR_ROBOTO","steam_id":76561198077108345,"connected_time":1458000000000,"state":"active","ping":88},{"user_id":237,"name":"boomerang fish","steam_id":76561198113166394,"connected_time":2135000000000,"state":"active","ping":62},{"user_id":263,"name":"Bart Harley Jarvis","steam_id":76561199215811448,"connected_time":15000000000,"state":"active","ping":113},{"user_id":71,"name":"yitz","steam_id":76561198375575841,"connected_time":12978000000000,"state":"active","ping":75},{"user_id":257,"name":"ChefMike","steam_id":76561198414034069,"connected_time":541000000000,"state":"active","ping":85},{"user_id":252,"name":"vastrobotmax","steam_id":76561198417110724,"connected_time":657000000000,"state":"active","ping":100},{"user_id":249,"name":"cup","steam_id":76561198121245586,"connected_time":836000000000,"state":"active","ping":84},{"user_id":187,"name":"pelt","steam_id":76561197993593754,"connected_time":7377000000000,"state":"active","ping":71},{"user_id":258,"name":"Female Gamer","steam_id":76561199366482682,"connected_time":495000000000,"state":"active","ping":127},{"user_id":197,"name":"Kylar","steam_id":76561198196979431,"connected_time":6328000000000,"state":"active","ping":92},{"user_id":241,"name":"Frenemy \u003e:D","steam_id":76561198011363677,"connected_time":1496000000000,"state":"active","ping":60},{"user_id":259,"name":"Acro Banwagon","steam_id":76561198092451804,"connected_time":463000000000,"state":"active","ping":74},{"user_id":260,"name":"merge without looking","steam_id":76561198056702628,"connected_time":452000000000,"state":"active","ping":42},{"user_id":243,"name":"Kebab","steam_id":76561199075899115,"connected_time":1474000000000,"state":"active","ping":102},{"user_id":250,"name":"Lizard Gaming","steam_id":76561199033561088,"connected_time":810000000000,"state":"active","ping":95},{"user_id":262,"name":"asianguyonachair","steam_id":76561199072584736,"connected_time":430000000000,"state":"active","ping":98},{"user_id":253,"name":"SmokeyGalaxy","steam_id":76561198118780516,"connected_time":636000000000,"state":"active","ping":61},{"user_id":226,"name":"teatimesukka","steam_id":76561198978749594,"connected_time":3194000000000,"state":"active","ping":39},{"user_id":236,"name":"Inkspot","steam_id":76561199003790541,"connected_time":2181000000000,"state":"active","ping":68},{"user_id":235,"name":"MARIOPARTYDSFAN","steam_id":76561198872122117,"connected_time":2293000000000,"state":"active","ping":67},{"user_id":201,"name":"garry","steam_id":76561199091007559,"connected_time":6202000000000,"state":"active","ping":93},{"user_id":251,"name":"That70sDog","steam_id":76561198119396142,"connected_time":801000000000,"state":"active","ping":68},{"user_id":228,"name":"Anxious Nerd Bird","steam_id":76561198112178602,"connected_time":2980000000000,"state":"active","ping":89},{"user_id":231,"name":"Onyx","steam_id":76561198275349640,"connected_time":2907000000000,"state":"active","ping":60}]},{"server_id":108,"name":"Uncletopia | Dallas | 2 | All Maps","name_short":"dal-2","host":"dal-1.us.uncletopia.com","port":27025,"enabled":true,"region":"us-central","cc":"us","latitude":32.779167,"longitude":-96.80889,"reserved":0,"last_update":"0001-01-01T00:00:00Z","name_a2s":"Uncletopia | Dallas | 2 | All Maps","protocol":17,"map":"pl_borneo","folder":"tf","game":"Team Fortress","app_id":440,"player_count":22,"max_players":24,"Bots":0,"server_type":"Dedicated","server_os":"Linux","password":true,"vac":true,"version":"7757534","steam_id":85568392924469988,"keywords":["nocrits","nodmgspread","payload","uncletopia"],"game_id":440,"stv_port":27026,"stv_name":"Uncletopia | Dallas | 2 | All Maps | STV","players":[{"user_id":143,"name":"yomo","steam_id":76561198063175935,"connected_time":229000000000,"state":"active","ping":73},{"user_id":119,"name":"Jadus","steam_id":76561199091462938,"connected_time":1602000000000,"state":"active","ping":71},{"user_id":138,"name":"rmbl","steam_id":76561198150137369,"connected_time":919000000000,"state":"active","ping":74},{"user_id":113,"name":"Scout on a big motorcycle","steam_id":76561199112458876,"connected_time":2251000000000,"state":"active","ping":86},{"user_id":115,"name":"ÔºîÔºê Ôº¶Ôº∞Ôº≥","steam_id":76561198272394965,"connected_time":2155000000000,"state":"active","ping":149},{"user_id":144,"name":"Syrix","steam_id":76561198017328672,"connected_time":221000000000,"state":"active","ping":47},{"user_id":85,"name":"Harold","steam_id":76561198057317770,"connected_time":3613000000000,"state":"active","ping":83},{"user_id":139,"name":"Project Dusk","steam_id":76561198193521149,"connected_time":717000000000,"state":"active","ping":65},{"user_id":140,"name":"Jello","steam_id":76561198890633732,"connected_time":540000000000,"state":"active","ping":72},{"user_id":145,"name":"Meep","steam_id":76561198267363181,"connected_time":199000000000,"state":"active","ping":61},{"user_id":146,"name":"zefir","steam_id":76561198041348890,"connected_time":199000000000,"state":"active","ping":70},{"user_id":83,"name":"Serene Salamander","steam_id":76561198001094770,"connected_time":3864000000000,"state":"active","ping":89},{"user_id":142,"name":"aidenmc3","steam_id":76561198062209166,"connected_time":260000000000,"state":"active","ping":44},{"user_id":118,"name":"SPREAD CHRISTMAS CHEER AND JOY","steam_id":76561198800386026,"connected_time":1759000000000,"state":"active","ping":89},{"user_id":111,"name":"Padre Pat","steam_id":76561198392985381,"connected_time":2751000000000,"state":"active","ping":93},{"user_id":104,"name":"Amberezzed","steam_id":76561198801467075,"connected_time":3028000000000,"state":"active","ping":55},{"user_id":125,"name":"mahgad","steam_id":76561198797828475,"connected_time":1474000000000,"state":"active","ping":78},{"user_id":127,"name":"Honeybunch","steam_id":76561198014850580,"connected_time":1450000000000,"state":"active","ping":98},{"user_id":136,"name":"üòéSIGMA_MANüòé","steam_id":76561199299095652,"connected_time":1054000000000,"state":"active","ping":92},{"user_id":126,"name":"sockman","steam_id":76561198306826566,"connected_time":1472000000000,"state":"active","ping":92},{"user_id":110,"name":"CHIEF","steam_id":76561198011209422,"connected_time":2878000000000,"state":"active","ping":45},{"user_id":137,"name":"Yimberly","steam_id":76561199206923109,"connected_time":1053000000000,"state":"active","ping":88}]},{"server_id":5,"name":"Uncletopia | Frankfurt | 1 | All Maps","name_short":"frk-1","host":"frk-1.de.uncletopia.com","port":27015,"enabled":true,"region":"eu","cc":"de","latitude":50.110924,"longitude":8.682127,"reserved":0,"last_update":"0001-01-01T00:00:00Z","name_a2s":"Uncletopia | Frankfurt | 1 | All Maps","protocol":17,"map":"pl_upward","folder":"tf","game":"Team Fortress","app_id":440,"player_count":24,"max_players":24,"Bots":0,"server_type":"Dedicated","server_os":"Linux","password":true,"vac":true,"version":"7757534","steam_id":85568392924469989,"keywords":["nocrits","nodmgspread","payload","uncletopia"],"game_id":440,"stv_port":27016,"stv_name":"Uncletopia | Frankfurt | 1 | All Maps | STV","players":[{"user_id":423,"name":"SocialistBacon","steam_id":76561198055872267,"connected_time":9024000000000,"state":"active","ping":83},{"user_id":566,"name":"BlinkedUp","steam_id":76561198249985618,"connected_time":546000000000,"state":"active","ping":59},{"user_id":519,"name":"AGamer75","steam_id":76561199045267748,"connected_time":2896000000000,"state":"active","ping":121},{"user_id":576,"name":"Kick gibus-engineers","steam_id":76561198046368451,"connected_time":242000000000,"state":"active","ping":99},{"user_id":432,"name":"aksu","steam_id":76561198083955517,"connected_time":8830000000000,"state":"active","ping":64},{"user_id":573,"name":"NickiCheetah","steam_id":76561198980540766,"connected_time":440000000000,"state":"active","ping":61},{"user_id":570,"name":"elden lean","steam_id":76561198013232647,"connected_time":459000000000,"state":"active","ping":57},{"user_id":575,"name":"[RN] Zoiee","steam_id":76561198128569778,"connected_time":349000000000,"state":"active","ping":87},{"user_id":540,"name":"I want my dog back","steam_id":76561198318748304,"connected_time":1526000000000,"state":"active","ping":161},{"user_id":551,"name":"Conan the Librarian","steam_id":76561198007224654,"connected_time":1191000000000,"state":"active","ping":59},{"user_id":554,"name":"Pico","steam_id":76561198399294147,"connected_time":1063000000000,"state":"active","ping":139},{"user_id":568,"name":"Use The Finger","steam_id":76561198050203563,"connected_time":503000000000,"state":"active","ping":72},{"user_id":552,"name":"Hooggers","steam_id":76561198120447741,"connected_time":1161000000000,"state":"active","ping":95},{"user_id":555,"name":"PLUTO","steam_id":76561198312436128,"connected_time":961000000000,"state":"active","ping":128},{"user_id":556,"name":"Phiphler","steam_id":76561197994055715,"connected_time":952000000000,"state":"active","ping":72},{"user_id":460,"name":"Suetolog","steam_id":76561199053090212,"connected_time":7041000000000,"state":"active","ping":58},{"user_id":532,"name":"yurkur","steam_id":76561198407108497,"connected_time":1903000000000,"state":"active","ping":55},{"user_id":569,"name":"‚òÖpoyo‚òÖ","steam_id":76561198150078959,"connected_time":475000000000,"state":"active","ping":65},{"user_id":557,"name":"W√ºstenfuchs","steam_id":76561198453885708,"connected_time":908000000000,"state":"active","ping":70},{"user_id":558,"name":"Swedde","steam_id":76561198297296440,"connected_time":906000000000,"state":"active","ping":85},{"user_id":561,"name":"Sockmaster99","steam_id":76561199008494933,"connected_time":845000000000,"state":"active","ping":62},{"user_id":563,"name":"Creme Fraiche","steam_id":76561198052466306,"connected_time":740000000000,"state":"active","ping":65},{"user_id":560,"name":"Groomable minor","steam_id":76561198345249841,"connected_time":861000000000,"state":"active","ping":75},{"user_id":571,"name":"‚ñ≥catfood","steam_id":76561198024321232,"connected_time":447000000000,"state":"active","ping":50}]},{"server_id":110,"name":"Uncletopia | Frankfurt | 2 | All Maps","name_short":"frk-2","host":"frk-1.de.uncletopia.com","port":27025,"enabled":true,"region":"eu","cc":"de","latitude":50.110924,"longitude":8.682127,"reserved":0,"last_update":"0001-01-01T00:00:00Z","name_a2s":"Uncletopia | Frankfurt | 2 | All Maps","protocol":17,"map":"cp_process_final","folder":"tf","game":"Team Fortress","app_id":440,"player_count":4,"max_players":24,"Bots":0,"server_type":"Dedicated","server_os":"Linux","password":true,"vac":true,"version":"7757534","steam_id":85568392924469990,"keywords":["cp","nocrits","nodmgspread","uncletopia"],"game_id":440,"stv_port":27026,"stv_name":"Uncletopia | Frankfurt | 2 | All Maps | STV","players":[{"user_id":466,"name":"Daikon","steam_id":76561198044017083,"connected_time":801000000000,"state":"active","ping":66},{"user_id":381,"name":"impeccable lack of aim","steam_id":76561198002162167,"connected_time":4099000000000,"state":"active","ping":72},{"user_id":462,"name":"Emails","steam_id":76561198836919458,"connected_time":1503000000000,"state":"active","ping":194},{"user_id":457,"name":"tealoverr.190","steam_id":76561199028497703,"connected_time":1893000000000,"state":"active","ping":90}]},{"server_id":308,"name":"Uncletopia | Frankfurt | 3 | All Maps","name_short":"frk-3","host":"frk-1.de.uncletopia.com","port":27035,"enabled":true,"region":"eu","cc":"de","latitude":50.110924,"longitude":8.682127,"reserved":0,"last_update":"0001-01-01T00:00:00Z","name_a2s":"Uncletopia | Frankfurt | 3 | All Maps","protocol":17,"map":"cp_process_final","folder":"tf","game":"Team Fortress","app_id":440,"player_count":24,"max_players":24,"Bots":0,"server_type":"Dedicated","server_os":"Linux","password":true,"vac":true,"version":"7757534","steam_id":85568392924504274,"keywords":["cp","nocrits","nodmgspread","uncletopia"],"game_id":440,"stv_port":27036,"stv_name":"Uncletopia | Frankfurt | 3 | All Maps | STV","players":[{"user_id":663,"name":"skittish maiden","steam_id":76561198096856475,"connected_time":346000000000,"state":"active","ping":43},{"user_id":668,"name":"The Tomfooler","steam_id":76561198167986695,"connected_time":132000000000,"state":"active","ping":47},{"user_id":661,"name":"Caro-Kann","steam_id":76561198065506317,"connected_time":645000000000,"state":"active","ping":63},{"user_id":609,"name":"Nesto","steam_id":76561198015065391,"connected_time":2839000000000,"state":"active","ping":89},{"user_id":660,"name":"magic kid","steam_id":76561198748720555,"connected_time":710000000000,"state":"active","ping":69},{"user_id":610,"name":"Kulebra","steam_id":76561198041462031,"connected_time":2831000000000,"state":"active","ping":101},{"user_id":650,"name":"whatever","steam_id":76561198095943461,"connected_time":1638000000000,"state":"active","ping":59},{"user_id":635,"name":"lyudmilakh","steam_id":76561198362779878,"connected_time":2053000000000,"state":"active","ping":93},{"user_id":665,"name":"SchoolScooter","steam_id":76561198862546422,"connected_time":288000000000,"state":"active","ping":65},{"user_id":654,"name":"mummi","steam_id":76561198137614047,"connected_time":1364000000000,"state":"active","ping":67},{"user_id":621,"name":"e36 1.8","steam_id":76561198134203031,"connected_time":2464000000000,"state":"active","ping":61},{"user_id":656,"name":"nedilya","steam_id":76561198039692077,"connected_time":1164000000000,"state":"active","ping":58},{"user_id":633,"name":"mt","steam_id":76561197961319303,"connected_time":2110000000000,"state":"active","ping":50},{"user_id":662,"name":"fallingpencil","steam_id":76561199230233148,"connected_time":513000000000,"state":"active","ping":67},{"user_id":648,"name":"rat :3","steam_id":76561198151884156,"connected_time":1793000000000,"state":"active","ping":62},{"user_id":666,"name":"Dr. Mario","steam_id":76561199125182282,"connected_time":284000000000,"state":"active","ping":52},{"user_id":631,"name":"SIR MEPHEDRONE","steam_id":76561198302623594,"connected_time":2135000000000,"state":"active","ping":94},{"user_id":642,"name":"Furno","steam_id":76561197999723047,"connected_time":1886000000000,"state":"active","ping":48},{"user_id":637,"name":"Parapluie","steam_id":76561197971640301,"connected_time":1974000000000,"state":"active","ping":55},{"user_id":667,"name":"blizz gamming","steam_id":76561198253692868,"connected_time":275000000000,"state":"active","ping":70},{"user_id":657,"name":"soil.dirt.earth","steam_id":76561198014377623,"connected_time":1036000000000,"state":"active","ping":69},{"user_id":669,"name":"Carrot Arc","steam_id":76561198164957006,"connected_time":17000000000,"state":"active","ping":91},{"user_id":645,"name":"Gio'sMonkey","steam_id":76561198892432223,"connected_time":1863000000000,"state":"active","ping":86},{"user_id":646,"name":"Enfield","steam_id":76561197981578171,"connected_time":1856000000000,"state":"active","ping":79}]},{"server_id":309,"name":"Uncletopia | Frankfurt | 4 | All Maps","name_short":"frk-4","host":"frk-1.de.uncletopia.com","port":27045,"enabled":true,"region":"eu","cc":"de","latitude":50.110924,"longitude":8.682127,"reserved":0,"last_update":"0001-01-01T00:00:00Z","name_a2s":"Uncletopia | Frankfurt | 4 | All Maps","protocol":17,"map":"pl_goldrush","folder":"tf","game":"Team Fortress","app_id":440,"player_count":24,"max_players":24,"Bots":0,"server_type":"Dedicated","server_os":"Linux","password":true,"vac":true,"version":"7757534","steam_id":85568392924504275,"keywords":["nocrits","nodmgspread","payload","uncletopia"],"game_id":440,"stv_port":27046,"stv_name":"Uncletopia | Frankfurt | 4 | All Maps | STV","players":[{"user_id":455,"name":"sHIFTINGvORTEX","steam_id":76561198231648332,"connected_time":2118000000000,"state":"active","ping":78},{"user_id":444,"name":"Bruski","steam_id":76561198053589119,"connected_time":2533000000000,"state":"active","ping":95},{"user_id":476,"name":"JujuBalu","steam_id":76561198207253071,"connected_time":263000000000,"state":"active","ping":46},{"user_id":461,"name":"DeleteTrickster","steam_id":76561198397120242,"connected_time":1637000000000,"state":"active","ping":80},{"user_id":451,"name":"Jonas Destark","steam_id":76561198030327441,"connected_time":2424000000000,"state":"active","ping":67},{"user_id":471,"name":"PWizard","steam_id":76561198026458489,"connected_time":619000000000,"state":"active","ping":63},{"user_id":446,"name":"grape","steam_id":76561198048836593,"connected_time":2523000000000,"state":"active","ping":71},{"user_id":425,"name":"BATTLE_FORK","steam_id":76561198085753101,"connected_time":4586000000000,"state":"active","ping":90},{"user_id":403,"name":"Lux","steam_id":76561198060417740,"connected_time":5702000000000,"state":"active","ping":48},{"user_id":441,"name":"KajaStorm","steam_id":76561199215842872,"connected_time":2999000000000,"state":"active","ping":136},{"user_id":469,"name":"Ventor1","steam_id":76561199119296764,"connected_time":866000000000,"state":"active","ping":70},{"user_id":465,"name":"Ritz","steam_id":76561198222317440,"connected_time":1521000000000,"state":"active","ping":60},{"user_id":420,"name":"KittyKate ‚ù§","steam_id":76561198116340817,"connected_time":4659000000000,"state":"active","ping":59},{"user_id":466,"name":"hud_saytext_time 0","steam_id":76561198010327228,"connected_time":1341000000000,"state":"active","ping":54},{"user_id":457,"name":"Jimmy","steam_id":76561198133680783,"connected_time":1926000000000,"state":"active","ping":65},{"user_id":388,"name":"Sweat Plantation","steam_id":76561198025086883,"connected_time":6766000000000,"state":"active","ping":85},{"user_id":474,"name":"BuzzBees ‚ù§","steam_id":76561198101502273,"connected_time":414000000000,"state":"active","ping":63},{"user_id":386,"name":"Lord of the Lockerroom","steam_id":76561198080619697,"connected_time":7007000000000,"state":"active","ping":97},{"user_id":477,"name":"nynon","steam_id":76561197998432126,"connected_time":244000000000,"state":"active","ping":127},{"user_id":454,"name":"Gui","steam_id":76561198072054467,"connected_time":2254000000000,"state":"active","ping":78},{"user_id":473,"name":"Bond","steam_id":76561198070654906,"connected_time":588000000000,"state":"active","ping":48},{"user_id":439,"name":"ZeeZer0","steam_id":76561198043828441,"connected_time":3776000000000,"state":"active","ping":44},{"user_id":460,"name":"fregaropa","steam_id":76561198150806166,"connected_time":1655000000000,"state":"active","ping":104},{"user_id":378,"name":"Bing Chilling","steam_id":76561198065376942,"connected_time":7704000000000,"state":"active","ping":65}]},{"server_id":310,"name":"Uncletopia | Frankfurt | 5 | All Maps","name_short":"frk-5","host":"frk-1.de.uncletopia.com","port":27055,"enabled":true,"region":"eu","cc":"de","latitude":50.110924,"longitude":8.682127,"reserved":0,"last_update":"0001-01-01T00:00:00Z","name_a2s":"Uncletopia | Frankfurt | 5 | All Maps","protocol":17,"map":"pl_upward","folder":"tf","game":"Team Fortress","app_id":440,"player_count":24,"max_players":24,"Bots":0,"server_type":"Dedicated","server_os":"Linux","password":true,"vac":true,"version":"7757534","steam_id":85568392924504277,"keywords":["nocrits","nodmgspread","payload","uncletopia"],"game_id":440,"stv_port":27056,"stv_name":"Uncletopia | Frankfurt | 5 | All Maps | STV","players":[{"user_id":156,"name":"dafydd","steam_id":76561198052200325,"connected_time":87000000000,"state":"active","ping":79},{"user_id":128,"name":"GamingClemence","steam_id":76561198271679142,"connected_time":1106000000000,"state":"active","ping":66},{"user_id":146,"name":"dddd","steam_id":76561198120894372,"connected_time":336000000000,"state":"active","ping":91},{"user_id":147,"name":"Random Cap","steam_id":76561198129271321,"connected_time":290000000000,"state":"active","ping":51},{"user_id":142,"name":"Doctor__Mobius","steam_id":76561197971281806,"connected_time":685000000000,"state":"active","ping":65},{"user_id":134,"name":"Bosnian Ketamine Mafia","steam_id":76561198163571788,"connected_time":972000000000,"state":"active","ping":93},{"user_id":135,"name":"Bun","steam_id":76561198311686229,"connected_time":967000000000,"state":"active","ping":110},{"user_id":131,"name":"Acanda","steam_id":76561198123246537,"connected_time":1018000000000,"state":"active","ping":54},{"user_id":148,"name":"makin' piss","steam_id":76561198052136478,"connected_time":235000000000,"state":"active","ping":63},{"user_id":149,"name":"Hot Beverage Enjoyer","steam_id":76561198060638325,"connected_time":233000000000,"state":"active","ping":45},{"user_id":150,"name":"Hetmanych","steam_id":76561198870926865,"connected_time":227000000000,"state":"active","ping":50},{"user_id":144,"name":"The Shartiest Man","steam_id":76561199055566944,"connected_time":480000000000,"state":"active","ping":68},{"user_id":154,"name":"XFACTOR | {Moshik Roth}","steam_id":76561198352842114,"connected_time":169000000000,"state":"active","ping":120},{"user_id":99,"name":"Dirty Dom","steam_id":76561198043745396,"connected_time":2601000000000,"state":"active","ping":69},{"user_id":152,"name":"PAN","steam_id":76561198118671779,"connected_time":196000000000,"state":"active","ping":69},{"user_id":57,"name":"Nostradamus","steam_id":76561198349792686,"connected_time":4630000000000,"state":"active","ping":67},{"user_id":153,"name":"Michael","steam_id":76561198003146906,"connected_time":185000000000,"state":"active","ping":59},{"user_id":98,"name":"naleksi","steam_id":76561198018391055,"connected_time":2765000000000,"state":"active","ping":115},{"user_id":119,"name":"eple","steam_id":76561198017686306,"connected_time":1642000000000,"state":"active","ping":60},{"user_id":108,"name":"ÿ±ÿßŸäŸÜ","steam_id":76561199167206295,"connected_time":2126000000000,"state":"active","ping":73},{"user_id":93,"name":"_zipfile","steam_id":76561198066133808,"connected_time":3073000000000,"state":"active","ping":71},{"user_id":114,"name":"lanzer","steam_id":76561198049983016,"connected_time":2013000000000,"state":"active","ping":106},{"user_id":155,"name":"KingTeddy","steam_id":76561198131757499,"connected_time":164000000000,"state":"active","ping":73},{"user_id":137,"name":"wave","steam_id":76561198267167505,"connected_time":965000000000,"state":"active","ping":75}]},{"server_id":311,"name":"Uncletopia | Frankfurt | 6 | All Maps","name_short":"frk-6","host":"frk-1.de.uncletopia.com","port":27065,"enabled":true,"region":"eu","cc":"de","latitude":50.110924,"longitude":8.682127,"reserved":0,"last_update":"0001-01-01T00:00:00Z","name_a2s":"Uncletopia | Frankfurt | 6 | All Maps","protocol":17,"map":"pl_frontier_final","folder":"tf","game":"Team Fortress","app_id":440,"player_count":24,"max_players":24,"Bots":0,"server_type":"Dedicated","server_os":"Linux","password":true,"vac":true,"version":"7757534","steam_id":85568392924504278,"keywords":["nocrits","nodmgspread","payload","uncletopia"],"game_id":440,"stv_port":27066,"stv_name":"Uncletopia | Frankfurt | 6 | All Maps | STV","players":[{"user_id":289,"name":"GEP Gun","steam_id":76561197981821003,"connected_time":2127000000000,"state":"active","ping":72},{"user_id":306,"name":"scrsch detf2pickup","steam_id":76561198044391172,"connected_time":715000000000,"state":"active","ping":54},{"user_id":298,"name":"bANji","steam_id":76561198108898161,"connected_time":1268000000000,"state":"active","ping":44},{"user_id":312,"name":"KingofCubes","steam_id":76561198258037513,"connected_time":377000000000,"state":"active","ping":75},{"user_id":296,"name":"manKe","steam_id":76561198008564860,"connected_time":1432000000000,"state":"active","ping":60},{"user_id":288,"name":"i am bread","steam_id":76561199180277321,"connected_time":2160000000000,"state":"active","ping":79},{"user_id":270,"name":"glyph","steam_id":76561197980736364,"connected_time":3312000000000,"state":"active","ping":76},{"user_id":271,"name":"Innocent Bystander","steam_id":76561198259885007,"connected_time":3295000000000,"state":"active","ping":49},{"user_id":246,"name":"Knez","steam_id":76561198043806388,"connected_time":4801000000000,"state":"active","ping":60},{"user_id":242,"name":"Doriian","steam_id":76561198071438810,"connected_time":5136000000000,"state":"active","ping":80},{"user_id":301,"name":"duster cat","steam_id":76561198832231975,"connected_time":1207000000000,"state":"active","ping":90},{"user_id":226,"name":"YuraGreek","steam_id":76561198050182252,"connected_time":6405000000000,"state":"active","ping":75},{"user_id":262,"name":"galaxy","steam_id":76561198164819022,"connected_time":3436000000000,"state":"active","ping":64},{"user_id":313,"name":"Mr.Schnittlauch","steam_id":76561198295868113,"connected_time":370000000000,"state":"active","ping":67},{"user_id":303,"name":"Nemsio66 #SAVETF2","steam_id":76561198383959458,"connected_time":1058000000000,"state":"active","ping":107},{"user_id":269,"name":"ikc159","steam_id":76561198020559026,"connected_time":3319000000000,"state":"active","ping":74},{"user_id":311,"name":"paint","steam_id":76561199133080265,"connected_time":445000000000,"state":"active","ping":107},{"user_id":314,"name":"leibh√©alfaidh m√© th√∫","steam_id":76561198078484073,"connected_time":367000000000,"state":"active","ping":79},{"user_id":278,"name":"Farmercy","steam_id":76561198000038039,"connected_time":2930000000000,"state":"active","ping":54},{"user_id":302,"name":"Kati","steam_id":76561198007231088,"connected_time":1193000000000,"state":"active","ping":69},{"user_id":293,"name":"BierBuikBarry","steam_id":76561198345790498,"connected_time":1972000000000,"state":"active","ping":70},{"user_id":295,"name":"poopless joe","steam_id":76561198133532980,"connected_time":1615000000000,"state":"active","ping":60},{"user_id":297,"name":"frbuz","steam_id":76561198327135462,"connected_time":1415000000000,"state":"active","ping":170},{"user_id":310,"name":"thefatcontroller","steam_id":76561199332965146,"connected_time":531000000000,"state":"active","ping":96}]},{"server_id":23,"name":"Uncletopia | Frankfurt | 7 | Stopwatch Beta","name_short":"frk-7","host":"frk-1.de.uncletopia.com","port":27075,"enabled":true,"region":"eu","cc":"de","latitude":50.110924,"longitude":8.682127,"reserved":0,"last_update":"0001-01-01T00:00:00Z","name_a2s":"Uncletopia | Frankfurt | 7 | Stopwatch Beta","protocol":17,"map":"workshop/pl_badwater_pro_v12.ugc2142942074","folder":"tf","game":"Team Fortress","app_id":440,"player_count":0,"max_players":24,"Bots":0,"server_type":"Dedicated","server_os":"Linux","password":true,"vac":true,"version":"7757534","steam_id":85568392924742827,"keywords":["nocrits","nodmgspread","payload","uncletopia"],"game_id":440,"stv_port":27076,"stv_name":"Uncletopia | Frankfurt | 7 | Stopwatch Beta | STV","players":null},{"server_id":24,"name":"Uncletopia | Frankfurt | 8 | Community","name_short":"frk-8","host":"frk-1.de.uncletopia.com","port":27085,"enabled":true,"region":"eu","cc":"de","latitude":50.110924,"longitude":8.682127,"reserved":0,"last_update":"0001-01-01T00:00:00Z","name_a2s":"Uncletopia | Frankfurt | 8 | Community","protocol":17,"map":"workshop/pl_fifthcurve_rc1.ugc648227046","folder":"tf","game":"Team Fortress","app_id":440,"player_count":24,"max_players":24,"Bots":0,"server_type":"Dedicated","server_os":"Linux","password":true,"vac":true,"version":"7757534","steam_id":85568392924742828,"keywords":["nocrits","nodmgspread","payload","uncletopia"],"game_id":440,"stv_port":27086,"stv_name":"Uncletopia | Frankfurt | 8 | Community | STV","players":[{"user_id":496,"name":"Tails8521","steam_id":76561198051747164,"connected_time":5965000000000,"state":"active","ping":49},{"user_id":561,"name":"78","steam_id":76561198208328357,"connected_time":2468000000000,"state":"active","ping":77},{"user_id":585,"name":"A non elite gamer","steam_id":76561199040460389,"connected_time":1197000000000,"state":"active","ping":105},{"user_id":596,"name":"Worgeral","steam_id":76561198050781898,"connected_time":505000000000,"state":"active","ping":62},{"user_id":586,"name":"jcorehero","steam_id":76561198172101254,"connected_time":1186000000000,"state":"active","ping":77},{"user_id":547,"name":"Welder","steam_id":76561198355300561,"connected_time":3474000000000,"state":"active","ping":61},{"user_id":577,"name":"Paulo","steam_id":76561198001386978,"connected_time":1792000000000,"state":"active","ping":56},{"user_id":602,"name":"Feelin' Supersonic","steam_id":76561198005738407,"connected_time":319000000000,"state":"active","ping":83},{"user_id":558,"name":"McHatin","steam_id":76561198057806691,"connected_time":2672000000000,"state":"active","ping":73},{"user_id":573,"name":"player","steam_id":76561198054474684,"connected_time":2036000000000,"state":"active","ping":73},{"user_id":587,"name":"mud","steam_id":76561198141497461,"connected_time":1153000000000,"state":"active","ping":60},{"user_id":588,"name":"dum","steam_id":76561198053386482,"connected_time":1143000000000,"state":"active","ping":183},{"user_id":567,"name":"ALARM","steam_id":76561198120686521,"connected_time":2388000000000,"state":"active","ping":52},{"user_id":597,"name":"Irbynx","steam_id":76561197980421195,"connected_time":447000000000,"state":"active","ping":83},{"user_id":606,"name":"Superiumentarius","steam_id":76561198081642249,"connected_time":86000000000,"state":"active","ping":60},{"user_id":592,"name":"hideki","steam_id":76561198030728517,"connected_time":855000000000,"state":"active","ping":33},{"user_id":594,"name":"IJN Amagi","steam_id":76561198090874324,"connected_time":753000000000,"state":"active","ping":86},{"user_id":599,"name":"BLOP","steam_id":76561199122070126,"connected_time":422000000000,"state":"active","ping":84},{"user_id":604,"name":"Mrfransson","steam_id":76561198060915429,"connected_time":155000000000,"state":"active","ping":69},{"user_id":589,"name":"Linkedine Zidane","steam_id":76561197968575924,"connected_time":1135000000000,"state":"active","ping":66},{"user_id":600,"name":"Kagrid","steam_id":76561198417431519,"connected_time":370000000000,"state":"active","ping":76},{"user_id":571,"name":"Fat Pigeon","steam_id":76561198817940142,"connected_time":2198000000000,"state":"active","ping":58},{"user_id":595,"name":"Eing","steam_id":76561198253125820,"connected_time":730000000000,"state":"active","ping":85},{"user_id":601,"name":"akakez","steam_id":76561198095432821,"connected_time":366000000000,"state":"active","ping":120}]},{"server_id":202,"name":"Uncletopia | Hong Kong | 1 | All Maps","name_short":"hgk-1","host":"hgk-1.hk.uncletopia.com","port":27015,"enabled":true,"region":"asia","cc":"hk","latitude":22.302711,"longitude":114.177216,"reserved":0,"last_update":"0001-01-01T00:00:00Z","name_a2s":"Uncletopia | Hong Kong | 1 | All Maps","protocol":17,"map":"koth_highpass","folder":"tf","game":"Team Fortress","app_id":440,"player_count":0,"max_players":24,"Bots":0,"server_type":"Dedicated","server_os":"Linux","password":true,"vac":true,"version":"7757534","steam_id":85568392924494504,"keywords":["cp","nocrits","nodmgspread","uncletopia"],"game_id":440,"stv_port":27016,"stv_name":"Uncletopia | Hong Kong | 1 | All Maps | STV","players":null},{"server_id":1,"name":"Uncletopia | Los Angeles | 1 | All Maps","name_short":"lax-1","host":"lax-1.us.uncletopia.com","port":27015,"enabled":true,"region":"us-west","cc":"us","latitude":33.94279,"longitude":-118.41004,"reserved":0,"last_update":"0001-01-01T00:00:00Z","name_a2s":"Uncletopia | Los Angeles | 1 | All Maps","protocol":17,"map":"pl_badwater","folder":"tf","game":"Team Fortress","app_id":440,"player_count":0,"max_players":24,"Bots":0,"server_type":"Dedicated","server_os":"Linux","password":true,"vac":true,"version":"7757534","steam_id":85568392924469991,"keywords":["nocrits","nodmgspread","payload","uncletopia"],"game_id":440,"stv_port":27016,"stv_name":"Uncletopia | Los Angeles | 1 | All Maps | STV","players":null},{"server_id":112,"name":"Uncletopia | Los Angeles | 2 | All Maps","name_short":"lax-2","host":"lax-1.us.uncletopia.com","port":27025,"enabled":true,"region":"us-west","cc":"us","latitude":33.94279,"longitude":-118.41004,"reserved":0,"last_update":"0001-01-01T00:00:00Z","name_a2s":"Uncletopia | Los Angeles | 2 | All Maps","protocol":17,"map":"koth_viaduct","folder":"tf","game":"Team Fortress","app_id":440,"player_count":0,"max_players":24,"Bots":0,"server_type":"Dedicated","server_os":"Linux","password":true,"vac":true,"version":"7757534","steam_id":85568392924469992,"keywords":["cp","nocrits","nodmgspread","uncletopia"],"game_id":440,"stv_port":27026,"stv_name":"Uncletopia | Los Angeles | 2 | All Maps | STV","players":null},{"server_id":324,"name":"Uncletopia | Los Angeles | 3 | All Maps","name_short":"lax-3","host":"lax-1.us.uncletopia.com","port":27035,"enabled":true,"region":"us-west","cc":"us","latitude":33.94279,"longitude":-118.41004,"reserved":0,"last_update":"0001-01-01T00:00:00Z","name_a2s":"Uncletopia | Los Angeles | 3 | All Maps","protocol":17,"map":"pl_badwater","folder":"tf","game":"Team Fortress","app_id":440,"player_count":0,"max_players":24,"Bots":0,"server_type":"Dedicated","server_os":"Linux","password":true,"vac":true,"version":"7757534","steam_id":85568392924510198,"keywords":["nocrits","nodmgspread","payload","uncletopia"],"game_id":440,"stv_port":27036,"stv_name":"Uncletopia | Los Angeles | 3 | All Maps | STV","players":null},{"server_id":25,"name":"Uncletopia | Los Angeles | 4 | Stopwatch Beta","name_short":"lax-4","host":"lax-1.us.uncletopia.com","port":27045,"enabled":true,"region":"us-west","cc":"us","latitude":33.94279,"longitude":-118.41004,"reserved":0,"last_update":"0001-01-01T00:00:00Z","name_a2s":"Uncletopia | Los Angeles | 4 | Stopwatch Beta","protocol":17,"map":"pl_borneo","folder":"tf","game":"Team Fortress","app_id":440,"player_count":0,"max_players":24,"Bots":0,"server_type":"Dedicated","server_os":"Linux","password":true,"vac":true,"version":"7757534","steam_id":85568392924510199,"keywords":["nocrits","nodmgspread","payload","uncletopia"],"game_id":440,"stv_port":27046,"stv_name":"Uncletopia | Los Angeles | 4 | Stopwatch Beta | STV","players":null},{"server_id":11,"name":"Uncletopia | London | 1 | All Maps","name_short":"lon-1","host":"lon-1.uk.uncletopia.com","port":27015,"enabled":true,"region":"eu","cc":"gb","latitude":51.509865,"longitude":-0.118092,"reserved":0,"last_update":"0001-01-01T00:00:00Z","name_a2s":"Uncletopia | London | 1 | All Maps","protocol":17,"map":"cp_snakewater_final1","folder":"tf","game":"Team Fortress","app_id":440,"player_count":24,"max_players":24,"Bots":0,"server_type":"Dedicated","server_os":"Linux","password":true,"vac":true,"version":"7757534","steam_id":85568392924367362,"keywords":["cp","nocrits","nodmgspread","uncletopia"],"game_id":440,"stv_port":27016,"stv_name":"Uncletopia | London | 1 | All Maps | STV","players":[{"user_id":422,"name":"antlionguard","steam_id":76561198072747143,"connected_time":4067000000000,"state":"active","ping":112},{"user_id":477,"name":"bouquet","steam_id":76561198193802523,"connected_time":774000000000,"state":"active","ping":42},{"user_id":460,"name":"ciliorkun18","steam_id":76561198228942500,"connected_time":1224000000000,"state":"active","ping":98},{"user_id":484,"name":"bAdmon","steam_id":76561197961785793,"connected_time":485000000000,"state":"active","ping":54},{"user_id":462,"name":"Hunnington","steam_id":76561198052219699,"connected_time":1145000000000,"state":"active","ping":54},{"user_id":469,"name":"soopeli","steam_id":76561198003350251,"connected_time":963000000000,"state":"active","ping":65},{"user_id":475,"name":"Kek meister 8 mil","steam_id":76561197989904384,"connected_time":815000000000,"state":"active","ping":69},{"user_id":489,"name":"annoying garry","steam_id":76561198019078145,"connected_time":119000000000,"state":"active","ping":89},{"user_id":485,"name":"Luk3","steam_id":76561198340519063,"connected_time":451000000000,"state":"active","ping":65},{"user_id":490,"name":"caxx","steam_id":76561198062953854,"connected_time":1000000000,"state":"spawning","ping":72},{"user_id":478,"name":"Ender w","steam_id":76561198160747515,"connected_time":769000000000,"state":"active","ping":82},{"user_id":488,"name":"Garfield Gaming","steam_id":76561198254539791,"connected_time":279000000000,"state":"active","ping":46},{"user_id":448,"name":"Celtins","steam_id":76561198839837475,"connected_time":2845000000000,"state":"active","ping":56},{"user_id":470,"name":"Natpad","steam_id":76561198842124497,"connected_time":958000000000,"state":"active","ping":80},{"user_id":455,"name":"toothpaste vaper","steam_id":76561198078458780,"connected_time":1933000000000,"state":"active","ping":71},{"user_id":418,"name":"Bad and Wuji","steam_id":76561199385280253,"connected_time":4154000000000,"state":"active","ping":115},{"user_id":479,"name":"Salami lid (don't fit)","steam_id":76561197988616343,"connected_time":753000000000,"state":"active","ping":78},{"user_id":431,"name":"Davey","steam_id":76561198256879107,"connected_time":3958000000000,"state":"active","ping":76},{"user_id":480,"name":"Dinges360","steam_id":76561198042032834,"connected_time":730000000000,"state":"active","ping":54},{"user_id":483,"name":"Cheese pizza connoisseur","steam_id":76561199062160061,"connected_time":597000000000,"state":"active","ping":45},{"user_id":481,"name":"ViciousVinnyD","steam_id":76561198053822329,"connected_time":693000000000,"state":"active","ping":60},{"user_id":404,"name":"Dominus.","steam_id":76561199065917088,"connected_time":5089000000000,"state":"active","ping":60},{"user_id":363,"name":"Numroth","steam_id":76561198001100167,"connected_time":8745000000000,"state":"active","ping":92},{"user_id":482,"name":"Inquisitor","steam_id":76561198015064675,"connected_time":680000000000,"state":"active","ping":60}]},{"server_id":114,"name":"Uncletopia | London | 2 | All Maps","name_short":"lon-2","host":"lon-1.uk.uncletopia.com","port":27025,"enabled":true,"region":"eu","cc":"gb","latitude":51.509865,"longitude":-0.118092,"reserved":0,"last_update":"0001-01-01T00:00:00Z","name_a2s":"Uncletopia | London | 2 | All Maps","protocol":17,"map":"pl_badwater","folder":"tf","game":"Team Fortress","app_id":440,"player_count":25,"max_players":24,"Bots":0,"server_type":"Dedicated","server_os":"Linux","password":true,"vac":true,"version":"7757534","steam_id":85568392924470941,"keywords":["nocrits","nodmgspread","payload","uncletopia"],"game_id":440,"stv_port":27026,"stv_name":"Uncletopia | London | 2 | All Maps | STV","players":[{"user_id":558,"name":"butts","steam_id":76561198060105180,"connected_time":6310000000000,"state":"active","ping":68},{"user_id":641,"name":"Mayor Wank from Wanker Town","steam_id":76561197998253588,"connected_time":720000000000,"state":"active","ping":57},{"user_id":639,"name":"Preacher Carl","steam_id":76561197994713485,"connected_time":758000000000,"state":"active","ping":75},{"user_id":560,"name":"burrito(im hungry)","steam_id":76561199087284519,"connected_time":6032000000000,"state":"active","ping":78},{"user_id":581,"name":"Tuga inglesa","steam_id":76561198442803577,"connected_time":4168000000000,"state":"active","ping":70},{"user_id":626,"name":"„ÄåK I L L E R  Q U E E N„Äç","steam_id":76561198010269803,"connected_time":1438000000000,"state":"active","ping":49},{"user_id":646,"name":":)","steam_id":76561198977420882,"connected_time":355000000000,"state":"active","ping":34},{"user_id":610,"name":"Vsevers","steam_id":76561198984861515,"connected_time":2591000000000,"state":"active","ping":101},{"user_id":638,"name":"fox gaming","steam_id":76561198201645150,"connected_time":768000000000,"state":"active","ping":54},{"user_id":640,"name":"Blax","steam_id":76561198377155387,"connected_time":738000000000,"state":"active","ping":57},{"user_id":647,"name":"FairlyFatFungus","steam_id":76561199152828854,"connected_time":339000000000,"state":"active","ping":55},{"user_id":642,"name":"VioBeeyo ‚ô•","steam_id":76561198066258544,"connected_time":684000000000,"state":"active","ping":58},{"user_id":613,"name":"frosty","steam_id":76561198094560834,"connected_time":2012000000000,"state":"active","ping":53},{"user_id":625,"name":"[PKKA] TeamKiller","steam_id":76561198230749312,"connected_time":1480000000000,"state":"active","ping":62},{"user_id":617,"name":"ShiftingMind","steam_id":76561198448975127,"connected_time":1930000000000,"state":"active","ping":57},{"user_id":627,"name":"Sgreff","steam_id":76561198036304365,"connected_time":1407000000000,"state":"active","ping":45},{"user_id":612,"name":"Zach","steam_id":76561198454281725,"connected_time":2063000000000,"state":"active","ping":114},{"user_id":648,"name":"Axio","steam_id":76561198046826031,"connected_time":55000000000,"state":"active","ping":75},{"user_id":628,"name":"GuSkand","steam_id":76561198043775605,"connected_time":1367000000000,"state":"active","ping":95},{"user_id":618,"name":"pumpkin spice go.ggez.ro","steam_id":76561198449957490,"connected_time":1897000000000,"state":"active","ping":98},{"user_id":645,"name":"Ser≈æant R≈Ø≈æen√≠nov√© Avok√°d","steam_id":76561198140404998,"connected_time":575000000000,"state":"active","ping":69},{"user_id":633,"name":"Johnny Cockroach","steam_id":76561198049648277,"connected_time":1144000000000,"state":"active","ping":106},{"user_id":588,"name":"Ksawery Popkowski","steam_id":76561198107197608,"connected_time":4060000000000,"state":"active","ping":87},{"user_id":644,"name":"Zerzark","steam_id":76561198070118903,"connected_time":661000000000,"state":"active","ping":57},{"user_id":649,"name":"hitman out to get YOU","steam_id":76561198982531043,"connected_time":4000000000,"state":"spawning","ping":88}]},{"server_id":320,"name":"Uncletopia | London | 3 | All Maps","name_short":"lon-3","host":"lon-1.uk.uncletopia.com","port":27035,"enabled":true,"region":"eu","cc":"gb","latitude":51.509865,"longitude":-0.118092,"reserved":0,"last_update":"0001-01-01T00:00:00Z","name_a2s":"Uncletopia | London | 3 | All Maps","protocol":17,"map":"pl_pier","folder":"tf","game":"Team Fortress","app_id":440,"player_count":24,"max_players":24,"Bots":0,"server_type":"Dedicated","server_os":"Linux","password":true,"vac":true,"version":"7757534","steam_id":85568392924510192,"keywords":["nocrits","nodmgspread","payload","uncletopia"],"game_id":440,"stv_port":27036,"stv_name":"Uncletopia | London | 3 | All Maps | STV","players":[{"user_id":377,"name":"Matchesia","steam_id":76561198194692662,"connected_time":1253000000000,"state":"active","ping":55},{"user_id":376,"name":"Jeikku","steam_id":76561198078651679,"connected_time":1296000000000,"state":"active","ping":36},{"user_id":330,"name":"limbicsystem","steam_id":76561198025612680,"connected_time":4154000000000,"state":"active","ping":57},{"user_id":363,"name":"XavierSweet","steam_id":76561198091781913,"connected_time":1920000000000,"state":"active","ping":53},{"user_id":362,"name":"metallic girlboss","steam_id":76561198845468781,"connected_time":2269000000000,"state":"active","ping":79},{"user_id":290,"name":"Scarlet","steam_id":76561198075966579,"connected_time":6081000000000,"state":"active","ping":44},{"user_id":329,"name":"Agro | KritzKast","steam_id":76561197970498549,"connected_time":4234000000000,"state":"active","ping":36},{"user_id":365,"name":"fucking awesome gangster minion","steam_id":76561198796600155,"connected_time":1698000000000,"state":"active","ping":94},{"user_id":368,"name":"Oz","steam_id":76561198082977363,"connected_time":1603000000000,"state":"active","ping":50},{"user_id":382,"name":"You slumber","steam_id":76561198344639692,"connected_time":786000000000,"state":"active","ping":91},{"user_id":375,"name":"Dwevy","steam_id":76561198090379437,"connected_time":1470000000000,"state":"active","ping":56},{"user_id":366,"name":"Badass gangnam style minion","steam_id":76561198297602677,"connected_time":1688000000000,"state":"active","ping":87},{"user_id":353,"name":"bug!!","steam_id":76561198060410822,"connected_time":2793000000000,"state":"active","ping":45},{"user_id":380,"name":"moser23","steam_id":76561197960543171,"connected_time":1091000000000,"state":"active","ping":61},{"user_id":369,"name":"Eggcracker","steam_id":76561199274850641,"connected_time":1580000000000,"state":"active","ping":87},{"user_id":370,"name":"etc","steam_id":76561197998394797,"connected_time":1575000000000,"state":"active","ping":59},{"user_id":383,"name":"pyroballs58","steam_id":76561199213901239,"connected_time":564000000000,"state":"active","ping":45},{"user_id":335,"name":"Jedleo","steam_id":76561198347292531,"connected_time":3935000000000,"state":"active","ping":58},{"user_id":372,"name":"noire","steam_id":76561198426604784,"connected_time":1539000000000,"state":"active","ping":45},{"user_id":349,"name":"Harrison256","steam_id":76561198078975210,"connected_time":3375000000000,"state":"active","ping":51},{"user_id":352,"name":"Fujin Takama","steam_id":76561198103143049,"connected_time":2836000000000,"state":"active","ping":61},{"user_id":378,"name":"Aximus","steam_id":76561198024575710,"connected_time":1163000000000,"state":"active","ping":71},{"user_id":381,"name":"—Ç—É–∫–∫—É –∏—Ä–º–∞","steam_id":76561197998715016,"connected_time":909000000000,"state":"active","ping":66},{"user_id":379,"name":"jones","steam_id":76561198044434971,"connected_time":1113000000000,"state":"active","ping":69}]},{"server_id":321,"name":"Uncletopia | London | 4 | All Maps","name_short":"lon-4","host":"lon-1.uk.uncletopia.com","port":27045,"enabled":true,"region":"eu","cc":"gb","latitude":51.509865,"longitude":-0.118092,"reserved":0,"last_update":"0001-01-01T00:00:00Z","name_a2s":"Uncletopia | London | 4 | All Maps","protocol":17,"map":"pl_barnblitz","folder":"tf","game":"Team Fortress","app_id":440,"player_count":24,"max_players":24,"Bots":0,"server_type":"Dedicated","server_os":"Linux","password":true,"vac":true,"version":"7757534","steam_id":85568392924510193,"keywords":["nocrits","nodmgspread","payload","uncletopia"],"game_id":440,"stv_port":27046,"stv_name":"Uncletopia | London | 4 | All Maps | STV","players":[{"user_id":309,"name":"Mollehh","steam_id":76561198354731126,"connected_time":258000000000,"state":"active","ping":42},{"user_id":267,"name":"silicon based life form","steam_id":76561199127121346,"connected_time":2991000000000,"state":"active","ping":55},{"user_id":294,"name":"RataDeOrdenador","steam_id":76561198071291263,"connected_time":922000000000,"state":"active","ping":75},{"user_id":248,"name":"The one who doesn't knock","steam_id":76561198283636523,"connected_time":4144000000000,"state":"active","ping":77},{"user_id":299,"name":"biowill","steam_id":76561198010938714,"connected_time":880000000000,"state":"active","ping":36},{"user_id":212,"name":"The Deadly Doughnut","steam_id":76561198079049349,"connected_time":5934000000000,"state":"active","ping":51},{"user_id":211,"name":"Adopted?","steam_id":76561198118667043,"connected_time":6061000000000,"state":"active","ping":47},{"user_id":296,"name":"Mr. Hunts","steam_id":76561197981910397,"connected_time":919000000000,"state":"active","ping":61},{"user_id":302,"name":"‚ô¶Silvia‚ô¶","steam_id":76561198373039444,"connected_time":855000000000,"state":"active","ping":107},{"user_id":297,"name":"Leroy","steam_id":76561198858781836,"connected_time":918000000000,"state":"active","ping":84},{"user_id":241,"name":"Toscorp","steam_id":76561198353760522,"connected_time":4201000000000,"state":"active","ping":68},{"user_id":238,"name":"goblin","steam_id":76561198151122921,"connected_time":4231000000000,"state":"active","ping":76},{"user_id":298,"name":"Room","steam_id":76561199174579733,"connected_time":915000000000,"state":"active","ping":133},{"user_id":305,"name":"thomas","steam_id":76561198355097756,"connected_time":687000000000,"state":"active","ping":53},{"user_id":308,"name":"lawrencefishdom","steam_id":76561199190918059,"connected_time":472000000000,"state":"active","ping":64},{"user_id":292,"name":"LOBZIK","steam_id":76561198114830120,"connected_time":1127000000000,"state":"active","ping":86},{"user_id":307,"name":".quickfast.","steam_id":76561199438900919,"connected_time":506000000000,"state":"active","ping":44},{"user_id":310,"name":"[BROBOT] Nergal","steam_id":76561198098172161,"connected_time":95000000000,"state":"active","ping":58},{"user_id":289,"name":"Jokudami","steam_id":76561198346604154,"connected_time":1669000000000,"state":"active","ping":63},{"user_id":269,"name":"tete","steam_id":76561198045222850,"connected_time":2945000000000,"state":"active","ping":74},{"user_id":246,"name":"[BROBOT] Woteron","steam_id":76561198057425460,"connected_time":4177000000000,"state":"active","ping":68},{"user_id":257,"name":"·†å·†å ·†å ·†å ·†å ·†å ·†å·†å","steam_id":76561198139659854,"connected_time":3498000000000,"state":"active","ping":95},{"user_id":290,"name":"Chambersite","steam_id":76561198197022399,"connected_time":1576000000000,"state":"active","ping":82},{"user_id":304,"name":"AwterSix","steam_id":76561198042561678,"connected_time":834000000000,"state":"active","ping":70}]},{"server_id":21,"name":"Uncletopia | London | 5 | All Maps","name_short":"lon-5","host":"lon-1.uk.uncletopia.com","port":27055,"enabled":true,"region":"eu","cc":"gb","latitude":51.509865,"longitude":-0.118092,"reserved":0,"last_update":"0001-01-01T00:00:00Z","name_a2s":"Uncletopia | London | 5 | All Maps","protocol":17,"map":"pl_borneo","folder":"tf","game":"Team Fortress","app_id":440,"player_count":24,"max_players":24,"Bots":0,"server_type":"Dedicated","server_os":"Linux","password":true,"vac":true,"version":"7757534","steam_id":85568392924742829,"keywords":["nocrits","nodmgspread","payload","uncletopia"],"game_id":440,"stv_port":27056,"stv_name":"Uncletopia | London | 5 | All Maps | STV","players":[{"user_id":716,"name":"lvl. 50 honkler","steam_id":76561198061688660,"connected_time":2205000000000,"state":"active","ping":108},{"user_id":726,"name":"Majami","steam_id":76561198054365738,"connected_time":1197000000000,"state":"active","ping":91},{"user_id":733,"name":"executioner","steam_id":76561198841844631,"connected_time":515000000000,"state":"active","ping":54},{"user_id":671,"name":"s a i","steam_id":76561197970379754,"connected_time":5530000000000,"state":"active","ping":68},{"user_id":669,"name":"Mor'du","steam_id":76561198274105878,"connected_time":5898000000000,"state":"active","ping":90},{"user_id":722,"name":"Lew","steam_id":76561198076039504,"connected_time":1602000000000,"state":"active","ping":58},{"user_id":735,"name":"kotamine","steam_id":76561198068907991,"connected_time":434000000000,"state":"active","ping":76},{"user_id":689,"name":"random_player691","steam_id":76561199209946306,"connected_time":3540000000000,"state":"active","ping":56},{"user_id":736,"name":"Donnie_Frisco","steam_id":76561198046018714,"connected_time":425000000000,"state":"active","ping":64},{"user_id":731,"name":"wasto-/-‚Ñ¢","steam_id":76561198102888038,"connected_time":730000000000,"state":"active","ping":58},{"user_id":734,"name":"Skepingawich","steam_id":76561198038736553,"connected_time":511000000000,"state":"active","ping":72},{"user_id":712,"name":"jovi_","steam_id":76561198449280552,"connected_time":2718000000000,"state":"active","ping":49},{"user_id":737,"name":"Joe12000","steam_id":76561198160817969,"connected_time":423000000000,"state":"active","ping":72},{"user_id":738,"name":"Vinhal Keller","steam_id":76561198145589528,"connected_time":405000000000,"state":"active","ping":58},{"user_id":739,"name":"biohazard.pt","steam_id":76561198088367808,"connected_time":391000000000,"state":"active","ping":103},{"user_id":723,"name":"Gin-Gi","steam_id":76561198108332859,"connected_time":1436000000000,"state":"active","ping":62},{"user_id":730,"name":"Regan","steam_id":76561198100631086,"connected_time":815000000000,"state":"active","ping":63},{"user_id":725,"name":"It's Schradin' time.","steam_id":76561199037749675,"connected_time":1291000000000,"state":"active","ping":44},{"user_id":740,"name":"Magic Pan","steam_id":76561198121627739,"connected_time":372000000000,"state":"active","ping":43},{"user_id":741,"name":"Mauricio‚Ñ¢","steam_id":76561198058727934,"connected_time":369000000000,"state":"active","ping":56},{"user_id":721,"name":"Mantis Toboggan, M.D","steam_id":76561197963562704,"connected_time":1780000000000,"state":"active","ping":63},{"user_id":699,"name":"Tetas :)","steam_id":76561198004149495,"connected_time":3118000000000,"state":"active","ping":74},{"user_id":718,"name":"DrRavioli","steam_id":76561198170822595,"connected_time":1952000000000,"state":"active","ping":78},{"user_id":724,"name":"Lord Commissar Drac","steam_id":76561198030371218,"connected_time":1371000000000,"state":"active","ping":84}]},{"server_id":22,"name":"Uncletopia | London | 6 | All Maps","name_short":"lon-6","host":"lon-1.uk.uncletopia.com","port":27065,"enabled":true,"region":"eu","cc":"gb","latitude":51.509865,"longitude":-0.118092,"reserved":0,"last_update":"0001-01-01T00:00:00Z","name_a2s":"Uncletopia | London | 6 | All Maps","protocol":17,"map":"cp_badlands","folder":"tf","game":"Team Fortress","app_id":440,"player_count":24,"max_players":24,"Bots":0,"server_type":"Dedicated","server_os":"Linux","password":true,"vac":true,"version":"7757534","steam_id":85568392924742830,"keywords":["cp","nocrits","nodmgspread","uncletopia"],"game_id":440,"stv_port":27066,"stv_name":"Uncletopia | London | 6 | All Maps | STV","players":[{"user_id":221,"name":"Danny Dyer","steam_id":76561198129077371,"connected_time":3517000000000,"state":"active","ping":60},{"user_id":208,"name":"Not Funny Anymore Lol","steam_id":76561198092680133,"connected_time":3764000000000,"state":"active","ping":54},{"user_id":267,"name":"Sandvich Enthusiast","steam_id":76561198241275578,"connected_time":51000000000,"state":"active","ping":54},{"user_id":261,"name":"makiverem","steam_id":76561198425866216,"connected_time":482000000000,"state":"active","ping":75},{"user_id":252,"name":"Catboy 9S gaming","steam_id":76561197999024118,"connected_time":1752000000000,"state":"active","ping":86},{"user_id":229,"name":"Key Lyor Selph","steam_id":76561198256704286,"connected_time":2947000000000,"state":"active","ping":71},{"user_id":246,"name":"no bitches nigusman","steam_id":76561199466723428,"connected_time":2400000000000,"state":"active","ping":91},{"user_id":254,"name":"pablo","steam_id":76561198089285014,"connected_time":1428000000000,"state":"active","ping":81},{"user_id":264,"name":"Gr√∏nkj√¶r","steam_id":76561198041075280,"connected_time":82000000000,"state":"active","ping":96},{"user_id":268,"name":"Anzu","steam_id":76561198043953503,"connected_time":36000000000,"state":"active","ping":80},{"user_id":259,"name":"Mr. Pickles #SaveTF2","steam_id":76561199210183560,"connected_time":676000000000,"state":"active","ping":131},{"user_id":262,"name":"Dr. Le Quack","steam_id":76561197995711176,"connected_time":295000000000,"state":"active","ping":99},{"user_id":248,"name":"pepper","steam_id":76561198059782462,"connected_time":2353000000000,"state":"active","ping":62},{"user_id":235,"name":"Mazhavil","steam_id":76561198350435096,"connected_time":2743000000000,"state":"active","ping":104},{"user_id":269,"name":"Castellan","steam_id":76561197994861142,"connected_time":34000000000,"state":"active","ping":115},{"user_id":271,"name":"DocTwoEight","steam_id":76561198153488940,"connected_time":17000000000,"state":"active","ping":77},{"user_id":270,"name":"reik","steam_id":76561198075239099,"connected_time":26000000000,"state":"active","ping":76},{"user_id":206,"name":"The Yes Man","steam_id":76561198112558416,"connected_time":4061000000000,"state":"active","ping":36},{"user_id":239,"name":"E","steam_id":76561198166340115,"connected_time":2651000000000,"state":"active","ping":60},{"user_id":266,"name":"lord-carlos","steam_id":76561198025150761,"connected_time":76000000000,"state":"active","ping":71},{"user_id":260,"name":"General Antifascista","steam_id":76561198194714570,"connected_time":539000000000,"state":"active","ping":51},{"user_id":240,"name":"spillr-.-","steam_id":76561198031330889,"connected_time":2649000000000,"state":"active","ping":83},{"user_id":258,"name":"Naczoz","steam_id":76561198818556105,"connected_time":876000000000,"state":"active","ping":82},{"user_id":263,"name":"snowii","steam_id":76561198836246326,"connected_time":95000000000,"state":"active","ping":68}]},{"server_id":40,"name":"Uncletopia | London | 7 | No Payload","name_short":"lon-7","host":"lon-1.uk.uncletopia.com","port":27075,"enabled":true,"region":"eu","cc":"gb","latitude":51.509865,"longitude":-0.118092,"reserved":0,"last_update":"0001-01-01T00:00:00Z","name_a2s":"Uncletopia | London | 7 | No Payload","protocol":17,"map":"cp_snakewater_final1","folder":"tf","game":"Team Fortress","app_id":440,"player_count":24,"max_players":24,"Bots":0,"server_type":"Dedicated","server_os":"Linux","password":true,"vac":true,"version":"7757534","steam_id":85568392924964314,"keywords":["cp","nocrits","nodmgspread","uncletopia"],"game_id":440,"stv_port":27076,"stv_name":"Uncletopia | London | 7 | No Payload | STV","players":[{"user_id":503,"name":"Rasa","steam_id":76561198030864396,"connected_time":1123000000000,"state":"active","ping":92},{"user_id":456,"name":"Soihtu","steam_id":76561198025574278,"connected_time":3547000000000,"state":"active","ping":76},{"user_id":479,"name":"A Featherless Biped","steam_id":76561198307904901,"connected_time":2802000000000,"state":"active","ping":46},{"user_id":504,"name":"w‚Å£n‚Å£‚Å£g","steam_id":76561198049105916,"connected_time":1106000000000,"state":"active","ping":66},{"user_id":514,"name":"RussianPingLord","steam_id":76561199055517485,"connected_time":72000000000,"state":"active","ping":114},{"user_id":458,"name":"Tengu","steam_id":76561198024146649,"connected_time":3316000000000,"state":"active","ping":46},{"user_id":494,"name":"Eyeball Sucker","steam_id":76561198195865734,"connected_time":2458000000000,"state":"active","ping":89},{"user_id":459,"name":"MordyQ","steam_id":76561198025613597,"connected_time":3309000000000,"state":"active","ping":103},{"user_id":460,"name":"Smiles","steam_id":76561198107197973,"connected_time":3300000000000,"state":"active","ping":150},{"user_id":461,"name":"ray von rabenstein","steam_id":76561198061380070,"connected_time":3294000000000,"state":"active","ping":68},{"user_id":501,"name":"TallestPerson","steam_id":76561198097923550,"connected_time":1406000000000,"state":"active","ping":63},{"user_id":512,"name":"Senor Ding Dong","steam_id":76561198102702616,"connected_time":105000000000,"state":"active","ping":86},{"user_id":502,"name":"Topme","steam_id":76561198091734693,"connected_time":1165000000000,"state":"active","ping":75},{"user_id":506,"name":"dustloaf","steam_id":76561198074339302,"connected_time":990000000000,"state":"active","ping":121},{"user_id":469,"name":"rat","steam_id":76561198884449271,"connected_time":3193000000000,"state":"active","ping":67},{"user_id":495,"name":"Puro ‚ô•","steam_id":76561198039016765,"connected_time":2453000000000,"state":"active","ping":98},{"user_id":510,"name":"aGreedGryphon","steam_id":76561198245175308,"connected_time":715000000000,"state":"active","ping":54},{"user_id":511,"name":"Faxter","steam_id":76561198011771605,"connected_time":375000000000,"state":"active","ping":75},{"user_id":478,"name":"Major","steam_id":76561198086483282,"connected_time":2818000000000,"state":"active","ping":47},{"user_id":482,"name":"Zezaid","steam_id":76561199031452227,"connected_time":2722000000000,"state":"active","ping":61},{"user_id":491,"name":"sex havin'","steam_id":76561198169857427,"connected_time":2511000000000,"state":"active","ping":77},{"user_id":509,"name":"One Hundred","steam_id":76561199028651017,"connected_time":783000000000,"state":"active","ping":71},{"user_id":513,"name":"—Ç–æ–ª—è","steam_id":76561199098518615,"connected_time":103000000000,"state":"active","ping":106},{"user_id":488,"name":"portal","steam_id":76561198094569952,"connected_time":2636000000000,"state":"active","ping":39}]},{"server_id":41,"name":"Uncletopia | London | 8 | Community","name_short":"lon-8","host":"lon-1.uk.uncletopia.com","port":27085,"enabled":true,"region":"eu","cc":"gb","latitude":51.509865,"longitude":-0.118092,"reserved":0,"last_update":"0001-01-01T00:00:00Z","name_a2s":"Uncletopia | London | 8 | Community","protocol":17,"map":"workshop/cp_logjam_rc12.ugc454812035","folder":"tf","game":"Team Fortress","app_id":440,"player_count":0,"max_players":24,"Bots":0,"server_type":"Dedicated","server_os":"Linux","password":true,"vac":true,"version":"7757534","steam_id":85568392924964315,"keywords":["cp","nocrits","nodmgspread","uncletopia"],"game_id":440,"stv_port":27086,"stv_name":"Uncletopia | London | 8 | Community | STV","players":null},{"server_id":300,"name":"Uncletopia | Montr√©al | 1 | All Maps","name_short":"mtl-1","host":"mtl-1.ca.uncletopia.com","port":27015,"enabled":true,"region":"us-east","cc":"ca","latitude":45.50889,"longitude":-73.56167,"reserved":0,"last_update":"0001-01-01T00:00:00Z","name_a2s":"Uncletopia | Montr√©al | 1 | All Maps","protocol":17,"map":"koth_cascade","folder":"tf","game":"Team Fortress","app_id":440,"player_count":0,"max_players":24,"Bots":0,"server_type":"Dedicated","server_os":"Linux","password":true,"vac":true,"version":"7757534","steam_id":85568392924500087,"keywords":["cp","nocrits","nodmgspread","uncletopia"],"game_id":440,"stv_port":27016,"stv_name":"Uncletopia | Montr√©al | 1 | All Maps | STV","players":null},{"server_id":301,"name":"Uncletopia | Montr√©al | 2 | All Maps","name_short":"mtl-2","host":"mtl-1.ca.uncletopia.com","port":27025,"enabled":true,"region":"us-east","cc":"ca","latitude":45.50889,"longitude":-73.56167,"reserved":0,"last_update":"0001-01-01T00:00:00Z","name_a2s":"Uncletopia | Montr√©al | 2 | All Maps","protocol":17,"map":"pl_badwater","folder":"tf","game":"Team Fortress","app_id":440,"player_count":0,"max_players":24,"Bots":0,"server_type":"Dedicated","server_os":"Linux","password":true,"vac":true,"version":"7757534","steam_id":85568392924500088,"keywords":["nocrits","nodmgspread","payload","uncletopia"],"game_id":440,"stv_port":27026,"stv_name":"Uncletopia | Montr√©al | 2 | All Maps | STV","players":null},{"server_id":302,"name":"Uncletopia | Montr√©al | 3 | All Maps","name_short":"mtl-3","host":"mtl-1.ca.uncletopia.com","port":27035,"enabled":true,"region":"us-east","cc":"ca","latitude":45.50889,"longitude":-73.56167,"reserved":0,"last_update":"0001-01-01T00:00:00Z","name_a2s":"Uncletopia | Montr√©al | 3 | All Maps","protocol":17,"map":"pl_swiftwater_final1","folder":"tf","game":"Team Fortress","app_id":440,"player_count":0,"max_players":24,"Bots":0,"server_type":"Dedicated","server_os":"Linux","password":true,"vac":true,"version":"7757534","steam_id":85568392924500089,"keywords":["nocrits","nodmgspread","payload","uncletopia"],"game_id":440,"stv_port":27036,"stv_name":"Uncletopia | Montr√©al | 3 | All Maps | STV","players":null},{"server_id":303,"name":"Uncletopia | Montr√©al | 4 | No Payload","name_short":"mtl-4","host":"mtl-1.ca.uncletopia.com","port":27045,"enabled":true,"region":"us-east","cc":"ca","latitude":45.50889,"longitude":-73.56167,"reserved":0,"last_update":"0001-01-01T00:00:00Z","name_a2s":"Uncletopia | Montr√©al | 4 | No Payload","protocol":17,"map":"koth_lakeside_final","folder":"tf","game":"Team Fortress","app_id":440,"player_count":0,"max_players":24,"Bots":0,"server_type":"Dedicated","server_os":"Linux","password":true,"vac":true,"version":"7757534","steam_id":85568392924500090,"keywords":["cp","nocrits","nodmgspread","uncletopia"],"game_id":440,"stv_port":27046,"stv_name":"Uncletopia | Montr√©al | 4 | No Payload | STV","players":null},{"server_id":13,"name":"Uncletopia | New York City | 1 | All Maps","name_short":"nyc-1","host":"nyc-1.us.uncletopia.com","port":27015,"enabled":true,"region":"us-east","cc":"us","latitude":40.73061,"longitude":-73.93524,"reserved":0,"last_update":"0001-01-01T00:00:00Z","name_a2s":"Uncletopia | New York City | 1 | All Maps","protocol":17,"map":"pl_snowycoast","folder":"tf","game":"Team Fortress","app_id":440,"player_count":24,"max_players":24,"Bots":0,"server_type":"Dedicated","server_os":"Linux","password":true,"vac":true,"version":"7757534","steam_id":85568392924469993,"keywords":["nocrits","nodmgspread","payload","uncletopia"],"game_id":440,"stv_port":27016,"stv_name":"Uncletopia | New York City | 1 | All Maps | STV","players":[{"user_id":164,"name":"Havok","steam_id":76561198063455003,"connected_time":1613000000000,"state":"active","ping":55},{"user_id":179,"name":"Spiral Mountain","steam_id":76561198058683715,"connected_time":481000000000,"state":"active","ping":54},{"user_id":174,"name":"shephard","steam_id":76561198043367011,"connected_time":914000000000,"state":"active","ping":74},{"user_id":177,"name":"LalitoTV","steam_id":76561198334302951,"connected_time":812000000000,"state":"active","ping":129},{"user_id":168,"name":"Bee","steam_id":76561198074681324,"connected_time":1244000000000,"state":"active","ping":44},{"user_id":151,"name":"Durham.","steam_id":76561199013125141,"connected_time":2123000000000,"state":"active","ping":154},{"user_id":153,"name":"ThrobbingFerret","steam_id":76561199075576606,"connected_time":2031000000000,"state":"active","ping":131},{"user_id":169,"name":"Snugboo","steam_id":76561198147970327,"connected_time":1225000000000,"state":"active","ping":31},{"user_id":72,"name":"localization files","steam_id":76561197997139225,"connected_time":7281000000000,"state":"active","ping":44},{"user_id":178,"name":"Stagred","steam_id":76561198055973266,"connected_time":774000000000,"state":"active","ping":56},{"user_id":170,"name":"Lawnmower","steam_id":76561198186680197,"connected_time":1068000000000,"state":"active","ping":98},{"user_id":157,"name":"Vec","steam_id":76561198044505262,"connected_time":1937000000000,"state":"active","ping":93},{"user_id":115,"name":"Nagol","steam_id":76561198125274726,"connected_time":5087000000000,"state":"active","ping":109},{"user_id":159,"name":"Anax Alter","steam_id":76561198110249546,"connected_time":1849000000000,"state":"active","ping":39},{"user_id":89,"name":"tabasco","steam_id":76561198355094896,"connected_time":6576000000000,"state":"active","ping":55},{"user_id":139,"name":"PileofPolygons","steam_id":76561199321343460,"connected_time":2864000000000,"state":"active","ping":71},{"user_id":171,"name":"happs (God is good)","steam_id":76561198364093418,"connected_time":1009000000000,"state":"active","ping":63},{"user_id":140,"name":"boneyard","steam_id":76561199080454140,"connected_time":2814000000000,"state":"active","ping":50},{"user_id":176,"name":"lker","steam_id":76561197976975075,"connected_time":895000000000,"state":"active","ping":58},{"user_id":173,"name":"THRILLHO","steam_id":76561198371663047,"connected_time":958000000000,"state":"active","ping":45},{"user_id":165,"name":"no.1 dragonvale player","steam_id":76561198124365349,"connected_time":1538000000000,"state":"active","ping":94},{"user_id":180,"name":"John Darksoul","steam_id":76561198999712284,"connected_time":214000000000,"state":"active","ping":79},{"user_id":162,"name":"Pigeonhunter","steam_id":76561198109881524,"connected_time":1813000000000,"state":"active","ping":97},{"user_id":145,"name":"Dilbert","steam_id":76561198195613682,"connected_time":2366000000000,"state":"active","ping":76}]},{"server_id":14,"name":"Uncletopia | New York City | 2 | All Maps","name_short":"nyc-2","host":"nyc-1.us.uncletopia.com","port":27025,"enabled":true,"region":"us-east","cc":"us","latitude":40.73061,"longitude":-73.93524,"reserved":0,"last_update":"0001-01-01T00:00:00Z","name_a2s":"Uncletopia | New York City | 2 | All Maps","protocol":17,"map":"koth_highpass","folder":"tf","game":"Team Fortress","app_id":440,"player_count":0,"max_players":24,"Bots":0,"server_type":"Dedicated","server_os":"Linux","password":true,"vac":true,"version":"7757534","steam_id":85568392924469994,"keywords":["cp","nocrits","nodmgspread","uncletopia"],"game_id":440,"stv_port":27026,"stv_name":"Uncletopia | New York City | 2 | All Maps | STV","players":null},{"server_id":15,"name":"Uncletopia | New York City | 3 | Stopwatch Beta","name_short":"nyc-3","host":"nyc-1.us.uncletopia.com","port":27035,"enabled":true,"region":"us-east","cc":"us","latitude":40.73061,"longitude":-73.93524,"reserved":0,"last_update":"0001-01-01T00:00:00Z","name_a2s":"Uncletopia | New York City | 3 | Stopwatch Beta","protocol":17,"map":"koth_highpass","folder":"tf","game":"Team Fortress","app_id":440,"player_count":0,"max_players":24,"Bots":0,"server_type":"Dedicated","server_os":"Linux","password":true,"vac":true,"version":"7757534","steam_id":85568392924742820,"keywords":["cp","nocrits","nodmgspread","uncletopia"],"game_id":440,"stv_port":27036,"stv_name":"Uncletopia | New York City | 3 | Stopwatch Beta | STV","players":null},{"server_id":16,"name":"Uncletopia | New York City | 4 | Community","name_short":"nyc-4","host":"nyc-1.us.uncletopia.com","port":27045,"enabled":true,"region":"us-east","cc":"us","latitude":40.73061,"longitude":-73.93524,"reserved":0,"last_update":"0001-01-01T00:00:00Z","name_a2s":"Uncletopia | New York City | 4 | Community","protocol":17,"map":"workshop/koth_bagel_rc5.ugc2514036946","folder":"tf","game":"Team Fortress","app_id":440,"player_count":0,"max_players":24,"Bots":0,"server_type":"Dedicated","server_os":"Linux","password":true,"vac":true,"version":"7757534","steam_id":85568392924742821,"keywords":["cp","nocrits","nodmgspread","uncletopia"],"game_id":440,"stv_port":27046,"stv_name":"Uncletopia | New York City | 4 | Community | STV","players":null},{"server_id":142,"name":"Uncletopia | S√£o Paulo | 1 | All Maps","name_short":"sao-1","host":"sao-1.br.uncletopia.com","port":27015,"enabled":true,"region":"sa","cc":"br","latitude":-23.533773,"longitude":-46.62529,"reserved":0,"last_update":"0001-01-01T00:00:00Z","name_a2s":"Uncletopia | S√£o Paulo | 1 | All Maps","protocol":17,"map":"cp_snakewater_final1","folder":"tf","game":"Team Fortress","app_id":440,"player_count":0,"max_players":24,"Bots":0,"server_type":"Dedicated","server_os":"Linux","password":true,"vac":true,"version":"7757534","steam_id":85568392924469996,"keywords":["cp","nocrits","nodmgspread","uncletopia"],"game_id":440,"stv_port":27016,"stv_name":"Uncletopia | S√£o Paulo | 1 | All Maps | STV","players":null},{"server_id":143,"name":"Uncletopia | S√£o Paulo | 2 | All Maps","name_short":"sao-2","host":"sao-2.br.uncletopia.com","port":27015,"enabled":true,"region":"sa","cc":"br","latitude":-23.533773,"longitude":-46.62529,"reserved":0,"last_update":"0001-01-01T00:00:00Z","name_a2s":"Uncletopia | S√£o Paulo | 2 | All Maps","protocol":17,"map":"koth_cascade","folder":"tf","game":"Team Fortress","app_id":440,"player_count":1,"max_players":24,"Bots":0,"server_type":"Dedicated","server_os":"Linux","password":true,"vac":true,"version":"7757534","steam_id":85568392924485349,"keywords":["cp","nocrits","nodmgspread","uncletopia"],"game_id":440,"stv_port":27016,"stv_name":"Uncletopia | S√£o Paulo | 2 | All Maps | STV","players":[{"user_id":38,"name":"Yaksa","steam_id":76561198990874373,"connected_time":112000000000,"state":"spawning","ping":449}]},{"server_id":7,"name":"Uncletopia | Seattle | 1 | All Maps","name_short":"sea-1","host":"sea-1.us.uncletopia.com","port":27015,"enabled":true,"region":"us-west","cc":"us","latitude":47.608013,"longitude":-122.33517,"reserved":0,"last_update":"0001-01-01T00:00:00Z","name_a2s":"Uncletopia | Seattle | 1 | All Maps","protocol":17,"map":"cp_process_final","folder":"tf","game":"Team Fortress","app_id":440,"player_count":0,"max_players":24,"Bots":0,"server_type":"Dedicated","server_os":"Linux","password":true,"vac":true,"version":"7757534","steam_id":85568392924469997,"keywords":["cp","nocrits","nodmgspread","uncletopia"],"game_id":440,"stv_port":27016,"stv_name":"Uncletopia | Seattle | 1 | All Maps | STV","players":null},{"server_id":119,"name":"Uncletopia | Seattle | 2 | All Maps","name_short":"sea-2","host":"sea-1.us.uncletopia.com","port":27025,"enabled":true,"region":"us-west","cc":"us","latitude":47.608013,"longitude":-122.33517,"reserved":0,"last_update":"0001-01-01T00:00:00Z","name_a2s":"Uncletopia | Seattle | 2 | All Maps","protocol":17,"map":"pl_badwater","folder":"tf","game":"Team Fortress","app_id":440,"player_count":23,"max_players":24,"Bots":0,"server_type":"Dedicated","server_os":"Linux","password":true,"vac":true,"version":"7757534","steam_id":85568392924469998,"keywords":["nocrits","nodmgspread","payload","uncletopia"],"game_id":440,"stv_port":27026,"stv_name":"Uncletopia | Seattle | 2 | All Maps | STV","players":[{"user_id":5,"name":"volta","steam_id":76561199214283884,"connected_time":3026000000000,"state":"active","ping":149},{"user_id":6,"name":"Lightatex","steam_id":76561199068097196,"connected_time":2996000000000,"state":"active","ping":106},{"user_id":15,"name":"The Pepsi¬Æ Superbowl¬Æ!","steam_id":76561198080828981,"connected_time":1565000000000,"state":"active","ping":69},{"user_id":14,"name":"penguinlord30","steam_id":76561198437116566,"connected_time":2090000000000,"state":"active","ping":56},{"user_id":16,"name":"the harsh reality","steam_id":76561198419896433,"connected_time":1526000000000,"state":"active","ping":42},{"user_id":18,"name":"facedatfatchat","steam_id":76561198335285125,"connected_time":1391000000000,"state":"active","ping":57},{"user_id":42,"name":"TheTruthOfTheCessationOfDukkha","steam_id":76561198214370515,"connected_time":73000000000,"state":"active","ping":118},{"user_id":20,"name":"The Horselords and Animal Gods","steam_id":76561197975094050,"connected_time":1206000000000,"state":"active","ping":85},{"user_id":23,"name":"trackpad gaming | f2p","steam_id":76561198840414371,"connected_time":1098000000000,"state":"active","ping":55},{"user_id":39,"name":"Solifuga","steam_id":76561198119569902,"connected_time":199000000000,"state":"active","ping":45},{"user_id":25,"name":"The Wise Guy","steam_id":76561198031080216,"connected_time":982000000000,"state":"active","ping":62},{"user_id":30,"name":"wiz","steam_id":76561198045731206,"connected_time":573000000000,"state":"active","ping":42},{"user_id":28,"name":"Pneumo.","steam_id":76561197987911883,"connected_time":644000000000,"state":"active","ping":64},{"user_id":29,"name":"Robert E.T.","steam_id":76561197986439371,"connected_time":627000000000,"state":"active","ping":54},{"user_id":46,"name":"Misteryman321","steam_id":76561198039041713,"connected_time":3000000000,"state":"spawning","ping":63},{"user_id":40,"name":"Maid 'n' China","steam_id":76561198423392976,"connected_time":127000000000,"state":"active","ping":71},{"user_id":33,"name":"thelegoman890","steam_id":76561198417463803,"connected_time":363000000000,"state":"active","ping":86},{"user_id":34,"name":"i suck at tf2","steam_id":76561199320075758,"connected_time":343000000000,"state":"active","ping":64},{"user_id":43,"name":"Little Linguine","steam_id":76561198816986370,"connected_time":43000000000,"state":"active","ping":108},{"user_id":37,"name":"bengineer","steam_id":76561198171912174,"connected_time":257000000000,"state":"active","ping":45},{"user_id":38,"name":"Tibetan Pop Star","steam_id":76561198844903984,"connected_time":214000000000,"state":"active","ping":87},{"user_id":44,"name":"nappyzappy","steam_id":76561198095118953,"connected_time":42000000000,"state":"active","ping":74},{"user_id":45,"name":"nephone","steam_id":76561198452515824,"connected_time":25000000000,"state":"spawning","ping":82}]},{"server_id":406,"name":"Uncletopia | Seattle | 3 | Stopwatch Beta","name_short":"sea-3","host":"sea-1.us.uncletopia.com","port":27035,"enabled":true,"region":"us-west","cc":"us","latitude":47.608013,"longitude":-122.33517,"reserved":0,"last_update":"0001-01-01T00:00:00Z","name_a2s":"Uncletopia | Seattle | 3 | Stopwatch Beta","protocol":17,"map":"cp_sunshine","folder":"tf","game":"Team Fortress","app_id":440,"player_count":0,"max_players":24,"Bots":0,"server_type":"Dedicated","server_os":"Linux","password":true,"vac":true,"version":"7757534","steam_id":85568392924515217,"keywords":["cp","nocrits","nodmgspread","uncletopia"],"game_id":440,"stv_port":27036,"stv_name":"Uncletopia | Seattle | 3 | Stopwatch Beta | STV","players":null},{"server_id":17,"name":"Uncletopia | San Francisco | 1 | All Maps","name_short":"sfo-1","host":"sfo-1.us.uncletopia.com","port":27015,"enabled":true,"region":"us-west","cc":"us","latitude":37.77397,"longitude":-122.4313,"reserved":0,"last_update":"0001-01-01T00:00:00Z","name_a2s":"Uncletopia | San Francisco | 1 | All Maps","protocol":17,"map":"koth_lakeside_final","folder":"tf","game":"Team Fortress","app_id":440,"player_count":0,"max_players":24,"Bots":0,"server_type":"Dedicated","server_os":"Linux","password":true,"vac":true,"version":"7757534","steam_id":85568392924469999,"keywords":["cp","nocrits","nodmgspread","uncletopia"],"game_id":440,"stv_port":27016,"stv_name":"Uncletopia | San Francisco | 1 | All Maps | STV","players":null},{"server_id":18,"name":"Uncletopia | San Francisco | 2 | All Maps","name_short":"sfo-2","host":"sfo-1.us.uncletopia.com","port":27025,"enabled":true,"region":"us-west","cc":"us","latitude":37.77397,"longitude":-122.4313,"reserved":0,"last_update":"0001-01-01T00:00:00Z","name_a2s":"Uncletopia | San Francisco | 2 | All Maps","protocol":17,"map":"pl_badwater","folder":"tf","game":"Team Fortress","app_id":440,"player_count":24,"max_players":24,"Bots":0,"server_type":"Dedicated","server_os":"Linux","password":true,"vac":true,"version":"7757534","steam_id":85568392924470000,"keywords":["nocrits","nodmgspread","payload","uncletopia"],"game_id":440,"stv_port":27026,"stv_name":"Uncletopia | San Francisco | 2 | All Maps | STV","players":[{"user_id":47,"name":"YourWishes","steam_id":76561198154414336,"connected_time":887000000000,"state":"active","ping":63},{"user_id":10,"name":"Mom","steam_id":76561198207936000,"connected_time":3137000000000,"state":"active","ping":44},{"user_id":27,"name":"corbenis","steam_id":76561199012442511,"connected_time":1702000000000,"state":"active","ping":74},{"user_id":48,"name":"Beastdocter #SaveTF2","steam_id":76561198272351816,"connected_time":866000000000,"state":"active","ping":128},{"user_id":25,"name":"car gas is yummy","steam_id":76561199045901994,"connected_time":1914000000000,"state":"active","ping":66},{"user_id":18,"name":"Abbreviated","steam_id":76561198088423054,"connected_time":2597000000000,"state":"active","ping":106},{"user_id":49,"name":"BDRV","steam_id":76561198197535895,"connected_time":798000000000,"state":"active","ping":105},{"user_id":50,"name":"Karazu","steam_id":76561198026674301,"connected_time":754000000000,"state":"active","ping":77},{"user_id":28,"name":"Flarelo","steam_id":76561198086024407,"connected_time":1588000000000,"state":"active","ping":117},{"user_id":58,"name":"heisenberg","steam_id":76561198075341060,"connected_time":395000000000,"state":"active","ping":69},{"user_id":30,"name":"big dog","steam_id":76561198243918128,"connected_time":1553000000000,"state":"active","ping":103},{"user_id":31,"name":"pooblygonzooly2012","steam_id":76561198982054880,"connected_time":1514000000000,"state":"active","ping":63},{"user_id":32,"name":"hector","steam_id":76561198833322684,"connected_time":1490000000000,"state":"active","ping":121},{"user_id":52,"name":"Yabber habber","steam_id":76561198119307814,"connected_time":537000000000,"state":"active","ping":101},{"user_id":53,"name":"Rodro","steam_id":76561198365756847,"connected_time":506000000000,"state":"active","ping":110},{"user_id":59,"name":"Underscore","steam_id":76561198374209415,"connected_time":387000000000,"state":"active","ping":90},{"user_id":54,"name":"Charlatan","steam_id":76561198345242865,"connected_time":500000000000,"state":"active","ping":53},{"user_id":55,"name":"Cowboy Cookie","steam_id":76561198051483841,"connected_time":446000000000,"state":"active","ping":83},{"user_id":42,"name":"Ok's pocket medic","steam_id":76561198985335370,"connected_time":1038000000000,"state":"active","ping":69},{"user_id":45,"name":"keffers","steam_id":76561198202338796,"connected_time":987000000000,"state":"active","ping":120},{"user_id":46,"name":"yanmegaDX","steam_id":76561199342000972,"connected_time":980000000000,"state":"active","ping":64},{"user_id":56,"name":"Minti","steam_id":76561199044687542,"connected_time":444000000000,"state":"active","ping":101},{"user_id":57,"name":"Alex The F2P","steam_id":76561199075574736,"connected_time":433000000000,"state":"active","ping":107},{"user_id":60,"name":"mineblast99","steam_id":76561199065648954,"connected_time":366000000000,"state":"active","ping":107}]},{"server_id":19,"name":"Uncletopia | San Francisco | 3 | Stopwatch Beta","name_short":"sfo-3","host":"sfo-1.us.uncletopia.com","port":27035,"enabled":true,"region":"us-west","cc":"us","latitude":37.77397,"longitude":-122.4313,"reserved":0,"last_update":"0001-01-01T00:00:00Z","name_a2s":"Uncletopia | San Francisco | 3 | Stopwatch Beta","protocol":17,"map":"koth_viaduct","folder":"tf","game":"Team Fortress","app_id":440,"player_count":0,"max_players":24,"Bots":0,"server_type":"Dedicated","server_os":"Linux","password":true,"vac":true,"version":"7757534","steam_id":85568392924742824,"keywords":["cp","nocrits","nodmgspread","uncletopia"],"game_id":440,"stv_port":27036,"stv_name":"Uncletopia | San Francisco | 3 | Stopwatch Beta | STV","players":null},{"server_id":20,"name":"Uncletopia | San Francisco | 4 | Community","name_short":"sfo-4","host":"sfo-1.us.uncletopia.com","port":27045,"enabled":true,"region":"us-west","cc":"us","latitude":37.77397,"longitude":-122.4313,"reserved":0,"last_update":"0001-01-01T00:00:00Z","name_a2s":"Uncletopia | San Francisco | 4 | Community","protocol":17,"map":"workshop/koth_bagel_rc5.ugc2514036946","folder":"tf","game":"Team Fortress","app_id":440,"player_count":22,"max_players":24,"Bots":0,"server_type":"Dedicated","server_os":"Linux","password":true,"vac":true,"version":"7757534","steam_id":85568392924742826,"keywords":["cp","nocrits","nodmgspread","uncletopia"],"game_id":440,"stv_port":27046,"stv_name":"Uncletopia | San Francisco | 4 | Community | STV","players":[{"user_id":315,"name":"victordead121","steam_id":76561199180843121,"connected_time":101000000000,"state":"active","ping":92},{"user_id":273,"name":"afeel5004","steam_id":76561199273696662,"connected_time":2434000000000,"state":"active","ping":50},{"user_id":275,"name":"Greasermane117","steam_id":76561198263748683,"connected_time":2288000000000,"state":"active","ping":68},{"user_id":308,"name":"Dr. Harold coomer Phd","steam_id":76561197999158580,"connected_time":446000000000,"state":"active","ping":74},{"user_id":300,"name":"Cuttle's Fish","steam_id":76561198280483257,"connected_time":878000000000,"state":"active","ping":112},{"user_id":304,"name":"schnedwob","steam_id":76561197999146588,"connected_time":747000000000,"state":"active","ping":90},{"user_id":317,"name":"Nezelia","steam_id":76561199018169688,"connected_time":12000000000,"state":"spawning","ping":188},{"user_id":301,"name":"CherriKat (she/her)","steam_id":76561198821297512,"connected_time":849000000000,"state":"active","ping":58},{"user_id":314,"name":"Captain Obvious","steam_id":76561198081003121,"connected_time":164000000000,"state":"active","ping":95},{"user_id":287,"name":"Kuma","steam_id":76561199100813140,"connected_time":1846000000000,"state":"active","ping":73},{"user_id":309,"name":"Loodler","steam_id":76561198426624664,"connected_time":406000000000,"state":"active","ping":57},{"user_id":253,"name":"Lactose ‡πëÔ≠•","steam_id":76561198208256987,"connected_time":3768000000000,"state":"active","ping":69},{"user_id":307,"name":"All Tomorrow's Parties","steam_id":76561197995936212,"connected_time":643000000000,"state":"active","ping":76},{"user_id":310,"name":"Dr.Long","steam_id":76561198930316713,"connected_time":377000000000,"state":"active","ping":133},{"user_id":294,"name":"Frazzer","steam_id":76561198088679707,"connected_time":1492000000000,"state":"active","ping":60},{"user_id":312,"name":"‚ö† HazardBastard ‚ö†","steam_id":76561198056581580,"connected_time":234000000000,"state":"active","ping":63},{"user_id":291,"name":"Delimeat","steam_id":76561198043824595,"connected_time":1723000000000,"state":"active","ping":56},{"user_id":292,"name":"Furry Futon","steam_id":76561198097745857,"connected_time":1527000000000,"state":"active","ping":84},{"user_id":316,"name":"Haunted Demopan","steam_id":76561198209881263,"connected_time":88000000000,"state":"active","ping":62},{"user_id":252,"name":"Tom Skirrett","steam_id":76561198014600788,"connected_time":3781000000000,"state":"active","ping":83},{"user_id":257,"name":"Wso1123","steam_id":76561198048040111,"connected_time":3103000000000,"state":"active","ping":67},{"user_id":284,"name":"HideOnTate","steam_id":76561198209880837,"connected_time":1929000000000,"state":"active","ping":62}]},{"server_id":141,"name":"Uncletopia | Sydney | 1 | All Maps","name_short":"syd-1","host":"syd-1.au.uncletopia.com","port":27015,"enabled":true,"region":"au","cc":"au","latitude":-33.865143,"longitude":151.2099,"reserved":0,"last_update":"0001-01-01T00:00:00Z","name_a2s":"Uncletopia | Sydney | 1 | All Maps","protocol":17,"map":"koth_lakeside_final","folder":"tf","game":"Team Fortress","app_id":440,"player_count":0,"max_players":24,"Bots":0,"server_type":"Dedicated","server_os":"Linux","password":true,"vac":true,"version":"7757534","steam_id":85568392924470001,"keywords":["cp","nocrits","nodmgspread","uncletopia"],"game_id":440,"stv_port":27016,"stv_name":"Uncletopia | Sydney | 1 | All Maps | STV","players":null},{"server_id":123,"name":"Uncletopia | Sydney | 2 | All Maps","name_short":"syd-2","host":"syd-1.au.uncletopia.com","port":27025,"enabled":true,"region":"au","cc":"au","latitude":-33.865143,"longitude":151.2099,"reserved":0,"last_update":"0001-01-01T00:00:00Z","name_a2s":"Uncletopia | Sydney | 2 | All Maps","protocol":17,"map":"koth_viaduct","folder":"tf","game":"Team Fortress","app_id":440,"player_count":0,"max_players":24,"Bots":0,"server_type":"Dedicated","server_os":"Linux","password":true,"vac":true,"version":"7757534","steam_id":85568392924470002,"keywords":["cp","nocrits","nodmgspread","uncletopia"],"game_id":440,"stv_port":27026,"stv_name":"Uncletopia | Sydney | 2 | All Maps | STV","players":null},{"server_id":395,"name":"Uncletopia | Sydney | 3 | All Maps","name_short":"syd-3","host":"syd-1.au.uncletopia.com","port":27035,"enabled":true,"region":"au","cc":"au","latitude":-33.865143,"longitude":151.2099,"reserved":0,"last_update":"0001-01-01T00:00:00Z","name_a2s":"Uncletopia | Sydney | 3 | All Maps","protocol":17,"map":"koth_viaduct","folder":"tf","game":"Team Fortress","app_id":440,"player_count":0,"max_players":24,"Bots":0,"server_type":"Dedicated","server_os":"Linux","password":true,"vac":true,"version":"7757534","steam_id":85568392925194467,"keywords":["cp","nocrits","nodmgspread","uncletopia"],"game_id":440,"stv_port":27036,"stv_name":"Uncletopia | Sydney | 3 | All Maps | STV","players":null},{"server_id":396,"name":"Uncletopia | Sydney | 4 | All Maps","name_short":"syd-4","host":"syd-1.au.uncletopia.com","port":27045,"enabled":true,"region":"au","cc":"au","latitude":-33.865143,"longitude":151.2099,"reserved":0,"last_update":"0001-01-01T00:00:00Z","name_a2s":"Uncletopia | Sydney | 4 | All Maps","protocol":17,"map":"cp_snakewater_final1","folder":"tf","game":"Team Fortress","app_id":440,"player_count":0,"max_players":24,"Bots":0,"server_type":"Dedicated","server_os":"Linux","password":true,"vac":true,"version":"7757534","steam_id":85568392925397958,"keywords":["cp","nocrits","nodmgspread","uncletopia"],"game_id":440,"stv_port":27046,"stv_name":"Uncletopia | Sydney | 4 | All Maps | STV","players":null},{"server_id":58,"name":"Uncletopia | Sydney | 5 | Stopwatch Beta","name_short":"syd-5","host":"syd-1.au.uncletopia.com","port":27055,"enabled":true,"region":"au","cc":"au","latitude":-33.865143,"longitude":151.2099,"reserved":0,"last_update":"0001-01-01T00:00:00Z","name_a2s":"Uncletopia | Sydney | 5 | Stopwatch Beta","protocol":17,"map":"pl_barnblitz","folder":"tf","game":"Team Fortress","app_id":440,"player_count":0,"max_players":24,"Bots":0,"server_type":"Dedicated","server_os":"Linux","password":true,"vac":true,"version":"7757534","steam_id":85568392925397959,"keywords":["nocrits","nodmgspread","payload","uncletopia"],"game_id":440,"stv_port":27056,"stv_name":"Uncletopia | Sydney | 5 | Stopwatch Beta | STV","players":null},{"server_id":59,"name":"Uncletopia | Sydney | 6 | Community","name_short":"syd-6","host":"syd-1.au.uncletopia.com","port":27065,"enabled":true,"region":"au","cc":"au","latitude":-33.865143,"longitude":151.2099,"reserved":0,"last_update":"0001-01-01T00:00:00Z","name_a2s":"Uncletopia | Sydney | 6 | Community","protocol":17,"map":"cp_mountainlab","folder":"tf","game":"Team Fortress","app_id":440,"player_count":0,"max_players":24,"Bots":0,"server_type":"Dedicated","server_os":"Linux","password":true,"vac":true,"version":"7757534","steam_id":85568392925397960,"keywords":["cp","nocrits","nodmgspread","uncletopia"],"game_id":440,"stv_port":27066,"stv_name":"Uncletopia | Sydney | 6 | Community | STV","players":null},{"server_id":49,"name":"Uncletopia | Warsaw | 1 | All Maps","name_short":"waw-1","host":"waw-1.pl.uncletopia.com","port":27015,"enabled":true,"region":"eu","cc":"pl","latitude":52.2297,"longitude":21.017532,"reserved":0,"last_update":"0001-01-01T00:00:00Z","name_a2s":"","protocol":0,"map":"","folder":"","game":"","app_id":0,"player_count":0,"max_players":0,"Bots":0,"server_type":"","server_os":"","password":false,"vac":false,"version":"","steam_id":0,"keywords":null,"game_id":0,"stv_port":0,"stv_name":"","players":null},{"server_id":50,"name":"Uncletopia | Warsaw | 2 | All Maps","name_short":"waw-2","host":"waw-1.pl.uncletopia.com","port":27025,"enabled":true,"region":"eu","cc":"pl","latitude":52.2297,"longitude":21.017532,"reserved":0,"last_update":"0001-01-01T00:00:00Z","name_a2s":"Uncletopia | Warsaw | 2 | All Maps","protocol":17,"map":"koth_lakeside_final","folder":"tf","game":"Team Fortress","app_id":440,"player_count":8,"max_players":24,"Bots":0,"server_type":"Dedicated","server_os":"Linux","password":true,"vac":true,"version":"7757534","steam_id":85568392925397851,"keywords":["cp","nocrits","nodmgspread","uncletopia"],"game_id":440,"stv_port":27026,"stv_name":"Uncletopia | Warsaw | 2 | All Maps | STV","players":[{"user_id":9,"name":"William_00f","steam_id":76561199071492041,"connected_time":3115000000000,"state":"active","ping":67},{"user_id":10,"name":"bassim.taj","steam_id":76561198965823482,"connected_time":3076000000000,"state":"active","ping":218},{"user_id":11,"name":"mokeyithink","steam_id":76561198844663441,"connected_time":2981000000000,"state":"active","ping":120},{"user_id":16,"name":"Truegr","steam_id":76561198811912339,"connected_time":2384000000000,"state":"active","ping":74},{"user_id":19,"name":"kysa4ken","steam_id":76561199470386180,"connected_time":758000000000,"state":"active","ping":44},{"user_id":20,"name":"nvmHastee","steam_id":76561199371458295,"connected_time":590000000000,"state":"active","ping":87},{"user_id":21,"name":"Bonysquawk","steam_id":76561199145282057,"connected_time":164000000000,"state":"active","ping":57},{"user_id":22,"name":"MisterPoinis","steam_id":76561198267810746,"connected_time":19000000000,"state":"active","ping":81}]},{"server_id":51,"name":"Uncletopia | Warsaw | 3 | All Maps","name_short":"waw-3","host":"waw-1.pl.uncletopia.com","port":27035,"enabled":true,"region":"eu","cc":"pl","latitude":52.2297,"longitude":21.017532,"reserved":0,"last_update":"0001-01-01T00:00:00Z","name_a2s":"Uncletopia | Warsaw | 3 | All Maps","protocol":17,"map":"pl_pier","folder":"tf","game":"Team Fortress","app_id":440,"player_count":0,"max_players":24,"Bots":0,"server_type":"Dedicated","server_os":"Linux","password":true,"vac":true,"version":"7757534","steam_id":85568392925397852,"keywords":["nocrits","nodmgspread","payload","uncletopia"],"game_id":440,"stv_port":27036,"stv_name":"Uncletopia | Warsaw | 3 | All Maps | STV","players":null},{"server_id":52,"name":"Uncletopia | Warsaw | 4 | All Maps","name_short":"waw-4","host":"waw-1.pl.uncletopia.com","port":27045,"enabled":true,"region":"eu","cc":"pl","latitude":52.2297,"longitude":21.017532,"reserved":0,"last_update":"0001-01-01T00:00:00Z","name_a2s":"Uncletopia | Warsaw | 4 | All Maps","protocol":17,"map":"cp_snakewater_final1","folder":"tf","game":"Team Fortress","app_id":440,"player_count":2,"max_players":24,"Bots":0,"server_type":"Dedicated","server_os":"Linux","password":true,"vac":true,"version":"7757534","steam_id":85568392925397853,"keywords":["cp","nocrits","nodmgspread","uncletopia"],"game_id":440,"stv_port":27046,"stv_name":"Uncletopia | Warsaw | 4 | All Maps | STV","players":[{"user_id":8,"name":"He's watching you. . .","steam_id":76561199063768635,"connected_time":893000000000,"state":"active","ping":72},{"user_id":9,"name":"!Deymer!","steam_id":76561199124706831,"connected_time":614000000000,"state":"spawning","ping":70}]},{"server_id":53,"name":"Uncletopia | Warsaw | 5 | Stopwatch Beta","name_short":"waw-5","host":"waw-1.pl.uncletopia.com","port":27055,"enabled":true,"region":"eu","cc":"pl","latitude":52.2297,"longitude":21.017532,"reserved":0,"last_update":"0001-01-01T00:00:00Z","name_a2s":"Uncletopia | Warsaw | 5 | Stopwatch Beta","protocol":17,"map":"pl_upward","folder":"tf","game":"Team Fortress","app_id":440,"player_count":0,"max_players":24,"Bots":0,"server_type":"Dedicated","server_os":"Linux","password":true,"vac":true,"version":"7757534","steam_id":85568392925397854,"keywords":["nocrits","nodmgspread","payload","uncletopia"],"game_id":440,"stv_port":27056,"stv_name":"Uncletopia | Warsaw | 5 | Stopwatch Beta | STV","players":null},{"server_id":54,"name":"Uncletopia | Warsaw | 6 | Community","name_short":"waw-6","host":"waw-1.pl.uncletopia.com","port":27065,"enabled":true,"region":"eu","cc":"pl","latitude":52.2297,"longitude":21.017532,"reserved":0,"last_update":"0001-01-01T00:00:00Z","name_a2s":"Uncletopia | Warsaw | 6 | Community","protocol":17,"map":"workshop/koth_bagel_rc5.ugc2514036946","folder":"tf","game":"Team Fortress","app_id":440,"player_count":0,"max_players":24,"Bots":0,"server_type":"Dedicated","server_os":"Linux","password":true,"vac":true,"version":"7757534","steam_id":85568392925397856,"keywords":["cp","nocrits","nodmgspread","uncletopia"],"game_id":440,"stv_port":27066,"stv_name":"Uncletopia | Warsaw | 6 | Community | STV","players":null}]}