{"status":true,"message":"","result":[{"server_id":9,"name":"Uncletopia | Atlanta | 1 | All Maps","name_short":"atl-1","host":"atl-1.us.uncletopia.com","port":27015,"enabled":true,"region":"us-east","cc":"us","latitude":33.753746,"longitude":-84.38633,"reserved":0,"last_update":"0001-01-01T00:00:00Z","name_a2s":"Uncletopia | Atlanta | 1 | All Maps","protocol":17,"map":"pl_barnblitz","folder":"tf","game":"Team Fortress","app_id":440,"player_count":24,"max_players":24,"Bots":0,"server_type":"Dedicated","server_os":"Linux","password":true,"vac":true,"version":"7961495","steam_id":85568392924469982,"keywords":["nocrits","nodmgspread","payload","uncletopia"],"game_id":440,"stv_port":27016,"stv_name":"Uncletopia | Atlanta | 1 | All Maps | STV","players":[{"user_id":226,"name":"Im High","steam_id":76561198049954886,"connected_time":72000000000,"state":"active","ping":80},{"user_id":206,"name":"Lylith!!!","steam_id":76561198386687546,"connected_time":1842000000000,"state":"active","ping":55},{"user_id":203,"name":"The Undead Knight","steam_id":76561198010654500,"connected_time":2269000000000,"state":"active","ping":55},{"user_id":223,"name":"Maestro","steam_id":76561198157325020,"connected_time":581000000000,"state":"active","ping":60},{"user_id":161,"name":"dadgummit","steam_id":76561198005806915,"connected_time":4385000000000,"state":"active","ping":75},{"user_id":116,"name":"lil hog","steam_id":76561199230929836,"connected_time":8163000000000,"state":"active","ping":77},{"user_id":224,"name":"Neptune˖⁺｡˚⋆˙♥","steam_id":76561199054203198,"connected_time":581000000000,"state":"active","ping":57},{"user_id":205,"name":"The Speavy from Team Fortress 2","steam_id":76561199054591319,"connected_time":2214000000000,"state":"active","ping":66},{"user_id":222,"name":"morphine","steam_id":76561198072124799,"connected_time":1188000000000,"state":"active","ping":91},{"user_id":230,"name":"cris patt (real)","steam_id":76561199362872879,"connected_time":45000000000,"state":"active","ping":77},{"user_id":200,"name":"I need to reach my friend!","steam_id":76561198982810452,"connected_time":2361000000000,"state":"active","ping":80},{"user_id":170,"name":"Electroid","steam_id":76561199092263960,"connected_time":4115000000000,"state":"active","ping":47},{"user_id":209,"name":"HOOD Bowl","steam_id":76561198101325132,"connected_time":1744000000000,"state":"active","ping":82},{"user_id":225,"name":"Decolour","steam_id":76561199045608372,"connected_time":510000000000,"state":"active","ping":60},{"user_id":228,"name":"loot","steam_id":76561198069954956,"connected_time":67000000000,"state":"active","ping":46},{"user_id":217,"name":"Le4n!!!","steam_id":76561198045522596,"connected_time":1513000000000,"state":"active","ping":61},{"user_id":198,"name":"HÖLLENFEUER","steam_id":76561198032751171,"connected_time":2383000000000,"state":"active","ping":44},{"user_id":201,"name":"Mage","steam_id":76561198285026879,"connected_time":2360000000000,"state":"active","ping":63},{"user_id":143,"name":"eish","steam_id":76561198089463603,"connected_time":5907000000000,"state":"active","ping":121},{"user_id":218,"name":"why","steam_id":76561199059732212,"connected_time":1501000000000,"state":"active","ping":59},{"user_id":150,"name":"rat","steam_id":76561198272622003,"connected_time":5184000000000,"state":"active","ping":60},{"user_id":215,"name":"nomad","steam_id":76561197998740399,"connected_time":1523000000000,"state":"active","ping":68},{"user_id":219,"name":"Grazzunk","steam_id":76561198290227691,"connected_time":1501000000000,"state":"active","ping":70},{"user_id":229,"name":"Chadmander","steam_id":76561197974136337,"connected_time":67000000000,"state":"active","ping":60}]},{"server_id":104,"name":"Uncletopia | Atlanta | 2 | All Maps","name_short":"atl-2","host":"atl-1.us.uncletopia.com","port":27025,"enabled":true,"region":"us-east","cc":"us","latitude":33.753746,"longitude":-84.38633,"reserved":0,"last_update":"0001-01-01T00:00:00Z","name_a2s":"Uncletopia | Atlanta | 2 | All Maps","protocol":17,"map":"koth_lakeside_final","folder":"tf","game":"Team Fortress","app_id":440,"player_count":0,"max_players":24,"Bots":0,"server_type":"Dedicated","server_os":"Linux","password":true,"vac":true,"version":"7961495","steam_id":85568392924469983,"keywords":["cp","nocrits","nodmgspread","uncletopia"],"game_id":440,"stv_port":27026,"stv_name":"Uncletopia | Atlanta | 2 | All Maps | STV","players":null},{"server_id":400,"name":"Uncletopia | Atlanta | 3 | Stopwatch","name_short":"atl-3","host":"atl-1.us.uncletopia.com","port":27035,"enabled":true,"region":"us-east","cc":"us","latitude":33.753746,"longitude":-84.38633,"reserved":0,"last_update":"0001-01-01T00:00:00Z","name_a2s":"Uncletopia | Atlanta | 3 | Stopwatch","protocol":17,"map":"workshop/koth_ashville_final.ugc2130459942","folder":"tf","game":"Team Fortress","app_id":440,"player_count":21,"max_players":24,"Bots":0,"server_type":"Dedicated","server_os":"Linux","password":true,"vac":true,"version":"7961495","steam_id":85568392924515187,"keywords":["cp","nocrits","nodmgspread","uncletopia"],"game_id":440,"stv_port":27036,"stv_name":"Uncletopia | Atlanta | 3 | Stopwatch | STV","players":[{"user_id":266,"name":"oak","steam_id":76561198092135570,"connected_time":360000000000,"state":"active","ping":60},{"user_id":268,"name":"Grimprr","steam_id":76561198275816797,"connected_time":306000000000,"state":"active","ping":68},{"user_id":198,"name":"ThatOneDioDude (Joe Defender)","steam_id":76561198840608049,"connected_time":4556000000000,"state":"active","ping":49},{"user_id":269,"name":"lacoulaswwwe","steam_id":76561198966352385,"connected_time":299000000000,"state":"active","ping":74},{"user_id":248,"name":"mywwo","steam_id":76561198155659357,"connected_time":2359000000000,"state":"active","ping":76},{"user_id":270,"name":"Hipster_Giraffe","steam_id":76561198069701092,"connected_time":240000000000,"state":"active","ping":75},{"user_id":257,"name":"toastman","steam_id":76561198207073088,"connected_time":1533000000000,"state":"active","ping":76},{"user_id":265,"name":"Maple","steam_id":76561198439657830,"connected_time":379000000000,"state":"active","ping":65},{"user_id":280,"name":"xva","steam_id":76561198969286813,"connected_time":5000000000,"state":"spawning","ping":149},{"user_id":225,"name":"R. Achael","steam_id":76561198133715771,"connected_time":3595000000000,"state":"active","ping":37},{"user_id":182,"name":"MenacingMekhet","steam_id":76561198053165462,"connected_time":5698000000000,"state":"active","ping":46},{"user_id":261,"name":"FranckyFox2468","steam_id":76561198037679126,"connected_time":964000000000,"state":"active","ping":92},{"user_id":272,"name":"pim","steam_id":76561198095163441,"connected_time":197000000000,"state":"active","ping":64},{"user_id":275,"name":"scrotal recall","steam_id":76561198135945598,"connected_time":148000000000,"state":"active","ping":61},{"user_id":252,"name":"Punished Shitster","steam_id":76561198150452857,"connected_time":2217000000000,"state":"active","ping":77},{"user_id":277,"name":"TheSecretNewbie","steam_id":76561198194671218,"connected_time":111000000000,"state":"active","ping":42},{"user_id":263,"name":"NinjaboySC","steam_id":76561198157305426,"connected_time":668000000000,"state":"active","ping":44},{"user_id":278,"name":"Mazdamundi!","steam_id":76561198044691081,"connected_time":104000000000,"state":"active","ping":38},{"user_id":255,"name":"Matthew 10:39","steam_id":76561198121933439,"connected_time":2140000000000,"state":"active","ping":56},{"user_id":262,"name":"Sunshine","steam_id":76561198885528098,"connected_time":896000000000,"state":"active","ping":74},{"user_id":279,"name":"oopsboom24","steam_id":76561199105248648,"connected_time":89000000000,"state":"active","ping":46}]},{"server_id":401,"name":"Uncletopia | Atlanta | 4 | Community","name_short":"atl-4","host":"atl-1.us.uncletopia.com","port":27045,"enabled":true,"region":"us-east","cc":"us","latitude":33.753746,"longitude":-84.38633,"reserved":0,"last_update":"0001-01-01T00:00:00Z","name_a2s":"Uncletopia | Atlanta | 4 | Community","protocol":17,"map":"workshop/pl_vigil_rc10.ugc1266210012","folder":"tf","game":"Team Fortress","app_id":440,"player_count":0,"max_players":24,"Bots":0,"server_type":"Dedicated","server_os":"Linux","password":true,"vac":true,"version":"7961495","steam_id":85568392924515188,"keywords":["nocrits","nodmgspread","payload","uncletopia"],"game_id":440,"stv_port":27046,"stv_name":"Uncletopia | Atlanta | 4 | Community | STV","players":null},{"server_id":2,"name":"Uncletopia | Chicago | 1 | All Maps","name_short":"chi-1","host":"chi-1.us.uncletopia.com","port":27015,"enabled":true,"region":"us-central","cc":"us","latitude":41.881832,"longitude":-87.62318,"reserved":0,"last_update":"0001-01-01T00:00:00Z","name_a2s":"Uncletopia | Chicago | 1 | All Maps","protocol":17,"map":"cp_altitude","folder":"tf","game":"Team Fortress","app_id":440,"player_count":24,"max_players":24,"Bots":0,"server_type":"Dedicated","server_os":"Linux","password":true,"vac":true,"version":"7961495","steam_id":85568392924469984,"keywords":["cp","nocrits","nodmgspread","uncletopia"],"game_id":440,"stv_port":27016,"stv_name":"Uncletopia | Chicago | 1 | All Maps | STV","players":[{"user_id":539,"name":"PickleHater13","steam_id":76561198259380127,"connected_time":3000000000,"state":"spawning","ping":52},{"user_id":528,"name":"beep","steam_id":76561199096448766,"connected_time":1363000000000,"state":"active","ping":96},{"user_id":526,"name":"Emerald_Knight","steam_id":76561198067372868,"connected_time":1454000000000,"state":"active","ping":46},{"user_id":513,"name":"John Fortnite","steam_id":76561198076608253,"connected_time":3196000000000,"state":"active","ping":53},{"user_id":530,"name":"vom","steam_id":76561198070311363,"connected_time":1337000000000,"state":"active","ping":54},{"user_id":506,"name":"Tyler\u0026Fingers","steam_id":76561198085154485,"connected_time":3299000000000,"state":"active","ping":75},{"user_id":531,"name":"Berb","steam_id":76561198193911899,"connected_time":1335000000000,"state":"active","ping":89},{"user_id":532,"name":"WeegeePJ","steam_id":76561199383362382,"connected_time":1335000000000,"state":"active","ping":75},{"user_id":523,"name":"SmokinSaltyStyle","steam_id":76561198025303821,"connected_time":2769000000000,"state":"active","ping":42},{"user_id":519,"name":"weed cat","steam_id":76561198003082319,"connected_time":3009000000000,"state":"active","ping":46},{"user_id":538,"name":"poopybutt420","steam_id":76561199000805315,"connected_time":32000000000,"state":"spawning","ping":72},{"user_id":492,"name":"Jason","steam_id":76561198107058140,"connected_time":4150000000000,"state":"active","ping":59},{"user_id":463,"name":"Teddiemercury","steam_id":76561197987034023,"connected_time":4866000000000,"state":"active","ping":48},{"user_id":508,"name":"Drake the Pixel","steam_id":76561198131824401,"connected_time":3281000000000,"state":"active","ping":59},{"user_id":524,"name":"Dankstein","steam_id":76561198122662378,"connected_time":2756000000000,"state":"active","ping":165},{"user_id":534,"name":"Hankel Tom (The Hankeler)","steam_id":76561199446367874,"connected_time":968000000000,"state":"active","ping":42},{"user_id":533,"name":"joe don","steam_id":76561199084126379,"connected_time":1328000000000,"state":"active","ping":70},{"user_id":517,"name":"thatdamncat","steam_id":76561198366911191,"connected_time":3085000000000,"state":"active","ping":57},{"user_id":515,"name":"Scarceblue","steam_id":76561198107882998,"connected_time":3140000000000,"state":"active","ping":63},{"user_id":516,"name":"Crλf227","steam_id":76561198196211121,"connected_time":3138000000000,"state":"active","ping":91},{"user_id":525,"name":"argie motorcyclist","steam_id":76561199368976785,"connected_time":2685000000000,"state":"active","ping":59},{"user_id":405,"name":"Lennu","steam_id":76561198060730154,"connected_time":6003000000000,"state":"active","ping":71},{"user_id":312,"name":"mrpineapple070","steam_id":76561199088278757,"connected_time":7885000000000,"state":"active","ping":98},{"user_id":536,"name":"Captain_Crispy","steam_id":76561199453679719,"connected_time":527000000000,"state":"active","ping":102}]},{"server_id":106,"name":"Uncletopia | Chicago | 2 | All Maps","name_short":"chi-2","host":"chi-1.us.uncletopia.com","port":27025,"enabled":true,"region":"us-central","cc":"us","latitude":41.881832,"longitude":-87.62318,"reserved":0,"last_update":"0001-01-01T00:00:00Z","name_a2s":"Uncletopia | Chicago | 2 | All Maps","protocol":17,"map":"pl_thundermountain","folder":"tf","game":"Team Fortress","app_id":440,"player_count":24,"max_players":24,"Bots":0,"server_type":"Dedicated","server_os":"Linux","password":true,"vac":true,"version":"7961495","steam_id":85568392924469985,"keywords":["nocrits","nodmgspread","payload","uncletopia"],"game_id":440,"stv_port":27026,"stv_name":"Uncletopia | Chicago | 2 | All Maps | STV","players":[{"user_id":434,"name":"biden cart 15 dollars","steam_id":76561198253731826,"connected_time":44000000000,"state":"active","ping":60},{"user_id":398,"name":"pew pew","steam_id":76561198110661425,"connected_time":2529000000000,"state":"active","ping":85},{"user_id":360,"name":"loscemo","steam_id":76561197994884609,"connected_time":6173000000000,"state":"active","ping":58},{"user_id":428,"name":"Dad","steam_id":76561198126686695,"connected_time":603000000000,"state":"active","ping":53},{"user_id":429,"name":"Mr. Tickle","steam_id":76561198126684647,"connected_time":424000000000,"state":"active","ping":61},{"user_id":345,"name":"Sick Skeleton","steam_id":76561198097707557,"connected_time":7514000000000,"state":"active","ping":115},{"user_id":419,"name":"mr, mean","steam_id":76561198095048900,"connected_time":1507000000000,"state":"active","ping":57},{"user_id":430,"name":"Soulman","steam_id":76561199012664006,"connected_time":402000000000,"state":"active","ping":108},{"user_id":399,"name":"Ligmus Sigmus","steam_id":76561198168946002,"connected_time":2489000000000,"state":"active","ping":60},{"user_id":400,"name":"mechana","steam_id":76561198111344972,"connected_time":2476000000000,"state":"active","ping":60},{"user_id":432,"name":"Jukebox","steam_id":76561198043930636,"connected_time":333000000000,"state":"active","ping":94},{"user_id":394,"name":"Donkski","steam_id":76561198406895347,"connected_time":2765000000000,"state":"active","ping":75},{"user_id":423,"name":"RocketeerJessie","steam_id":76561198829915210,"connected_time":960000000000,"state":"active","ping":62},{"user_id":431,"name":"TheDeemguy64","steam_id":76561198852876387,"connected_time":379000000000,"state":"active","ping":60},{"user_id":405,"name":"mama luigi","steam_id":76561198058956253,"connected_time":2357000000000,"state":"active","ping":85},{"user_id":410,"name":"Dr. Han","steam_id":76561198811130843,"connected_time":2213000000000,"state":"active","ping":66},{"user_id":418,"name":"Serene Salamander","steam_id":76561198001094770,"connected_time":1608000000000,"state":"active","ping":113},{"user_id":389,"name":"costco peanutbutter pretzels","steam_id":76561198081075865,"connected_time":3568000000000,"state":"active","ping":60},{"user_id":407,"name":"cowboy steve","steam_id":76561198007464245,"connected_time":2322000000000,"state":"active","ping":77},{"user_id":421,"name":"Cowabummer","steam_id":76561198272640432,"connected_time":1243000000000,"state":"active","ping":85},{"user_id":433,"name":"1920","steam_id":76561198111669774,"connected_time":286000000000,"state":"active","ping":58},{"user_id":409,"name":"Winter the Witchie","steam_id":76561198151971178,"connected_time":2316000000000,"state":"active","ping":66},{"user_id":412,"name":"MacawAbalone","steam_id":76561198015127948,"connected_time":2202000000000,"state":"active","ping":45},{"user_id":359,"name":"YOU WHAT?!","steam_id":76561198418679471,"connected_time":6220000000000,"state":"active","ping":64}]},{"server_id":402,"name":"Uncletopia | Chicago | 3 | All Maps","name_short":"chi-3","host":"chi-1.us.uncletopia.com","port":27035,"enabled":true,"region":"us-central","cc":"us","latitude":41.881832,"longitude":-87.62318,"reserved":0,"last_update":"0001-01-01T00:00:00Z","name_a2s":"Uncletopia | Chicago | 3 | All Maps","protocol":17,"map":"pl_barnblitz","folder":"tf","game":"Team Fortress","app_id":440,"player_count":0,"max_players":24,"Bots":0,"server_type":"Dedicated","server_os":"Linux","password":true,"vac":true,"version":"7961495","steam_id":85568392924515191,"keywords":["nocrits","nodmgspread","payload","uncletopia"],"game_id":440,"stv_port":27036,"stv_name":"Uncletopia | Chicago | 3 | All Maps | STV","players":null},{"server_id":403,"name":"Uncletopia | Chicago | 4 | All Maps","name_short":"chi-4","host":"chi-1.us.uncletopia.com","port":27045,"enabled":true,"region":"us-central","cc":"us","latitude":41.881832,"longitude":-87.62318,"reserved":0,"last_update":"0001-01-01T00:00:00Z","name_a2s":"Uncletopia | Chicago | 4 | All Maps","protocol":17,"map":"cp_dustbowl","folder":"tf","game":"Team Fortress","app_id":440,"player_count":24,"max_players":24,"Bots":0,"server_type":"Dedicated","server_os":"Linux","password":true,"vac":true,"version":"7961495","steam_id":85568392924515193,"keywords":["cp","nocrits","nodmgspread","uncletopia"],"game_id":440,"stv_port":27046,"stv_name":"Uncletopia | Chicago | 4 | All Maps | STV","players":[{"user_id":279,"name":"FlareD","steam_id":76561198209415300,"connected_time":3510000000000,"state":"active","ping":77},{"user_id":286,"name":"the scranton dirt smoker","steam_id":76561198305796131,"connected_time":2475000000000,"state":"active","ping":49},{"user_id":285,"name":"en","steam_id":76561199129590802,"connected_time":2511000000000,"state":"active","ping":101},{"user_id":258,"name":"Admiral Crumbs","steam_id":76561198108791583,"connected_time":4965000000000,"state":"active","ping":68},{"user_id":288,"name":"ry19680","steam_id":76561198109309994,"connected_time":2458000000000,"state":"active","ping":67},{"user_id":253,"name":"4pi3","steam_id":76561199093363610,"connected_time":5107000000000,"state":"active","ping":73},{"user_id":289,"name":"overwatch refugee","steam_id":76561199003985688,"connected_time":2436000000000,"state":"active","ping":73},{"user_id":271,"name":"boykissing? YES PLEASE!","steam_id":76561198063970639,"connected_time":4463000000000,"state":"active","ping":65},{"user_id":290,"name":"xanakin skywocker","steam_id":76561198347313393,"connected_time":2424000000000,"state":"active","ping":67},{"user_id":291,"name":"Artgrendadier","steam_id":76561198063305359,"connected_time":2370000000000,"state":"active","ping":63},{"user_id":252,"name":"Private Sloppy","steam_id":76561198019861196,"connected_time":5124000000000,"state":"active","ping":59},{"user_id":246,"name":"Buffalo Soldier","steam_id":76561198089364545,"connected_time":5748000000000,"state":"active","ping":39},{"user_id":261,"name":"Skelebob","steam_id":76561198880649335,"connected_time":4940000000000,"state":"active","ping":63},{"user_id":298,"name":"Smartchicken","steam_id":76561198037744517,"connected_time":1916000000000,"state":"active","ping":60},{"user_id":294,"name":"Dr.StrangeGlove","steam_id":76561198286114229,"connected_time":2280000000000,"state":"active","ping":64},{"user_id":263,"name":"BOOMER DOOMER","steam_id":76561198262318826,"connected_time":4928000000000,"state":"active","ping":74},{"user_id":301,"name":"money getting 1 percenter","steam_id":76561198012796388,"connected_time":1244000000000,"state":"active","ping":52},{"user_id":283,"name":"pizzaroger2003","steam_id":76561198179785873,"connected_time":2587000000000,"state":"active","ping":62},{"user_id":300,"name":"the pest","steam_id":76561198826298849,"connected_time":1456000000000,"state":"active","ping":79},{"user_id":297,"name":"lego star wars on the psp","steam_id":76561198148014773,"connected_time":2167000000000,"state":"active","ping":68},{"user_id":234,"name":"goombinus","steam_id":76561198136164826,"connected_time":6620000000000,"state":"active","ping":46},{"user_id":303,"name":"corbenis","steam_id":76561199012442511,"connected_time":866000000000,"state":"active","ping":92},{"user_id":223,"name":"serialnumber435","steam_id":76561199466187650,"connected_time":7079000000000,"state":"active","ping":142},{"user_id":276,"name":"cfamadas","steam_id":76561199055881965,"connected_time":4255000000000,"state":"active","ping":79}]},{"server_id":36,"name":"Uncletopia | Chicago | 5 | All Maps","name_short":"chi-5","host":"chi-2.us.uncletopia.com","port":27015,"enabled":true,"region":"us-central","cc":"us","latitude":41.881832,"longitude":-87.62318,"reserved":0,"last_update":"0001-01-01T00:00:00Z","name_a2s":"Uncletopia | Chicago | 5 | All Maps","protocol":17,"map":"pl_borneo","folder":"tf","game":"Team Fortress","app_id":440,"player_count":0,"max_players":24,"Bots":0,"server_type":"Dedicated","server_os":"Linux","password":true,"vac":true,"version":"7961495","steam_id":85568392924866362,"keywords":["nocrits","nodmgspread","payload","uncletopia"],"game_id":440,"stv_port":27016,"stv_name":"Uncletopia | Chicago | 5 | All Maps | STV","players":null},{"server_id":37,"name":"Uncletopia | Chicago | 6 | All Maps","name_short":"chi-6","host":"chi-2.us.uncletopia.com","port":27025,"enabled":true,"region":"us-central","cc":"us","latitude":41.881832,"longitude":-87.62318,"reserved":0,"last_update":"0001-01-01T00:00:00Z","name_a2s":"Uncletopia | Chicago | 6 | All Maps","protocol":17,"map":"pl_badwater","folder":"tf","game":"Team Fortress","app_id":440,"player_count":2,"max_players":24,"Bots":0,"server_type":"Dedicated","server_os":"Linux","password":true,"vac":true,"version":"7961495","steam_id":85568392924866363,"keywords":["nocrits","nodmgspread","payload","uncletopia"],"game_id":440,"stv_port":27026,"stv_name":"Uncletopia | Chicago | 6 | All Maps | STV","players":[{"user_id":12,"name":"minecraft_2.0","steam_id":76561198391819120,"connected_time":1215000000000,"state":"active","ping":79},{"user_id":13,"name":"♥ Tomboy ♥","steam_id":76561198069881436,"connected_time":548000000000,"state":"active","ping":75}]},{"server_id":38,"name":"Uncletopia | Chicago | 7 | Stopwatch","name_short":"chi-7","host":"chi-2.us.uncletopia.com","port":27035,"enabled":true,"region":"us-central","cc":"us","latitude":41.881832,"longitude":-87.62318,"reserved":0,"last_update":"0001-01-01T00:00:00Z","name_a2s":"Uncletopia | Chicago | 7 | Stopwatch","protocol":17,"map":"cp_snakewater_final1","folder":"tf","game":"Team Fortress","app_id":440,"player_count":0,"max_players":24,"Bots":0,"server_type":"Dedicated","server_os":"Linux","password":true,"vac":true,"version":"7961495","steam_id":85568392924866364,"keywords":["cp","nocrits","nodmgspread","uncletopia"],"game_id":440,"stv_port":27036,"stv_name":"Uncletopia | Chicago | 7 | Stopwatch | STV","players":null},{"server_id":39,"name":"Uncletopia | Chicago | 8 | Community","name_short":"chi-8","host":"chi-2.us.uncletopia.com","port":27045,"enabled":true,"region":"us-central","cc":"us","latitude":41.881832,"longitude":-87.62318,"reserved":0,"last_update":"0001-01-01T00:00:00Z","name_a2s":"Uncletopia | Chicago | 8 | Community","protocol":17,"map":"workshop/koth_slaughter_rc1.ugc1712845210","folder":"tf","game":"Team Fortress","app_id":440,"player_count":0,"max_players":24,"Bots":0,"server_type":"Dedicated","server_os":"Linux","password":true,"vac":true,"version":"7961495","steam_id":85568392924866365,"keywords":["cp","nocrits","nodmgspread","uncletopia"],"game_id":440,"stv_port":27046,"stv_name":"Uncletopia | Chicago | 8 | Community | STV","players":null},{"server_id":8,"name":"Uncletopia | Dallas | 1 | All Maps","name_short":"dal-1","host":"dal-1.us.uncletopia.com","port":27015,"enabled":true,"region":"us-central","cc":"us","latitude":32.779167,"longitude":-96.80889,"reserved":0,"last_update":"0001-01-01T00:00:00Z","name_a2s":"Uncletopia | Dallas | 1 | All Maps","protocol":17,"map":"pl_upward","folder":"tf","game":"Team Fortress","app_id":440,"player_count":23,"max_players":24,"Bots":0,"server_type":"Dedicated","server_os":"Linux","password":true,"vac":true,"version":"7961495","steam_id":85568392924469986,"keywords":["nocrits","nodmgspread","payload","uncletopia"],"game_id":440,"stv_port":27016,"stv_name":"Uncletopia | Dallas | 1 | All Maps | STV","players":[{"user_id":442,"name":"Space Lizard","steam_id":76561198056798193,"connected_time":164000000000,"state":"active","ping":91},{"user_id":434,"name":"✪Floofy✪","steam_id":76561198056298204,"connected_time":609000000000,"state":"active","ping":46},{"user_id":423,"name":"Commissar","steam_id":76561198137223253,"connected_time":881000000000,"state":"active","ping":51},{"user_id":438,"name":"brains","steam_id":76561198197388678,"connected_time":517000000000,"state":"active","ping":50},{"user_id":435,"name":"Dottie [She/They]","steam_id":76561198282046179,"connected_time":604000000000,"state":"active","ping":50},{"user_id":410,"name":"Passionate Map Researcher","steam_id":76561199490508357,"connected_time":1121000000000,"state":"active","ping":97},{"user_id":443,"name":"tsz","steam_id":76561199246231090,"connected_time":70000000000,"state":"active","ping":90},{"user_id":398,"name":"BlueStar","steam_id":76561198214317468,"connected_time":1742000000000,"state":"active","ping":64},{"user_id":444,"name":"Oopsie Daisy ❋","steam_id":76561198042144492,"connected_time":58000000000,"state":"active","ping":66},{"user_id":446,"name":"Acro","steam_id":76561198092451804,"connected_time":7000000000,"state":"spawning","ping":77},{"user_id":411,"name":"R.Y.","steam_id":76561199384459715,"connected_time":1115000000000,"state":"active","ping":105},{"user_id":415,"name":"Natsuki the Scunt","steam_id":76561199175922684,"connected_time":989000000000,"state":"active","ping":132},{"user_id":445,"name":"jokie1024","steam_id":76561199052355302,"connected_time":49000000000,"state":"active","ping":85},{"user_id":416,"name":"ryder","steam_id":76561198044095652,"connected_time":983000000000,"state":"active","ping":88},{"user_id":433,"name":"❤Raine❤","steam_id":76561199081937889,"connected_time":664000000000,"state":"active","ping":65},{"user_id":441,"name":"drevott74","steam_id":76561199262592779,"connected_time":444000000000,"state":"active","ping":93},{"user_id":447,"name":"McDOKU","steam_id":76561199186072324,"connected_time":3000000000,"state":"spawning","ping":97},{"user_id":425,"name":"Xraverz","steam_id":76561198008891628,"connected_time":846000000000,"state":"active","ping":94},{"user_id":436,"name":"Altoids?","steam_id":76561197997323720,"connected_time":600000000000,"state":"active","ping":80},{"user_id":358,"name":"Tuvok Shakur","steam_id":76561198018875334,"connected_time":5623000000000,"state":"active","ping":94},{"user_id":439,"name":"1st place love live fan","steam_id":76561198037951506,"connected_time":512000000000,"state":"active","ping":72},{"user_id":440,"name":"M1C4A3L","steam_id":76561198009980085,"connected_time":503000000000,"state":"active","ping":62},{"user_id":406,"name":"Ethanol Buttchugger","steam_id":76561199127590316,"connected_time":1446000000000,"state":"active","ping":85}]},{"server_id":108,"name":"Uncletopia | Dallas | 2 | All Maps","name_short":"dal-2","host":"dal-1.us.uncletopia.com","port":27025,"enabled":true,"region":"us-central","cc":"us","latitude":32.779167,"longitude":-96.80889,"reserved":0,"last_update":"0001-01-01T00:00:00Z","name_a2s":"Uncletopia | Dallas | 2 | All Maps","protocol":17,"map":"pl_pier","folder":"tf","game":"Team Fortress","app_id":440,"player_count":24,"max_players":24,"Bots":0,"server_type":"Dedicated","server_os":"Linux","password":true,"vac":true,"version":"7961495","steam_id":85568392924469988,"keywords":["nocrits","nodmgspread","payload","uncletopia"],"game_id":440,"stv_port":27026,"stv_name":"Uncletopia | Dallas | 2 | All Maps | STV","players":[{"user_id":47,"name":"cumgoblin","steam_id":76561198113270138,"connected_time":1253000000000,"state":"active","ping":42},{"user_id":63,"name":"Antian","steam_id":76561198368683614,"connected_time":155000000000,"state":"active","ping":75},{"user_id":43,"name":"Scuba Steve","steam_id":76561198313018251,"connected_time":1515000000000,"state":"active","ping":76},{"user_id":66,"name":"Ozald","steam_id":76561199092019322,"connected_time":72000000000,"state":"active","ping":70},{"user_id":50,"name":"PTR","steam_id":76561198237253772,"connected_time":1177000000000,"state":"active","ping":49},{"user_id":65,"name":"flimsy steve","steam_id":76561198421249296,"connected_time":120000000000,"state":"active","ping":106},{"user_id":18,"name":"kiwi","steam_id":76561198052177917,"connected_time":2828000000000,"state":"active","ping":91},{"user_id":56,"name":"ClayTougher (Spring Version)","steam_id":76561199135235387,"connected_time":522000000000,"state":"active","ping":62},{"user_id":34,"name":"keffers","steam_id":76561198202338796,"connected_time":2391000000000,"state":"active","ping":103},{"user_id":67,"name":"Officer Chef","steam_id":76561198310658990,"connected_time":54000000000,"state":"active","ping":91},{"user_id":22,"name":"Genetic Komodo (He/Him)","steam_id":76561198174806758,"connected_time":2746000000000,"state":"active","ping":39},{"user_id":61,"name":"Tlaloc","steam_id":76561198375215983,"connected_time":197000000000,"state":"active","ping":128},{"user_id":54,"name":"thepimaven","steam_id":76561198350022006,"connected_time":875000000000,"state":"active","ping":90},{"user_id":60,"name":"HeroOfTime","steam_id":76561199096218001,"connected_time":267000000000,"state":"active","ping":90},{"user_id":26,"name":"graffiti","steam_id":76561198044594230,"connected_time":2599000000000,"state":"active","ping":77},{"user_id":55,"name":"DMM","steam_id":76561198065426171,"connected_time":539000000000,"state":"active","ping":59},{"user_id":28,"name":"Versuski","steam_id":76561198085193084,"connected_time":2551000000000,"state":"active","ping":75},{"user_id":45,"name":"playguy carter","steam_id":76561198080679337,"connected_time":1375000000000,"state":"active","ping":87},{"user_id":68,"name":"VelocityMagnet","steam_id":76561199097484065,"connected_time":43000000000,"state":"active","ping":77},{"user_id":31,"name":"Fuk, I miss","steam_id":76561198297223309,"connected_time":2514000000000,"state":"active","ping":79},{"user_id":32,"name":"Timmy The Tyrant","steam_id":76561199156409732,"connected_time":2481000000000,"state":"active","ping":41},{"user_id":46,"name":"dweamy","steam_id":76561198119181880,"connected_time":1369000000000,"state":"active","ping":91},{"user_id":52,"name":"The Abominable Frenchman","steam_id":76561198023811302,"connected_time":1155000000000,"state":"active","ping":57},{"user_id":58,"name":"Decapitation Station","steam_id":76561198201796098,"connected_time":423000000000,"state":"active","ping":79}]},{"server_id":404,"name":"Uncletopia | Dallas | 3 | All Maps","name_short":"dal-3","host":"dal-1.us.uncletopia.com","port":27035,"enabled":true,"region":"us-central","cc":"us","latitude":32.779167,"longitude":-96.80889,"reserved":0,"last_update":"0001-01-01T00:00:00Z","name_a2s":"Uncletopia | Dallas | 3 | All Maps","protocol":17,"map":"cp_coldfront","folder":"tf","game":"Team Fortress","app_id":440,"player_count":0,"max_players":24,"Bots":0,"server_type":"Dedicated","server_os":"Linux","password":true,"vac":true,"version":"7961495","steam_id":85568392924515219,"keywords":["cp","nocrits","nodmgspread","uncletopia"],"game_id":440,"stv_port":27036,"stv_name":"Uncletopia | Dallas | 3 | All Maps | STV","players":null},{"server_id":405,"name":"Uncletopia | Dallas | 4 | Community","name_short":"dal-4","host":"dal-1.us.uncletopia.com","port":27045,"enabled":true,"region":"us-central","cc":"us","latitude":32.779167,"longitude":-96.80889,"reserved":0,"last_update":"0001-01-01T00:00:00Z","name_a2s":"Uncletopia | Dallas | 4 | Community","protocol":17,"map":"workshop/koth_synthetic_rc6a.ugc1549817316","folder":"tf","game":"Team Fortress","app_id":440,"player_count":0,"max_players":24,"Bots":0,"server_type":"Dedicated","server_os":"Linux","password":true,"vac":true,"version":"7961495","steam_id":85568392924515220,"keywords":["cp","nocrits","nodmgspread","uncletopia"],"game_id":440,"stv_port":27046,"stv_name":"Uncletopia | Dallas | 4 | Community | STV","players":null},{"server_id":5,"name":"Uncletopia | Frankfurt | 1 | All Maps","name_short":"frk-1","host":"frk-1.de.uncletopia.com","port":27015,"enabled":true,"region":"eu","cc":"de","latitude":50.110924,"longitude":8.682127,"reserved":0,"last_update":"0001-01-01T00:00:00Z","name_a2s":"Uncletopia | Frankfurt | 1 | All Maps","protocol":17,"map":"pl_snowycoast","folder":"tf","game":"Team Fortress","app_id":440,"player_count":24,"max_players":24,"Bots":0,"server_type":"Dedicated","server_os":"Linux","password":true,"vac":true,"version":"7961495","steam_id":85568392924469989,"keywords":["nocrits","nodmgspread","payload","uncletopia"],"game_id":440,"stv_port":27016,"stv_name":"Uncletopia | Frankfurt | 1 | All Maps | STV","players":[{"user_id":597,"name":"Leviticus Cornwall","steam_id":76561197993702685,"connected_time":366000000000,"state":"active","ping":65},{"user_id":483,"name":"Thundergodstonelate","steam_id":76561198040893623,"connected_time":9648000000000,"state":"active","ping":84},{"user_id":602,"name":"CptAlex","steam_id":76561198059722457,"connected_time":110000000000,"state":"active","ping":44},{"user_id":601,"name":"rummy","steam_id":76561197997573379,"connected_time":208000000000,"state":"active","ping":60},{"user_id":527,"name":"=OKB= P4NTH3R","steam_id":76561197999204603,"connected_time":5467000000000,"state":"active","ping":58},{"user_id":561,"name":"Zerfesh","steam_id":76561198117534358,"connected_time":3178000000000,"state":"active","ping":75},{"user_id":484,"name":"SaintBonkers","steam_id":76561198043219263,"connected_time":9569000000000,"state":"active","ping":64},{"user_id":558,"name":"FoOzTV","steam_id":76561197998636728,"connected_time":3343000000000,"state":"active","ping":90},{"user_id":598,"name":"Mr_Joergen","steam_id":76561198364713702,"connected_time":364000000000,"state":"active","ping":55},{"user_id":576,"name":"gunter_funnyman","steam_id":76561198298432099,"connected_time":2057000000000,"state":"active","ping":79},{"user_id":522,"name":"Carl","steam_id":76561198045638738,"connected_time":5654000000000,"state":"active","ping":59},{"user_id":572,"name":"romov","steam_id":76561199182288871,"connected_time":2144000000000,"state":"active","ping":85},{"user_id":586,"name":"chocy milk addict","steam_id":76561199042178118,"connected_time":1432000000000,"state":"active","ping":60},{"user_id":587,"name":"quickfast","steam_id":76561199438900919,"connected_time":1383000000000,"state":"active","ping":56},{"user_id":579,"name":"james_bondage","steam_id":76561199476062624,"connected_time":1927000000000,"state":"active","ping":150},{"user_id":574,"name":"Sylvain","steam_id":76561198113385271,"connected_time":2111000000000,"state":"active","ping":135},{"user_id":591,"name":"DaGeoKat","steam_id":76561198448542023,"connected_time":1236000000000,"state":"active","ping":63},{"user_id":592,"name":"Mr. Hunts","steam_id":76561197981910397,"connected_time":1138000000000,"state":"active","ping":61},{"user_id":595,"name":"LILY-CHAN","steam_id":76561198035085893,"connected_time":520000000000,"state":"active","ping":137},{"user_id":585,"name":"IhateHanzoPlayers","steam_id":76561198377533237,"connected_time":1508000000000,"state":"active","ping":68},{"user_id":552,"name":"Bob Sacamano","steam_id":76561198085610701,"connected_time":3821000000000,"state":"active","ping":67},{"user_id":584,"name":"Vazanoir","steam_id":76561198026693990,"connected_time":1652000000000,"state":"active","ping":48},{"user_id":596,"name":"András","steam_id":76561198096947288,"connected_time":397000000000,"state":"active","ping":60},{"user_id":554,"name":"cheriberry","steam_id":76561198093577036,"connected_time":3490000000000,"state":"active","ping":56}]},{"server_id":110,"name":"Uncletopia | Frankfurt | 2 | All Maps","name_short":"frk-2","host":"frk-1.de.uncletopia.com","port":27025,"enabled":true,"region":"eu","cc":"de","latitude":50.110924,"longitude":8.682127,"reserved":0,"last_update":"0001-01-01T00:00:00Z","name_a2s":"Uncletopia | Frankfurt | 2 | All Maps","protocol":17,"map":"cp_sunshine","folder":"tf","game":"Team Fortress","app_id":440,"player_count":24,"max_players":24,"Bots":0,"server_type":"Dedicated","server_os":"Linux","password":true,"vac":true,"version":"7961495","steam_id":85568392924469990,"keywords":["cp","nocrits","nodmgspread","uncletopia"],"game_id":440,"stv_port":27026,"stv_name":"Uncletopia | Frankfurt | 2 | All Maps | STV","players":[{"user_id":586,"name":"lillunya ♡","steam_id":76561198330418866,"connected_time":3881000000000,"state":"active","ping":44},{"user_id":603,"name":"BriLLz","steam_id":76561198142440806,"connected_time":2379000000000,"state":"active","ping":60},{"user_id":607,"name":"Sebab","steam_id":76561198122706821,"connected_time":1699000000000,"state":"active","ping":54},{"user_id":590,"name":"Drojdier","steam_id":76561198080789836,"connected_time":3293000000000,"state":"active","ping":65},{"user_id":625,"name":"Edsuedi","steam_id":76561198074722832,"connected_time":456000000000,"state":"active","ping":52},{"user_id":630,"name":"dongy","steam_id":76561198050319619,"connected_time":304000000000,"state":"active","ping":45},{"user_id":622,"name":"1couver","steam_id":76561198168553215,"connected_time":495000000000,"state":"active","ping":91},{"user_id":641,"name":"Luna","steam_id":76561199140738350,"connected_time":55000000000,"state":"active","ping":83},{"user_id":638,"name":"TreatFly","steam_id":76561198069707362,"connected_time":103000000000,"state":"active","ping":58},{"user_id":629,"name":"736","steam_id":76561198257082081,"connected_time":416000000000,"state":"active","ping":77},{"user_id":631,"name":"Asmodeus","steam_id":76561198283156425,"connected_time":154000000000,"state":"active","ping":76},{"user_id":633,"name":"zinzyk","steam_id":76561198128011822,"connected_time":140000000000,"state":"active","ping":51},{"user_id":634,"name":"The Lady","steam_id":76561198029895809,"connected_time":135000000000,"state":"active","ping":74},{"user_id":636,"name":",","steam_id":76561198347020945,"connected_time":127000000000,"state":"active","ping":89},{"user_id":642,"name":"rts","steam_id":76561199090876980,"connected_time":46000000000,"state":"spawning","ping":114},{"user_id":635,"name":"Tiny Desk Engineer","steam_id":76561199049784560,"connected_time":133000000000,"state":"active","ping":165},{"user_id":573,"name":"misterwondo","steam_id":76561198187934110,"connected_time":4929000000000,"state":"active","ping":64},{"user_id":621,"name":"magnos62564","steam_id":76561198356968225,"connected_time":499000000000,"state":"active","ping":71},{"user_id":613,"name":"Javier dorsaless","steam_id":76561198179324075,"connected_time":1582000000000,"state":"active","ping":72},{"user_id":614,"name":"Spurt","steam_id":76561198078523852,"connected_time":1565000000000,"state":"active","ping":51},{"user_id":505,"name":"yush","steam_id":76561198121688934,"connected_time":9422000000000,"state":"active","ping":75},{"user_id":632,"name":"bAdmon","steam_id":76561197961785793,"connected_time":150000000000,"state":"active","ping":54},{"user_id":628,"name":"Prox","steam_id":76561198351490981,"connected_time":428000000000,"state":"active","ping":45},{"user_id":640,"name":"compact disc","steam_id":76561198154677956,"connected_time":78000000000,"state":"active","ping":60}]},{"server_id":308,"name":"Uncletopia | Frankfurt | 3 | All Maps","name_short":"frk-3","host":"frk-1.de.uncletopia.com","port":27035,"enabled":true,"region":"eu","cc":"de","latitude":50.110924,"longitude":8.682127,"reserved":0,"last_update":"0001-01-01T00:00:00Z","name_a2s":"Uncletopia | Frankfurt | 3 | All Maps","protocol":17,"map":"cp_snakewater_final1","folder":"tf","game":"Team Fortress","app_id":440,"player_count":24,"max_players":24,"Bots":0,"server_type":"Dedicated","server_os":"Linux","password":true,"vac":true,"version":"7961495","steam_id":85568392924504274,"keywords":["cp","nocrits","nodmgspread","uncletopia"],"game_id":440,"stv_port":27036,"stv_name":"Uncletopia | Frankfurt | 3 | All Maps | STV","players":[{"user_id":141,"name":"\u003c blank \u003e","steam_id":76561198355892269,"connected_time":194000000000,"state":"active","ping":51},{"user_id":105,"name":"Zazou","steam_id":76561198028076362,"connected_time":2632000000000,"state":"active","ping":50},{"user_id":128,"name":"I.C. Wiener","steam_id":76561197999912254,"connected_time":1137000000000,"state":"active","ping":73},{"user_id":122,"name":"kanker","steam_id":76561198231470280,"connected_time":1235000000000,"state":"active","ping":54},{"user_id":94,"name":"random gaming","steam_id":76561198087970118,"connected_time":3808000000000,"state":"active","ping":50},{"user_id":129,"name":"Sex Man TF2","steam_id":76561198798657045,"connected_time":1126000000000,"state":"active","ping":70},{"user_id":121,"name":"herbal tea","steam_id":76561197980736364,"connected_time":1288000000000,"state":"active","ping":72},{"user_id":110,"name":"Froenzi","steam_id":76561198168841723,"connected_time":2270000000000,"state":"active","ping":60},{"user_id":130,"name":"adam","steam_id":76561199024816404,"connected_time":1112000000000,"state":"active","ping":67},{"user_id":137,"name":"Burpman","steam_id":76561198022897937,"connected_time":993000000000,"state":"active","ping":60},{"user_id":116,"name":"rhm","steam_id":76561199438126261,"connected_time":1951000000000,"state":"active","ping":80},{"user_id":93,"name":"killerdiam","steam_id":76561198806422317,"connected_time":3836000000000,"state":"active","ping":57},{"user_id":131,"name":"LachtanCZ","steam_id":76561198835125795,"connected_time":1097000000000,"state":"active","ping":67},{"user_id":138,"name":"Vermuth","steam_id":76561198013515390,"connected_time":962000000000,"state":"active","ping":50},{"user_id":117,"name":"Monkey","steam_id":76561199008411791,"connected_time":1746000000000,"state":"active","ping":54},{"user_id":92,"name":"Doctor Medic","steam_id":76561198100957443,"connected_time":4054000000000,"state":"active","ping":61},{"user_id":126,"name":"YARrICk.«+»","steam_id":76561197990126485,"connected_time":1198000000000,"state":"active","ping":62},{"user_id":139,"name":"tallen","steam_id":76561198061708595,"connected_time":688000000000,"state":"active","ping":81},{"user_id":133,"name":"Kamikrazy","steam_id":76561198044254918,"connected_time":1082000000000,"state":"active","ping":62},{"user_id":134,"name":"Dirty goblin","steam_id":76561198153207632,"connected_time":1081000000000,"state":"active","ping":63},{"user_id":100,"name":"AIEmil","steam_id":76561198013205559,"connected_time":3202000000000,"state":"active","ping":60},{"user_id":135,"name":"Vince","steam_id":76561199103000131,"connected_time":1078000000000,"state":"active","ping":59},{"user_id":98,"name":"unnam3d","steam_id":76561198286257338,"connected_time":3570000000000,"state":"active","ping":60},{"user_id":114,"name":"gaming gamer","steam_id":76561198212488780,"connected_time":2230000000000,"state":"active","ping":57}]},{"server_id":309,"name":"Uncletopia | Frankfurt | 4 | All Maps","name_short":"frk-4","host":"frk-1.de.uncletopia.com","port":27045,"enabled":true,"region":"eu","cc":"de","latitude":50.110924,"longitude":8.682127,"reserved":0,"last_update":"0001-01-01T00:00:00Z","name_a2s":"Uncletopia | Frankfurt | 4 | All Maps","protocol":17,"map":"cp_sunshine","folder":"tf","game":"Team Fortress","app_id":440,"player_count":24,"max_players":24,"Bots":0,"server_type":"Dedicated","server_os":"Linux","password":true,"vac":true,"version":"7961495","steam_id":85568392924504275,"keywords":["cp","nocrits","nodmgspread","uncletopia"],"game_id":440,"stv_port":27046,"stv_name":"Uncletopia | Frankfurt | 4 | All Maps | STV","players":[{"user_id":440,"name":"moseley519","steam_id":76561198045485374,"connected_time":695000000000,"state":"active","ping":59},{"user_id":445,"name":"Lux","steam_id":76561198060417740,"connected_time":536000000000,"state":"active","ping":47},{"user_id":446,"name":"aphextwinsucks","steam_id":76561198132185926,"connected_time":492000000000,"state":"active","ping":60},{"user_id":455,"name":"watch thief","steam_id":76561198036730191,"connected_time":290000000000,"state":"active","ping":61},{"user_id":443,"name":"Plep","steam_id":76561198840259819,"connected_time":628000000000,"state":"active","ping":45},{"user_id":434,"name":"Reimu","steam_id":76561198109301435,"connected_time":922000000000,"state":"active","ping":80},{"user_id":425,"name":"Boi","steam_id":76561198387049078,"connected_time":1818000000000,"state":"active","ping":94},{"user_id":436,"name":"Lucky_Bambr","steam_id":76561198401330527,"connected_time":812000000000,"state":"active","ping":104},{"user_id":447,"name":"Rat Queen Emily","steam_id":76561198232446788,"connected_time":480000000000,"state":"active","ping":153},{"user_id":439,"name":"Janner","steam_id":76561198127045282,"connected_time":718000000000,"state":"active","ping":60},{"user_id":438,"name":"Yrjö Koskinen Yrjö-Koskinen","steam_id":76561198368181145,"connected_time":752000000000,"state":"active","ping":75},{"user_id":441,"name":"PANAANI","steam_id":76561198322322739,"connected_time":673000000000,"state":"active","ping":83},{"user_id":448,"name":"rabbitface26","steam_id":76561198327540113,"connected_time":453000000000,"state":"active","ping":46},{"user_id":449,"name":"Irbynx","steam_id":76561197980421195,"connected_time":388000000000,"state":"active","ping":87},{"user_id":450,"name":"monocle chicken","steam_id":76561199020106029,"connected_time":350000000000,"state":"active","ping":76},{"user_id":429,"name":"I-I","steam_id":76561198267969436,"connected_time":1380000000000,"state":"active","ping":55},{"user_id":451,"name":"dansal","steam_id":76561197997042510,"connected_time":348000000000,"state":"active","ping":173},{"user_id":452,"name":"sAmasam","steam_id":76561198114953928,"connected_time":330000000000,"state":"active","ping":59},{"user_id":454,"name":"waj","steam_id":76561198053628243,"connected_time":296000000000,"state":"active","ping":60},{"user_id":460,"name":"t0ksi","steam_id":76561198107240798,"connected_time":107000000000,"state":"active","ping":73},{"user_id":461,"name":"i","steam_id":76561198236099496,"connected_time":91000000000,"state":"active","ping":91},{"user_id":400,"name":"StarDoc2222","steam_id":76561199389114520,"connected_time":3955000000000,"state":"active","ping":136},{"user_id":458,"name":"dafydd","steam_id":76561198052200325,"connected_time":238000000000,"state":"active","ping":76},{"user_id":459,"name":"Aftiks","steam_id":76561198875182686,"connected_time":232000000000,"state":"active","ping":82}]},{"server_id":310,"name":"Uncletopia | Frankfurt | 5 | All Maps","name_short":"frk-5","host":"frk-1.de.uncletopia.com","port":27055,"enabled":true,"region":"eu","cc":"de","latitude":50.110924,"longitude":8.682127,"reserved":0,"last_update":"0001-01-01T00:00:00Z","name_a2s":"Uncletopia | Frankfurt | 5 | All Maps","protocol":17,"map":"pl_badwater","folder":"tf","game":"Team Fortress","app_id":440,"player_count":23,"max_players":24,"Bots":0,"server_type":"Dedicated","server_os":"Linux","password":true,"vac":true,"version":"7961495","steam_id":85568392924504277,"keywords":["nocrits","nodmgspread","payload","uncletopia"],"game_id":440,"stv_port":27056,"stv_name":"Uncletopia | Frankfurt | 5 | All Maps | STV","players":[{"user_id":476,"name":"Step back","steam_id":76561198063855616,"connected_time":342000000000,"state":"active","ping":75},{"user_id":482,"name":"Reihenhausbewohner","steam_id":76561198049820307,"connected_time":66000000000,"state":"active","ping":47},{"user_id":474,"name":"doomer","steam_id":76561198977420882,"connected_time":430000000000,"state":"active","ping":55},{"user_id":440,"name":"♂ MGE ♂ PUPSIK ♂","steam_id":76561198308302932,"connected_time":2556000000000,"state":"active","ping":99},{"user_id":475,"name":"theodorc68","steam_id":76561199250592158,"connected_time":376000000000,"state":"active","ping":60},{"user_id":479,"name":"Drillboy Jenkins","steam_id":76561198160497421,"connected_time":101000000000,"state":"active","ping":74},{"user_id":456,"name":"Hercules","steam_id":76561198041164170,"connected_time":1675000000000,"state":"active","ping":55},{"user_id":445,"name":"YMIR","steam_id":76561198968979836,"connected_time":2238000000000,"state":"active","ping":75},{"user_id":478,"name":"PurpleLightning","steam_id":76561198103537029,"connected_time":154000000000,"state":"active","ping":180},{"user_id":473,"name":"Keira","steam_id":76561198330870400,"connected_time":454000000000,"state":"active","ping":59},{"user_id":463,"name":"eeeeee","steam_id":76561198017786875,"connected_time":1538000000000,"state":"active","ping":57},{"user_id":477,"name":"Don Keigh","steam_id":76561198175935671,"connected_time":281000000000,"state":"active","ping":188},{"user_id":466,"name":"Carrotcracker","steam_id":76561198034862396,"connected_time":1332000000000,"state":"active","ping":53},{"user_id":480,"name":"Олексій | UA","steam_id":76561198802594676,"connected_time":97000000000,"state":"active","ping":82},{"user_id":458,"name":"Quartermistress","steam_id":76561198140199123,"connected_time":1661000000000,"state":"active","ping":54},{"user_id":465,"name":"✚Чыж✚","steam_id":76561198273074492,"connected_time":1514000000000,"state":"active","ping":103},{"user_id":398,"name":"Doctor Marijuana","steam_id":76561198288289879,"connected_time":4548000000000,"state":"active","ping":67},{"user_id":481,"name":"giacomellow","steam_id":76561197994027661,"connected_time":86000000000,"state":"active","ping":60},{"user_id":354,"name":"s a i","steam_id":76561197970379754,"connected_time":7388000000000,"state":"active","ping":45},{"user_id":411,"name":"Kriofty","steam_id":76561198811696536,"connected_time":3347000000000,"state":"active","ping":86},{"user_id":472,"name":"Birdcat443","steam_id":76561199125582044,"connected_time":604000000000,"state":"active","ping":750},{"user_id":460,"name":"rob","steam_id":76561198122211848,"connected_time":1617000000000,"state":"active","ping":90},{"user_id":467,"name":"AWP Bodyshot :) ❤","steam_id":76561198029928533,"connected_time":1321000000000,"state":"active","ping":44}]},{"server_id":311,"name":"Uncletopia | Frankfurt | 6 | All Maps","name_short":"frk-6","host":"frk-1.de.uncletopia.com","port":27065,"enabled":true,"region":"eu","cc":"de","latitude":50.110924,"longitude":8.682127,"reserved":0,"last_update":"0001-01-01T00:00:00Z","name_a2s":"Uncletopia | Frankfurt | 6 | All Maps","protocol":17,"map":"cp_dustbowl","folder":"tf","game":"Team Fortress","app_id":440,"player_count":8,"max_players":24,"Bots":0,"server_type":"Dedicated","server_os":"Linux","password":true,"vac":true,"version":"7961495","steam_id":85568392924504278,"keywords":["cp","nocrits","nodmgspread","uncletopia"],"game_id":440,"stv_port":27066,"stv_name":"Uncletopia | Frankfurt | 6 | All Maps | STV","players":[{"user_id":523,"name":"Elipse","steam_id":76561198813531365,"connected_time":800000000000,"state":"active","ping":61},{"user_id":466,"name":"Smol","steam_id":76561198805163740,"connected_time":4496000000000,"state":"active","ping":68},{"user_id":525,"name":"RyDapper","steam_id":76561198363489368,"connected_time":712000000000,"state":"active","ping":62},{"user_id":496,"name":"KiteNock","steam_id":76561198160622922,"connected_time":2990000000000,"state":"active","ping":63},{"user_id":528,"name":"BRM","steam_id":76561198453041505,"connected_time":297000000000,"state":"active","ping":62},{"user_id":529,"name":"Retarded Asian Programmer","steam_id":76561198852826853,"connected_time":153000000000,"state":"active","ping":137},{"user_id":450,"name":"Agama","steam_id":76561198867921159,"connected_time":5562000000000,"state":"active","ping":82},{"user_id":514,"name":"Conan","steam_id":76561198158321202,"connected_time":1703000000000,"state":"active","ping":55}]},{"server_id":23,"name":"Uncletopia | Frankfurt | 7 | Stopwatch","name_short":"frk-7","host":"frk-1.de.uncletopia.com","port":27075,"enabled":true,"region":"eu","cc":"de","latitude":50.110924,"longitude":8.682127,"reserved":0,"last_update":"0001-01-01T00:00:00Z","name_a2s":"Uncletopia | Frankfurt | 7 | Stopwatch","protocol":17,"map":"workshop/koth_product_final.ugc454272353","folder":"tf","game":"Team Fortress","app_id":440,"player_count":0,"max_players":24,"Bots":0,"server_type":"Dedicated","server_os":"Linux","password":true,"vac":true,"version":"7961495","steam_id":85568392924742827,"keywords":["cp","nocrits","nodmgspread","uncletopia"],"game_id":440,"stv_port":27076,"stv_name":"Uncletopia | Frankfurt | 7 | Stopwatch | STV","players":null},{"server_id":24,"name":"Uncletopia | Frankfurt | 8 | Community","name_short":"frk-8","host":"frk-1.de.uncletopia.com","port":27085,"enabled":true,"region":"eu","cc":"de","latitude":50.110924,"longitude":8.682127,"reserved":0,"last_update":"0001-01-01T00:00:00Z","name_a2s":"Uncletopia | Frankfurt | 8 | Community","protocol":17,"map":"workshop/koth_slaughter_rc1.ugc1712845210","folder":"tf","game":"Team Fortress","app_id":440,"player_count":0,"max_players":24,"Bots":0,"server_type":"Dedicated","server_os":"Linux","password":true,"vac":true,"version":"7961495","steam_id":85568392924742828,"keywords":["cp","nocrits","nodmgspread","uncletopia"],"game_id":440,"stv_port":27086,"stv_name":"Uncletopia | Frankfurt | 8 | Community | STV","players":null},{"server_id":202,"name":"Uncletopia | Hong Kong | 1 | All Maps","name_short":"hgk-1","host":"hgk-1.hk.uncletopia.com","port":27015,"enabled":true,"region":"asia","cc":"hk","latitude":22.302711,"longitude":114.177216,"reserved":0,"last_update":"0001-01-01T00:00:00Z","name_a2s":"Uncletopia | Hong Kong | 1 | All Maps","protocol":17,"map":"koth_lakeside_final","folder":"tf","game":"Team Fortress","app_id":440,"player_count":0,"max_players":24,"Bots":0,"server_type":"Dedicated","server_os":"Linux","password":true,"vac":true,"version":"7961495","steam_id":85568392924494504,"keywords":["cp","nocrits","nodmgspread","uncletopia"],"game_id":440,"stv_port":27016,"stv_name":"Uncletopia | Hong Kong | 1 | All Maps | STV","players":null},{"server_id":1,"name":"Uncletopia | Los Angeles | 1 | All Maps","name_short":"lax-1","host":"lax-1.us.uncletopia.com","port":27015,"enabled":true,"region":"us-west","cc":"us","latitude":33.94279,"longitude":-118.41004,"reserved":0,"last_update":"0001-01-01T00:00:00Z","name_a2s":"Uncletopia | Los Angeles | 1 | All Maps","protocol":17,"map":"pl_upward","folder":"tf","game":"Team Fortress","app_id":440,"player_count":0,"max_players":24,"Bots":0,"server_type":"Dedicated","server_os":"Linux","password":true,"vac":true,"version":"7961495","steam_id":85568392924469991,"keywords":["nocrits","nodmgspread","payload","uncletopia"],"game_id":440,"stv_port":27016,"stv_name":"Uncletopia | Los Angeles | 1 | All Maps | STV","players":null},{"server_id":112,"name":"Uncletopia | Los Angeles | 2 | All Maps","name_short":"lax-2","host":"lax-1.us.uncletopia.com","port":27025,"enabled":true,"region":"us-west","cc":"us","latitude":33.94279,"longitude":-118.41004,"reserved":0,"last_update":"0001-01-01T00:00:00Z","name_a2s":"Uncletopia | Los Angeles | 2 | All Maps","protocol":17,"map":"koth_cascade","folder":"tf","game":"Team Fortress","app_id":440,"player_count":0,"max_players":24,"Bots":0,"server_type":"Dedicated","server_os":"Linux","password":true,"vac":true,"version":"7961495","steam_id":85568392924469992,"keywords":["cp","nocrits","nodmgspread","uncletopia"],"game_id":440,"stv_port":27026,"stv_name":"Uncletopia | Los Angeles | 2 | All Maps | STV","players":null},{"server_id":324,"name":"Uncletopia | Los Angeles | 3 | All Maps","name_short":"lax-3","host":"lax-1.us.uncletopia.com","port":27035,"enabled":true,"region":"us-west","cc":"us","latitude":33.94279,"longitude":-118.41004,"reserved":0,"last_update":"0001-01-01T00:00:00Z","name_a2s":"Uncletopia | Los Angeles | 3 | All Maps","protocol":17,"map":"pl_hoodoo_final","folder":"tf","game":"Team Fortress","app_id":440,"player_count":0,"max_players":24,"Bots":0,"server_type":"Dedicated","server_os":"Linux","password":true,"vac":true,"version":"7961495","steam_id":85568392924510198,"keywords":["nocrits","nodmgspread","payload","uncletopia"],"game_id":440,"stv_port":27036,"stv_name":"Uncletopia | Los Angeles | 3 | All Maps | STV","players":null},{"server_id":25,"name":"Uncletopia | Los Angeles | 4 | Stopwatch","name_short":"lax-4","host":"lax-1.us.uncletopia.com","port":27045,"enabled":true,"region":"us-west","cc":"us","latitude":33.94279,"longitude":-118.41004,"reserved":0,"last_update":"0001-01-01T00:00:00Z","name_a2s":"Uncletopia | Los Angeles | 4 | Stopwatch","protocol":17,"map":"cp_process_final","folder":"tf","game":"Team Fortress","app_id":440,"player_count":0,"max_players":24,"Bots":0,"server_type":"Dedicated","server_os":"Linux","password":true,"vac":true,"version":"7961495","steam_id":85568392924510199,"keywords":["cp","nocrits","nodmgspread","uncletopia"],"game_id":440,"stv_port":27046,"stv_name":"Uncletopia | Los Angeles | 4 | Stopwatch | STV","players":null},{"server_id":11,"name":"Uncletopia | London | 1 | All Maps","name_short":"lon-1","host":"lon-1.uk.uncletopia.com","port":27015,"enabled":true,"region":"eu","cc":"gb","latitude":51.509865,"longitude":-0.118092,"reserved":0,"last_update":"0001-01-01T00:00:00Z","name_a2s":"Uncletopia | London | 1 | All Maps","protocol":17,"map":"cp_foundry","folder":"tf","game":"Team Fortress","app_id":440,"player_count":24,"max_players":24,"Bots":0,"server_type":"Dedicated","server_os":"Linux","password":true,"vac":true,"version":"7961495","steam_id":85568392924367362,"keywords":["cp","nocrits","nodmgspread","uncletopia"],"game_id":440,"stv_port":27016,"stv_name":"Uncletopia | London | 1 | All Maps | STV","players":[{"user_id":364,"name":"Clown :o)","steam_id":76561198074657015,"connected_time":1332000000000,"state":"active","ping":58},{"user_id":352,"name":"Purps","steam_id":76561198053886680,"connected_time":1664000000000,"state":"active","ping":40},{"user_id":339,"name":"t.tv/whimsybun","steam_id":76561198878171763,"connected_time":3487000000000,"state":"active","ping":56},{"user_id":353,"name":"Cal","steam_id":76561198094515936,"connected_time":1602000000000,"state":"active","ping":45},{"user_id":355,"name":"Kahvi","steam_id":76561198723244199,"connected_time":1571000000000,"state":"active","ping":79},{"user_id":347,"name":"Christmas Ham","steam_id":76561198119601623,"connected_time":2529000000000,"state":"active","ping":57},{"user_id":356,"name":"SPONGEBOB from spongebob show","steam_id":76561198084438672,"connected_time":1525000000000,"state":"active","ping":67},{"user_id":326,"name":"Kora","steam_id":76561198343198306,"connected_time":4117000000000,"state":"active","ping":130},{"user_id":357,"name":"Spinosaurus","steam_id":76561199086481600,"connected_time":1483000000000,"state":"active","ping":45},{"user_id":307,"name":"ber.","steam_id":76561197993892057,"connected_time":4638000000000,"state":"active","ping":90},{"user_id":335,"name":"trite","steam_id":76561197983765323,"connected_time":3543000000000,"state":"active","ping":46},{"user_id":369,"name":"JaneDoe","steam_id":76561198067081506,"connected_time":780000000000,"state":"active","ping":75},{"user_id":359,"name":"Average Chinese Man","steam_id":76561199076883472,"connected_time":1473000000000,"state":"active","ping":55},{"user_id":322,"name":"⸸aura⸸","steam_id":76561198066258544,"connected_time":4357000000000,"state":"active","ping":66},{"user_id":368,"name":"wtabs","steam_id":76561198831766743,"connected_time":938000000000,"state":"active","ping":87},{"user_id":311,"name":"SENSITIVITY OVERDRIVE!!!!","steam_id":76561198163615254,"connected_time":4623000000000,"state":"active","ping":60},{"user_id":362,"name":"The Medic Revolution","steam_id":76561198435297875,"connected_time":1418000000000,"state":"active","ping":39},{"user_id":345,"name":"i beat the last giant","steam_id":76561198080524596,"connected_time":2704000000000,"state":"active","ping":48},{"user_id":317,"name":"Torttu","steam_id":76561198013980029,"connected_time":4568000000000,"state":"active","ping":64},{"user_id":221,"name":"flappi","steam_id":76561198072892783,"connected_time":10588000000000,"state":"active","ping":73},{"user_id":365,"name":"Super Weenie Hut Jr","steam_id":76561198254825633,"connected_time":1117000000000,"state":"active","ping":45},{"user_id":351,"name":"Štěpán","steam_id":76561198275742101,"connected_time":1672000000000,"state":"active","ping":72},{"user_id":373,"name":"Spookuragee","steam_id":76561198144911139,"connected_time":425000000000,"state":"active","ping":40},{"user_id":338,"name":"nibs","steam_id":76561198040099538,"connected_time":3502000000000,"state":"active","ping":75}]},{"server_id":114,"name":"Uncletopia | London | 2 | All Maps","name_short":"lon-2","host":"lon-1.uk.uncletopia.com","port":27025,"enabled":true,"region":"eu","cc":"gb","latitude":51.509865,"longitude":-0.118092,"reserved":0,"last_update":"0001-01-01T00:00:00Z","name_a2s":"Uncletopia | London | 2 | All Maps","protocol":17,"map":"ctf_turbine","folder":"tf","game":"Team Fortress","app_id":440,"player_count":24,"max_players":24,"Bots":0,"server_type":"Dedicated","server_os":"Linux","password":true,"vac":true,"version":"7961495","steam_id":85568392924470941,"keywords":["ctf","nocrits","nodmgspread","uncletopia"],"game_id":440,"stv_port":27026,"stv_name":"Uncletopia | London | 2 | All Maps | STV","players":[{"user_id":477,"name":"AidenQG","steam_id":76561198864678536,"connected_time":1345000000000,"state":"active","ping":87},{"user_id":464,"name":"𝓹𝓱𝓪𝓷𝓽𝓸𝓶","steam_id":76561199095923041,"connected_time":2561000000000,"state":"active","ping":145},{"user_id":491,"name":"guns","steam_id":76561198244277732,"connected_time":525000000000,"state":"active","ping":43},{"user_id":504,"name":"Bucz","steam_id":76561198006089285,"connected_time":170000000000,"state":"active","ping":75},{"user_id":500,"name":"MüdeToday","steam_id":76561199011763306,"connected_time":316000000000,"state":"active","ping":91},{"user_id":496,"name":"Itai","steam_id":76561198804555329,"connected_time":434000000000,"state":"active","ping":90},{"user_id":499,"name":"Odinmuninn99","steam_id":76561198393712705,"connected_time":336000000000,"state":"active","ping":79},{"user_id":505,"name":"Aaron","steam_id":76561197990046953,"connected_time":162000000000,"state":"active","ping":57},{"user_id":480,"name":"A Pigeon","steam_id":76561198114090555,"connected_time":1283000000000,"state":"active","ping":77},{"user_id":486,"name":"Ivarr","steam_id":76561198115629118,"connected_time":821000000000,"state":"active","ping":51},{"user_id":506,"name":"maniac-baker","steam_id":76561198076966730,"connected_time":159000000000,"state":"active","ping":34},{"user_id":386,"name":"Mono","steam_id":76561198114569493,"connected_time":7633000000000,"state":"active","ping":39},{"user_id":439,"name":"soupalognionycrouton","steam_id":76561199021878433,"connected_time":3858000000000,"state":"active","ping":72},{"user_id":454,"name":"H the Creator","steam_id":76561198335971475,"connected_time":3058000000000,"state":"active","ping":45},{"user_id":452,"name":"Tavish","steam_id":76561197971486686,"connected_time":3304000000000,"state":"active","ping":46},{"user_id":481,"name":"Pixar Cars on the PS2","steam_id":76561198079386295,"connected_time":1254000000000,"state":"active","ping":45},{"user_id":501,"name":"mr.resetti","steam_id":76561198974520642,"connected_time":308000000000,"state":"active","ping":64},{"user_id":489,"name":"Omni","steam_id":76561197964320557,"connected_time":736000000000,"state":"active","ping":82},{"user_id":457,"name":"Qwertuss","steam_id":76561198026305366,"connected_time":2853000000000,"state":"active","ping":45},{"user_id":494,"name":"IdkProlly","steam_id":76561198269212968,"connected_time":507000000000,"state":"active","ping":106},{"user_id":475,"name":"dumo dumo","steam_id":76561198346638308,"connected_time":1434000000000,"state":"active","ping":51},{"user_id":463,"name":"BearJuice","steam_id":76561198999534523,"connected_time":2655000000000,"state":"active","ping":109},{"user_id":483,"name":"Pterodactyl P. Jones","steam_id":76561198017513012,"connected_time":1216000000000,"state":"active","ping":53},{"user_id":508,"name":"funny","steam_id":76561198055586726,"connected_time":33000000000,"state":"spawning","ping":48}]},{"server_id":320,"name":"Uncletopia | London | 3 | All Maps","name_short":"lon-3","host":"lon-1.uk.uncletopia.com","port":27035,"enabled":true,"region":"eu","cc":"gb","latitude":51.509865,"longitude":-0.118092,"reserved":0,"last_update":"0001-01-01T00:00:00Z","name_a2s":"Uncletopia | London | 3 | All Maps","protocol":17,"map":"pl_upward","folder":"tf","game":"Team Fortress","app_id":440,"player_count":24,"max_players":24,"Bots":0,"server_type":"Dedicated","server_os":"Linux","password":true,"vac":true,"version":"7961495","steam_id":85568392924510192,"keywords":["nocrits","nodmgspread","payload","uncletopia"],"game_id":440,"stv_port":27036,"stv_name":"Uncletopia | London | 3 | All Maps | STV","players":[{"user_id":337,"name":"BIG BOI SPICE","steam_id":76561198194862277,"connected_time":1374000000000,"state":"active","ping":71},{"user_id":260,"name":"Just Navlis","steam_id":76561198090479609,"connected_time":8408000000000,"state":"active","ping":59},{"user_id":340,"name":"Udinese Dion","steam_id":76561198067931573,"connected_time":1145000000000,"state":"active","ping":63},{"user_id":306,"name":"Interview D","steam_id":76561199012566222,"connected_time":4142000000000,"state":"active","ping":65},{"user_id":342,"name":"fwareshmoney","steam_id":76561198101292843,"connected_time":586000000000,"state":"active","ping":46},{"user_id":318,"name":"Athudanu","steam_id":76561198052881337,"connected_time":3428000000000,"state":"active","ping":60},{"user_id":276,"name":"xavier","steam_id":76561198076494034,"connected_time":6278000000000,"state":"active","ping":51},{"user_id":350,"name":"Bmo","steam_id":76561198158818775,"connected_time":287000000000,"state":"active","ping":97},{"user_id":346,"name":"limbicsystem","steam_id":76561198025612680,"connected_time":534000000000,"state":"active","ping":50},{"user_id":335,"name":"GazerBazer","steam_id":76561198879107565,"connected_time":1524000000000,"state":"active","ping":82},{"user_id":326,"name":"Bubbah🐾","steam_id":76561198061730609,"connected_time":3180000000000,"state":"active","ping":84},{"user_id":347,"name":"Hey, I´m Andy!","steam_id":76561198060337777,"connected_time":528000000000,"state":"active","ping":66},{"user_id":316,"name":"DidoSquarepants","steam_id":76561198813776572,"connected_time":3927000000000,"state":"active","ping":57},{"user_id":311,"name":"finbar","steam_id":76561198056812396,"connected_time":4105000000000,"state":"active","ping":77},{"user_id":329,"name":"Grim the lemon","steam_id":76561199083433988,"connected_time":2297000000000,"state":"active","ping":51},{"user_id":270,"name":"Bobirulez","steam_id":76561198009125458,"connected_time":7391000000000,"state":"active","ping":75},{"user_id":321,"name":"vicente.eze2","steam_id":76561199153979429,"connected_time":3412000000000,"state":"active","ping":69},{"user_id":339,"name":"Umbro","steam_id":76561198087930438,"connected_time":1204000000000,"state":"active","ping":81},{"user_id":305,"name":"acetamiprid","steam_id":76561198058012525,"connected_time":4302000000000,"state":"active","ping":64},{"user_id":323,"name":"bowchika wowa #SlavaUkraine","steam_id":76561198159564550,"connected_time":3377000000000,"state":"active","ping":61},{"user_id":351,"name":"sword machine","steam_id":76561198895235231,"connected_time":30000000000,"state":"active","ping":54},{"user_id":343,"name":"sHIFTINGvORTEX","steam_id":76561198231648332,"connected_time":568000000000,"state":"active","ping":62},{"user_id":345,"name":"C3il_def.0","steam_id":76561198446759372,"connected_time":547000000000,"state":"active","ping":93},{"user_id":349,"name":"Royal Puker","steam_id":76561198039978105,"connected_time":425000000000,"state":"active","ping":60}]},{"server_id":321,"name":"Uncletopia | London | 4 | All Maps","name_short":"lon-4","host":"lon-1.uk.uncletopia.com","port":27045,"enabled":true,"region":"eu","cc":"gb","latitude":51.509865,"longitude":-0.118092,"reserved":0,"last_update":"0001-01-01T00:00:00Z","name_a2s":"Uncletopia | London | 4 | All Maps","protocol":17,"map":"pl_frontier_final","folder":"tf","game":"Team Fortress","app_id":440,"player_count":22,"max_players":24,"Bots":0,"server_type":"Dedicated","server_os":"Linux","password":true,"vac":true,"version":"7961495","steam_id":85568392924510193,"keywords":["nocrits","nodmgspread","payload","uncletopia"],"game_id":440,"stv_port":27046,"stv_name":"Uncletopia | London | 4 | All Maps | STV","players":[{"user_id":148,"name":"finn","steam_id":76561198366652456,"connected_time":21000000000,"state":"active","ping":68},{"user_id":137,"name":"OKLOLOM3","steam_id":76561199151881507,"connected_time":1470000000000,"state":"spawning","ping":104},{"user_id":139,"name":"James","steam_id":76561198168882012,"connected_time":1361000000000,"state":"active","ping":45},{"user_id":135,"name":"D_Ink","steam_id":76561198267716662,"connected_time":1538000000000,"state":"active","ping":61},{"user_id":109,"name":"ROX","steam_id":76561198272289320,"connected_time":3789000000000,"state":"active","ping":66},{"user_id":128,"name":"Syppy","steam_id":76561198078273095,"connected_time":1751000000000,"state":"active","ping":81},{"user_id":130,"name":"GrumpyGrey","steam_id":76561199504695656,"connected_time":1709000000000,"state":"active","ping":31},{"user_id":146,"name":"alternative","steam_id":76561199089684702,"connected_time":69000000000,"state":"active","ping":56},{"user_id":149,"name":"Denialman (Muted)","steam_id":76561198309182092,"connected_time":15000000000,"state":"spawning","ping":71},{"user_id":107,"name":"dopamine overdose","steam_id":76561199032511302,"connected_time":4018000000000,"state":"active","ping":94},{"user_id":145,"name":"flamingosaurus","steam_id":76561198051455397,"connected_time":152000000000,"state":"active","ping":33},{"user_id":110,"name":"cisgender clown","steam_id":76561199469909295,"connected_time":3743000000000,"state":"active","ping":56},{"user_id":143,"name":"abra-kablam","steam_id":76561198195857751,"connected_time":713000000000,"state":"active","ping":58},{"user_id":140,"name":"the grongle","steam_id":76561198989398023,"connected_time":1277000000000,"state":"active","ping":116},{"user_id":94,"name":"Ethee05","steam_id":76561198221013980,"connected_time":4797000000000,"state":"active","ping":45},{"user_id":132,"name":"❤ [HoneyBe_] ❤","steam_id":76561198288930154,"connected_time":1635000000000,"state":"active","ping":50},{"user_id":150,"name":"joachym","steam_id":76561198428579761,"connected_time":10000000000,"state":"spawning","ping":59},{"user_id":134,"name":"Kamelåså","steam_id":76561198149072785,"connected_time":1602000000000,"state":"active","ping":47},{"user_id":151,"name":"BoPoe","steam_id":76561198093333882,"connected_time":6000000000,"state":"spawning","ping":95},{"user_id":126,"name":"MISTER SIUUU","steam_id":76561198018330092,"connected_time":1956000000000,"state":"active","ping":75},{"user_id":144,"name":"❤ToxicAngel❤","steam_id":76561198062208751,"connected_time":635000000000,"state":"active","ping":45},{"user_id":123,"name":"soney","steam_id":76561198121177512,"connected_time":2267000000000,"state":"active","ping":62}]},{"server_id":21,"name":"Uncletopia | London | 5 | All Maps","name_short":"lon-5","host":"lon-1.uk.uncletopia.com","port":27055,"enabled":true,"region":"eu","cc":"gb","latitude":51.509865,"longitude":-0.118092,"reserved":0,"last_update":"0001-01-01T00:00:00Z","name_a2s":"Uncletopia | London | 5 | All Maps","protocol":17,"map":"koth_lakeside_final","folder":"tf","game":"Team Fortress","app_id":440,"player_count":0,"max_players":24,"Bots":0,"server_type":"Dedicated","server_os":"Linux","password":true,"vac":true,"version":"7961495","steam_id":85568392924742829,"keywords":["cp","nocrits","nodmgspread","uncletopia"],"game_id":440,"stv_port":27056,"stv_name":"Uncletopia | London | 5 | All Maps | STV","players":null},{"server_id":22,"name":"Uncletopia | London | 6 | All Maps","name_short":"lon-6","host":"lon-1.uk.uncletopia.com","port":27065,"enabled":true,"region":"eu","cc":"gb","latitude":51.509865,"longitude":-0.118092,"reserved":0,"last_update":"0001-01-01T00:00:00Z","name_a2s":"Uncletopia | London | 6 | All Maps","protocol":17,"map":"koth_cascade","folder":"tf","game":"Team Fortress","app_id":440,"player_count":4,"max_players":24,"Bots":0,"server_type":"Dedicated","server_os":"Linux","password":true,"vac":true,"version":"7961495","steam_id":85568392924742830,"keywords":["cp","nocrits","nodmgspread","uncletopia"],"game_id":440,"stv_port":27066,"stv_name":"Uncletopia | London | 6 | All Maps | STV","players":[{"user_id":34,"name":"Larry Penus","steam_id":76561198207546233,"connected_time":1105000000000,"state":"active","ping":45},{"user_id":35,"name":"Sad Potato","steam_id":76561198239654762,"connected_time":1102000000000,"state":"active","ping":45},{"user_id":36,"name":"SpicyBoi","steam_id":76561198137845321,"connected_time":1101000000000,"state":"active","ping":43},{"user_id":37,"name":"TheRealBouli","steam_id":76561198033330890,"connected_time":7000000000,"state":"spawning","ping":72}]},{"server_id":40,"name":"Uncletopia | London | 7 | Stopwatch","name_short":"lon-7","host":"lon-1.uk.uncletopia.com","port":27075,"enabled":true,"region":"eu","cc":"gb","latitude":51.509865,"longitude":-0.118092,"reserved":0,"last_update":"0001-01-01T00:00:00Z","name_a2s":"Uncletopia | London | 7 | Stopwatch","protocol":17,"map":"pl_borneo","folder":"tf","game":"Team Fortress","app_id":440,"player_count":24,"max_players":24,"Bots":0,"server_type":"Dedicated","server_os":"Linux","password":true,"vac":true,"version":"7961495","steam_id":85568392924964314,"keywords":["nocrits","nodmgspread","payload","uncletopia"],"game_id":440,"stv_port":27076,"stv_name":"Uncletopia | London | 7 | Stopwatch | STV","players":[{"user_id":108,"name":"stepbro","steam_id":76561198119607160,"connected_time":1286000000000,"state":"active","ping":69},{"user_id":70,"name":"Maneon","steam_id":76561198208386005,"connected_time":3306000000000,"state":"active","ping":35},{"user_id":32,"name":"Demicore","steam_id":76561197976922136,"connected_time":4949000000000,"state":"active","ping":124},{"user_id":122,"name":"SausageRoll","steam_id":76561197994072622,"connected_time":680000000000,"state":"active","ping":40},{"user_id":116,"name":"Octopixel","steam_id":76561198346310753,"connected_time":904000000000,"state":"active","ping":60},{"user_id":123,"name":"Silver","steam_id":76561198175238807,"connected_time":634000000000,"state":"active","ping":49},{"user_id":35,"name":"(MAC) [BN] Crazyking","steam_id":76561198001668616,"connected_time":4880000000000,"state":"active","ping":48},{"user_id":126,"name":"Jewish crackhead","steam_id":76561197971513929,"connected_time":614000000000,"state":"active","ping":40},{"user_id":98,"name":"Gregor Samsa","steam_id":76561198973069177,"connected_time":1715000000000,"state":"active","ping":60},{"user_id":133,"name":"simon.chytracek","steam_id":76561199492340409,"connected_time":15000000000,"state":"spawning","ping":188},{"user_id":100,"name":"_Shkoot","steam_id":76561198318170398,"connected_time":1688000000000,"state":"active","ping":62},{"user_id":95,"name":"happy + wholesome babs","steam_id":76561198314919758,"connected_time":1764000000000,"state":"active","ping":55},{"user_id":130,"name":"A Table","steam_id":76561198056456470,"connected_time":309000000000,"state":"active","ping":72},{"user_id":115,"name":"Pip","steam_id":76561198049587565,"connected_time":1013000000000,"state":"active","ping":32},{"user_id":119,"name":"Durham.","steam_id":76561199013125141,"connected_time":790000000000,"state":"active","ping":48},{"user_id":125,"name":"Caliban","steam_id":76561197999696839,"connected_time":627000000000,"state":"active","ping":106},{"user_id":127,"name":"Princess Mel","steam_id":76561198071804982,"connected_time":570000000000,"state":"active","ping":60},{"user_id":129,"name":"Flank","steam_id":76561198098731156,"connected_time":507000000000,"state":"active","ping":66},{"user_id":91,"name":"baver","steam_id":76561198135293142,"connected_time":1868000000000,"state":"active","ping":72},{"user_id":77,"name":"kenzou","steam_id":76561199180054996,"connected_time":2945000000000,"state":"active","ping":60},{"user_id":74,"name":"toyota tacoma water pump gasket","steam_id":76561198836802899,"connected_time":3122000000000,"state":"active","ping":76},{"user_id":132,"name":"Tort","steam_id":76561198329646769,"connected_time":152000000000,"state":"active","ping":47},{"user_id":76,"name":"snayke","steam_id":76561198077822932,"connected_time":3051000000000,"state":"active","ping":63},{"user_id":120,"name":"Lavi","steam_id":76561198000911853,"connected_time":778000000000,"state":"active","ping":60}]},{"server_id":41,"name":"Uncletopia | London | 8 | Community","name_short":"lon-8","host":"lon-1.uk.uncletopia.com","port":27085,"enabled":true,"region":"eu","cc":"gb","latitude":51.509865,"longitude":-0.118092,"reserved":0,"last_update":"0001-01-01T00:00:00Z","name_a2s":"Uncletopia | London | 8 | Community","protocol":17,"map":"workshop/rd_asteroid_redux_b1.ugc2154902912","folder":"tf","game":"Team Fortress","app_id":440,"player_count":0,"max_players":24,"Bots":0,"server_type":"Dedicated","server_os":"Linux","password":true,"vac":true,"version":"7961495","steam_id":85568392924964315,"keywords":["beta","nocrits","nodmgspread","rd","uncletopia"],"game_id":440,"stv_port":27086,"stv_name":"Uncletopia | London | 8 | Community | STV","players":null},{"server_id":300,"name":"Uncletopia | Montréal | 1 | One Thousand Uncles","name_short":"mtl-1","host":"mtl-1.ca.uncletopia.com","port":27015,"enabled":true,"region":"us-east","cc":"ca","latitude":45.50889,"longitude":-73.56167,"reserved":0,"last_update":"0001-01-01T00:00:00Z","name_a2s":"Uncletopia | Montréal | 1 | One Thousand Uncles","protocol":17,"map":"pl_upward","folder":"tf","game":"Team Fortress","app_id":440,"player_count":29,"max_players":32,"Bots":16,"server_type":"Dedicated","server_os":"Linux","password":true,"vac":true,"version":"7961495","steam_id":85568392924500087,"keywords":["alltalk","bots","danepve","increased_maxplayers","norespawntime","payload","uncletopia"],"game_id":440,"stv_port":0,"stv_name":"","players":[{"user_id":149,"name":"Crebb 2184","steam_id":76561198323163973,"connected_time":2139000000000,"state":"active","ping":110},{"user_id":154,"name":"Jrock","steam_id":76561198045715996,"connected_time":1784000000000,"state":"active","ping":82},{"user_id":171,"name":"Yimberly","steam_id":76561199206923109,"connected_time":1750000000000,"state":"active","ping":81},{"user_id":128,"name":"Some Guy","steam_id":76561198447348725,"connected_time":6472000000000,"state":"active","ping":140},{"user_id":191,"name":"TheRaccoonLord","steam_id":76561199039740088,"connected_time":950000000000,"state":"active","ping":75},{"user_id":150,"name":"Kickpuncher","steam_id":76561198121528357,"connected_time":2071000000000,"state":"active","ping":58},{"user_id":153,"name":"Pie Eater 9000","steam_id":76561198003791564,"connected_time":1829000000000,"state":"active","ping":67},{"user_id":172,"name":"hoos","steam_id":76561198045985910,"connected_time":1737000000000,"state":"active","ping":60},{"user_id":173,"name":"GH578","steam_id":76561199493262585,"connected_time":1699000000000,"state":"active","ping":112},{"user_id":192,"name":"Enzo","steam_id":76561197975076681,"connected_time":615000000000,"state":"active","ping":62},{"user_id":193,"name":"homsar","steam_id":76561199031742838,"connected_time":300000000000,"state":"active","ping":58},{"user_id":194,"name":"joe","steam_id":76561198133033006,"connected_time":246000000000,"state":"active","ping":45},{"user_id":195,"name":"Life Hater","steam_id":76561199215131330,"connected_time":22000000000,"state":"active","ping":174}]},{"server_id":301,"name":"Uncletopia | Montréal | 2 | One Thousand Uncles","name_short":"mtl-2","host":"mtl-1.ca.uncletopia.com","port":27025,"enabled":true,"region":"us-east","cc":"ca","latitude":45.50889,"longitude":-73.56167,"reserved":0,"last_update":"0001-01-01T00:00:00Z","name_a2s":"Uncletopia | Montréal | 2 | One Thousand Uncles","protocol":17,"map":"pl_chilly","folder":"tf","game":"Team Fortress","app_id":440,"player_count":0,"max_players":32,"Bots":0,"server_type":"Dedicated","server_os":"Linux","password":true,"vac":true,"version":"7961495","steam_id":85568392924500088,"keywords":["alltalk","danepve","increased_maxplayers","norespawntime","payload","uncletopia"],"game_id":440,"stv_port":0,"stv_name":"","players":null},{"server_id":302,"name":"Uncletopia | Montréal | 3 | One Thousand Uncles","name_short":"mtl-3","host":"mtl-1.ca.uncletopia.com","port":27035,"enabled":true,"region":"us-east","cc":"ca","latitude":45.50889,"longitude":-73.56167,"reserved":0,"last_update":"0001-01-01T00:00:00Z","name_a2s":"Uncletopia | Montréal | 3 | One Thousand Uncles","protocol":17,"map":"pl_upward","folder":"tf","game":"Team Fortress","app_id":440,"player_count":0,"max_players":32,"Bots":0,"server_type":"Dedicated","server_os":"Linux","password":true,"vac":true,"version":"7961495","steam_id":85568392924500089,"keywords":["alltalk","danepve","increased_maxplayers","norespawntime","payload","uncletopia"],"game_id":440,"stv_port":0,"stv_name":"","players":null},{"server_id":13,"name":"Uncletopia | New York City | 1 | All Maps","name_short":"nyc-1","host":"nyc-1.us.uncletopia.com","port":27015,"enabled":true,"region":"us-east","cc":"us","latitude":40.73061,"longitude":-73.93524,"reserved":0,"last_update":"0001-01-01T00:00:00Z","name_a2s":"Uncletopia | New York City | 1 | All Maps","protocol":17,"map":"pl_upward","folder":"tf","game":"Team Fortress","app_id":440,"player_count":4,"max_players":24,"Bots":0,"server_type":"Dedicated","server_os":"Linux","password":true,"vac":true,"version":"7961495","steam_id":85568392924469993,"keywords":["nocrits","nodmgspread","payload","uncletopia"],"game_id":440,"stv_port":27016,"stv_name":"Uncletopia | New York City | 1 | All Maps | STV","players":[{"user_id":19,"name":"Drygongames","steam_id":76561198250418424,"connected_time":48000000000,"state":"active","ping":105},{"user_id":15,"name":"nhbiker","steam_id":76561198081277675,"connected_time":375000000000,"state":"active","ping":44},{"user_id":18,"name":"TheGerg","steam_id":76561198257099217,"connected_time":209000000000,"state":"active","ping":61},{"user_id":20,"name":"CHIPS","steam_id":76561199085414584,"connected_time":44000000000,"state":"spawning","ping":44}]},{"server_id":14,"name":"Uncletopia | New York City | 2 | All Maps","name_short":"nyc-2","host":"nyc-1.us.uncletopia.com","port":27025,"enabled":true,"region":"us-east","cc":"us","latitude":40.73061,"longitude":-73.93524,"reserved":0,"last_update":"0001-01-01T00:00:00Z","name_a2s":"Uncletopia | New York City | 2 | All Maps","protocol":17,"map":"koth_highpass","folder":"tf","game":"Team Fortress","app_id":440,"player_count":0,"max_players":24,"Bots":0,"server_type":"Dedicated","server_os":"Linux","password":true,"vac":true,"version":"7961495","steam_id":85568392924469994,"keywords":["cp","nocrits","nodmgspread","uncletopia"],"game_id":440,"stv_port":27026,"stv_name":"Uncletopia | New York City | 2 | All Maps | STV","players":null},{"server_id":15,"name":"Uncletopia | New York City | 3 | Stopwatch","name_short":"nyc-3","host":"nyc-1.us.uncletopia.com","port":27035,"enabled":true,"region":"us-east","cc":"us","latitude":40.73061,"longitude":-73.93524,"reserved":0,"last_update":"0001-01-01T00:00:00Z","name_a2s":"Uncletopia | New York City | 3 | Stopwatch","protocol":17,"map":"cp_granary","folder":"tf","game":"Team Fortress","app_id":440,"player_count":0,"max_players":24,"Bots":0,"server_type":"Dedicated","server_os":"Linux","password":true,"vac":true,"version":"7961495","steam_id":85568392924742820,"keywords":["cp","nocrits","nodmgspread","uncletopia"],"game_id":440,"stv_port":27036,"stv_name":"Uncletopia | New York City | 3 | Stopwatch | STV","players":null},{"server_id":16,"name":"Uncletopia | New York City | 4 | Community","name_short":"nyc-4","host":"nyc-1.us.uncletopia.com","port":27045,"enabled":true,"region":"us-east","cc":"us","latitude":40.73061,"longitude":-73.93524,"reserved":0,"last_update":"0001-01-01T00:00:00Z","name_a2s":"Uncletopia | New York City | 4 | Community","protocol":17,"map":"workshop/cp_indulge.ugc528106646","folder":"tf","game":"Team Fortress","app_id":440,"player_count":0,"max_players":24,"Bots":0,"server_type":"Dedicated","server_os":"Linux","password":true,"vac":true,"version":"7961495","steam_id":85568392924742821,"keywords":["cp","nocrits","nodmgspread","uncletopia"],"game_id":440,"stv_port":27046,"stv_name":"Uncletopia | New York City | 4 | Community | STV","players":null},{"server_id":142,"name":"Uncletopia | São Paulo | 1 | All Maps","name_short":"sao-1","host":"sao-1.br.uncletopia.com","port":27015,"enabled":true,"region":"sa","cc":"br","latitude":-23.533773,"longitude":-46.62529,"reserved":0,"last_update":"0001-01-01T00:00:00Z","name_a2s":"Uncletopia | São Paulo | 1 | All Maps","protocol":17,"map":"koth_highpass","folder":"tf","game":"Team Fortress","app_id":440,"player_count":0,"max_players":24,"Bots":0,"server_type":"Dedicated","server_os":"Linux","password":true,"vac":true,"version":"7961495","steam_id":85568392924469996,"keywords":["cp","nocrits","nodmgspread","uncletopia"],"game_id":440,"stv_port":27016,"stv_name":"Uncletopia | São Paulo | 1 | All Maps | STV","players":null},{"server_id":143,"name":"Uncletopia | São Paulo | 2 | Community","name_short":"sao-2","host":"sao-2.br.uncletopia.com","port":27015,"enabled":true,"region":"sa","cc":"br","latitude":-23.533773,"longitude":-46.62529,"reserved":0,"last_update":"0001-01-01T00:00:00Z","name_a2s":"Uncletopia | São Paulo | 2 | Community","protocol":17,"map":"workshop/cp_croissant_final.ugc458840209","folder":"tf","game":"Team Fortress","app_id":440,"player_count":0,"max_players":24,"Bots":0,"server_type":"Dedicated","server_os":"Linux","password":true,"vac":true,"version":"7961495","steam_id":85568392924485349,"keywords":["cp","nocrits","nodmgspread","uncletopia"],"game_id":440,"stv_port":27016,"stv_name":"Uncletopia | São Paulo | 2 | Community | STV","players":null},{"server_id":7,"name":"Uncletopia | Seattle | 1 | All Maps","name_short":"sea-1","host":"sea-1.us.uncletopia.com","port":27015,"enabled":true,"region":"us-west","cc":"us","latitude":47.608013,"longitude":-122.33517,"reserved":0,"last_update":"0001-01-01T00:00:00Z","name_a2s":"Uncletopia | Seattle | 1 | All Maps","protocol":17,"map":"pl_badwater","folder":"tf","game":"Team Fortress","app_id":440,"player_count":23,"max_players":24,"Bots":0,"server_type":"Dedicated","server_os":"Linux","password":true,"vac":true,"version":"7961495","steam_id":85568392924469997,"keywords":["nocrits","nodmgspread","payload","uncletopia"],"game_id":440,"stv_port":27016,"stv_name":"Uncletopia | Seattle | 1 | All Maps | STV","players":[{"user_id":159,"name":"Jeugh","steam_id":76561198073498865,"connected_time":2567000000000,"state":"active","ping":135},{"user_id":174,"name":"EightySix","steam_id":76561198186678831,"connected_time":1074000000000,"state":"active","ping":90},{"user_id":96,"name":"bobtheninjaman","steam_id":76561198066424544,"connected_time":7421000000000,"state":"active","ping":73},{"user_id":194,"name":"twitch.tv/rustyorion","steam_id":76561198439186347,"connected_time":259000000000,"state":"active","ping":57},{"user_id":161,"name":"Shit (REAL)","steam_id":76561198206490352,"connected_time":2294000000000,"state":"active","ping":60},{"user_id":170,"name":"mega","steam_id":76561198089520959,"connected_time":1291000000000,"state":"active","ping":90},{"user_id":191,"name":"Fh","steam_id":76561198000903511,"connected_time":447000000000,"state":"active","ping":71},{"user_id":63,"name":"wendigo","steam_id":76561197994528974,"connected_time":9774000000000,"state":"active","ping":75},{"user_id":186,"name":"Gregory","steam_id":76561199070901945,"connected_time":586000000000,"state":"active","ping":124},{"user_id":163,"name":"Linusdog","steam_id":76561198343046317,"connected_time":2208000000000,"state":"active","ping":77},{"user_id":165,"name":"Monsieur Marley","steam_id":76561198153543927,"connected_time":2161000000000,"state":"active","ping":77},{"user_id":195,"name":"imma let my nuts hang","steam_id":76561198097544038,"connected_time":165000000000,"state":"active","ping":80},{"user_id":146,"name":"selvhat","steam_id":76561198114225509,"connected_time":3890000000000,"state":"active","ping":67},{"user_id":156,"name":"Jovo","steam_id":76561197993265970,"connected_time":2881000000000,"state":"active","ping":38},{"user_id":187,"name":"Furry Femboy Hooters CEO","steam_id":76561198097745857,"connected_time":582000000000,"state":"active","ping":58},{"user_id":158,"name":"Peppy","steam_id":76561198866629645,"connected_time":2701000000000,"state":"active","ping":57},{"user_id":189,"name":"soltuno","steam_id":76561198074430565,"connected_time":571000000000,"state":"active","ping":89},{"user_id":183,"name":"Lt Lushen","steam_id":76561198124083273,"connected_time":708000000000,"state":"active","ping":103},{"user_id":179,"name":"times table","steam_id":76561198341452558,"connected_time":848000000000,"state":"active","ping":100},{"user_id":169,"name":"slafflow","steam_id":76561199381012350,"connected_time":1551000000000,"state":"active","ping":83},{"user_id":166,"name":"tmm (theManMan)","steam_id":76561199488457138,"connected_time":2158000000000,"state":"active","ping":54},{"user_id":192,"name":"The Scringler","steam_id":76561199016537311,"connected_time":399000000000,"state":"active","ping":114},{"user_id":147,"name":"Aardappel","steam_id":76561198030894676,"connected_time":3701000000000,"state":"active","ping":60}]},{"server_id":119,"name":"Uncletopia | Seattle | 2 | All Maps","name_short":"sea-2","host":"sea-1.us.uncletopia.com","port":27025,"enabled":true,"region":"us-west","cc":"us","latitude":47.608013,"longitude":-122.33517,"reserved":0,"last_update":"0001-01-01T00:00:00Z","name_a2s":"Uncletopia | Seattle | 2 | All Maps","protocol":17,"map":"koth_lakeside_final","folder":"tf","game":"Team Fortress","app_id":440,"player_count":9,"max_players":24,"Bots":0,"server_type":"Dedicated","server_os":"Linux","password":true,"vac":true,"version":"7961495","steam_id":85568392924469998,"keywords":["cp","nocrits","nodmgspread","uncletopia"],"game_id":440,"stv_port":27026,"stv_name":"Uncletopia | Seattle | 2 | All Maps | STV","players":[{"user_id":4,"name":"The Gremlin","steam_id":76561198419066993,"connected_time":1259000000000,"state":"active","ping":57},{"user_id":5,"name":"asm_ghost","steam_id":76561199205363547,"connected_time":1256000000000,"state":"active","ping":72},{"user_id":6,"name":"Cosmoose","steam_id":76561198120336284,"connected_time":623000000000,"state":"active","ping":96},{"user_id":7,"name":"hoOmIN","steam_id":76561198334947079,"connected_time":498000000000,"state":"active","ping":61},{"user_id":8,"name":"bigbilly2558","steam_id":76561199429526912,"connected_time":495000000000,"state":"active","ping":182},{"user_id":9,"name":"ᵐᵉᵒʷ","steam_id":76561199200969139,"connected_time":406000000000,"state":"active","ping":139},{"user_id":10,"name":"Blitzy","steam_id":76561198149472890,"connected_time":285000000000,"state":"active","ping":60},{"user_id":11,"name":"🅜🅔🅔🅚🅢🅣🅔\ufffd\ufffd\ufffd","steam_id":76561197999748343,"connected_time":263000000000,"state":"active","ping":90},{"user_id":12,"name":"Dogg wader","steam_id":76561199090314340,"connected_time":65000000000,"state":"active","ping":54}]},{"server_id":406,"name":"Uncletopia | Seattle | 3 | Stopwatch","name_short":"sea-3","host":"sea-1.us.uncletopia.com","port":27035,"enabled":true,"region":"us-west","cc":"us","latitude":47.608013,"longitude":-122.33517,"reserved":0,"last_update":"0001-01-01T00:00:00Z","name_a2s":"Uncletopia | Seattle | 3 | Stopwatch","protocol":17,"map":"workshop/koth_product_final.ugc454272353","folder":"tf","game":"Team Fortress","app_id":440,"player_count":0,"max_players":24,"Bots":0,"server_type":"Dedicated","server_os":"Linux","password":true,"vac":true,"version":"7961495","steam_id":85568392924515217,"keywords":["cp","nocrits","nodmgspread","uncletopia"],"game_id":440,"stv_port":27036,"stv_name":"Uncletopia | Seattle | 3 | Stopwatch | STV","players":null},{"server_id":17,"name":"Uncletopia | San Francisco | 1 | All Maps","name_short":"sfo-1","host":"sfo-1.us.uncletopia.com","port":27015,"enabled":true,"region":"us-west","cc":"us","latitude":37.77397,"longitude":-122.4313,"reserved":0,"last_update":"0001-01-01T00:00:00Z","name_a2s":"Uncletopia | San Francisco | 1 | All Maps","protocol":17,"map":"cp_altitude","folder":"tf","game":"Team Fortress","app_id":440,"player_count":0,"max_players":24,"Bots":0,"server_type":"Dedicated","server_os":"Linux","password":true,"vac":true,"version":"7961495","steam_id":85568392924469999,"keywords":["cp","nocrits","nodmgspread","uncletopia"],"game_id":440,"stv_port":27016,"stv_name":"Uncletopia | San Francisco | 1 | All Maps | STV","players":null},{"server_id":18,"name":"Uncletopia | San Francisco | 2 | All Maps","name_short":"sfo-2","host":"sfo-1.us.uncletopia.com","port":27025,"enabled":true,"region":"us-west","cc":"us","latitude":37.77397,"longitude":-122.4313,"reserved":0,"last_update":"0001-01-01T00:00:00Z","name_a2s":"Uncletopia | San Francisco | 2 | All Maps","protocol":17,"map":"cp_freight_final1","folder":"tf","game":"Team Fortress","app_id":440,"player_count":0,"max_players":24,"Bots":0,"server_type":"Dedicated","server_os":"Linux","password":true,"vac":true,"version":"7961495","steam_id":85568392924470000,"keywords":["cp","nocrits","nodmgspread","uncletopia"],"game_id":440,"stv_port":27026,"stv_name":"Uncletopia | San Francisco | 2 | All Maps | STV","players":null},{"server_id":19,"name":"Uncletopia | San Francisco | 3 | Stopwatch","name_short":"sfo-3","host":"sfo-1.us.uncletopia.com","port":27035,"enabled":true,"region":"us-west","cc":"us","latitude":37.77397,"longitude":-122.4313,"reserved":0,"last_update":"0001-01-01T00:00:00Z","name_a2s":"Uncletopia | San Francisco | 3 | Stopwatch","protocol":17,"map":"koth_highpass","folder":"tf","game":"Team Fortress","app_id":440,"player_count":0,"max_players":24,"Bots":0,"server_type":"Dedicated","server_os":"Linux","password":true,"vac":true,"version":"7961495","steam_id":85568392924742824,"keywords":["cp","nocrits","nodmgspread","uncletopia"],"game_id":440,"stv_port":27036,"stv_name":"Uncletopia | San Francisco | 3 | Stopwatch | STV","players":null},{"server_id":20,"name":"Uncletopia | San Francisco | 4 | Community","name_short":"sfo-4","host":"sfo-1.us.uncletopia.com","port":27045,"enabled":true,"region":"us-west","cc":"us","latitude":37.77397,"longitude":-122.4313,"reserved":0,"last_update":"0001-01-01T00:00:00Z","name_a2s":"Uncletopia | San Francisco | 4 | Community","protocol":17,"map":"workshop/koth_slaughter_rc1.ugc1712845210","folder":"tf","game":"Team Fortress","app_id":440,"player_count":0,"max_players":24,"Bots":0,"server_type":"Dedicated","server_os":"Linux","password":true,"vac":true,"version":"7961495","steam_id":85568392924742826,"keywords":["cp","nocrits","nodmgspread","uncletopia"],"game_id":440,"stv_port":27046,"stv_name":"Uncletopia | San Francisco | 4 | Community | STV","players":null},{"server_id":141,"name":"Uncletopia | Sydney | 1 | All Maps","name_short":"syd-1","host":"syd-1.au.uncletopia.com","port":27015,"enabled":true,"region":"au","cc":"au","latitude":-33.865143,"longitude":151.2099,"reserved":0,"last_update":"0001-01-01T00:00:00Z","name_a2s":"Uncletopia | Sydney | 1 | All Maps","protocol":17,"map":"koth_nucleus","folder":"tf","game":"Team Fortress","app_id":440,"player_count":0,"max_players":24,"Bots":0,"server_type":"Dedicated","server_os":"Linux","password":true,"vac":true,"version":"7961495","steam_id":85568392924470001,"keywords":["cp","nocrits","nodmgspread","uncletopia"],"game_id":440,"stv_port":27016,"stv_name":"Uncletopia | Sydney | 1 | All Maps | STV","players":null},{"server_id":123,"name":"Uncletopia | Sydney | 2 | All Maps","name_short":"syd-2","host":"syd-1.au.uncletopia.com","port":27025,"enabled":true,"region":"au","cc":"au","latitude":-33.865143,"longitude":151.2099,"reserved":0,"last_update":"0001-01-01T00:00:00Z","name_a2s":"Uncletopia | Sydney | 2 | All Maps","protocol":17,"map":"cp_fastlane","folder":"tf","game":"Team Fortress","app_id":440,"player_count":0,"max_players":24,"Bots":0,"server_type":"Dedicated","server_os":"Linux","password":true,"vac":true,"version":"7961495","steam_id":85568392924470002,"keywords":["cp","nocrits","nodmgspread","uncletopia"],"game_id":440,"stv_port":27026,"stv_name":"Uncletopia | Sydney | 2 | All Maps | STV","players":null},{"server_id":395,"name":"Uncletopia | Sydney | 3 | All Maps","name_short":"syd-3","host":"syd-1.au.uncletopia.com","port":27035,"enabled":true,"region":"au","cc":"au","latitude":-33.865143,"longitude":151.2099,"reserved":0,"last_update":"0001-01-01T00:00:00Z","name_a2s":"Uncletopia | Sydney | 3 | All Maps","protocol":17,"map":"cp_metalworks","folder":"tf","game":"Team Fortress","app_id":440,"player_count":0,"max_players":24,"Bots":0,"server_type":"Dedicated","server_os":"Linux","password":true,"vac":true,"version":"7961495","steam_id":85568392925194467,"keywords":["cp","nocrits","nodmgspread","uncletopia"],"game_id":440,"stv_port":27036,"stv_name":"Uncletopia | Sydney | 3 | All Maps | STV","players":null},{"server_id":396,"name":"Uncletopia | Sydney | 4 | All Maps","name_short":"syd-4","host":"syd-1.au.uncletopia.com","port":27045,"enabled":true,"region":"au","cc":"au","latitude":-33.865143,"longitude":151.2099,"reserved":0,"last_update":"0001-01-01T00:00:00Z","name_a2s":"Uncletopia | Sydney | 4 | All Maps","protocol":17,"map":"koth_cascade","folder":"tf","game":"Team Fortress","app_id":440,"player_count":0,"max_players":24,"Bots":0,"server_type":"Dedicated","server_os":"Linux","password":true,"vac":true,"version":"7961495","steam_id":85568392925397958,"keywords":["cp","nocrits","nodmgspread","uncletopia"],"game_id":440,"stv_port":27046,"stv_name":"Uncletopia | Sydney | 4 | All Maps | STV","players":null},{"server_id":58,"name":"Uncletopia | Sydney | 5 | Stopwatch","name_short":"syd-5","host":"syd-1.au.uncletopia.com","port":27055,"enabled":true,"region":"au","cc":"au","latitude":-33.865143,"longitude":151.2099,"reserved":0,"last_update":"0001-01-01T00:00:00Z","name_a2s":"Uncletopia | Sydney | 5 | Stopwatch","protocol":17,"map":"workshop/koth_product_final.ugc454272353","folder":"tf","game":"Team Fortress","app_id":440,"player_count":0,"max_players":24,"Bots":0,"server_type":"Dedicated","server_os":"Linux","password":true,"vac":true,"version":"7961495","steam_id":85568392925397959,"keywords":["cp","nocrits","nodmgspread","uncletopia"],"game_id":440,"stv_port":27056,"stv_name":"Uncletopia | Sydney | 5 | Stopwatch | STV","players":null},{"server_id":59,"name":"Uncletopia | Sydney | 6 | Community","name_short":"syd-6","host":"syd-1.au.uncletopia.com","port":27065,"enabled":true,"region":"au","cc":"au","latitude":-33.865143,"longitude":151.2099,"reserved":0,"last_update":"0001-01-01T00:00:00Z","name_a2s":"Uncletopia | Sydney | 6 | Community","protocol":17,"map":"workshop/koth_trenchfoot_ab1.ugc731436616","folder":"tf","game":"Team Fortress","app_id":440,"player_count":0,"max_players":24,"Bots":0,"server_type":"Dedicated","server_os":"Linux","password":true,"vac":true,"version":"7961495","steam_id":85568392925397960,"keywords":["cp","nocrits","nodmgspread","uncletopia"],"game_id":440,"stv_port":27066,"stv_name":"Uncletopia | Sydney | 6 | Community | STV","players":null},{"server_id":49,"name":"Uncletopia | Warsaw | 1 | One Thousand Uncles","name_short":"waw-1","host":"waw-1.pl.uncletopia.com","port":27015,"enabled":true,"region":"eu","cc":"pl","latitude":52.2297,"longitude":21.017532,"reserved":0,"last_update":"0001-01-01T00:00:00Z","name_a2s":"Uncletopia | Warsaw | 1 | One Thousand Uncles","protocol":17,"map":"pl_goldrush","folder":"tf","game":"Team Fortress","app_id":440,"player_count":0,"max_players":32,"Bots":0,"server_type":"Dedicated","server_os":"Linux","password":true,"vac":true,"version":"7961495","steam_id":85568392925397850,"keywords":["alltalk","danepve","increased_maxplayers","norespawntime","payload","uncletopia"],"game_id":440,"stv_port":0,"stv_name":"","players":null},{"server_id":50,"name":"Uncletopia | Warsaw | 2 | One Thousand Uncles","name_short":"waw-2","host":"waw-1.pl.uncletopia.com","port":27025,"enabled":true,"region":"eu","cc":"pl","latitude":52.2297,"longitude":21.017532,"reserved":0,"last_update":"0001-01-01T00:00:00Z","name_a2s":"Uncletopia | Warsaw | 2 | One Thousand Uncles","protocol":17,"map":"cp_dustbowl","folder":"tf","game":"Team Fortress","app_id":440,"player_count":28,"max_players":32,"Bots":16,"server_type":"Dedicated","server_os":"Linux","password":true,"vac":true,"version":"7961495","steam_id":85568392925397851,"keywords":["alltalk","bots","cp","danepve","increased_maxplayers","norespawntime","uncletopia"],"game_id":440,"stv_port":0,"stv_name":"","players":[{"user_id":175,"name":"LVIXX","steam_id":76561198188767928,"connected_time":1560000000000,"state":"active","ping":95},{"user_id":204,"name":"Benzo Fury","steam_id":76561198025259336,"connected_time":47000000000,"state":"active","ping":75},{"user_id":179,"name":"Riky95","steam_id":76561198095289436,"connected_time":1122000000000,"state":"active","ping":62},{"user_id":183,"name":"Topmanagement","steam_id":76561198009731143,"connected_time":756000000000,"state":"active","ping":64},{"user_id":146,"name":"barbecuesteve","steam_id":76561198048819671,"connected_time":5620000000000,"state":"active","ping":163},{"user_id":102,"name":"lisivi","steam_id":76561198365503306,"connected_time":9513000000000,"state":"active","ping":73},{"user_id":150,"name":"Squidiot","steam_id":76561198042754907,"connected_time":4125000000000,"state":"active","ping":98},{"user_id":174,"name":"RacoonGamer","steam_id":76561198100907657,"connected_time":2121000000000,"state":"active","ping":153},{"user_id":141,"name":"tealoverr.190","steam_id":76561199028497703,"connected_time":6538000000000,"state":"active","ping":122},{"user_id":178,"name":"monke","steam_id":76561199095477435,"connected_time":1474000000000,"state":"active","ping":82},{"user_id":203,"name":"Stefan012","steam_id":76561198351832492,"connected_time":103000000000,"state":"active","ping":102},{"user_id":184,"name":"Jared","steam_id":76561198020432651,"connected_time":719000000000,"state":"active","ping":144}]},{"server_id":51,"name":"Uncletopia | Warsaw | 3 | All Maps","name_short":"waw-3","host":"waw-1.pl.uncletopia.com","port":27035,"enabled":true,"region":"eu","cc":"pl","latitude":52.2297,"longitude":21.017532,"reserved":0,"last_update":"0001-01-01T00:00:00Z","name_a2s":"Uncletopia | Warsaw | 3 | All Maps","protocol":17,"map":"cp_mountainlab","folder":"tf","game":"Team Fortress","app_id":440,"player_count":13,"max_players":24,"Bots":0,"server_type":"Dedicated","server_os":"Linux","password":true,"vac":true,"version":"7961495","steam_id":85568392925397852,"keywords":["cp","nocrits","nodmgspread","uncletopia"],"game_id":440,"stv_port":27036,"stv_name":"Uncletopia | Warsaw | 3 | All Maps | STV","players":[{"user_id":54,"name":"L0rd5haggy","steam_id":76561198846175610,"connected_time":1646000000000,"state":"active","ping":115},{"user_id":79,"name":"Spyoru","steam_id":76561199422949621,"connected_time":396000000000,"state":"active","ping":73},{"user_id":76,"name":"Maurvick","steam_id":76561198289113610,"connected_time":637000000000,"state":"active","ping":65},{"user_id":81,"name":"raz","steam_id":76561198147277460,"connected_time":125000000000,"state":"active","ping":76},{"user_id":59,"name":"Marie ☘","steam_id":76561198105207050,"connected_time":1234000000000,"state":"active","ping":61},{"user_id":60,"name":" MyonMyonMyonMyonMyonMyon! ","steam_id":76561198271850252,"connected_time":1209000000000,"state":"active","ping":59},{"user_id":80,"name":"suriver22","steam_id":76561198231778492,"connected_time":255000000000,"state":"active","ping":192},{"user_id":22,"name":"✪ m_br3","steam_id":76561198044981990,"connected_time":3217000000000,"state":"active","ping":44},{"user_id":78,"name":"porumbelsofia","steam_id":76561199030599379,"connected_time":487000000000,"state":"active","ping":121},{"user_id":82,"name":"noot","steam_id":76561198148074472,"connected_time":121000000000,"state":"active","ping":59},{"user_id":83,"name":"Dr. Phil","steam_id":76561198047254219,"connected_time":45000000000,"state":"active","ping":67},{"user_id":25,"name":"Grumtsior","steam_id":76561198043563111,"connected_time":2776000000000,"state":"active","ping":49},{"user_id":69,"name":"zdr","steam_id":76561198191074514,"connected_time":806000000000,"state":"active","ping":73}]},{"server_id":52,"name":"Uncletopia | Warsaw | 4 | All Maps","name_short":"waw-4","host":"waw-1.pl.uncletopia.com","port":27045,"enabled":true,"region":"eu","cc":"pl","latitude":52.2297,"longitude":21.017532,"reserved":0,"last_update":"0001-01-01T00:00:00Z","name_a2s":"Uncletopia | Warsaw | 4 | All Maps","protocol":17,"map":"cp_sunshine","folder":"tf","game":"Team Fortress","app_id":440,"player_count":1,"max_players":24,"Bots":0,"server_type":"Dedicated","server_os":"Linux","password":true,"vac":true,"version":"7961495","steam_id":85568392925397853,"keywords":["cp","nocrits","nodmgspread","uncletopia"],"game_id":440,"stv_port":27046,"stv_name":"Uncletopia | Warsaw | 4 | All Maps | STV","players":[{"user_id":8,"name":"Джекет","steam_id":76561198327897125,"connected_time":286000000000,"state":"active","ping":78}]},{"server_id":53,"name":"Uncletopia | Warsaw | 5 | Stopwatch","name_short":"waw-5","host":"waw-1.pl.uncletopia.com","port":27055,"enabled":true,"region":"eu","cc":"pl","latitude":52.2297,"longitude":21.017532,"reserved":0,"last_update":"0001-01-01T00:00:00Z","name_a2s":"Uncletopia | Warsaw | 5 | Stopwatch","protocol":17,"map":"cp_snakewater_final1","folder":"tf","game":"Team Fortress","app_id":440,"player_count":0,"max_players":24,"Bots":0,"server_type":"Dedicated","server_os":"Linux","password":true,"vac":true,"version":"7961495","steam_id":85568392925397854,"keywords":["cp","nocrits","nodmgspread","uncletopia"],"game_id":440,"stv_port":27056,"stv_name":"Uncletopia | Warsaw | 5 | Stopwatch | STV","players":null},{"server_id":54,"name":"Uncletopia | Warsaw | 6 | Community","name_short":"waw-6","host":"waw-1.pl.uncletopia.com","port":27065,"enabled":true,"region":"eu","cc":"pl","latitude":52.2297,"longitude":21.017532,"reserved":0,"last_update":"0001-01-01T00:00:00Z","name_a2s":"Uncletopia | Warsaw | 6 | Community","protocol":17,"map":"workshop/pl_barnblitz_pro7.ugc582280235","folder":"tf","game":"Team Fortress","app_id":440,"player_count":0,"max_players":24,"Bots":0,"server_type":"Dedicated","server_os":"Linux","password":true,"vac":true,"version":"7961495","steam_id":85568392925397856,"keywords":["nocrits","nodmgspread","payload","uncletopia"],"game_id":440,"stv_port":27066,"stv_name":"Uncletopia | Warsaw | 6 | Community | STV","players":null}]}