{"status":true,"message":"","result":[{"server_id":9,"name":"Uncletopia | Atlanta | 1 | All Maps","name_short":"atl-1","host":"atl-1.us.uncletopia.com","port":27015,"enabled":true,"region":"us-east","cc":"us","latitude":33.753746,"longitude":-84.38633,"reserved":0,"last_update":"0001-01-01T00:00:00Z","name_a2s":"Uncletopia | Atlanta | 1 | All Maps","protocol":17,"map":"cp_dustbowl","folder":"tf","game":"Team Fortress","app_id":440,"player_count":0,"max_players":24,"Bots":0,"server_type":"Dedicated","server_os":"Linux","password":true,"vac":true,"version":"7961495","steam_id":85568392924469982,"keywords":["cp","nocrits","nodmgspread","uncletopia"],"game_id":440,"stv_port":27016,"stv_name":"Uncletopia | Atlanta | 1 | All Maps | STV","players":null},{"server_id":104,"name":"Uncletopia | Atlanta | 2 | All Maps","name_short":"atl-2","host":"atl-1.us.uncletopia.com","port":27025,"enabled":true,"region":"us-east","cc":"us","latitude":33.753746,"longitude":-84.38633,"reserved":0,"last_update":"0001-01-01T00:00:00Z","name_a2s":"Uncletopia | Atlanta | 2 | All Maps","protocol":17,"map":"pl_pier","folder":"tf","game":"Team Fortress","app_id":440,"player_count":24,"max_players":24,"Bots":0,"server_type":"Dedicated","server_os":"Linux","password":true,"vac":true,"version":"7961495","steam_id":85568392924469983,"keywords":["nocrits","nodmgspread","payload","uncletopia"],"game_id":440,"stv_port":27026,"stv_name":"Uncletopia | Atlanta | 2 | All Maps | STV","players":null},{"server_id":400,"name":"Uncletopia | Atlanta | 3 | Stopwatch","name_short":"atl-3","host":"atl-1.us.uncletopia.com","port":27035,"enabled":true,"region":"us-east","cc":"us","latitude":33.753746,"longitude":-84.38633,"reserved":0,"last_update":"0001-01-01T00:00:00Z","name_a2s":"Uncletopia | Atlanta | 3 | Stopwatch","protocol":17,"map":"pl_swiftwater_final1","folder":"tf","game":"Team Fortress","app_id":440,"player_count":0,"max_players":24,"Bots":0,"server_type":"Dedicated","server_os":"Linux","password":true,"vac":true,"version":"7961495","steam_id":85568392924515187,"keywords":["nocrits","nodmgspread","payload","uncletopia"],"game_id":440,"stv_port":27036,"stv_name":"Uncletopia | Atlanta | 3 | Stopwatch | STV","players":null},{"server_id":401,"name":"Uncletopia | Atlanta | 4 | Community","name_short":"atl-4","host":"atl-1.us.uncletopia.com","port":27045,"enabled":true,"region":"us-east","cc":"us","latitude":33.753746,"longitude":-84.38633,"reserved":0,"last_update":"0001-01-01T00:00:00Z","name_a2s":"Uncletopia | Atlanta | 4 | Community","protocol":17,"map":"cp_villa_b19","folder":"tf","game":"Team Fortress","app_id":440,"player_count":0,"max_players":24,"Bots":0,"server_type":"Dedicated","server_os":"Linux","password":true,"vac":true,"version":"7961495","steam_id":85568392924515188,"keywords":["cp","nocrits","nodmgspread","uncletopia"],"game_id":440,"stv_port":27046,"stv_name":"Uncletopia | Atlanta | 4 | Community | STV","players":null},{"server_id":2,"name":"Uncletopia | Chicago | 1 | All Maps","name_short":"chi-1","host":"chi-1.us.uncletopia.com","port":27015,"enabled":true,"region":"us-central","cc":"us","latitude":41.881832,"longitude":-87.62318,"reserved":0,"last_update":"0001-01-01T00:00:00Z","name_a2s":"Uncletopia | Chicago | 1 | All Maps","protocol":17,"map":"pl_badwater","folder":"tf","game":"Team Fortress","app_id":440,"player_count":23,"max_players":24,"Bots":0,"server_type":"Dedicated","server_os":"Linux","password":true,"vac":true,"version":"7961495","steam_id":85568392924469984,"keywords":["nocrits","nodmgspread","payload","uncletopia"],"game_id":440,"stv_port":27016,"stv_name":"Uncletopia | Chicago | 1 | All Maps | STV","players":[{"user_id":51,"name":"Lambert","steam_id":76561198062772532,"connected_time":4596000000000,"state":"active","ping":78},{"user_id":45,"name":"I came (up)","steam_id":76561198057745131,"connected_time":4971000000000,"state":"active","ping":50},{"user_id":98,"name":"Fraglin","steam_id":76561198124964000,"connected_time":342000000000,"state":"active","ping":87},{"user_id":84,"name":"peachy","steam_id":76561198028721790,"connected_time":885000000000,"state":"active","ping":90},{"user_id":94,"name":"TheOneZoot","steam_id":76561198121944243,"connected_time":365000000000,"state":"active","ping":78},{"user_id":36,"name":"Herb","steam_id":76561198330311949,"connected_time":5334000000000,"state":"active","ping":73},{"user_id":92,"name":"LordBob","steam_id":76561198353469286,"connected_time":573000000000,"state":"active","ping":72},{"user_id":95,"name":"SC|Formuoli","steam_id":76561198254354595,"connected_time":363000000000,"state":"active","ping":34},{"user_id":103,"name":"Spy Gaming","steam_id":76561198453295613,"connected_time":130000000000,"state":"active","ping":105},{"user_id":67,"name":"Toxapex","steam_id":76561198341537452,"connected_time":2417000000000,"state":"active","ping":66},{"user_id":75,"name":"Acro","steam_id":76561198092451804,"connected_time":1826000000000,"state":"active","ping":68},{"user_id":83,"name":"unlucky bastard","steam_id":76561199216874750,"connected_time":953000000000,"state":"active","ping":59},{"user_id":105,"name":"Awenova","steam_id":76561198322928940,"connected_time":33000000000,"state":"active","ping":56},{"user_id":91,"name":"Space","steam_id":76561198350489754,"connected_time":615000000000,"state":"active","ping":49},{"user_id":88,"name":"Yoyo","steam_id":76561199122577289,"connected_time":753000000000,"state":"active","ping":67},{"user_id":99,"name":"Tyjutsu","steam_id":76561198079951159,"connected_time":322000000000,"state":"active","ping":79},{"user_id":100,"name":"ScrubM8","steam_id":76561198197800707,"connected_time":320000000000,"state":"active","ping":84},{"user_id":29,"name":"fasterbum","steam_id":76561198142577444,"connected_time":5422000000000,"state":"active","ping":56},{"user_id":101,"name":"Dr. Eduardo","steam_id":76561198865808161,"connected_time":307000000000,"state":"active","ping":82},{"user_id":102,"name":"Training Arc","steam_id":76561198038832034,"connected_time":299000000000,"state":"active","ping":105},{"user_id":33,"name":"redarcher42","steam_id":76561199027887687,"connected_time":5355000000000,"state":"active","ping":84},{"user_id":68,"name":"Master Oogway","steam_id":76561198051869638,"connected_time":2344000000000,"state":"active","ping":61},{"user_id":82,"name":"Bagadi","steam_id":76561198150241624,"connected_time":1114000000000,"state":"active","ping":73}]},{"server_id":106,"name":"Uncletopia | Chicago | 2 | All Maps","name_short":"chi-2","host":"chi-1.us.uncletopia.com","port":27025,"enabled":true,"region":"us-central","cc":"us","latitude":41.881832,"longitude":-87.62318,"reserved":0,"last_update":"0001-01-01T00:00:00Z","name_a2s":"Uncletopia | Chicago | 2 | All Maps","protocol":17,"map":"pl_barnblitz","folder":"tf","game":"Team Fortress","app_id":440,"player_count":24,"max_players":24,"Bots":0,"server_type":"Dedicated","server_os":"Linux","password":true,"vac":true,"version":"7961495","steam_id":85568392924469985,"keywords":["nocrits","nodmgspread","payload","uncletopia"],"game_id":440,"stv_port":27026,"stv_name":"Uncletopia | Chicago | 2 | All Maps | STV","players":[{"user_id":63,"name":"Crack Addict","steam_id":76561198166681494,"connected_time":79000000000,"state":"active","ping":63},{"user_id":53,"name":"6t26j","steam_id":76561198278282836,"connected_time":791000000000,"state":"active","ping":58},{"user_id":8,"name":"Shaunt","steam_id":76561198171551057,"connected_time":4361000000000,"state":"active","ping":50},{"user_id":9,"name":"onion connoisseur","steam_id":76561198065266282,"connected_time":4263000000000,"state":"active","ping":63},{"user_id":10,"name":"GreatTimBones","steam_id":76561198409145748,"connected_time":4244000000000,"state":"active","ping":83},{"user_id":11,"name":"MagicCraftMaster","steam_id":76561198179156615,"connected_time":4185000000000,"state":"active","ping":69},{"user_id":52,"name":"Homvel","steam_id":76561198000848413,"connected_time":1049000000000,"state":"active","ping":49},{"user_id":39,"name":"gale","steam_id":76561198250068972,"connected_time":2632000000000,"state":"active","ping":97},{"user_id":14,"name":"Alecto","steam_id":76561198042476864,"connected_time":3967000000000,"state":"active","ping":46},{"user_id":36,"name":"Luca!","steam_id":76561198137880777,"connected_time":2760000000000,"state":"active","ping":110},{"user_id":54,"name":"smug","steam_id":76561198088894438,"connected_time":774000000000,"state":"active","ping":54},{"user_id":50,"name":"Vin","steam_id":76561198043601929,"connected_time":1223000000000,"state":"active","ping":120},{"user_id":19,"name":"Aspxts","steam_id":76561199125254746,"connected_time":3806000000000,"state":"active","ping":60},{"user_id":21,"name":"GX thedittoguy","steam_id":76561199013129784,"connected_time":3683000000000,"state":"active","ping":84},{"user_id":55,"name":"there's a crack in my window","steam_id":76561198392539722,"connected_time":745000000000,"state":"active","ping":80},{"user_id":56,"name":"honch :3","steam_id":76561198832647822,"connected_time":745000000000,"state":"active","ping":71},{"user_id":57,"name":"prospike569","steam_id":76561199491903111,"connected_time":733000000000,"state":"active","ping":78},{"user_id":25,"name":"Pandora Nyx","steam_id":76561198093475054,"connected_time":3589000000000,"state":"active","ping":69},{"user_id":45,"name":"Mr. Tickle","steam_id":76561198126684647,"connected_time":2273000000000,"state":"active","ping":60},{"user_id":59,"name":"misterjozo","steam_id":76561198012300755,"connected_time":464000000000,"state":"active","ping":102},{"user_id":43,"name":"Crazy Insane Proboscis Monkey","steam_id":76561198061011176,"connected_time":2503000000000,"state":"active","ping":92},{"user_id":51,"name":"Discourse","steam_id":76561198984286678,"connected_time":1210000000000,"state":"active","ping":59},{"user_id":49,"name":"Kirby.exe","steam_id":76561198242714582,"connected_time":1400000000000,"state":"active","ping":68},{"user_id":62,"name":"Sahalanthro","steam_id":76561199073298722,"connected_time":188000000000,"state":"active","ping":83}]},{"server_id":402,"name":"Uncletopia | Chicago | 3 | All Maps","name_short":"chi-3","host":"chi-1.us.uncletopia.com","port":27035,"enabled":true,"region":"us-central","cc":"us","latitude":41.881832,"longitude":-87.62318,"reserved":0,"last_update":"0001-01-01T00:00:00Z","name_a2s":"Uncletopia | Chicago | 3 | All Maps","protocol":17,"map":"pl_badwater","folder":"tf","game":"Team Fortress","app_id":440,"player_count":24,"max_players":24,"Bots":0,"server_type":"Dedicated","server_os":"Linux","password":true,"vac":true,"version":"7961495","steam_id":85568392924515191,"keywords":["nocrits","nodmgspread","payload","uncletopia"],"game_id":440,"stv_port":27036,"stv_name":"Uncletopia | Chicago | 3 | All Maps | STV","players":[{"user_id":156,"name":"Rappitor","steam_id":76561198105613110,"connected_time":6052000000000,"state":"active","ping":46},{"user_id":219,"name":"Xynnan","steam_id":76561198122232186,"connected_time":4829000000000,"state":"active","ping":78},{"user_id":71,"name":"Nefy","steam_id":76561198030017316,"connected_time":8743000000000,"state":"active","ping":86},{"user_id":7,"name":"CreateADebate","steam_id":76561198115760035,"connected_time":13898000000000,"state":"active","ping":61},{"user_id":343,"name":"Ballsack Shaver","steam_id":76561199011739378,"connected_time":440000000000,"state":"active","ping":69},{"user_id":345,"name":"Fredrick","steam_id":76561197981419964,"connected_time":105000000000,"state":"active","ping":69},{"user_id":324,"name":"The Greendale Human Beings","steam_id":76561198055433422,"connected_time":1983000000000,"state":"active","ping":85},{"user_id":330,"name":"MonkyBoo","steam_id":76561198304371716,"connected_time":1403000000000,"state":"active","ping":73},{"user_id":320,"name":"rapscallion","steam_id":76561198188722751,"connected_time":2645000000000,"state":"active","ping":92},{"user_id":305,"name":"ChillmyGrill","steam_id":76561199112703727,"connected_time":3433000000000,"state":"active","ping":77},{"user_id":337,"name":"sillylokisparkles","steam_id":76561198872251615,"connected_time":923000000000,"state":"active","ping":82},{"user_id":344,"name":"***FoRgIvEn ***","steam_id":76561199216222247,"connected_time":433000000000,"state":"active","ping":97},{"user_id":335,"name":"Oni","steam_id":76561198112066584,"connected_time":1218000000000,"state":"active","ping":62},{"user_id":338,"name":"gamersans","steam_id":76561199265596497,"connected_time":914000000000,"state":"active","ping":71},{"user_id":339,"name":"Jasper‚Ñ¢","steam_id":76561198260018463,"connected_time":899000000000,"state":"active","ping":75},{"user_id":307,"name":"TheAyteYo","steam_id":76561198401002628,"connected_time":3426000000000,"state":"active","ping":65},{"user_id":332,"name":"irritable vowel syndrome","steam_id":76561198117033273,"connected_time":1360000000000,"state":"active","ping":144},{"user_id":89,"name":"Drachma","steam_id":76561198007310514,"connected_time":7502000000000,"state":"active","ping":59},{"user_id":333,"name":"iUseDvorak","steam_id":76561198064439037,"connected_time":1327000000000,"state":"active","ping":61},{"user_id":334,"name":"One week at Frederick's","steam_id":76561198264752535,"connected_time":1280000000000,"state":"active","ping":61},{"user_id":340,"name":"lance armstrong fan","steam_id":76561198350747953,"connected_time":881000000000,"state":"active","ping":60},{"user_id":341,"name":"Lutz","steam_id":76561198319233787,"connected_time":868000000000,"state":"active","ping":102},{"user_id":323,"name":"SpyMann","steam_id":76561198242718980,"connected_time":2199000000000,"state":"active","ping":75},{"user_id":342,"name":"ATL1 | to4st","steam_id":76561198981009008,"connected_time":867000000000,"state":"active","ping":56}]},{"server_id":403,"name":"Uncletopia | Chicago | 4 | All Maps","name_short":"chi-4","host":"chi-1.us.uncletopia.com","port":27045,"enabled":true,"region":"us-central","cc":"us","latitude":41.881832,"longitude":-87.62318,"reserved":0,"last_update":"0001-01-01T00:00:00Z","name_a2s":"Uncletopia | Chicago | 4 | All Maps","protocol":17,"map":"pl_badwater","folder":"tf","game":"Team Fortress","app_id":440,"player_count":24,"max_players":24,"Bots":0,"server_type":"Dedicated","server_os":"Linux","password":true,"vac":true,"version":"7961495","steam_id":85568392924515193,"keywords":["nocrits","nodmgspread","payload","uncletopia"],"game_id":440,"stv_port":27046,"stv_name":"Uncletopia | Chicago | 4 | All Maps | STV","players":[{"user_id":88,"name":"womthedom","steam_id":76561198088768287,"connected_time":119000000000,"state":"active","ping":49},{"user_id":29,"name":"Sham Cow","steam_id":76561198064556977,"connected_time":1705000000000,"state":"active","ping":91},{"user_id":23,"name":"Amyxts36","steam_id":76561198872232094,"connected_time":1974000000000,"state":"active","ping":61},{"user_id":24,"name":"feenman","steam_id":76561199383834799,"connected_time":1956000000000,"state":"active","ping":97},{"user_id":15,"name":"McSmitten","steam_id":76561198022358379,"connected_time":2453000000000,"state":"active","ping":70},{"user_id":87,"name":"Sergeant Snowflake","steam_id":76561198041474489,"connected_time":145000000000,"state":"active","ping":57},{"user_id":51,"name":"MOMAZOS DIEGO","steam_id":76561198975597174,"connected_time":1064000000000,"state":"active","ping":83},{"user_id":18,"name":"The Great Eagle Scourge of 1822","steam_id":76561198325086209,"connected_time":2276000000000,"state":"active","ping":114},{"user_id":26,"name":"NikoOS (NO SOUND)","steam_id":76561198180020521,"connected_time":1818000000000,"state":"active","ping":122},{"user_id":27,"name":"‚ô• alixei! ‚ô•","steam_id":76561198014557455,"connected_time":1771000000000,"state":"active","ping":57},{"user_id":55,"name":"Salt Itself","steam_id":76561198873190258,"connected_time":906000000000,"state":"active","ping":112},{"user_id":30,"name":"Spoon ¬Ω","steam_id":76561198032696548,"connected_time":1699000000000,"state":"active","ping":155},{"user_id":68,"name":"your local xbox 360 slim","steam_id":76561199243489976,"connected_time":560000000000,"state":"active","ping":117},{"user_id":78,"name":"matthatter98","steam_id":76561198953709416,"connected_time":355000000000,"state":"active","ping":70},{"user_id":33,"name":"Sqilliam Afton","steam_id":76561198326052355,"connected_time":1642000000000,"state":"active","ping":145},{"user_id":89,"name":"airballer","steam_id":76561198165899125,"connected_time":109000000000,"state":"active","ping":71},{"user_id":36,"name":"eaglesfan609","steam_id":76561198151032242,"connected_time":1560000000000,"state":"active","ping":68},{"user_id":37,"name":"Gaminglast","steam_id":76561198362927765,"connected_time":1520000000000,"state":"active","ping":164},{"user_id":39,"name":"Freddy fatbear","steam_id":76561199077997794,"connected_time":1479000000000,"state":"active","ping":90},{"user_id":84,"name":"Lumnop","steam_id":76561198038458838,"connected_time":240000000000,"state":"active","ping":51},{"user_id":86,"name":"SwampFoot","steam_id":76561198037500278,"connected_time":191000000000,"state":"active","ping":58},{"user_id":42,"name":"King","steam_id":76561198039763676,"connected_time":1425000000000,"state":"active","ping":61},{"user_id":57,"name":"milk then cereal","steam_id":76561198047168548,"connected_time":889000000000,"state":"active","ping":92},{"user_id":49,"name":"wepry","steam_id":76561198114091417,"connected_time":1218000000000,"state":"active","ping":55}]},{"server_id":36,"name":"Uncletopia | Chicago | 5 | All Maps","name_short":"chi-5","host":"chi-2.us.uncletopia.com","port":27015,"enabled":true,"region":"us-central","cc":"us","latitude":41.881832,"longitude":-87.62318,"reserved":0,"last_update":"0001-01-01T00:00:00Z","name_a2s":"Uncletopia | Chicago | 5 | All Maps","protocol":17,"map":"koth_viaduct","folder":"tf","game":"Team Fortress","app_id":440,"player_count":0,"max_players":24,"Bots":0,"server_type":"Dedicated","server_os":"Linux","password":true,"vac":true,"version":"7961495","steam_id":85568392924866362,"keywords":["cp","nocrits","nodmgspread","uncletopia"],"game_id":440,"stv_port":27016,"stv_name":"Uncletopia | Chicago | 5 | All Maps | STV","players":null},{"server_id":37,"name":"Uncletopia | Chicago | 6 | All Maps","name_short":"chi-6","host":"chi-2.us.uncletopia.com","port":27025,"enabled":true,"region":"us-central","cc":"us","latitude":41.881832,"longitude":-87.62318,"reserved":0,"last_update":"0001-01-01T00:00:00Z","name_a2s":"Uncletopia | Chicago | 6 | All Maps","protocol":17,"map":"pl_pier","folder":"tf","game":"Team Fortress","app_id":440,"player_count":23,"max_players":24,"Bots":0,"server_type":"Dedicated","server_os":"Linux","password":true,"vac":true,"version":"7961495","steam_id":85568392924866363,"keywords":["nocrits","nodmgspread","payload","uncletopia"],"game_id":440,"stv_port":27026,"stv_name":"Uncletopia | Chicago | 6 | All Maps | STV","players":[{"user_id":185,"name":"CoralDawn","steam_id":76561198292292930,"connected_time":45000000000,"state":"active","ping":62},{"user_id":175,"name":"boffo","steam_id":76561198096978718,"connected_time":1064000000000,"state":"active","ping":88},{"user_id":168,"name":"That Dude","steam_id":76561198980486227,"connected_time":1376000000000,"state":"active","ping":100},{"user_id":162,"name":"Blankfield","steam_id":76561199013167718,"connected_time":2077000000000,"state":"active","ping":72},{"user_id":105,"name":"Cheesi","steam_id":76561199417190840,"connected_time":6177000000000,"state":"active","ping":57},{"user_id":179,"name":"Top Frog","steam_id":76561198072793446,"connected_time":903000000000,"state":"active","ping":80},{"user_id":159,"name":"Drew P. Sack","steam_id":76561198036201738,"connected_time":2242000000000,"state":"active","ping":52},{"user_id":133,"name":"Sir Loincloth","steam_id":76561198033073991,"connected_time":3317000000000,"state":"active","ping":74},{"user_id":176,"name":"üÖúüÖîüÖîüÖöüÖ¢üÖ£üÖî\ufffd\ufffd\ufffd","steam_id":76561197999748343,"connected_time":1037000000000,"state":"active","ping":66},{"user_id":177,"name":"sunny","steam_id":76561198069380992,"connected_time":1021000000000,"state":"active","ping":80},{"user_id":154,"name":"Urbanzpinapple","steam_id":76561198115426938,"connected_time":2678000000000,"state":"active","ping":57},{"user_id":170,"name":"CORGI.EXE","steam_id":76561198077093432,"connected_time":1277000000000,"state":"active","ping":67},{"user_id":171,"name":"Jamie","steam_id":76561198058840477,"connected_time":1266000000000,"state":"active","ping":95},{"user_id":180,"name":"dudeguypersonmanhombre","steam_id":76561198052016845,"connected_time":746000000000,"state":"active","ping":78},{"user_id":178,"name":"galaxy_nova379","steam_id":76561199004274122,"connected_time":996000000000,"state":"active","ping":62},{"user_id":160,"name":"Gigacheat","steam_id":76561198862843572,"connected_time":2130000000000,"state":"active","ping":105},{"user_id":164,"name":"tacofever","steam_id":76561198010966507,"connected_time":1669000000000,"state":"active","ping":99},{"user_id":107,"name":"skoops","steam_id":76561198083276946,"connected_time":6145000000000,"state":"active","ping":63},{"user_id":181,"name":"None of that $9.99 bullshit","steam_id":76561198116169903,"connected_time":632000000000,"state":"active","ping":45},{"user_id":184,"name":"Princess Celestia","steam_id":76561198129584634,"connected_time":74000000000,"state":"active","ping":80},{"user_id":183,"name":"Kaluka","steam_id":76561198036861445,"connected_time":570000000000,"state":"active","ping":75},{"user_id":167,"name":"JsLo64V","steam_id":76561199076233876,"connected_time":1471000000000,"state":"active","ping":157},{"user_id":173,"name":"little goblin man","steam_id":76561198880907211,"connected_time":1123000000000,"state":"active","ping":60}]},{"server_id":38,"name":"Uncletopia | Chicago | 7 | Stopwatch","name_short":"chi-7","host":"chi-2.us.uncletopia.com","port":27035,"enabled":true,"region":"us-central","cc":"us","latitude":41.881832,"longitude":-87.62318,"reserved":0,"last_update":"0001-01-01T00:00:00Z","name_a2s":"Uncletopia | Chicago | 7 | Stopwatch","protocol":17,"map":"pl_badwater","folder":"tf","game":"Team Fortress","app_id":440,"player_count":0,"max_players":24,"Bots":0,"server_type":"Dedicated","server_os":"Linux","password":true,"vac":true,"version":"7961495","steam_id":85568392924866364,"keywords":["nocrits","nodmgspread","payload","uncletopia"],"game_id":440,"stv_port":27036,"stv_name":"Uncletopia | Chicago | 7 | Stopwatch | STV","players":null},{"server_id":39,"name":"Uncletopia | Chicago | 8 | Community","name_short":"chi-8","host":"chi-2.us.uncletopia.com","port":27045,"enabled":true,"region":"us-central","cc":"us","latitude":41.881832,"longitude":-87.62318,"reserved":0,"last_update":"0001-01-01T00:00:00Z","name_a2s":"Uncletopia | Chicago | 8 | Community","protocol":17,"map":"workshop/pl_barnblitz_pro7.ugc582280235","folder":"tf","game":"Team Fortress","app_id":440,"player_count":0,"max_players":24,"Bots":0,"server_type":"Dedicated","server_os":"Linux","password":true,"vac":true,"version":"7961495","steam_id":85568392924866365,"keywords":["nocrits","nodmgspread","payload","uncletopia"],"game_id":440,"stv_port":27046,"stv_name":"Uncletopia | Chicago | 8 | Community | STV","players":null},{"server_id":8,"name":"Uncletopia | Dallas | 1 | All Maps","name_short":"dal-1","host":"dal-1.us.uncletopia.com","port":27015,"enabled":true,"region":"us-central","cc":"us","latitude":32.779167,"longitude":-96.80889,"reserved":0,"last_update":"0001-01-01T00:00:00Z","name_a2s":"Uncletopia | Dallas | 1 | All Maps","protocol":17,"map":"pl_barnblitz","folder":"tf","game":"Team Fortress","app_id":440,"player_count":24,"max_players":24,"Bots":0,"server_type":"Dedicated","server_os":"Linux","password":true,"vac":true,"version":"7961495","steam_id":85568392924469986,"keywords":["nocrits","nodmgspread","payload","uncletopia"],"game_id":440,"stv_port":27016,"stv_name":"Uncletopia | Dallas | 1 | All Maps | STV","players":[{"user_id":237,"name":"Dum_Bass(Fish)","steam_id":76561197988105207,"connected_time":221000000000,"state":"active","ping":85},{"user_id":214,"name":"Sex","steam_id":76561198818620540,"connected_time":1055000000000,"state":"active","ping":56},{"user_id":230,"name":"Toripollo","steam_id":76561198251665862,"connected_time":610000000000,"state":"active","ping":102},{"user_id":239,"name":"Giovanni573","steam_id":76561198893868040,"connected_time":200000000000,"state":"active","ping":52},{"user_id":211,"name":"FrostNova","steam_id":76561198348354629,"connected_time":1071000000000,"state":"active","ping":76},{"user_id":215,"name":"PiolaCat","steam_id":76561199100535345,"connected_time":1030000000000,"state":"active","ping":99},{"user_id":138,"name":"Gobl1n","steam_id":76561198808610991,"connected_time":7053000000000,"state":"active","ping":83},{"user_id":195,"name":"StarStrike","steam_id":76561198176532091,"connected_time":2799000000000,"state":"active","ping":73},{"user_id":227,"name":"Boone","steam_id":76561198398931575,"connected_time":663000000000,"state":"active","ping":85},{"user_id":204,"name":"Prof. Eggnog","steam_id":76561198193389166,"connected_time":1701000000000,"state":"active","ping":93},{"user_id":235,"name":"VaL-ASROC","steam_id":76561198886493635,"connected_time":534000000000,"state":"active","ping":75},{"user_id":188,"name":"TriggerHappyPacifist","steam_id":76561197963455267,"connected_time":3079000000000,"state":"active","ping":188},{"user_id":207,"name":"Piggy","steam_id":76561198000399862,"connected_time":1089000000000,"state":"active","ping":80},{"user_id":173,"name":"B.","steam_id":76561198040445907,"connected_time":4414000000000,"state":"active","ping":75},{"user_id":199,"name":"Anor","steam_id":76561198356139775,"connected_time":2257000000000,"state":"active","ping":80},{"user_id":206,"name":"Big F*ckin Bolbi","steam_id":76561198069816955,"connected_time":1124000000000,"state":"active","ping":83},{"user_id":191,"name":"Phos","steam_id":76561198122339506,"connected_time":3056000000000,"state":"active","ping":68},{"user_id":192,"name":"aofi the flat tgirl","steam_id":76561199172110503,"connected_time":3034000000000,"state":"active","ping":52},{"user_id":216,"name":"just jazz","steam_id":76561198010637797,"connected_time":985000000000,"state":"active","ping":65},{"user_id":212,"name":"Caught a Thundah","steam_id":76561198054495572,"connected_time":1064000000000,"state":"active","ping":50},{"user_id":194,"name":"ThePriceIsRice","steam_id":76561198079069543,"connected_time":2870000000000,"state":"active","ping":116},{"user_id":197,"name":"tooba","steam_id":76561198202589758,"connected_time":2644000000000,"state":"active","ping":76},{"user_id":205,"name":"Tribute","steam_id":76561198081594043,"connected_time":1366000000000,"state":"active","ping":64},{"user_id":236,"name":"Bubba Bass","steam_id":76561198026767327,"connected_time":435000000000,"state":"active","ping":81}]},{"server_id":108,"name":"Uncletopia | Dallas | 2 | All Maps","name_short":"dal-2","host":"dal-1.us.uncletopia.com","port":27025,"enabled":true,"region":"us-central","cc":"us","latitude":32.779167,"longitude":-96.80889,"reserved":0,"last_update":"0001-01-01T00:00:00Z","name_a2s":"Uncletopia | Dallas | 2 | All Maps","protocol":17,"map":"pl_snowycoast","folder":"tf","game":"Team Fortress","app_id":440,"player_count":0,"max_players":24,"Bots":0,"server_type":"Dedicated","server_os":"Linux","password":true,"vac":true,"version":"7961495","steam_id":85568392924469988,"keywords":["nocrits","nodmgspread","payload","uncletopia"],"game_id":440,"stv_port":27026,"stv_name":"Uncletopia | Dallas | 2 | All Maps | STV","players":null},{"server_id":404,"name":"Uncletopia | Dallas | 3 | All Maps","name_short":"dal-3","host":"dal-1.us.uncletopia.com","port":27035,"enabled":true,"region":"us-central","cc":"us","latitude":32.779167,"longitude":-96.80889,"reserved":0,"last_update":"0001-01-01T00:00:00Z","name_a2s":"Uncletopia | Dallas | 3 | All Maps","protocol":17,"map":"pl_swiftwater_final1","folder":"tf","game":"Team Fortress","app_id":440,"player_count":0,"max_players":24,"Bots":0,"server_type":"Dedicated","server_os":"Linux","password":true,"vac":true,"version":"7961495","steam_id":85568392924515219,"keywords":["nocrits","nodmgspread","payload","uncletopia"],"game_id":440,"stv_port":27036,"stv_name":"Uncletopia | Dallas | 3 | All Maps | STV","players":null},{"server_id":405,"name":"Uncletopia | Dallas | 4 | Community","name_short":"dal-4","host":"dal-1.us.uncletopia.com","port":27045,"enabled":true,"region":"us-central","cc":"us","latitude":32.779167,"longitude":-96.80889,"reserved":0,"last_update":"0001-01-01T00:00:00Z","name_a2s":"Uncletopia | Dallas | 4 | Community","protocol":17,"map":"pl_pier","folder":"tf","game":"Team Fortress","app_id":440,"player_count":0,"max_players":24,"Bots":0,"server_type":"Dedicated","server_os":"Linux","password":true,"vac":true,"version":"7961495","steam_id":85568392924515220,"keywords":["nocrits","nodmgspread","payload","uncletopia"],"game_id":440,"stv_port":27046,"stv_name":"Uncletopia | Dallas | 4 | Community | STV","players":null},{"server_id":5,"name":"Uncletopia | Frankfurt | 1 | All Maps","name_short":"frk-1","host":"frk-1.de.uncletopia.com","port":27015,"enabled":true,"region":"eu","cc":"de","latitude":50.110924,"longitude":8.682127,"reserved":0,"last_update":"0001-01-01T00:00:00Z","name_a2s":"Uncletopia | Frankfurt | 1 | All Maps","protocol":17,"map":"pl_borneo","folder":"tf","game":"Team Fortress","app_id":440,"player_count":25,"max_players":24,"Bots":0,"server_type":"Dedicated","server_os":"Linux","password":true,"vac":true,"version":"7961495","steam_id":85568392924469989,"keywords":["nocrits","nodmgspread","payload","uncletopia"],"game_id":440,"stv_port":27016,"stv_name":"Uncletopia | Frankfurt | 1 | All Maps | STV","players":[{"user_id":182,"name":"Olufsen","steam_id":76561198009324148,"connected_time":2333000000000,"state":"active","ping":106},{"user_id":202,"name":"LeGerooo","steam_id":76561199110422160,"connected_time":1281000000000,"state":"active","ping":92},{"user_id":183,"name":"Zu","steam_id":76561198054192354,"connected_time":2316000000000,"state":"active","ping":51},{"user_id":209,"name":"crack cloud$","steam_id":76561198111134021,"connected_time":1039000000000,"state":"active","ping":87},{"user_id":220,"name":"benjaminmarkMLP","steam_id":76561198920361202,"connected_time":147000000000,"state":"connecting","ping":0},{"user_id":198,"name":"Virgil","steam_id":76561198248786778,"connected_time":1535000000000,"state":"active","ping":114},{"user_id":168,"name":"pajer0","steam_id":76561198002913482,"connected_time":3292000000000,"state":"active","ping":94},{"user_id":217,"name":"meat hook dildo","steam_id":76561198355193630,"connected_time":216000000000,"state":"active","ping":92},{"user_id":196,"name":"Guru","steam_id":76561198093853069,"connected_time":1586000000000,"state":"active","ping":60},{"user_id":204,"name":"mushroom","steam_id":76561198817034571,"connected_time":1228000000000,"state":"active","ping":111},{"user_id":153,"name":"denismaidanov","steam_id":76561198338601367,"connected_time":3880000000000,"state":"active","ping":102},{"user_id":214,"name":"Dot","steam_id":76561198047299145,"connected_time":646000000000,"state":"active","ping":73},{"user_id":218,"name":"jello_hey","steam_id":76561199176327650,"connected_time":211000000000,"state":"active","ping":147},{"user_id":219,"name":"Weeb exterminator","steam_id":76561198078964973,"connected_time":200000000000,"state":"active","ping":67},{"user_id":28,"name":"‚ôÇ Animan ‚ôÇ Studios ‚ôÇ","steam_id":76561198308302932,"connected_time":11738000000000,"state":"active","ping":82},{"user_id":197,"name":"Grimbeard","steam_id":76561197961823531,"connected_time":1579000000000,"state":"active","ping":61},{"user_id":167,"name":"bl√•haj peek","steam_id":76561198796577795,"connected_time":3344000000000,"state":"active","ping":63},{"user_id":192,"name":"they call me \"the menace\"","steam_id":76561198129828715,"connected_time":1856000000000,"state":"active","ping":60},{"user_id":162,"name":"Barry Bee Benson","steam_id":76561198115199225,"connected_time":3493000000000,"state":"active","ping":60},{"user_id":213,"name":"Schiever","steam_id":76561198052136026,"connected_time":749000000000,"state":"active","ping":60},{"user_id":187,"name":"–¥–∂–µ–≥–µ–º–∏ —Ö—ç–ø–∫–∏–Ω–≥—Å","steam_id":76561198131531394,"connected_time":2245000000000,"state":"active","ping":92},{"user_id":151,"name":"MR BUBBLES","steam_id":76561198019005259,"connected_time":3930000000000,"state":"active","ping":102},{"user_id":221,"name":"Goblin (Real)","steam_id":76561199160926985,"connected_time":140000000000,"state":"active","ping":146},{"user_id":200,"name":"The One (and only)","steam_id":76561198827193499,"connected_time":1459000000000,"state":"active","ping":71},{"user_id":207,"name":"turknaskooyun","steam_id":76561199222306117,"connected_time":1180000000000,"state":"active","ping":105}]},{"server_id":110,"name":"Uncletopia | Frankfurt | 2 | All Maps","name_short":"frk-2","host":"frk-1.de.uncletopia.com","port":27025,"enabled":true,"region":"eu","cc":"de","latitude":50.110924,"longitude":8.682127,"reserved":0,"last_update":"0001-01-01T00:00:00Z","name_a2s":"Uncletopia | Frankfurt | 2 | All Maps","protocol":17,"map":"pl_upward","folder":"tf","game":"Team Fortress","app_id":440,"player_count":0,"max_players":24,"Bots":0,"server_type":"Dedicated","server_os":"Linux","password":true,"vac":true,"version":"7961495","steam_id":85568392924469990,"keywords":["nocrits","nodmgspread","payload","uncletopia"],"game_id":440,"stv_port":27026,"stv_name":"Uncletopia | Frankfurt | 2 | All Maps | STV","players":null},{"server_id":308,"name":"Uncletopia | Frankfurt | 3 | All Maps","name_short":"frk-3","host":"frk-1.de.uncletopia.com","port":27035,"enabled":true,"region":"eu","cc":"de","latitude":50.110924,"longitude":8.682127,"reserved":0,"last_update":"0001-01-01T00:00:00Z","name_a2s":"Uncletopia | Frankfurt | 3 | All Maps","protocol":17,"map":"pl_thundermountain","folder":"tf","game":"Team Fortress","app_id":440,"player_count":24,"max_players":24,"Bots":0,"server_type":"Dedicated","server_os":"Linux","password":true,"vac":true,"version":"7961495","steam_id":85568392924504274,"keywords":["nocrits","nodmgspread","payload","uncletopia"],"game_id":440,"stv_port":27036,"stv_name":"Uncletopia | Frankfurt | 3 | All Maps | STV","players":[{"user_id":269,"name":"MostSereneDogeBestDoge","steam_id":76561198061196566,"connected_time":784000000000,"state":"active","ping":76},{"user_id":265,"name":"galaxy","steam_id":76561198164819022,"connected_time":1364000000000,"state":"active","ping":68},{"user_id":266,"name":"JUST_ST4R","steam_id":76561198829447163,"connected_time":1250000000000,"state":"active","ping":132},{"user_id":238,"name":"Volt","steam_id":76561198237074532,"connected_time":2649000000000,"state":"active","ping":103},{"user_id":208,"name":"dispenser","steam_id":76561199008411791,"connected_time":4661000000000,"state":"active","ping":55},{"user_id":240,"name":"Danwise Dangee","steam_id":76561197980723749,"connected_time":2496000000000,"state":"active","ping":74},{"user_id":242,"name":"Mopey_HippoTTV","steam_id":76561198040354226,"connected_time":2419000000000,"state":"active","ping":70},{"user_id":246,"name":"scrunt","steam_id":76561198128250460,"connected_time":1840000000000,"state":"active","ping":115},{"user_id":258,"name":"Qwerty","steam_id":76561198023525894,"connected_time":1598000000000,"state":"active","ping":77},{"user_id":248,"name":"Lucki","steam_id":76561198410249745,"connected_time":1821000000000,"state":"active","ping":75},{"user_id":263,"name":"Acekeni‚Ñ¢ ‚à§ [GMD]","steam_id":76561198352700499,"connected_time":1433000000000,"state":"active","ping":76},{"user_id":273,"name":"Hejko","steam_id":76561198963293449,"connected_time":290000000000,"state":"active","ping":70},{"user_id":254,"name":"wolfgang","steam_id":76561199111818670,"connected_time":1701000000000,"state":"active","ping":128},{"user_id":268,"name":"2008 Toyota Corolla","steam_id":76561198310160788,"connected_time":1160000000000,"state":"active","ping":93},{"user_id":252,"name":"Gunvald","steam_id":76561198020195322,"connected_time":1749000000000,"state":"active","ping":85},{"user_id":271,"name":"D√∂m_√ãn","steam_id":76561198027243883,"connected_time":392000000000,"state":"active","ping":61},{"user_id":230,"name":"PashaVerti","steam_id":76561199013963024,"connected_time":3651000000000,"state":"active","ping":76},{"user_id":256,"name":"Shlyk","steam_id":76561198333387103,"connected_time":1665000000000,"state":"active","ping":96},{"user_id":270,"name":"nevim","steam_id":76561199120843402,"connected_time":698000000000,"state":"active","ping":54},{"user_id":259,"name":"JamesPepega","steam_id":76561198019156154,"connected_time":1589000000000,"state":"active","ping":125},{"user_id":260,"name":"i do hard drugs on the regular","steam_id":76561198263228457,"connected_time":1520000000000,"state":"active","ping":98},{"user_id":274,"name":"alss2008","steam_id":76561198003927328,"connected_time":255000000000,"state":"active","ping":80},{"user_id":262,"name":"highest noon","steam_id":76561199103959197,"connected_time":1511000000000,"state":"active","ping":103},{"user_id":192,"name":"you like buff tf2 men don't you","steam_id":76561198837586838,"connected_time":5492000000000,"state":"active","ping":74}]},{"server_id":309,"name":"Uncletopia | Frankfurt | 4 | All Maps","name_short":"frk-4","host":"frk-1.de.uncletopia.com","port":27045,"enabled":true,"region":"eu","cc":"de","latitude":50.110924,"longitude":8.682127,"reserved":0,"last_update":"0001-01-01T00:00:00Z","name_a2s":"Uncletopia | Frankfurt | 4 | All Maps","protocol":17,"map":"koth_suijin","folder":"tf","game":"Team Fortress","app_id":440,"player_count":24,"max_players":24,"Bots":0,"server_type":"Dedicated","server_os":"Linux","password":true,"vac":true,"version":"7961495","steam_id":85568392924504275,"keywords":["cp","nocrits","nodmgspread","uncletopia"],"game_id":440,"stv_port":27046,"stv_name":"Uncletopia | Frankfurt | 4 | All Maps | STV","players":[{"user_id":390,"name":"weherio","steam_id":76561198394862508,"connected_time":866000000000,"state":"active","ping":83},{"user_id":396,"name":"Nostradamus","steam_id":76561198349792686,"connected_time":332000000000,"state":"active","ping":58},{"user_id":377,"name":"Fran","steam_id":76561199070516960,"connected_time":1975000000000,"state":"active","ping":65},{"user_id":345,"name":"Space","steam_id":76561198021572167,"connected_time":5071000000000,"state":"active","ping":59},{"user_id":372,"name":"marvi444","steam_id":76561198431534139,"connected_time":2598000000000,"state":"active","ping":38},{"user_id":397,"name":"pierogi","steam_id":76561198718760200,"connected_time":319000000000,"state":"active","ping":60},{"user_id":404,"name":"Professionals Have Standards","steam_id":76561199400481314,"connected_time":101000000000,"state":"active","ping":76},{"user_id":393,"name":"deepnotic","steam_id":76561199154324805,"connected_time":649000000000,"state":"active","ping":81},{"user_id":399,"name":"i am green (da ba dee)","steam_id":76561198357334558,"connected_time":297000000000,"state":"active","ping":123},{"user_id":401,"name":"LuddeKudde","steam_id":76561198394550832,"connected_time":187000000000,"state":"active","ping":67},{"user_id":388,"name":"John Noob","steam_id":76561197999170026,"connected_time":1040000000000,"state":"active","ping":92},{"user_id":311,"name":"Mantella","steam_id":76561198982047757,"connected_time":6962000000000,"state":"active","ping":62},{"user_id":395,"name":"‡πá","steam_id":76561198071226013,"connected_time":423000000000,"state":"active","ping":76},{"user_id":405,"name":"Firemonkey.exe","steam_id":76561199226729354,"connected_time":75000000000,"state":"active","ping":91},{"user_id":346,"name":"Birdseye","steam_id":76561198025852216,"connected_time":4932000000000,"state":"active","ping":61},{"user_id":391,"name":"Lumpy","steam_id":76561198426486876,"connected_time":769000000000,"state":"active","ping":72},{"user_id":394,"name":"–ü–ê–ü–ê","steam_id":76561199047376761,"connected_time":639000000000,"state":"active","ping":88},{"user_id":392,"name":"broodje_snor","steam_id":76561198186581081,"connected_time":720000000000,"state":"active","ping":45},{"user_id":337,"name":"Gimli","steam_id":76561198004149706,"connected_time":5474000000000,"state":"active","ping":72},{"user_id":400,"name":"skille","steam_id":76561198005794325,"connected_time":274000000000,"state":"active","ping":57},{"user_id":383,"name":"RiX","steam_id":76561197969053733,"connected_time":1563000000000,"state":"active","ping":70},{"user_id":380,"name":"The Manager of Sex (Real)","steam_id":76561198385989487,"connected_time":1919000000000,"state":"active","ping":107},{"user_id":336,"name":"Kitfist","steam_id":76561198048559338,"connected_time":5505000000000,"state":"active","ping":59},{"user_id":381,"name":"kastanomata","steam_id":76561198271832763,"connected_time":1918000000000,"state":"active","ping":73}]},{"server_id":310,"name":"Uncletopia | Frankfurt | 5 | All Maps","name_short":"frk-5","host":"frk-1.de.uncletopia.com","port":27055,"enabled":true,"region":"eu","cc":"de","latitude":50.110924,"longitude":8.682127,"reserved":0,"last_update":"0001-01-01T00:00:00Z","name_a2s":"Uncletopia | Frankfurt | 5 | All Maps","protocol":17,"map":"cp_process_final","folder":"tf","game":"Team Fortress","app_id":440,"player_count":24,"max_players":24,"Bots":0,"server_type":"Dedicated","server_os":"Linux","password":true,"vac":true,"version":"7961495","steam_id":85568392924504277,"keywords":["cp","nocrits","nodmgspread","uncletopia"],"game_id":440,"stv_port":27056,"stv_name":"Uncletopia | Frankfurt | 5 | All Maps | STV","players":[{"user_id":396,"name":"Benpl","steam_id":76561198084890757,"connected_time":98000000000,"state":"active","ping":61},{"user_id":381,"name":"jona3838","steam_id":76561199097658195,"connected_time":616000000000,"state":"active","ping":104},{"user_id":382,"name":"chapiiiiis","steam_id":76561198033299138,"connected_time":609000000000,"state":"active","ping":106},{"user_id":391,"name":"ratsnrats","steam_id":76561199187258021,"connected_time":325000000000,"state":"active","ping":64},{"user_id":389,"name":"berahne khosh hal","steam_id":76561198327135462,"connected_time":404000000000,"state":"active","ping":168},{"user_id":348,"name":"aaron","steam_id":76561198388750592,"connected_time":2214000000000,"state":"active","ping":60},{"user_id":373,"name":"FarbrorBarbro","steam_id":76561198044432289,"connected_time":996000000000,"state":"active","ping":70},{"user_id":397,"name":"Tequila Dakilla","steam_id":76561198088427640,"connected_time":45000000000,"state":"active","ping":73},{"user_id":339,"name":"Staudi","steam_id":76561198051338007,"connected_time":2658000000000,"state":"active","ping":78},{"user_id":289,"name":"midlpsyzl47","steam_id":76561199475972637,"connected_time":4622000000000,"state":"active","ping":72},{"user_id":385,"name":"Marabosha","steam_id":76561198137599173,"connected_time":532000000000,"state":"active","ping":104},{"user_id":372,"name":"≈öpiw√≥r","steam_id":76561198042192705,"connected_time":1013000000000,"state":"active","ping":82},{"user_id":379,"name":"Jucatron","steam_id":76561198044259577,"connected_time":815000000000,"state":"active","ping":90},{"user_id":248,"name":"Rocket¬≤","steam_id":76561198305856721,"connected_time":6977000000000,"state":"active","ping":81},{"user_id":370,"name":"BabyYodaIsMySoda","steam_id":76561198321846861,"connected_time":1113000000000,"state":"active","ping":76},{"user_id":376,"name":"Rambi","steam_id":76561199058078505,"connected_time":925000000000,"state":"active","ping":176},{"user_id":392,"name":"mt","steam_id":76561197961319303,"connected_time":275000000000,"state":"active","ping":47},{"user_id":249,"name":"Taconice","steam_id":76561198057812100,"connected_time":6968000000000,"state":"active","ping":77},{"user_id":393,"name":"flr","steam_id":76561198249327786,"connected_time":205000000000,"state":"active","ping":73},{"user_id":395,"name":"la prot","steam_id":76561198084056439,"connected_time":168000000000,"state":"active","ping":46},{"user_id":377,"name":"supercharger832","steam_id":76561198871408515,"connected_time":920000000000,"state":"active","ping":59},{"user_id":390,"name":"gagalak","steam_id":76561198089979108,"connected_time":386000000000,"state":"active","ping":92},{"user_id":387,"name":"FilipeLuk","steam_id":76561198150675438,"connected_time":509000000000,"state":"active","ping":71},{"user_id":366,"name":"Qdarks","steam_id":76561198013391340,"connected_time":1391000000000,"state":"active","ping":144}]},{"server_id":311,"name":"Uncletopia | Frankfurt | 6 | All Maps","name_short":"frk-6","host":"frk-1.de.uncletopia.com","port":27065,"enabled":true,"region":"eu","cc":"de","latitude":50.110924,"longitude":8.682127,"reserved":0,"last_update":"0001-01-01T00:00:00Z","name_a2s":"Uncletopia | Frankfurt | 6 | All Maps","protocol":17,"map":"cp_snakewater_final1","folder":"tf","game":"Team Fortress","app_id":440,"player_count":19,"max_players":24,"Bots":0,"server_type":"Dedicated","server_os":"Linux","password":true,"vac":true,"version":"7961495","steam_id":85568392924504278,"keywords":["cp","nocrits","nodmgspread","uncletopia"],"game_id":440,"stv_port":27066,"stv_name":"Uncletopia | Frankfurt | 6 | All Maps | STV","players":[{"user_id":332,"name":"Superiumentarius","steam_id":76561198081642249,"connected_time":2257000000000,"state":"active","ping":44},{"user_id":357,"name":"tuna","steam_id":76561198121590248,"connected_time":31000000000,"state":"active","ping":72},{"user_id":342,"name":"‚òûLaZe‚òú","steam_id":76561198202191400,"connected_time":1804000000000,"state":"active","ping":61},{"user_id":331,"name":"XPullaHiiri","steam_id":76561198031652375,"connected_time":2290000000000,"state":"active","ping":77},{"user_id":358,"name":"I.AM.THE.BOOP.WHICH.IS.APROACHI","steam_id":76561198049342507,"connected_time":22000000000,"state":"active","ping":80},{"user_id":340,"name":"mark","steam_id":76561198309246388,"connected_time":1818000000000,"state":"active","ping":45},{"user_id":296,"name":"WiLD","steam_id":76561198345622161,"connected_time":5116000000000,"state":"active","ping":84},{"user_id":350,"name":"froglids","steam_id":76561198045466919,"connected_time":1415000000000,"state":"active","ping":59},{"user_id":353,"name":"cotroD","steam_id":76561198130063938,"connected_time":918000000000,"state":"active","ping":135},{"user_id":359,"name":"–®–∞–ø–∫–∞ #TF2Center","steam_id":76561198368792603,"connected_time":20000000000,"state":"spawning","ping":72},{"user_id":328,"name":"Nittugai","steam_id":76561198067366462,"connected_time":2480000000000,"state":"active","ping":60},{"user_id":354,"name":"dank pank","steam_id":76561198995052713,"connected_time":365000000000,"state":"active","ping":60},{"user_id":352,"name":"Udinese Dion","steam_id":76561198067931573,"connected_time":1203000000000,"state":"active","ping":51},{"user_id":355,"name":"Gibus enjoyer","steam_id":76561198843396821,"connected_time":322000000000,"state":"active","ping":89},{"user_id":320,"name":"TheHacker-","steam_id":76561198091867843,"connected_time":3420000000000,"state":"active","ping":143},{"user_id":346,"name":"Hamedius","steam_id":76561199152512027,"connected_time":1702000000000,"state":"active","ping":60},{"user_id":356,"name":"·∂¶À¢ ≥·µÉ·µâÀ°","steam_id":76561198051832269,"connected_time":307000000000,"state":"active","ping":60},{"user_id":335,"name":"Fat Pigeon","steam_id":76561198817940142,"connected_time":2146000000000,"state":"active","ping":59},{"user_id":347,"name":"Gender Offender","steam_id":76561198369227367,"connected_time":1680000000000,"state":"active","ping":83}]},{"server_id":23,"name":"Uncletopia | Frankfurt | 7 | Stopwatch","name_short":"frk-7","host":"frk-1.de.uncletopia.com","port":27075,"enabled":true,"region":"eu","cc":"de","latitude":50.110924,"longitude":8.682127,"reserved":0,"last_update":"0001-01-01T00:00:00Z","name_a2s":"Uncletopia | Frankfurt | 7 | Stopwatch","protocol":17,"map":"koth_highpass","folder":"tf","game":"Team Fortress","app_id":440,"player_count":0,"max_players":24,"Bots":0,"server_type":"Dedicated","server_os":"Linux","password":true,"vac":true,"version":"7961495","steam_id":85568392924742827,"keywords":["cp","nocrits","nodmgspread","uncletopia"],"game_id":440,"stv_port":27076,"stv_name":"Uncletopia | Frankfurt | 7 | Stopwatch | STV","players":null},{"server_id":24,"name":"Uncletopia | Frankfurt | 8 | Community","name_short":"frk-8","host":"frk-1.de.uncletopia.com","port":27085,"enabled":true,"region":"eu","cc":"de","latitude":50.110924,"longitude":8.682127,"reserved":0,"last_update":"0001-01-01T00:00:00Z","name_a2s":"Uncletopia | Frankfurt | 8 | Community","protocol":17,"map":"workshop/cp_reckoner_rc6.ugc674719999","folder":"tf","game":"Team Fortress","app_id":440,"player_count":0,"max_players":24,"Bots":0,"server_type":"Dedicated","server_os":"Linux","password":true,"vac":true,"version":"7961495","steam_id":85568392924742828,"keywords":["cp","nocrits","nodmgspread","uncletopia"],"game_id":440,"stv_port":27086,"stv_name":"Uncletopia | Frankfurt | 8 | Community | STV","players":null},{"server_id":202,"name":"Uncletopia | Hong Kong | 1 | All Maps","name_short":"hgk-1","host":"hgk-1.hk.uncletopia.com","port":27015,"enabled":true,"region":"asia","cc":"hk","latitude":22.302711,"longitude":114.177216,"reserved":0,"last_update":"0001-01-01T00:00:00Z","name_a2s":"Uncletopia | Hong Kong | 1 | All Maps","protocol":17,"map":"cp_mossrock","folder":"tf","game":"Team Fortress","app_id":440,"player_count":18,"max_players":24,"Bots":0,"server_type":"Dedicated","server_os":"Linux","password":true,"vac":true,"version":"7961495","steam_id":85568392924494504,"keywords":["cp","nocrits","nodmgspread","uncletopia"],"game_id":440,"stv_port":27016,"stv_name":"Uncletopia | Hong Kong | 1 | All Maps | STV","players":[{"user_id":735,"name":"One","steam_id":76561198065612995,"connected_time":215000000000,"state":"active","ping":87},{"user_id":734,"name":"Thedoor","steam_id":76561199055256998,"connected_time":386000000000,"state":"active","ping":106},{"user_id":723,"name":"Kaav","steam_id":76561198276797042,"connected_time":1239000000000,"state":"active","ping":107},{"user_id":672,"name":"meowdy","steam_id":76561198337154745,"connected_time":6322000000000,"state":"active","ping":85},{"user_id":737,"name":"Dust Eater","steam_id":76561199159969375,"connected_time":171000000000,"state":"active","ping":70},{"user_id":738,"name":"braindead","steam_id":76561198312344936,"connected_time":154000000000,"state":"active","ping":119},{"user_id":731,"name":"‡∂û Basil ;) ‡∂û","steam_id":76561199262353252,"connected_time":548000000000,"state":"active","ping":64},{"user_id":739,"name":"Armada","steam_id":76561198982405215,"connected_time":132000000000,"state":"active","ping":59},{"user_id":710,"name":"NOPE","steam_id":76561199244543572,"connected_time":2584000000000,"state":"active","ping":59},{"user_id":740,"name":"Sunny Gaming #SaveTF2","steam_id":76561199160756055,"connected_time":66000000000,"state":"active","ping":62},{"user_id":714,"name":"blobeye","steam_id":76561198420018387,"connected_time":2356000000000,"state":"active","ping":46},{"user_id":616,"name":"ÊØç„ÅÆËÇâÂõ£Â≠ê@hao123.com","steam_id":76561198069561896,"connected_time":8410000000000,"state":"active","ping":44},{"user_id":741,"name":"Kill potato","steam_id":76561198205412923,"connected_time":13000000000,"state":"active","ping":166},{"user_id":742,"name":"Trirst","steam_id":76561198071257485,"connected_time":1000000000,"state":"spawning","ping":239},{"user_id":717,"name":"moonchiid","steam_id":76561199125350361,"connected_time":2097000000000,"state":"active","ping":125},{"user_id":733,"name":"tyiskre","steam_id":76561199211786489,"connected_time":508000000000,"state":"active","ping":82},{"user_id":724,"name":"Cain","steam_id":76561199086454855,"connected_time":1166000000000,"state":"active","ping":53},{"user_id":692,"name":"Temsik","steam_id":76561198070234656,"connected_time":4936000000000,"state":"active","ping":136}]},{"server_id":1,"name":"Uncletopia | Los Angeles | 1 | All Maps","name_short":"lax-1","host":"lax-1.us.uncletopia.com","port":27015,"enabled":true,"region":"us-west","cc":"us","latitude":33.94279,"longitude":-118.41004,"reserved":0,"last_update":"0001-01-01T00:00:00Z","name_a2s":"Uncletopia | Los Angeles | 1 | All Maps","protocol":17,"map":"pl_snowycoast","folder":"tf","game":"Team Fortress","app_id":440,"player_count":0,"max_players":24,"Bots":0,"server_type":"Dedicated","server_os":"Linux","password":true,"vac":true,"version":"7961495","steam_id":85568392924469991,"keywords":["nocrits","nodmgspread","payload","uncletopia"],"game_id":440,"stv_port":27016,"stv_name":"Uncletopia | Los Angeles | 1 | All Maps | STV","players":null},{"server_id":112,"name":"Uncletopia | Los Angeles | 2 | All Maps","name_short":"lax-2","host":"lax-1.us.uncletopia.com","port":27025,"enabled":true,"region":"us-west","cc":"us","latitude":33.94279,"longitude":-118.41004,"reserved":0,"last_update":"0001-01-01T00:00:00Z","name_a2s":"Uncletopia | Los Angeles | 2 | All Maps","protocol":17,"map":"pl_upward","folder":"tf","game":"Team Fortress","app_id":440,"player_count":23,"max_players":24,"Bots":0,"server_type":"Dedicated","server_os":"Linux","password":true,"vac":true,"version":"7961495","steam_id":85568392924469992,"keywords":["nocrits","nodmgspread","payload","uncletopia"],"game_id":440,"stv_port":27026,"stv_name":"Uncletopia | Los Angeles | 2 | All Maps | STV","players":[{"user_id":172,"name":"RocketofPanda","steam_id":76561198133133187,"connected_time":124000000000,"state":"active","ping":63},{"user_id":147,"name":"Giantbob","steam_id":76561199043760220,"connected_time":2026000000000,"state":"active","ping":66},{"user_id":158,"name":"NASA PEEPO","steam_id":76561198024982267,"connected_time":1657000000000,"state":"active","ping":62},{"user_id":136,"name":"FaZe hyazZzZ","steam_id":76561199100342013,"connected_time":2824000000000,"state":"active","ping":47},{"user_id":164,"name":"HedyL","steam_id":76561198164983068,"connected_time":1304000000000,"state":"active","ping":49},{"user_id":170,"name":"grape","steam_id":76561199071151136,"connected_time":580000000000,"state":"active","ping":35},{"user_id":159,"name":"Pirate with radio","steam_id":76561199247095754,"connected_time":1622000000000,"state":"active","ping":129},{"user_id":168,"name":"lime creator","steam_id":76561198074047574,"connected_time":1008000000000,"state":"active","ping":38},{"user_id":130,"name":"K","steam_id":76561198844500671,"connected_time":3249000000000,"state":"active","ping":112},{"user_id":157,"name":"Jade Jetts [She/They]","steam_id":76561198206130076,"connected_time":1749000000000,"state":"active","ping":60},{"user_id":144,"name":"Joseph Stalin","steam_id":76561198382398935,"connected_time":2106000000000,"state":"active","ping":89},{"user_id":171,"name":"Kiradias777","steam_id":76561198067176309,"connected_time":366000000000,"state":"active","ping":118},{"user_id":145,"name":"Bostonstapler","steam_id":76561197996334971,"connected_time":2095000000000,"state":"active","ping":76},{"user_id":100,"name":"Esteban Delsin","steam_id":76561198433519639,"connected_time":4712000000000,"state":"active","ping":103},{"user_id":151,"name":"Dingus McGhee","steam_id":76561198276227393,"connected_time":1944000000000,"state":"active","ping":106},{"user_id":173,"name":"mentos14","steam_id":76561198097993629,"connected_time":31000000000,"state":"active","ping":54},{"user_id":155,"name":"cozmo","steam_id":76561198043167542,"connected_time":1789000000000,"state":"active","ping":60},{"user_id":161,"name":"jayeskae","steam_id":76561198144220801,"connected_time":1424000000000,"state":"active","ping":77},{"user_id":166,"name":"soundcloud.com/cremexav","steam_id":76561198134544837,"connected_time":1235000000000,"state":"active","ping":47},{"user_id":135,"name":"da chronic","steam_id":76561198806800054,"connected_time":2940000000000,"state":"active","ping":66},{"user_id":167,"name":"Aeront","steam_id":76561198072032723,"connected_time":1118000000000,"state":"active","ping":127},{"user_id":122,"name":"coyold","steam_id":76561198837549867,"connected_time":3671000000000,"state":"active","ping":144},{"user_id":143,"name":"bl√•haj enjoyer","steam_id":76561198132803810,"connected_time":2267000000000,"state":"active","ping":87}]},{"server_id":324,"name":"Uncletopia | Los Angeles | 3 | All Maps","name_short":"lax-3","host":"lax-1.us.uncletopia.com","port":27035,"enabled":true,"region":"us-west","cc":"us","latitude":33.94279,"longitude":-118.41004,"reserved":0,"last_update":"0001-01-01T00:00:00Z","name_a2s":"Uncletopia | Los Angeles | 3 | All Maps","protocol":17,"map":"cp_mountainlab","folder":"tf","game":"Team Fortress","app_id":440,"player_count":1,"max_players":24,"Bots":0,"server_type":"Dedicated","server_os":"Linux","password":true,"vac":true,"version":"7961495","steam_id":85568392924510198,"keywords":["cp","nocrits","nodmgspread","uncletopia"],"game_id":440,"stv_port":27036,"stv_name":"Uncletopia | Los Angeles | 3 | All Maps | STV","players":[{"user_id":12,"name":"ShadowKun","steam_id":76561199134735740,"connected_time":22000000000,"state":"active","ping":88}]},{"server_id":25,"name":"Uncletopia | Los Angeles | 4 | Stopwatch","name_short":"lax-4","host":"lax-1.us.uncletopia.com","port":27045,"enabled":true,"region":"us-west","cc":"us","latitude":33.94279,"longitude":-118.41004,"reserved":0,"last_update":"0001-01-01T00:00:00Z","name_a2s":"Uncletopia | Los Angeles | 4 | Stopwatch","protocol":17,"map":"pl_barnblitz","folder":"tf","game":"Team Fortress","app_id":440,"player_count":0,"max_players":24,"Bots":0,"server_type":"Dedicated","server_os":"Linux","password":true,"vac":true,"version":"7961495","steam_id":85568392924510199,"keywords":["nocrits","nodmgspread","payload","uncletopia"],"game_id":440,"stv_port":27046,"stv_name":"Uncletopia | Los Angeles | 4 | Stopwatch | STV","players":null},{"server_id":11,"name":"Uncletopia | London | 1 | All Maps","name_short":"lon-1","host":"lon-1.uk.uncletopia.com","port":27015,"enabled":true,"region":"eu","cc":"gb","latitude":51.509865,"longitude":-0.118092,"reserved":0,"last_update":"0001-01-01T00:00:00Z","name_a2s":"Uncletopia | London | 1 | All Maps","protocol":17,"map":"pl_barnblitz","folder":"tf","game":"Team Fortress","app_id":440,"player_count":24,"max_players":24,"Bots":0,"server_type":"Dedicated","server_os":"Linux","password":true,"vac":true,"version":"7961495","steam_id":85568392924367362,"keywords":["nocrits","nodmgspread","payload","uncletopia"],"game_id":440,"stv_port":27016,"stv_name":"Uncletopia | London | 1 | All Maps | STV","players":[{"user_id":303,"name":"unconditional love","steam_id":76561199026097466,"connected_time":256000000000,"state":"active","ping":71},{"user_id":286,"name":"Cabbch","steam_id":76561198045955679,"connected_time":1290000000000,"state":"active","ping":45},{"user_id":294,"name":"MaksingTape","steam_id":76561198827103130,"connected_time":924000000000,"state":"active","ping":46},{"user_id":301,"name":"KnugenIV","steam_id":76561198127091993,"connected_time":555000000000,"state":"active","ping":61},{"user_id":217,"name":"krayy (bl√•haj enjoyer)","steam_id":76561198035037830,"connected_time":6072000000000,"state":"active","ping":55},{"user_id":278,"name":"Slifer the Acorn","steam_id":76561198062255803,"connected_time":1947000000000,"state":"active","ping":73},{"user_id":247,"name":"john fortress","steam_id":76561198013237629,"connected_time":4208000000000,"state":"active","ping":96},{"user_id":280,"name":"ein","steam_id":76561198152162834,"connected_time":1823000000000,"state":"active","ping":105},{"user_id":304,"name":"Plow cheese","steam_id":76561198142478067,"connected_time":232000000000,"state":"active","ping":90},{"user_id":291,"name":"kornetov.vitalya","steam_id":76561199286034833,"connected_time":976000000000,"state":"active","ping":101},{"user_id":284,"name":"Jamba Sparabo","steam_id":76561198131647600,"connected_time":1519000000000,"state":"active","ping":75},{"user_id":271,"name":"Neo Kojiro","steam_id":76561198000967076,"connected_time":2206000000000,"state":"active","ping":130},{"user_id":265,"name":"jimmy bob","steam_id":76561198319583692,"connected_time":2874000000000,"state":"active","ping":65},{"user_id":261,"name":"mq","steam_id":76561198091888948,"connected_time":3501000000000,"state":"active","ping":45},{"user_id":223,"name":"Brandonazz","steam_id":76561197994366351,"connected_time":5680000000000,"state":"active","ping":127},{"user_id":285,"name":"impossible whopper eater","steam_id":76561198058641805,"connected_time":1357000000000,"state":"active","ping":47},{"user_id":292,"name":"hammertime","steam_id":76561199097714393,"connected_time":958000000000,"state":"active","ping":151},{"user_id":282,"name":"face beautiful lies","steam_id":76561198079277466,"connected_time":1815000000000,"state":"active","ping":75},{"user_id":195,"name":"Ch4bby","steam_id":76561198058792875,"connected_time":7341000000000,"state":"active","ping":59},{"user_id":295,"name":"ToxicBlonde","steam_id":76561198136633815,"connected_time":905000000000,"state":"active","ping":58},{"user_id":263,"name":"MisterGQ","steam_id":76561198018415918,"connected_time":3496000000000,"state":"active","ping":62},{"user_id":251,"name":"CuJIA_TPAHCJIuTA","steam_id":76561198149654361,"connected_time":4083000000000,"state":"active","ping":75},{"user_id":296,"name":"Jonny J","steam_id":76561198027710849,"connected_time":898000000000,"state":"active","ping":79},{"user_id":299,"name":"34 Petabyte QR Code ZIP Bomb","steam_id":76561198083017384,"connected_time":780000000000,"state":"active","ping":44}]},{"server_id":114,"name":"Uncletopia | London | 2 | All Maps","name_short":"lon-2","host":"lon-1.uk.uncletopia.com","port":27025,"enabled":true,"region":"eu","cc":"gb","latitude":51.509865,"longitude":-0.118092,"reserved":0,"last_update":"0001-01-01T00:00:00Z","name_a2s":"Uncletopia | London | 2 | All Maps","protocol":17,"map":"cp_dustbowl","folder":"tf","game":"Team Fortress","app_id":440,"player_count":24,"max_players":24,"Bots":0,"server_type":"Dedicated","server_os":"Linux","password":true,"vac":true,"version":"7961495","steam_id":85568392924470941,"keywords":["cp","nocrits","nodmgspread","uncletopia"],"game_id":440,"stv_port":27026,"stv_name":"Uncletopia | London | 2 | All Maps | STV","players":[{"user_id":186,"name":"Plep","steam_id":76561198840259819,"connected_time":1645000000000,"state":"active","ping":56},{"user_id":204,"name":"Even R√º√ºd","steam_id":76561197981144291,"connected_time":235000000000,"state":"active","ping":71},{"user_id":197,"name":"Para Bellum","steam_id":76561198375413446,"connected_time":1213000000000,"state":"active","ping":62},{"user_id":153,"name":"throne","steam_id":76561198059723960,"connected_time":4408000000000,"state":"active","ping":53},{"user_id":185,"name":"nky!","steam_id":76561198086229832,"connected_time":1886000000000,"state":"active","ping":62},{"user_id":159,"name":"spy among us","steam_id":76561198392537090,"connected_time":4104000000000,"state":"active","ping":66},{"user_id":190,"name":"Peanut","steam_id":76561198064585972,"connected_time":1504000000000,"state":"active","ping":76},{"user_id":191,"name":"Starly","steam_id":76561198055771921,"connected_time":1500000000000,"state":"active","ping":55},{"user_id":198,"name":"szmen","steam_id":76561198072569764,"connected_time":1068000000000,"state":"active","ping":86},{"user_id":192,"name":"After8","steam_id":76561198090750865,"connected_time":1500000000000,"state":"active","ping":75},{"user_id":133,"name":"Gears","steam_id":76561198872485939,"connected_time":5340000000000,"state":"active","ping":155},{"user_id":183,"name":"D0kai","steam_id":76561198389271720,"connected_time":1990000000000,"state":"active","ping":52},{"user_id":188,"name":"Hoodley","steam_id":76561198066974902,"connected_time":1521000000000,"state":"active","ping":105},{"user_id":180,"name":"silicon based life form","steam_id":76561199127121346,"connected_time":2206000000000,"state":"active","ping":55},{"user_id":151,"name":"Arthur","steam_id":76561198066109166,"connected_time":4592000000000,"state":"active","ping":89},{"user_id":175,"name":"Nomic","steam_id":76561198209168943,"connected_time":2669000000000,"state":"active","ping":85},{"user_id":203,"name":"Stupid Sexy Flanders #Save tf2","steam_id":76561198136311983,"connected_time":521000000000,"state":"active","ping":131},{"user_id":205,"name":"Pinochet","steam_id":76561198194042394,"connected_time":10000000000,"state":"spawning","ping":230},{"user_id":199,"name":"HealthHazard","steam_id":76561198212549753,"connected_time":1043000000000,"state":"active","ping":47},{"user_id":163,"name":"GMsU | Rebikas","steam_id":76561198077053764,"connected_time":3980000000000,"state":"active","ping":48},{"user_id":193,"name":"Jew","steam_id":76561198332383755,"connected_time":1494000000000,"state":"active","ping":96},{"user_id":194,"name":"Finem Belli","steam_id":76561198227177976,"connected_time":1493000000000,"state":"active","ping":46},{"user_id":196,"name":"Ludwig","steam_id":76561198438861026,"connected_time":1461000000000,"state":"active","ping":61},{"user_id":201,"name":"Mr Xbow","steam_id":76561198862864460,"connected_time":1029000000000,"state":"active","ping":55}]},{"server_id":320,"name":"Uncletopia | London | 3 | All Maps","name_short":"lon-3","host":"lon-1.uk.uncletopia.com","port":27035,"enabled":true,"region":"eu","cc":"gb","latitude":51.509865,"longitude":-0.118092,"reserved":0,"last_update":"0001-01-01T00:00:00Z","name_a2s":"Uncletopia | London | 3 | All Maps","protocol":17,"map":"pl_upward","folder":"tf","game":"Team Fortress","app_id":440,"player_count":24,"max_players":24,"Bots":0,"server_type":"Dedicated","server_os":"Linux","password":true,"vac":true,"version":"7961495","steam_id":85568392924510192,"keywords":["nocrits","nodmgspread","payload","uncletopia"],"game_id":440,"stv_port":27036,"stv_name":"Uncletopia | London | 3 | All Maps | STV","players":[{"user_id":100,"name":"Parmenides","steam_id":76561198079849761,"connected_time":2812000000000,"state":"active","ping":54},{"user_id":147,"name":"hipster_doofus","steam_id":76561197970902697,"connected_time":175000000000,"state":"active","ping":59},{"user_id":116,"name":"negativeinteger","steam_id":76561199496776658,"connected_time":2345000000000,"state":"active","ping":52},{"user_id":154,"name":"smokin joe","steam_id":76561198440837262,"connected_time":37000000000,"state":"active","ping":46},{"user_id":125,"name":"Proud Jojo Fan #TF2SP","steam_id":76561198847327216,"connected_time":1539000000000,"state":"active","ping":70},{"user_id":148,"name":"Puss in Boots","steam_id":76561198211599767,"connected_time":168000000000,"state":"active","ping":54},{"user_id":145,"name":"Optimist 50","steam_id":76561198039631442,"connected_time":435000000000,"state":"active","ping":83},{"user_id":149,"name":"Cosmic Gamer","steam_id":76561198027357981,"connected_time":138000000000,"state":"active","ping":102},{"user_id":146,"name":"Guwop","steam_id":76561197970425737,"connected_time":207000000000,"state":"active","ping":145},{"user_id":128,"name":"MaypulSoyrup","steam_id":76561199213966821,"connected_time":1428000000000,"state":"active","ping":69},{"user_id":150,"name":"benjaminmarkMLP","steam_id":76561198920361202,"connected_time":124000000000,"state":"active","ping":132},{"user_id":138,"name":"Eox","steam_id":76561198028179912,"connected_time":1108000000000,"state":"active","ping":50},{"user_id":132,"name":"Smilez","steam_id":76561197999353870,"connected_time":1351000000000,"state":"active","ping":45},{"user_id":111,"name":"Toxic_Cicity","steam_id":76561198165753440,"connected_time":2422000000000,"state":"active","ping":101},{"user_id":133,"name":"heal","steam_id":76561198046754534,"connected_time":1349000000000,"state":"active","ping":89},{"user_id":141,"name":"Radigan-Flanders::","steam_id":76561198100439744,"connected_time":1037000000000,"state":"active","ping":32},{"user_id":90,"name":"Itai","steam_id":76561198804555329,"connected_time":3636000000000,"state":"active","ping":112},{"user_id":144,"name":"ÓÅ≠ Sir-Ignyr ÓÅÆ","steam_id":76561198043828572,"connected_time":519000000000,"state":"active","ping":45},{"user_id":139,"name":"Adrian Picche","steam_id":76561198009335657,"connected_time":1075000000000,"state":"active","ping":117},{"user_id":134,"name":"Defanovv","steam_id":76561199100867345,"connected_time":1347000000000,"state":"active","ping":66},{"user_id":152,"name":"Heavy Weapons Guy TF2","steam_id":76561199434489438,"connected_time":65000000000,"state":"active","ping":283},{"user_id":143,"name":"autistic luigi","steam_id":76561199218285040,"connected_time":939000000000,"state":"active","ping":88},{"user_id":136,"name":"rummy","steam_id":76561197997573379,"connected_time":1285000000000,"state":"active","ping":43},{"user_id":153,"name":"please do not the cat","steam_id":76561198089003514,"connected_time":65000000000,"state":"active","ping":59}]},{"server_id":321,"name":"Uncletopia | London | 4 | All Maps","name_short":"lon-4","host":"lon-1.uk.uncletopia.com","port":27045,"enabled":true,"region":"eu","cc":"gb","latitude":51.509865,"longitude":-0.118092,"reserved":0,"last_update":"0001-01-01T00:00:00Z","name_a2s":"Uncletopia | London | 4 | All Maps","protocol":17,"map":"koth_suijin","folder":"tf","game":"Team Fortress","app_id":440,"player_count":0,"max_players":24,"Bots":0,"server_type":"Dedicated","server_os":"Linux","password":true,"vac":true,"version":"7961495","steam_id":85568392924510193,"keywords":["cp","nocrits","nodmgspread","uncletopia"],"game_id":440,"stv_port":27046,"stv_name":"Uncletopia | London | 4 | All Maps | STV","players":null},{"server_id":21,"name":"Uncletopia | London | 5 | All Maps","name_short":"lon-5","host":"lon-1.uk.uncletopia.com","port":27055,"enabled":true,"region":"eu","cc":"gb","latitude":51.509865,"longitude":-0.118092,"reserved":0,"last_update":"0001-01-01T00:00:00Z","name_a2s":"Uncletopia | London | 5 | All Maps","protocol":17,"map":"koth_harvest_final","folder":"tf","game":"Team Fortress","app_id":440,"player_count":19,"max_players":24,"Bots":0,"server_type":"Dedicated","server_os":"Linux","password":true,"vac":true,"version":"7961495","steam_id":85568392924742829,"keywords":["cp","nocrits","nodmgspread","uncletopia"],"game_id":440,"stv_port":27056,"stv_name":"Uncletopia | London | 5 | All Maps | STV","players":[{"user_id":518,"name":"kryhu","steam_id":76561198293327713,"connected_time":1546000000000,"state":"active","ping":75},{"user_id":538,"name":"John Harro","steam_id":76561198143584195,"connected_time":39000000000,"state":"active","ping":44},{"user_id":502,"name":"Captain Puddleboat","steam_id":76561198053913970,"connected_time":2120000000000,"state":"active","ping":70},{"user_id":537,"name":"lono","steam_id":76561198144457842,"connected_time":119000000000,"state":"active","ping":108},{"user_id":535,"name":"HaylingZar","steam_id":76561198053559897,"connected_time":286000000000,"state":"active","ping":56},{"user_id":522,"name":"Meshers","steam_id":76561198260064322,"connected_time":708000000000,"state":"active","ping":59},{"user_id":521,"name":"hardy","steam_id":76561198029228735,"connected_time":840000000000,"state":"active","ping":48},{"user_id":479,"name":"H√©rosFunk","steam_id":76561198053110916,"connected_time":3326000000000,"state":"active","ping":52},{"user_id":496,"name":"TheEventGuy","steam_id":76561197972797744,"connected_time":2324000000000,"state":"active","ping":83},{"user_id":539,"name":"Muda Mystico","steam_id":76561199074542996,"connected_time":8000000000,"state":"active","ping":147},{"user_id":540,"name":"Redumpus Demarcus U. the 3rd","steam_id":76561199162894483,"connected_time":5000000000,"state":"spawning","ping":262},{"user_id":517,"name":"Void","steam_id":76561199186496740,"connected_time":1652000000000,"state":"active","ping":161},{"user_id":527,"name":"Bill_nye_epic","steam_id":76561199216249214,"connected_time":512000000000,"state":"active","ping":162},{"user_id":526,"name":"d","steam_id":76561198165550964,"connected_time":515000000000,"state":"active","ping":46},{"user_id":530,"name":"Flying Chemist","steam_id":76561198085039837,"connected_time":414000000000,"state":"active","ping":68},{"user_id":533,"name":"Dylan","steam_id":76561199199740800,"connected_time":319000000000,"state":"active","ping":44},{"user_id":482,"name":"epic party rat","steam_id":76561199100632053,"connected_time":3285000000000,"state":"active","ping":56},{"user_id":525,"name":"Kahvi","steam_id":76561198723244199,"connected_time":646000000000,"state":"active","ping":71},{"user_id":491,"name":"Geoff the Oracle","steam_id":76561198053759965,"connected_time":3014000000000,"state":"active","ping":56}]},{"server_id":22,"name":"Uncletopia | London | 6 | All Maps","name_short":"lon-6","host":"lon-1.uk.uncletopia.com","port":27065,"enabled":true,"region":"eu","cc":"gb","latitude":51.509865,"longitude":-0.118092,"reserved":0,"last_update":"0001-01-01T00:00:00Z","name_a2s":"Uncletopia | London | 6 | All Maps","protocol":17,"map":"pl_upward","folder":"tf","game":"Team Fortress","app_id":440,"player_count":24,"max_players":24,"Bots":0,"server_type":"Dedicated","server_os":"Linux","password":true,"vac":true,"version":"7961495","steam_id":85568392924742830,"keywords":["nocrits","nodmgspread","payload","uncletopia"],"game_id":440,"stv_port":27066,"stv_name":"Uncletopia | London | 6 | All Maps | STV","players":[{"user_id":312,"name":"Soya Suki","steam_id":76561197998106435,"connected_time":856000000000,"state":"active","ping":51},{"user_id":302,"name":"H1DD3 gaming","steam_id":76561198855897385,"connected_time":1347000000000,"state":"active","ping":67},{"user_id":268,"name":"mixxxa_french","steam_id":76561198085098243,"connected_time":4091000000000,"state":"active","ping":116},{"user_id":313,"name":"TryX","steam_id":76561199356781475,"connected_time":785000000000,"state":"active","ping":122},{"user_id":306,"name":"Ibelieveto","steam_id":76561198831479712,"connected_time":1220000000000,"state":"active","ping":54},{"user_id":315,"name":"Spetse","steam_id":76561197990649972,"connected_time":703000000000,"state":"active","ping":85},{"user_id":322,"name":"Fissure","steam_id":76561198272595481,"connected_time":22000000000,"state":"active","ping":74},{"user_id":278,"name":"Heavy TF2 in irl?!","steam_id":76561198082502910,"connected_time":3576000000000,"state":"active","ping":58},{"user_id":316,"name":"spy main 69420","steam_id":76561199437330739,"connected_time":648000000000,"state":"active","ping":61},{"user_id":317,"name":"AHHHHHHHHHHHHHHHHHHHHHHHHHHHH","steam_id":76561199202637333,"connected_time":624000000000,"state":"active","ping":71},{"user_id":303,"name":"Niemand","steam_id":76561198100601081,"connected_time":1317000000000,"state":"active","ping":55},{"user_id":314,"name":"Chat Noir","steam_id":76561198069513598,"connected_time":750000000000,"state":"active","ping":127},{"user_id":290,"name":"Cantorna","steam_id":76561199492511143,"connected_time":2142000000000,"state":"active","ping":100},{"user_id":321,"name":"I I","steam_id":76561199101935057,"connected_time":71000000000,"state":"active","ping":114},{"user_id":304,"name":"Glass Joe","steam_id":76561198221704772,"connected_time":1267000000000,"state":"active","ping":152},{"user_id":305,"name":"jj","steam_id":76561198079200985,"connected_time":1259000000000,"state":"active","ping":54},{"user_id":318,"name":"CrankShaft","steam_id":76561197970750813,"connected_time":610000000000,"state":"active","ping":130},{"user_id":280,"name":"Sicmendor ...","steam_id":76561197962107049,"connected_time":3464000000000,"state":"active","ping":72},{"user_id":292,"name":"Aku+","steam_id":76561198813782795,"connected_time":2068000000000,"state":"active","ping":88},{"user_id":309,"name":"[FP] Shiken","steam_id":76561198257905663,"connected_time":983000000000,"state":"active","ping":59},{"user_id":285,"name":"Bob Sacamano","steam_id":76561198085610701,"connected_time":3208000000000,"state":"active","ping":92},{"user_id":319,"name":"[FP] Rune","steam_id":76561198030842879,"connected_time":428000000000,"state":"active","ping":42},{"user_id":293,"name":"name me pls","steam_id":76561199273576072,"connected_time":2000000000000,"state":"active","ping":57},{"user_id":311,"name":"Revenge of the Jews in 3D","steam_id":76561199381623663,"connected_time":944000000000,"state":"active","ping":101}]},{"server_id":40,"name":"Uncletopia | London | 7 | Stopwatch","name_short":"lon-7","host":"lon-1.uk.uncletopia.com","port":27075,"enabled":true,"region":"eu","cc":"gb","latitude":51.509865,"longitude":-0.118092,"reserved":0,"last_update":"0001-01-01T00:00:00Z","name_a2s":"Uncletopia | London | 7 | Stopwatch","protocol":17,"map":"pl_swiftwater_final1","folder":"tf","game":"Team Fortress","app_id":440,"player_count":21,"max_players":24,"Bots":0,"server_type":"Dedicated","server_os":"Linux","password":true,"vac":true,"version":"7961495","steam_id":85568392924964314,"keywords":["nocrits","nodmgspread","payload","uncletopia"],"game_id":440,"stv_port":27076,"stv_name":"Uncletopia | London | 7 | Stopwatch | STV","players":[{"user_id":62,"name":"Ferrariracer5f1","steam_id":76561199229815098,"connected_time":1709000000000,"state":"active","ping":54},{"user_id":38,"name":"Wario","steam_id":76561198356089255,"connected_time":2756000000000,"state":"active","ping":72},{"user_id":79,"name":"Set","steam_id":76561198261918055,"connected_time":952000000000,"state":"active","ping":123},{"user_id":89,"name":"Mr. Luigi","steam_id":76561198167312951,"connected_time":406000000000,"state":"active","ping":40},{"user_id":92,"name":"Don O' Gon","steam_id":76561199120626837,"connected_time":199000000000,"state":"active","ping":146},{"user_id":71,"name":"joachym","steam_id":76561198428579761,"connected_time":1386000000000,"state":"active","ping":75},{"user_id":20,"name":"Zagger","steam_id":76561198361832957,"connected_time":4769000000000,"state":"active","ping":82},{"user_id":21,"name":"capela","steam_id":76561198200888385,"connected_time":4758000000000,"state":"active","ping":72},{"user_id":22,"name":"Sanic the Hegehoge","steam_id":76561198208073317,"connected_time":4729000000000,"state":"active","ping":83},{"user_id":39,"name":"dob:cob","steam_id":76561198253323044,"connected_time":2714000000000,"state":"active","ping":79},{"user_id":73,"name":"Monsteh","steam_id":76561198325898181,"connected_time":1226000000000,"state":"active","ping":78},{"user_id":85,"name":"SENTRY GUN","steam_id":76561199111046820,"connected_time":633000000000,"state":"active","ping":84},{"user_id":49,"name":"HilldogGaming‚ôõ","steam_id":76561198082209322,"connected_time":2299000000000,"state":"active","ping":87},{"user_id":52,"name":"Bombilla","steam_id":76561198084281798,"connected_time":2067000000000,"state":"active","ping":74},{"user_id":75,"name":"Major","steam_id":76561198086483282,"connected_time":1168000000000,"state":"active","ping":54},{"user_id":56,"name":"fiddlesticks","steam_id":76561198155229347,"connected_time":1916000000000,"state":"active","ping":44},{"user_id":93,"name":"Zyliath","steam_id":76561198245083212,"connected_time":17000000000,"state":"spawning","ping":141},{"user_id":59,"name":"rabbit | trade.tf","steam_id":76561198378990855,"connected_time":1793000000000,"state":"active","ping":100},{"user_id":82,"name":"kami","steam_id":76561198368013834,"connected_time":720000000000,"state":"active","ping":84},{"user_id":83,"name":"schmick h_stt 0","steam_id":76561198039537958,"connected_time":686000000000,"state":"active","ping":44},{"user_id":87,"name":"SynK","steam_id":76561198443473087,"connected_time":570000000000,"state":"active","ping":74}]},{"server_id":41,"name":"Uncletopia | London | 8 | Community","name_short":"lon-8","host":"lon-1.uk.uncletopia.com","port":27085,"enabled":true,"region":"eu","cc":"gb","latitude":51.509865,"longitude":-0.118092,"reserved":0,"last_update":"0001-01-01T00:00:00Z","name_a2s":"Uncletopia | London | 8 | Community","protocol":17,"map":"cp_snakewater_final1","folder":"tf","game":"Team Fortress","app_id":440,"player_count":0,"max_players":24,"Bots":0,"server_type":"Dedicated","server_os":"Linux","password":true,"vac":true,"version":"7961495","steam_id":85568392924964315,"keywords":["cp","nocrits","nodmgspread","uncletopia"],"game_id":440,"stv_port":27086,"stv_name":"Uncletopia | London | 8 | Community | STV","players":null},{"server_id":300,"name":"Uncletopia | Montr√©al | 1 | All Maps","name_short":"mtl-1","host":"mtl-1.ca.uncletopia.com","port":27015,"enabled":true,"region":"us-east","cc":"ca","latitude":45.50889,"longitude":-73.56167,"reserved":0,"last_update":"0001-01-01T00:00:00Z","name_a2s":"","protocol":0,"map":"","folder":"","game":"","app_id":0,"player_count":0,"max_players":0,"Bots":0,"server_type":"","server_os":"","password":false,"vac":false,"version":"","steam_id":0,"keywords":null,"game_id":0,"stv_port":0,"stv_name":"","players":null},{"server_id":301,"name":"Uncletopia | Montr√©al | 2 | ???","name_short":"mtl-2","host":"mtl-1.ca.uncletopia.com","port":27025,"enabled":true,"region":"us-east","cc":"ca","latitude":45.50889,"longitude":-73.56167,"reserved":0,"last_update":"0001-01-01T00:00:00Z","name_a2s":"","protocol":0,"map":"","folder":"","game":"","app_id":0,"player_count":0,"max_players":0,"Bots":0,"server_type":"","server_os":"","password":false,"vac":false,"version":"","steam_id":0,"keywords":null,"game_id":0,"stv_port":0,"stv_name":"","players":null},{"server_id":13,"name":"Uncletopia | New York City | 1 | All Maps","name_short":"nyc-1","host":"nyc-1.us.uncletopia.com","port":27015,"enabled":true,"region":"us-east","cc":"us","latitude":40.73061,"longitude":-73.93524,"reserved":0,"last_update":"0001-01-01T00:00:00Z","name_a2s":"Uncletopia | New York City | 1 | All Maps","protocol":17,"map":"pl_barnblitz","folder":"tf","game":"Team Fortress","app_id":440,"player_count":24,"max_players":24,"Bots":0,"server_type":"Dedicated","server_os":"Linux","password":true,"vac":true,"version":"7961495","steam_id":85568392924469993,"keywords":["nocrits","nodmgspread","payload","uncletopia"],"game_id":440,"stv_port":27016,"stv_name":"Uncletopia | New York City | 1 | All Maps | STV","players":[{"user_id":12,"name":"GummybearKillr","steam_id":76561198031235750,"connected_time":1984000000000,"state":"active","ping":52},{"user_id":15,"name":"demoman","steam_id":76561199101808144,"connected_time":606000000000,"state":"active","ping":102},{"user_id":14,"name":"Dr. Phil","steam_id":76561199229639507,"connected_time":880000000000,"state":"active","ping":88},{"user_id":16,"name":"Fried Water?!","steam_id":76561198053164815,"connected_time":515000000000,"state":"active","ping":53},{"user_id":17,"name":"SushiYum","steam_id":76561199376772893,"connected_time":514000000000,"state":"active","ping":66},{"user_id":27,"name":"clippy","steam_id":76561199101412758,"connected_time":215000000000,"state":"active","ping":134},{"user_id":19,"name":"MeKaso TropStar","steam_id":76561199109895840,"connected_time":494000000000,"state":"active","ping":50},{"user_id":20,"name":"JamBam","steam_id":76561199047384188,"connected_time":375000000000,"state":"active","ping":107},{"user_id":21,"name":"Xavi","steam_id":76561198337783795,"connected_time":340000000000,"state":"active","ping":48},{"user_id":22,"name":"Mayor McCheese","steam_id":76561198095788861,"connected_time":304000000000,"state":"active","ping":72},{"user_id":23,"name":"put fentanyl back in pepsi","steam_id":76561198238592900,"connected_time":288000000000,"state":"active","ping":93},{"user_id":24,"name":"CitationMachine","steam_id":76561199340032458,"connected_time":260000000000,"state":"active","ping":75},{"user_id":25,"name":"menk3","steam_id":76561198120888597,"connected_time":253000000000,"state":"active","ping":55},{"user_id":26,"name":"Nordie","steam_id":76561198102297774,"connected_time":245000000000,"state":"active","ping":76},{"user_id":28,"name":"index_bug","steam_id":76561199057581450,"connected_time":177000000000,"state":"active","ping":45},{"user_id":29,"name":"banana weapon collector","steam_id":76561199381954163,"connected_time":176000000000,"state":"active","ping":100},{"user_id":30,"name":"Fleetway","steam_id":76561198392105594,"connected_time":146000000000,"state":"active","ping":63},{"user_id":31,"name":"Taco","steam_id":76561198185185694,"connected_time":131000000000,"state":"active","ping":91},{"user_id":32,"name":"Pistol Freeman","steam_id":76561198026818915,"connected_time":92000000000,"state":"active","ping":67},{"user_id":33,"name":"Dr Caesar's Palace MD","steam_id":76561198001242924,"connected_time":80000000000,"state":"active","ping":135},{"user_id":34,"name":"H202","steam_id":76561198149361309,"connected_time":50000000000,"state":"active","ping":85},{"user_id":35,"name":"Tomfoolery","steam_id":76561198381365665,"connected_time":44000000000,"state":"active","ping":50},{"user_id":36,"name":"Redneck","steam_id":76561198300310545,"connected_time":40000000000,"state":"active","ping":87},{"user_id":37,"name":"com lag","steam_id":76561198019019392,"connected_time":18000000000,"state":"active","ping":74}]},{"server_id":14,"name":"Uncletopia | New York City | 2 | All Maps","name_short":"nyc-2","host":"nyc-1.us.uncletopia.com","port":27025,"enabled":true,"region":"us-east","cc":"us","latitude":40.73061,"longitude":-73.93524,"reserved":0,"last_update":"0001-01-01T00:00:00Z","name_a2s":"Uncletopia | New York City | 2 | All Maps","protocol":17,"map":"pl_snowycoast","folder":"tf","game":"Team Fortress","app_id":440,"player_count":0,"max_players":24,"Bots":0,"server_type":"Dedicated","server_os":"Linux","password":true,"vac":true,"version":"7961495","steam_id":85568392924469994,"keywords":["nocrits","nodmgspread","payload","uncletopia"],"game_id":440,"stv_port":27026,"stv_name":"Uncletopia | New York City | 2 | All Maps | STV","players":null},{"server_id":15,"name":"Uncletopia | New York City | 3 | Stopwatch","name_short":"nyc-3","host":"nyc-1.us.uncletopia.com","port":27035,"enabled":true,"region":"us-east","cc":"us","latitude":40.73061,"longitude":-73.93524,"reserved":0,"last_update":"0001-01-01T00:00:00Z","name_a2s":"Uncletopia | New York City | 3 | Stopwatch","protocol":17,"map":"pl_snowycoast","folder":"tf","game":"Team Fortress","app_id":440,"player_count":0,"max_players":24,"Bots":0,"server_type":"Dedicated","server_os":"Linux","password":true,"vac":true,"version":"7961495","steam_id":85568392924742820,"keywords":["nocrits","nodmgspread","payload","uncletopia"],"game_id":440,"stv_port":27036,"stv_name":"Uncletopia | New York City | 3 | Stopwatch | STV","players":null},{"server_id":16,"name":"Uncletopia | New York City | 4 | Community","name_short":"nyc-4","host":"nyc-1.us.uncletopia.com","port":27045,"enabled":true,"region":"us-east","cc":"us","latitude":40.73061,"longitude":-73.93524,"reserved":0,"last_update":"0001-01-01T00:00:00Z","name_a2s":"Uncletopia | New York City | 4 | Community","protocol":17,"map":"cp_altitude","folder":"tf","game":"Team Fortress","app_id":440,"player_count":0,"max_players":24,"Bots":0,"server_type":"Dedicated","server_os":"Linux","password":true,"vac":true,"version":"7961495","steam_id":85568392924742821,"keywords":["cp","nocrits","nodmgspread","uncletopia"],"game_id":440,"stv_port":27046,"stv_name":"Uncletopia | New York City | 4 | Community | STV","players":null},{"server_id":142,"name":"Uncletopia | S√£o Paulo | 1 | All Maps","name_short":"sao-1","host":"sao-1.br.uncletopia.com","port":27015,"enabled":true,"region":"sa","cc":"br","latitude":-23.533773,"longitude":-46.62529,"reserved":0,"last_update":"0001-01-01T00:00:00Z","name_a2s":"Uncletopia | S√£o Paulo | 1 | All Maps","protocol":17,"map":"cp_mountainlab","folder":"tf","game":"Team Fortress","app_id":440,"player_count":0,"max_players":24,"Bots":0,"server_type":"Dedicated","server_os":"Linux","password":true,"vac":true,"version":"7961495","steam_id":85568392924469996,"keywords":["cp","nocrits","nodmgspread","uncletopia"],"game_id":440,"stv_port":27016,"stv_name":"Uncletopia | S√£o Paulo | 1 | All Maps | STV","players":null},{"server_id":143,"name":"Uncletopia | S√£o Paulo | 2 | Community","name_short":"sao-2","host":"sao-2.br.uncletopia.com","port":27015,"enabled":true,"region":"sa","cc":"br","latitude":-23.533773,"longitude":-46.62529,"reserved":0,"last_update":"0001-01-01T00:00:00Z","name_a2s":"Uncletopia | S√£o Paulo | 2 | Community","protocol":17,"map":"workshop/koth_synthetic_rc6a.ugc1549817316","folder":"tf","game":"Team Fortress","app_id":440,"player_count":0,"max_players":24,"Bots":0,"server_type":"Dedicated","server_os":"Linux","password":true,"vac":true,"version":"7961495","steam_id":85568392924485349,"keywords":["cp","nocrits","nodmgspread","uncletopia"],"game_id":440,"stv_port":27016,"stv_name":"Uncletopia | S√£o Paulo | 2 | Community | STV","players":null},{"server_id":7,"name":"Uncletopia | Seattle | 1 | All Maps","name_short":"sea-1","host":"sea-1.us.uncletopia.com","port":27015,"enabled":true,"region":"us-west","cc":"us","latitude":47.608013,"longitude":-122.33517,"reserved":0,"last_update":"0001-01-01T00:00:00Z","name_a2s":"Uncletopia | Seattle | 1 | All Maps","protocol":17,"map":"koth_viaduct","folder":"tf","game":"Team Fortress","app_id":440,"player_count":0,"max_players":24,"Bots":0,"server_type":"Dedicated","server_os":"Linux","password":true,"vac":true,"version":"7961495","steam_id":85568392924469997,"keywords":["cp","nocrits","nodmgspread","uncletopia"],"game_id":440,"stv_port":27016,"stv_name":"Uncletopia | Seattle | 1 | All Maps | STV","players":null},{"server_id":119,"name":"Uncletopia | Seattle | 2 | All Maps","name_short":"sea-2","host":"sea-1.us.uncletopia.com","port":27025,"enabled":true,"region":"us-west","cc":"us","latitude":47.608013,"longitude":-122.33517,"reserved":0,"last_update":"0001-01-01T00:00:00Z","name_a2s":"Uncletopia | Seattle | 2 | All Maps","protocol":17,"map":"koth_lakeside_final","folder":"tf","game":"Team Fortress","app_id":440,"player_count":0,"max_players":24,"Bots":0,"server_type":"Dedicated","server_os":"Linux","password":true,"vac":true,"version":"7961495","steam_id":85568392924469998,"keywords":["cp","nocrits","nodmgspread","uncletopia"],"game_id":440,"stv_port":27026,"stv_name":"Uncletopia | Seattle | 2 | All Maps | STV","players":null},{"server_id":406,"name":"Uncletopia | Seattle | 3 | Stopwatch","name_short":"sea-3","host":"sea-1.us.uncletopia.com","port":27035,"enabled":true,"region":"us-west","cc":"us","latitude":47.608013,"longitude":-122.33517,"reserved":0,"last_update":"0001-01-01T00:00:00Z","name_a2s":"Uncletopia | Seattle | 3 | Stopwatch","protocol":17,"map":"cp_snakewater_final1","folder":"tf","game":"Team Fortress","app_id":440,"player_count":0,"max_players":24,"Bots":0,"server_type":"Dedicated","server_os":"Linux","password":true,"vac":true,"version":"7961495","steam_id":85568392924515217,"keywords":["cp","nocrits","nodmgspread","uncletopia"],"game_id":440,"stv_port":27036,"stv_name":"Uncletopia | Seattle | 3 | Stopwatch | STV","players":null},{"server_id":17,"name":"Uncletopia | San Francisco | 1 | All Maps","name_short":"sfo-1","host":"sfo-1.us.uncletopia.com","port":27015,"enabled":true,"region":"us-west","cc":"us","latitude":37.77397,"longitude":-122.4313,"reserved":0,"last_update":"0001-01-01T00:00:00Z","name_a2s":"Uncletopia | San Francisco | 1 | All Maps","protocol":17,"map":"koth_cascade","folder":"tf","game":"Team Fortress","app_id":440,"player_count":0,"max_players":24,"Bots":0,"server_type":"Dedicated","server_os":"Linux","password":true,"vac":true,"version":"7961495","steam_id":85568392924469999,"keywords":["cp","nocrits","nodmgspread","uncletopia"],"game_id":440,"stv_port":27016,"stv_name":"Uncletopia | San Francisco | 1 | All Maps | STV","players":null},{"server_id":18,"name":"Uncletopia | San Francisco | 2 | All Maps","name_short":"sfo-2","host":"sfo-1.us.uncletopia.com","port":27025,"enabled":true,"region":"us-west","cc":"us","latitude":37.77397,"longitude":-122.4313,"reserved":0,"last_update":"0001-01-01T00:00:00Z","name_a2s":"Uncletopia | San Francisco | 2 | All Maps","protocol":17,"map":"pl_frontier_final","folder":"tf","game":"Team Fortress","app_id":440,"player_count":0,"max_players":24,"Bots":0,"server_type":"Dedicated","server_os":"Linux","password":true,"vac":true,"version":"7961495","steam_id":85568392924470000,"keywords":["nocrits","nodmgspread","payload","uncletopia"],"game_id":440,"stv_port":27026,"stv_name":"Uncletopia | San Francisco | 2 | All Maps | STV","players":null},{"server_id":19,"name":"Uncletopia | San Francisco | 3 | Stopwatch","name_short":"sfo-3","host":"sfo-1.us.uncletopia.com","port":27035,"enabled":true,"region":"us-west","cc":"us","latitude":37.77397,"longitude":-122.4313,"reserved":0,"last_update":"0001-01-01T00:00:00Z","name_a2s":"Uncletopia | San Francisco | 3 | Stopwatch","protocol":17,"map":"pl_pier","folder":"tf","game":"Team Fortress","app_id":440,"player_count":0,"max_players":24,"Bots":0,"server_type":"Dedicated","server_os":"Linux","password":true,"vac":true,"version":"7961495","steam_id":85568392924742824,"keywords":["nocrits","nodmgspread","payload","uncletopia"],"game_id":440,"stv_port":27036,"stv_name":"Uncletopia | San Francisco | 3 | Stopwatch | STV","players":null},{"server_id":20,"name":"Uncletopia | San Francisco | 4 | Community","name_short":"sfo-4","host":"sfo-1.us.uncletopia.com","port":27045,"enabled":true,"region":"us-west","cc":"us","latitude":37.77397,"longitude":-122.4313,"reserved":0,"last_update":"0001-01-01T00:00:00Z","name_a2s":"Uncletopia | San Francisco | 4 | Community","protocol":17,"map":"pl_pier","folder":"tf","game":"Team Fortress","app_id":440,"player_count":0,"max_players":24,"Bots":0,"server_type":"Dedicated","server_os":"Linux","password":true,"vac":true,"version":"7961495","steam_id":85568392924742826,"keywords":["nocrits","nodmgspread","payload","uncletopia"],"game_id":440,"stv_port":27046,"stv_name":"Uncletopia | San Francisco | 4 | Community | STV","players":null},{"server_id":141,"name":"Uncletopia | Sydney | 1 | All Maps","name_short":"syd-1","host":"syd-1.au.uncletopia.com","port":27015,"enabled":true,"region":"au","cc":"au","latitude":-33.865143,"longitude":151.2099,"reserved":0,"last_update":"0001-01-01T00:00:00Z","name_a2s":"Uncletopia | Sydney | 1 | All Maps","protocol":17,"map":"cp_snakewater_final1","folder":"tf","game":"Team Fortress","app_id":440,"player_count":3,"max_players":24,"Bots":0,"server_type":"Dedicated","server_os":"Linux","password":true,"vac":true,"version":"7961495","steam_id":85568392924470001,"keywords":["cp","nocrits","nodmgspread","uncletopia"],"game_id":440,"stv_port":27016,"stv_name":"Uncletopia | Sydney | 1 | All Maps | STV","players":[{"user_id":763,"name":"LightningBlock","steam_id":76561198289997742,"connected_time":4591000000000,"state":"active","ping":30},{"user_id":796,"name":"burfdae boi","steam_id":76561199000827969,"connected_time":1186000000000,"state":"active","ping":39},{"user_id":774,"name":"bago","steam_id":76561199057193204,"connected_time":3449000000000,"state":"active","ping":44}]},{"server_id":123,"name":"Uncletopia | Sydney | 2 | All Maps","name_short":"syd-2","host":"syd-1.au.uncletopia.com","port":27025,"enabled":true,"region":"au","cc":"au","latitude":-33.865143,"longitude":151.2099,"reserved":0,"last_update":"0001-01-01T00:00:00Z","name_a2s":"Uncletopia | Sydney | 2 | All Maps","protocol":17,"map":"pl_upward","folder":"tf","game":"Team Fortress","app_id":440,"player_count":0,"max_players":24,"Bots":0,"server_type":"Dedicated","server_os":"Linux","password":true,"vac":true,"version":"7961495","steam_id":85568392924470002,"keywords":["nocrits","nodmgspread","payload","uncletopia"],"game_id":440,"stv_port":27026,"stv_name":"Uncletopia | Sydney | 2 | All Maps | STV","players":null},{"server_id":395,"name":"Uncletopia | Sydney | 3 | All Maps","name_short":"syd-3","host":"syd-1.au.uncletopia.com","port":27035,"enabled":true,"region":"au","cc":"au","latitude":-33.865143,"longitude":151.2099,"reserved":0,"last_update":"0001-01-01T00:00:00Z","name_a2s":"Uncletopia | Sydney | 3 | All Maps","protocol":17,"map":"pl_barnblitz","folder":"tf","game":"Team Fortress","app_id":440,"player_count":0,"max_players":24,"Bots":0,"server_type":"Dedicated","server_os":"Linux","password":true,"vac":true,"version":"7961495","steam_id":85568392925194467,"keywords":["nocrits","nodmgspread","payload","uncletopia"],"game_id":440,"stv_port":27036,"stv_name":"Uncletopia | Sydney | 3 | All Maps | STV","players":null},{"server_id":396,"name":"Uncletopia | Sydney | 4 | All Maps","name_short":"syd-4","host":"syd-1.au.uncletopia.com","port":27045,"enabled":true,"region":"au","cc":"au","latitude":-33.865143,"longitude":151.2099,"reserved":0,"last_update":"0001-01-01T00:00:00Z","name_a2s":"Uncletopia | Sydney | 4 | All Maps","protocol":17,"map":"koth_highpass","folder":"tf","game":"Team Fortress","app_id":440,"player_count":0,"max_players":24,"Bots":0,"server_type":"Dedicated","server_os":"Linux","password":true,"vac":true,"version":"7961495","steam_id":85568392925397958,"keywords":["cp","nocrits","nodmgspread","uncletopia"],"game_id":440,"stv_port":27046,"stv_name":"Uncletopia | Sydney | 4 | All Maps | STV","players":null},{"server_id":58,"name":"Uncletopia | Sydney | 5 | Stopwatch","name_short":"syd-5","host":"syd-1.au.uncletopia.com","port":27055,"enabled":true,"region":"au","cc":"au","latitude":-33.865143,"longitude":151.2099,"reserved":0,"last_update":"0001-01-01T00:00:00Z","name_a2s":"Uncletopia | Sydney | 5 | Stopwatch","protocol":17,"map":"cp_sunshine","folder":"tf","game":"Team Fortress","app_id":440,"player_count":0,"max_players":24,"Bots":0,"server_type":"Dedicated","server_os":"Linux","password":true,"vac":true,"version":"7961495","steam_id":85568392925397959,"keywords":["cp","nocrits","nodmgspread","uncletopia"],"game_id":440,"stv_port":27056,"stv_name":"Uncletopia | Sydney | 5 | Stopwatch | STV","players":null},{"server_id":59,"name":"Uncletopia | Sydney | 6 | Community","name_short":"syd-6","host":"syd-1.au.uncletopia.com","port":27065,"enabled":true,"region":"au","cc":"au","latitude":-33.865143,"longitude":151.2099,"reserved":0,"last_update":"0001-01-01T00:00:00Z","name_a2s":"Uncletopia | Sydney | 6 | Community","protocol":17,"map":"workshop/koth_trenchfoot_b1a.ugc731436616","folder":"tf","game":"Team Fortress","app_id":440,"player_count":0,"max_players":24,"Bots":0,"server_type":"Dedicated","server_os":"Linux","password":true,"vac":true,"version":"7961495","steam_id":85568392925397960,"keywords":["cp","nocrits","nodmgspread","uncletopia"],"game_id":440,"stv_port":27066,"stv_name":"Uncletopia | Sydney | 6 | Community | STV","players":null},{"server_id":49,"name":"Uncletopia | Warsaw | 1 | All Maps","name_short":"waw-1","host":"waw-1.pl.uncletopia.com","port":27015,"enabled":true,"region":"eu","cc":"pl","latitude":52.2297,"longitude":21.017532,"reserved":0,"last_update":"0001-01-01T00:00:00Z","name_a2s":"Uncletopia | Warsaw | 1 | All Maps","protocol":17,"map":"koth_lakeside_final","folder":"tf","game":"Team Fortress","app_id":440,"player_count":1,"max_players":24,"Bots":0,"server_type":"Dedicated","server_os":"Linux","password":true,"vac":true,"version":"7961495","steam_id":85568392925397850,"keywords":["cp","nocrits","nodmgspread","uncletopia"],"game_id":440,"stv_port":27016,"stv_name":"Uncletopia | Warsaw | 1 | All Maps | STV","players":[{"user_id":17,"name":"dlyadiskorda44","steam_id":76561199492570064,"connected_time":284000000000,"state":"spawning","ping":41}]},{"server_id":50,"name":"Uncletopia | Warsaw | 2 | All Maps","name_short":"waw-2","host":"waw-1.pl.uncletopia.com","port":27025,"enabled":true,"region":"eu","cc":"pl","latitude":52.2297,"longitude":21.017532,"reserved":0,"last_update":"0001-01-01T00:00:00Z","name_a2s":"Uncletopia | Warsaw | 2 | All Maps","protocol":17,"map":"pl_barnblitz","folder":"tf","game":"Team Fortress","app_id":440,"player_count":7,"max_players":24,"Bots":0,"server_type":"Dedicated","server_os":"Linux","password":true,"vac":true,"version":"7961495","steam_id":85568392925397851,"keywords":["nocrits","nodmgspread","payload","uncletopia"],"game_id":440,"stv_port":27026,"stv_name":"Uncletopia | Warsaw | 2 | All Maps | STV","players":[{"user_id":8,"name":"mighty t. real","steam_id":76561199121332325,"connected_time":2801000000000,"state":"active","ping":83},{"user_id":16,"name":"Topper","steam_id":76561198841217266,"connected_time":354000000000,"state":"active","ping":115},{"user_id":20,"name":"abrax lft","steam_id":76561198252035180,"connected_time":40000000000,"state":"active","ping":30},{"user_id":17,"name":"MRKEBAB213","steam_id":76561199278447035,"connected_time":300000000000,"state":"active","ping":68},{"user_id":14,"name":"Random Dumbass","steam_id":76561199418572153,"connected_time":594000000000,"state":"active","ping":58},{"user_id":15,"name":"Riky95","steam_id":76561198095289436,"connected_time":529000000000,"state":"active","ping":60},{"user_id":19,"name":"Lowtidey","steam_id":76561198994887486,"connected_time":243000000000,"state":"active","ping":142}]},{"server_id":51,"name":"Uncletopia | Warsaw | 3 | All Maps","name_short":"waw-3","host":"waw-1.pl.uncletopia.com","port":27035,"enabled":true,"region":"eu","cc":"pl","latitude":52.2297,"longitude":21.017532,"reserved":0,"last_update":"0001-01-01T00:00:00Z","name_a2s":"Uncletopia | Warsaw | 3 | All Maps","protocol":17,"map":"koth_lakeside_final","folder":"tf","game":"Team Fortress","app_id":440,"player_count":0,"max_players":24,"Bots":0,"server_type":"Dedicated","server_os":"Linux","password":true,"vac":true,"version":"7961495","steam_id":85568392925397852,"keywords":["cp","nocrits","nodmgspread","uncletopia"],"game_id":440,"stv_port":27036,"stv_name":"Uncletopia | Warsaw | 3 | All Maps | STV","players":null},{"server_id":52,"name":"Uncletopia | Warsaw | 4 | All Maps","name_short":"waw-4","host":"waw-1.pl.uncletopia.com","port":27045,"enabled":true,"region":"eu","cc":"pl","latitude":52.2297,"longitude":21.017532,"reserved":0,"last_update":"0001-01-01T00:00:00Z","name_a2s":"Uncletopia | Warsaw | 4 | All Maps","protocol":17,"map":"pl_snowycoast","folder":"tf","game":"Team Fortress","app_id":440,"player_count":0,"max_players":24,"Bots":0,"server_type":"Dedicated","server_os":"Linux","password":true,"vac":true,"version":"7961495","steam_id":85568392925397853,"keywords":["nocrits","nodmgspread","payload","uncletopia"],"game_id":440,"stv_port":27046,"stv_name":"Uncletopia | Warsaw | 4 | All Maps | STV","players":null},{"server_id":53,"name":"Uncletopia | Warsaw | 5 | Stopwatch","name_short":"waw-5","host":"waw-1.pl.uncletopia.com","port":27055,"enabled":true,"region":"eu","cc":"pl","latitude":52.2297,"longitude":21.017532,"reserved":0,"last_update":"0001-01-01T00:00:00Z","name_a2s":"Uncletopia | Warsaw | 5 | Stopwatch","protocol":17,"map":"pl_borneo","folder":"tf","game":"Team Fortress","app_id":440,"player_count":0,"max_players":24,"Bots":0,"server_type":"Dedicated","server_os":"Linux","password":true,"vac":true,"version":"7961495","steam_id":85568392925397854,"keywords":["nocrits","nodmgspread","payload","uncletopia"],"game_id":440,"stv_port":27056,"stv_name":"Uncletopia | Warsaw | 5 | Stopwatch | STV","players":null},{"server_id":54,"name":"Uncletopia | Warsaw | 6 | Community","name_short":"waw-6","host":"waw-1.pl.uncletopia.com","port":27065,"enabled":true,"region":"eu","cc":"pl","latitude":52.2297,"longitude":21.017532,"reserved":0,"last_update":"0001-01-01T00:00:00Z","name_a2s":"Uncletopia | Warsaw | 6 | Community","protocol":17,"map":"workshop/koth_kemptown_rc1.ugc767410655","folder":"tf","game":"Team Fortress","app_id":440,"player_count":0,"max_players":24,"Bots":0,"server_type":"Dedicated","server_os":"Linux","password":true,"vac":true,"version":"7961495","steam_id":85568392925397856,"keywords":["cp","nocrits","nodmgspread","uncletopia"],"game_id":440,"stv_port":27066,"stv_name":"Uncletopia | Warsaw | 6 | Community | STV","players":null}]}