{"status":true,"message":"","result":[{"server_id":9,"name":"Uncletopia | Atlanta | 1 | All Maps","name_short":"atl-1","host":"atl-1.us.uncletopia.com","port":27015,"enabled":true,"region":"us-east","cc":"us","latitude":33.753746,"longitude":-84.38633,"reserved":0,"last_update":"0001-01-01T00:00:00Z","name_a2s":"Uncletopia | Atlanta | 1 | All Maps","protocol":17,"map":"cp_dustbowl","folder":"tf","game":"Team Fortress","app_id":440,"player_count":24,"max_players":24,"Bots":0,"server_type":"Dedicated","server_os":"Linux","password":true,"vac":true,"version":"7757534","steam_id":85568392924469982,"keywords":["cp","nocrits","nodmgspread","uncletopia"],"game_id":440,"stv_port":27016,"stv_name":"Uncletopia | Atlanta | 1 | All Maps | STV","players":[{"user_id":226,"name":"Bandi","steam_id":76561198432036026,"connected_time":145000000000,"state":"active","ping":45},{"user_id":215,"name":"SparkStorm","steam_id":76561198095817025,"connected_time":757000000000,"state":"active","ping":39},{"user_id":219,"name":"k4chow","steam_id":76561198089389901,"connected_time":597000000000,"state":"active","ping":61},{"user_id":216,"name":"Eins","steam_id":76561199030343810,"connected_time":756000000000,"state":"active","ping":47},{"user_id":194,"name":"O'Keearns","steam_id":76561198042213797,"connected_time":2805000000000,"state":"active","ping":45},{"user_id":217,"name":"cyclops","steam_id":76561197970370198,"connected_time":745000000000,"state":"active","ping":89},{"user_id":209,"name":"Quality","steam_id":76561198361132101,"connected_time":778000000000,"state":"active","ping":95},{"user_id":150,"name":"Waffle Wannabe","steam_id":76561198064510650,"connected_time":5767000000000,"state":"active","ping":72},{"user_id":202,"name":"PerpetuaForever","steam_id":76561198347444353,"connected_time":2655000000000,"state":"active","ping":68},{"user_id":218,"name":"Higgle Poggers","steam_id":76561198043960257,"connected_time":745000000000,"state":"active","ping":64},{"user_id":234,"name":"ATL1 | Lancer Fan Club","steam_id":76561198355495948,"connected_time":7000000000,"state":"active","ping":71},{"user_id":178,"name":"Bali","steam_id":76561198038693845,"connected_time":3856000000000,"state":"active","ping":71},{"user_id":170,"name":"atl1lonelyy","steam_id":76561198968001329,"connected_time":4061000000000,"state":"active","ping":47},{"user_id":222,"name":"snoops","steam_id":76561197986760351,"connected_time":522000000000,"state":"active","ping":75},{"user_id":161,"name":"Poo","steam_id":76561198265144507,"connected_time":5055000000000,"state":"active","ping":74},{"user_id":212,"name":"Mage","steam_id":76561198285026879,"connected_time":773000000000,"state":"active","ping":83},{"user_id":200,"name":"Brown_Dream","steam_id":76561198975766145,"connected_time":2667000000000,"state":"active","ping":71},{"user_id":231,"name":"Mug","steam_id":76561199282207802,"connected_time":33000000000,"state":"active","ping":73},{"user_id":162,"name":"MaybeMars","steam_id":76561198084736804,"connected_time":5045000000000,"state":"active","ping":73},{"user_id":53,"name":"scuba doo warfare","steam_id":76561198018761740,"connected_time":13260000000000,"state":"active","ping":76},{"user_id":119,"name":"lil hog","steam_id":76561199230929836,"connected_time":9242000000000,"state":"active","ping":84},{"user_id":192,"name":"Motorolª","steam_id":76561198358119669,"connected_time":2995000000000,"state":"active","ping":138},{"user_id":166,"name":"Kiso 火","steam_id":76561198141026844,"connected_time":4709000000000,"state":"active","ping":116},{"user_id":201,"name":"Dr. drips","steam_id":76561198209380493,"connected_time":2667000000000,"state":"active","ping":71}]},{"server_id":104,"name":"Uncletopia | Atlanta | 2 | All Maps","name_short":"atl-2","host":"atl-1.us.uncletopia.com","port":27025,"enabled":true,"region":"us-east","cc":"us","latitude":33.753746,"longitude":-84.38633,"reserved":0,"last_update":"0001-01-01T00:00:00Z","name_a2s":"Uncletopia | Atlanta | 2 | All Maps","protocol":17,"map":"cp_snakewater_final1","folder":"tf","game":"Team Fortress","app_id":440,"player_count":24,"max_players":24,"Bots":0,"server_type":"Dedicated","server_os":"Linux","password":true,"vac":true,"version":"7757534","steam_id":85568392924469983,"keywords":["cp","nocrits","nodmgspread","uncletopia"],"game_id":440,"stv_port":27026,"stv_name":"Uncletopia | Atlanta | 2 | All Maps | STV","players":[{"user_id":57,"name":"Pluto","steam_id":76561198338593690,"connected_time":1114000000000,"state":"active","ping":61},{"user_id":35,"name":"uhooter","steam_id":76561198007829078,"connected_time":2037000000000,"state":"active","ping":68},{"user_id":24,"name":"box","steam_id":76561198985635309,"connected_time":2294000000000,"state":"active","ping":86},{"user_id":41,"name":"jeremimi","steam_id":76561198818225102,"connected_time":1675000000000,"state":"active","ping":106},{"user_id":61,"name":"The Chosen One","steam_id":76561199046984627,"connected_time":841000000000,"state":"active","ping":70},{"user_id":42,"name":"POOTIS_OVERLORD","steam_id":76561198063850303,"connected_time":1649000000000,"state":"active","ping":75},{"user_id":28,"name":"William Afton","steam_id":76561198819442173,"connected_time":2223000000000,"state":"active","ping":139},{"user_id":40,"name":"Animal Slices","steam_id":76561198137545511,"connected_time":1724000000000,"state":"active","ping":71},{"user_id":37,"name":"VOY BOT","steam_id":76561199094836444,"connected_time":1820000000000,"state":"active","ping":146},{"user_id":65,"name":"trobin120","steam_id":76561199122420273,"connected_time":426000000000,"state":"active","ping":59},{"user_id":43,"name":"nhbiker","steam_id":76561198081277675,"connected_time":1619000000000,"state":"active","ping":60},{"user_id":39,"name":"exotic fishes","steam_id":76561199046490785,"connected_time":1775000000000,"state":"active","ping":84},{"user_id":64,"name":"Fedsmoker","steam_id":76561198047372130,"connected_time":569000000000,"state":"active","ping":82},{"user_id":45,"name":"Path","steam_id":76561198106831514,"connected_time":1540000000000,"state":"active","ping":79},{"user_id":46,"name":"bobbyreinman2009","steam_id":76561198804763186,"connected_time":1493000000000,"state":"active","ping":68},{"user_id":47,"name":"FHC | Nyle","steam_id":76561198045652639,"connected_time":1369000000000,"state":"active","ping":115},{"user_id":48,"name":"BeanBag♥♫","steam_id":76561198167002197,"connected_time":1360000000000,"state":"active","ping":132},{"user_id":49,"name":"ib88","steam_id":76561198364967316,"connected_time":1279000000000,"state":"active","ping":172},{"user_id":50,"name":"Pizzaguy108","steam_id":76561198972791353,"connected_time":1279000000000,"state":"active","ping":90},{"user_id":51,"name":"Xano","steam_id":76561198410316001,"connected_time":1259000000000,"state":"active","ping":104},{"user_id":62,"name":"skip","steam_id":76561199014240063,"connected_time":637000000000,"state":"active","ping":65},{"user_id":56,"name":"Havok","steam_id":76561198063455003,"connected_time":1126000000000,"state":"active","ping":70},{"user_id":66,"name":"lorelius hogglefart","steam_id":76561198211781375,"connected_time":345000000000,"state":"active","ping":75},{"user_id":63,"name":"custodian","steam_id":76561198058793778,"connected_time":613000000000,"state":"active","ping":71}]},{"server_id":400,"name":"Uncletopia | Atlanta | 3 | Community","name_short":"atl-3","host":"atl-1.us.uncletopia.com","port":27035,"enabled":true,"region":"us-east","cc":"us","latitude":33.753746,"longitude":-84.38633,"reserved":0,"last_update":"0001-01-01T00:00:00Z","name_a2s":"Uncletopia | Atlanta | 3 | Community","protocol":17,"map":"workshop/cp_caldera_rc2.ugc2834196889","folder":"tf","game":"Team Fortress","app_id":440,"player_count":0,"max_players":24,"Bots":0,"server_type":"Dedicated","server_os":"Linux","password":true,"vac":true,"version":"7757534","steam_id":85568392924515187,"keywords":["cp","nocrits","nodmgspread","uncletopia"],"game_id":440,"stv_port":27036,"stv_name":"Uncletopia | Atlanta | 3 | Community | STV","players":null},{"server_id":401,"name":"Uncletopia | Atlanta | 4 | No Payload","name_short":"atl-4","host":"atl-1.us.uncletopia.com","port":27045,"enabled":true,"region":"us-east","cc":"us","latitude":33.753746,"longitude":-84.38633,"reserved":0,"last_update":"0001-01-01T00:00:00Z","name_a2s":"","protocol":0,"map":"","folder":"","game":"","app_id":0,"player_count":0,"max_players":0,"Bots":0,"server_type":"","server_os":"","password":false,"vac":false,"version":"","steam_id":0,"keywords":null,"game_id":0,"stv_port":0,"stv_name":"","players":null},{"server_id":2,"name":"Uncletopia | Chicago | 1 | All Maps","name_short":"chi-1","host":"chi-1.us.uncletopia.com","port":27015,"enabled":true,"region":"us-central","cc":"us","latitude":41.881832,"longitude":-87.62318,"reserved":0,"last_update":"0001-01-01T00:00:00Z","name_a2s":"Uncletopia | Chicago | 1 | All Maps","protocol":17,"map":"pl_badwater","folder":"tf","game":"Team Fortress","app_id":440,"player_count":24,"max_players":24,"Bots":0,"server_type":"Dedicated","server_os":"Linux","password":true,"vac":true,"version":"7757534","steam_id":85568392924469984,"keywords":["nocrits","nodmgspread","payload","uncletopia"],"game_id":440,"stv_port":27016,"stv_name":"Uncletopia | Chicago | 1 | All Maps | STV","players":[{"user_id":272,"name":"[يهودي] Bill Clinton [אל","steam_id":76561198163291190,"connected_time":900000000000,"state":"active","ping":87},{"user_id":265,"name":"Tobo","steam_id":76561198085846393,"connected_time":1540000000000,"state":"active","ping":98},{"user_id":269,"name":"Howard Hamlin","steam_id":76561198881039861,"connected_time":1241000000000,"state":"active","ping":55},{"user_id":206,"name":"coyne","steam_id":76561197997350766,"connected_time":6078000000000,"state":"active","ping":62},{"user_id":270,"name":"Pohnut","steam_id":76561198087831690,"connected_time":1217000000000,"state":"active","ping":146},{"user_id":215,"name":"[DEEP] Danmar33","steam_id":76561198056453091,"connected_time":5068000000000,"state":"active","ping":49},{"user_id":211,"name":"NovaSc6ut","steam_id":76561198277163301,"connected_time":5462000000000,"state":"active","ping":73},{"user_id":259,"name":"sensitize","steam_id":76561198350134869,"connected_time":2253000000000,"state":"active","ping":59},{"user_id":276,"name":"Baka!⑨⑨⑨⑨","steam_id":76561198152948254,"connected_time":392000000000,"state":"active","ping":67},{"user_id":278,"name":"Texas Man","steam_id":76561198353412986,"connected_time":367000000000,"state":"active","ping":120},{"user_id":246,"name":"4 life","steam_id":76561198175961598,"connected_time":3234000000000,"state":"active","ping":117},{"user_id":252,"name":"Discourse","steam_id":76561198984286678,"connected_time":2861000000000,"state":"active","ping":56},{"user_id":268,"name":"Mike Charlie","steam_id":76561199470538309,"connected_time":1284000000000,"state":"active","ping":61},{"user_id":260,"name":"TheCakeisNotAlie","steam_id":76561198943993307,"connected_time":2113000000000,"state":"active","ping":60},{"user_id":247,"name":"Oceans","steam_id":76561198039030992,"connected_time":2912000000000,"state":"active","ping":47},{"user_id":225,"name":"Boba T","steam_id":76561198012278650,"connected_time":4813000000000,"state":"active","ping":105},{"user_id":226,"name":"test","steam_id":76561198197388678,"connected_time":4811000000000,"state":"active","ping":85},{"user_id":273,"name":"Mustard Gaming","steam_id":76561198050393061,"connected_time":717000000000,"state":"active","ping":77},{"user_id":245,"name":"Monster","steam_id":76561198189429665,"connected_time":3306000000000,"state":"active","ping":74},{"user_id":275,"name":"very dazzling","steam_id":76561198072179483,"connected_time":425000000000,"state":"active","ping":88},{"user_id":266,"name":"jema","steam_id":76561198276513608,"connected_time":1517000000000,"state":"active","ping":167},{"user_id":253,"name":"Rich Kitten","steam_id":76561199152388008,"connected_time":2860000000000,"state":"active","ping":57},{"user_id":262,"name":"Ras","steam_id":76561198123546775,"connected_time":1935000000000,"state":"active","ping":66},{"user_id":271,"name":"h20verdrive","steam_id":76561198115957085,"connected_time":1195000000000,"state":"active","ping":102}]},{"server_id":106,"name":"Uncletopia | Chicago | 2 | All Maps","name_short":"chi-2","host":"chi-1.us.uncletopia.com","port":27025,"enabled":true,"region":"us-central","cc":"us","latitude":41.881832,"longitude":-87.62318,"reserved":0,"last_update":"0001-01-01T00:00:00Z","name_a2s":"Uncletopia | Chicago | 2 | All Maps","protocol":17,"map":"koth_nucleus","folder":"tf","game":"Team Fortress","app_id":440,"player_count":0,"max_players":24,"Bots":0,"server_type":"Dedicated","server_os":"Linux","password":true,"vac":true,"version":"7757534","steam_id":85568392924469985,"keywords":["cp","nocrits","nodmgspread","uncletopia"],"game_id":440,"stv_port":27026,"stv_name":"Uncletopia | Chicago | 2 | All Maps | STV","players":null},{"server_id":402,"name":"Uncletopia | Chicago | 3 | All Maps","name_short":"chi-3","host":"chi-1.us.uncletopia.com","port":27035,"enabled":true,"region":"us-central","cc":"us","latitude":41.881832,"longitude":-87.62318,"reserved":0,"last_update":"0001-01-01T00:00:00Z","name_a2s":"Uncletopia | Chicago | 3 | All Maps","protocol":17,"map":"pl_badwater","folder":"tf","game":"Team Fortress","app_id":440,"player_count":24,"max_players":24,"Bots":0,"server_type":"Dedicated","server_os":"Linux","password":true,"vac":true,"version":"7757534","steam_id":85568392924515191,"keywords":["nocrits","nodmgspread","payload","uncletopia"],"game_id":440,"stv_port":27036,"stv_name":"Uncletopia | Chicago | 3 | All Maps | STV","players":[{"user_id":342,"name":"Nefy","steam_id":76561198030017316,"connected_time":983000000000,"state":"active","ping":89},{"user_id":343,"name":"Soul_Intern","steam_id":76561198310238109,"connected_time":967000000000,"state":"active","ping":97},{"user_id":339,"name":"sweppy","steam_id":76561198035457667,"connected_time":1108000000000,"state":"active","ping":62},{"user_id":340,"name":"The good NPC","steam_id":76561198431446386,"connected_time":1063000000000,"state":"active","ping":62},{"user_id":275,"name":"Jill the Owl","steam_id":76561197999210583,"connected_time":4202000000000,"state":"active","ping":78},{"user_id":304,"name":"gNarNar","steam_id":76561197994505205,"connected_time":2787000000000,"state":"active","ping":65},{"user_id":347,"name":"Quibbli","steam_id":76561199214866732,"connected_time":253000000000,"state":"active","ping":68},{"user_id":349,"name":"later aligater","steam_id":76561198021609442,"connected_time":192000000000,"state":"active","ping":57},{"user_id":346,"name":"MoonBright","steam_id":76561198195798634,"connected_time":891000000000,"state":"active","ping":76},{"user_id":352,"name":"Aegis","steam_id":76561198272052750,"connected_time":59000000000,"state":"active","ping":74},{"user_id":295,"name":"Hemiphix","steam_id":76561198329316429,"connected_time":3157000000000,"state":"active","ping":72},{"user_id":330,"name":"1kastaco","steam_id":76561199126110915,"connected_time":1521000000000,"state":"active","ping":71},{"user_id":338,"name":"Barry","steam_id":76561198983866005,"connected_time":1136000000000,"state":"active","ping":75},{"user_id":350,"name":"Quark","steam_id":76561198328155605,"connected_time":183000000000,"state":"active","ping":54},{"user_id":327,"name":"ChocoCrispChunks","steam_id":76561198881926539,"connected_time":1560000000000,"state":"active","ping":109},{"user_id":317,"name":"Business skeleton","steam_id":76561198840648058,"connected_time":1785000000000,"state":"active","ping":53},{"user_id":259,"name":"The Power","steam_id":76561198060566884,"connected_time":4887000000000,"state":"active","ping":125},{"user_id":316,"name":"Nick","steam_id":76561198101419860,"connected_time":1926000000000,"state":"active","ping":45},{"user_id":351,"name":"FortressGamer #SaveTF2","steam_id":76561198144049265,"connected_time":132000000000,"state":"active","ping":81},{"user_id":332,"name":"Orca?","steam_id":76561198164341099,"connected_time":1416000000000,"state":"active","ping":91},{"user_id":329,"name":"ManOfManyBeans","steam_id":76561199213349938,"connected_time":1545000000000,"state":"active","ping":75},{"user_id":263,"name":"Bread Baker","steam_id":76561198185335103,"connected_time":4507000000000,"state":"active","ping":74},{"user_id":331,"name":"(◔) Neville","steam_id":76561198025637970,"connected_time":1483000000000,"state":"active","ping":75},{"user_id":341,"name":"shalankawanak","steam_id":76561198987719376,"connected_time":1004000000000,"state":"active","ping":60}]},{"server_id":403,"name":"Uncletopia | Chicago | 4 | All Maps","name_short":"chi-4","host":"chi-1.us.uncletopia.com","port":27045,"enabled":true,"region":"us-central","cc":"us","latitude":41.881832,"longitude":-87.62318,"reserved":0,"last_update":"0001-01-01T00:00:00Z","name_a2s":"Uncletopia | Chicago | 4 | All Maps","protocol":17,"map":"pl_barnblitz","folder":"tf","game":"Team Fortress","app_id":440,"player_count":24,"max_players":24,"Bots":0,"server_type":"Dedicated","server_os":"Linux","password":true,"vac":true,"version":"7757534","steam_id":85568392924515193,"keywords":["nocrits","nodmgspread","payload","uncletopia"],"game_id":440,"stv_port":27046,"stv_name":"Uncletopia | Chicago | 4 | All Maps | STV","players":[{"user_id":469,"name":"dahperson","steam_id":76561198067207467,"connected_time":2691000000000,"state":"active","ping":54},{"user_id":448,"name":"Rec","steam_id":76561198022813906,"connected_time":4091000000000,"state":"active","ping":52},{"user_id":457,"name":"aiden","steam_id":76561198449527009,"connected_time":3138000000000,"state":"active","ping":69},{"user_id":493,"name":"Dabbledornk","steam_id":76561198065241300,"connected_time":870000000000,"state":"active","ping":59},{"user_id":494,"name":"Inpecular","steam_id":76561198096571237,"connected_time":731000000000,"state":"active","ping":89},{"user_id":436,"name":"wack","steam_id":76561198095697330,"connected_time":5641000000000,"state":"active","ping":79},{"user_id":480,"name":"poe","steam_id":76561198155720118,"connected_time":1545000000000,"state":"active","ping":55},{"user_id":477,"name":"Mindset","steam_id":76561198107074449,"connected_time":1560000000000,"state":"active","ping":50},{"user_id":481,"name":"somedudenamedgeff","steam_id":76561199063414911,"connected_time":1517000000000,"state":"active","ping":70},{"user_id":458,"name":"B.","steam_id":76561198040445907,"connected_time":3062000000000,"state":"active","ping":73},{"user_id":460,"name":"Toottoot","steam_id":76561197992404836,"connected_time":2962000000000,"state":"active","ping":46},{"user_id":496,"name":"JSClinton","steam_id":76561198067487389,"connected_time":536000000000,"state":"active","ping":73},{"user_id":484,"name":"JelloMotion","steam_id":76561198045892038,"connected_time":1426000000000,"state":"active","ping":61},{"user_id":476,"name":"TransSammie","steam_id":76561198046331930,"connected_time":1935000000000,"state":"active","ping":102},{"user_id":488,"name":"Felipe Ramirez 2013","steam_id":76561198150497397,"connected_time":1365000000000,"state":"active","ping":60},{"user_id":485,"name":"Ginger Jesus","steam_id":76561198052386458,"connected_time":1413000000000,"state":"active","ping":64},{"user_id":454,"name":"Jak(i)","steam_id":76561198076823144,"connected_time":3563000000000,"state":"active","ping":66},{"user_id":497,"name":"l0ne","steam_id":76561198138424835,"connected_time":437000000000,"state":"active","ping":77},{"user_id":472,"name":"jubb","steam_id":76561198186865526,"connected_time":2629000000000,"state":"active","ping":117},{"user_id":486,"name":"matt fong","steam_id":76561198271946754,"connected_time":1406000000000,"state":"active","ping":75},{"user_id":498,"name":"Addy \u003c3","steam_id":76561198045819723,"connected_time":69000000000,"state":"active","ping":84},{"user_id":450,"name":"büddeh","steam_id":76561198070735936,"connected_time":3945000000000,"state":"active","ping":59},{"user_id":490,"name":"primordialheath","steam_id":76561199386942638,"connected_time":1311000000000,"state":"active","ping":61},{"user_id":492,"name":"the ifunny watermark","steam_id":76561198077272494,"connected_time":935000000000,"state":"active","ping":53}]},{"server_id":36,"name":"Uncletopia | Chicago | 5 | All Maps","name_short":"chi-5","host":"chi-2.us.uncletopia.com","port":27015,"enabled":true,"region":"us-central","cc":"us","latitude":41.881832,"longitude":-87.62318,"reserved":0,"last_update":"0001-01-01T00:00:00Z","name_a2s":"Uncletopia | Chicago | 5 | All Maps","protocol":17,"map":"koth_cascade","folder":"tf","game":"Team Fortress","app_id":440,"player_count":0,"max_players":24,"Bots":0,"server_type":"Dedicated","server_os":"Linux","password":true,"vac":true,"version":"7757534","steam_id":85568392924866362,"keywords":["cp","nocrits","nodmgspread","uncletopia"],"game_id":440,"stv_port":27016,"stv_name":"Uncletopia | Chicago | 5 | All Maps | STV","players":null},{"server_id":37,"name":"Uncletopia | Chicago | 6 | All Maps","name_short":"chi-6","host":"chi-2.us.uncletopia.com","port":27025,"enabled":true,"region":"us-central","cc":"us","latitude":41.881832,"longitude":-87.62318,"reserved":0,"last_update":"0001-01-01T00:00:00Z","name_a2s":"Uncletopia | Chicago | 6 | All Maps","protocol":17,"map":"koth_lakeside_final","folder":"tf","game":"Team Fortress","app_id":440,"player_count":23,"max_players":24,"Bots":0,"server_type":"Dedicated","server_os":"Linux","password":true,"vac":true,"version":"7757534","steam_id":85568392924866363,"keywords":["cp","nocrits","nodmgspread","uncletopia"],"game_id":440,"stv_port":27026,"stv_name":"Uncletopia | Chicago | 6 | All Maps | STV","players":[{"user_id":329,"name":"proon","steam_id":76561198155983535,"connected_time":3597000000000,"state":"active","ping":53},{"user_id":376,"name":"The local hobo","steam_id":76561198289650060,"connected_time":990000000000,"state":"active","ping":331},{"user_id":377,"name":"Guns Blazing","steam_id":76561198379461118,"connected_time":972000000000,"state":"active","ping":69},{"user_id":373,"name":"uufyfuu","steam_id":76561198142787212,"connected_time":1079000000000,"state":"active","ping":76},{"user_id":386,"name":"Not What He Wanted to Cook","steam_id":76561198057374871,"connected_time":457000000000,"state":"active","ping":68},{"user_id":357,"name":"Squatchamo","steam_id":76561198012968239,"connected_time":1999000000000,"state":"active","ping":74},{"user_id":337,"name":"B0otstrut beel","steam_id":76561198202457221,"connected_time":3215000000000,"state":"active","ping":69},{"user_id":387,"name":"Cosmic Torgue","steam_id":76561198828724945,"connected_time":441000000000,"state":"active","ping":77},{"user_id":362,"name":"a mass hallucination","steam_id":76561198259092181,"connected_time":1935000000000,"state":"active","ping":61},{"user_id":379,"name":"Muffin","steam_id":76561199156302434,"connected_time":840000000000,"state":"active","ping":58},{"user_id":384,"name":"Luck","steam_id":76561199122232082,"connected_time":772000000000,"state":"active","ping":78},{"user_id":385,"name":"Simply Mystic","steam_id":76561198055495647,"connected_time":673000000000,"state":"active","ping":90},{"user_id":355,"name":"Bot Karma","steam_id":76561198422386331,"connected_time":2030000000000,"state":"active","ping":143},{"user_id":391,"name":"Crazy__Biscuit","steam_id":76561198399851872,"connected_time":144000000000,"state":"active","ping":62},{"user_id":389,"name":"flappyflap2","steam_id":76561198285048973,"connected_time":227000000000,"state":"active","ping":61},{"user_id":392,"name":"Tamalito109","steam_id":76561198310531554,"connected_time":143000000000,"state":"active","ping":92},{"user_id":381,"name":"peachy_day","steam_id":76561198170698267,"connected_time":816000000000,"state":"active","ping":74},{"user_id":343,"name":"Shaquille Oatmeal","steam_id":76561198283213819,"connected_time":3030000000000,"state":"active","ping":68},{"user_id":382,"name":"Coughdrop Addict [F2P]","steam_id":76561199254281550,"connected_time":810000000000,"state":"active","ping":72},{"user_id":306,"name":"Highphin","steam_id":76561198986584680,"connected_time":4451000000000,"state":"active","ping":66},{"user_id":334,"name":"CreativeCoffeeCake","steam_id":76561198323542875,"connected_time":3317000000000,"state":"active","ping":83},{"user_id":340,"name":"Shmurg","steam_id":76561199368485421,"connected_time":3179000000000,"state":"active","ping":45},{"user_id":383,"name":"Its Shrimple; We Fry The Rice","steam_id":76561198024540614,"connected_time":791000000000,"state":"active","ping":47}]},{"server_id":38,"name":"Uncletopia | Chicago | 7 | Stopwatch Beta","name_short":"chi-7","host":"chi-2.us.uncletopia.com","port":27035,"enabled":true,"region":"us-central","cc":"us","latitude":41.881832,"longitude":-87.62318,"reserved":0,"last_update":"0001-01-01T00:00:00Z","name_a2s":"Uncletopia | Chicago | 7 | Stopwatch Beta","protocol":17,"map":"pl_barnblitz","folder":"tf","game":"Team Fortress","app_id":440,"player_count":0,"max_players":24,"Bots":0,"server_type":"Dedicated","server_os":"Linux","password":true,"vac":true,"version":"7757534","steam_id":85568392924866364,"keywords":["nocrits","nodmgspread","payload","uncletopia"],"game_id":440,"stv_port":27036,"stv_name":"Uncletopia | Chicago | 7 | Stopwatch Beta | STV","players":null},{"server_id":39,"name":"Uncletopia | Chicago | 8 | Community","name_short":"chi-8","host":"chi-2.us.uncletopia.com","port":27045,"enabled":true,"region":"us-central","cc":"us","latitude":41.881832,"longitude":-87.62318,"reserved":0,"last_update":"0001-01-01T00:00:00Z","name_a2s":"Uncletopia | Chicago | 8 | Community","protocol":17,"map":"koth_cascade","folder":"tf","game":"Team Fortress","app_id":440,"player_count":0,"max_players":24,"Bots":0,"server_type":"Dedicated","server_os":"Linux","password":true,"vac":true,"version":"7757534","steam_id":85568392924866365,"keywords":["cp","nocrits","nodmgspread","uncletopia"],"game_id":440,"stv_port":27046,"stv_name":"Uncletopia | Chicago | 8 | Community | STV","players":null},{"server_id":8,"name":"Uncletopia | Dallas | 1 | All Maps","name_short":"dal-1","host":"dal-1.us.uncletopia.com","port":27015,"enabled":true,"region":"us-central","cc":"us","latitude":32.779167,"longitude":-96.80889,"reserved":0,"last_update":"0001-01-01T00:00:00Z","name_a2s":"Uncletopia | Dallas | 1 | All Maps","protocol":17,"map":"pl_frontier_final","folder":"tf","game":"Team Fortress","app_id":440,"player_count":24,"max_players":24,"Bots":0,"server_type":"Dedicated","server_os":"Linux","password":true,"vac":true,"version":"7757534","steam_id":85568392924469986,"keywords":["nocrits","nodmgspread","payload","uncletopia"],"game_id":440,"stv_port":27016,"stv_name":"Uncletopia | Dallas | 1 | All Maps | STV","players":[{"user_id":145,"name":"TheMightyWoz","steam_id":76561198428397322,"connected_time":1148000000000,"state":"active","ping":118},{"user_id":124,"name":"Romo","steam_id":76561198243101572,"connected_time":2963000000000,"state":"active","ping":77},{"user_id":149,"name":"Seller of Waffles","steam_id":76561198296018138,"connected_time":937000000000,"state":"active","ping":70},{"user_id":131,"name":"Bogey","steam_id":76561198096227944,"connected_time":1670000000000,"state":"active","ping":42},{"user_id":147,"name":"Dad","steam_id":76561199091290729,"connected_time":1110000000000,"state":"active","ping":62},{"user_id":157,"name":"COOK","steam_id":76561198149929885,"connected_time":289000000000,"state":"active","ping":77},{"user_id":150,"name":"DoomoPelota","steam_id":76561198326462587,"connected_time":903000000000,"state":"active","ping":89},{"user_id":129,"name":"FluttyPutty","steam_id":76561198218446556,"connected_time":1842000000000,"state":"active","ping":62},{"user_id":161,"name":"CyMeryy","steam_id":76561197984986540,"connected_time":204000000000,"state":"active","ping":63},{"user_id":156,"name":"Slingwolf","steam_id":76561198132720460,"connected_time":375000000000,"state":"active","ping":103},{"user_id":126,"name":"Piss Champion","steam_id":76561198059362878,"connected_time":2844000000000,"state":"active","ping":73},{"user_id":163,"name":"iaPK","steam_id":76561198056618642,"connected_time":18000000000,"state":"spawning","ping":57},{"user_id":154,"name":"RetroAdvance64","steam_id":76561198154072380,"connected_time":560000000000,"state":"active","ping":64},{"user_id":137,"name":"Doomagedden","steam_id":76561198272589475,"connected_time":1560000000000,"state":"active","ping":59},{"user_id":151,"name":"いちごまろ","steam_id":76561198166100997,"connected_time":896000000000,"state":"active","ping":75},{"user_id":162,"name":"Nash","steam_id":76561198044192734,"connected_time":152000000000,"state":"active","ping":58},{"user_id":107,"name":"Outlander","steam_id":76561197998995746,"connected_time":3798000000000,"state":"active","ping":72},{"user_id":118,"name":"plink","steam_id":76561198057829889,"connected_time":3322000000000,"state":"active","ping":114},{"user_id":139,"name":"Dell Conagher (real)","steam_id":76561198220120368,"connected_time":1492000000000,"state":"active","ping":43},{"user_id":146,"name":"Terratomere","steam_id":76561198067716320,"connected_time":1133000000000,"state":"active","ping":84},{"user_id":148,"name":"darktheif54","steam_id":76561198043650119,"connected_time":963000000000,"state":"active","ping":78},{"user_id":141,"name":"KyleBlack","steam_id":76561198139932550,"connected_time":1458000000000,"state":"active","ping":45},{"user_id":155,"name":"runescape sea_shanty2","steam_id":76561198397662124,"connected_time":444000000000,"state":"active","ping":66},{"user_id":143,"name":"Shalom","steam_id":76561198410005222,"connected_time":1447000000000,"state":"active","ping":63}]},{"server_id":108,"name":"Uncletopia | Dallas | 2 | All Maps","name_short":"dal-2","host":"dal-1.us.uncletopia.com","port":27025,"enabled":true,"region":"us-central","cc":"us","latitude":32.779167,"longitude":-96.80889,"reserved":0,"last_update":"0001-01-01T00:00:00Z","name_a2s":"Uncletopia | Dallas | 2 | All Maps","protocol":17,"map":"pl_pier","folder":"tf","game":"Team Fortress","app_id":440,"player_count":24,"max_players":24,"Bots":0,"server_type":"Dedicated","server_os":"Linux","password":true,"vac":true,"version":"7757534","steam_id":85568392924469988,"keywords":["nocrits","nodmgspread","payload","uncletopia"],"game_id":440,"stv_port":27026,"stv_name":"Uncletopia | Dallas | 2 | All Maps | STV","players":[{"user_id":437,"name":"(TPT) Ghost","steam_id":76561198123262873,"connected_time":423000000000,"state":"active","ping":91},{"user_id":440,"name":"Saul gaming","steam_id":76561199245933458,"connected_time":295000000000,"state":"active","ping":121},{"user_id":414,"name":"LF Collectors Market Gardener","steam_id":76561199192132061,"connected_time":1190000000000,"state":"active","ping":75},{"user_id":391,"name":"Nighthawk","steam_id":76561198996342192,"connected_time":2026000000000,"state":"active","ping":57},{"user_id":415,"name":"ViperX","steam_id":76561197960460023,"connected_time":1162000000000,"state":"active","ping":65},{"user_id":432,"name":"Happy whale","steam_id":76561199026039153,"connected_time":629000000000,"state":"active","ping":91},{"user_id":436,"name":"Disqordant","steam_id":76561198052514978,"connected_time":523000000000,"state":"active","ping":44},{"user_id":445,"name":"Robbie Rotten","steam_id":76561198125993888,"connected_time":9000000000,"state":"spawning","ping":56},{"user_id":434,"name":"Rat","steam_id":76561198330059340,"connected_time":579000000000,"state":"active","ping":158},{"user_id":379,"name":"fac","steam_id":76561198009818412,"connected_time":2457000000000,"state":"active","ping":62},{"user_id":392,"name":"Dr. Sex","steam_id":76561198037795265,"connected_time":2023000000000,"state":"active","ping":76},{"user_id":444,"name":"mann","steam_id":76561199406261605,"connected_time":96000000000,"state":"active","ping":54},{"user_id":412,"name":"ShukSama","steam_id":76561198322357608,"connected_time":1204000000000,"state":"active","ping":75},{"user_id":401,"name":"BoxTrox Requiem","steam_id":76561199084781818,"connected_time":1711000000000,"state":"active","ping":76},{"user_id":429,"name":"Unreliable Narrator","steam_id":76561198021303959,"connected_time":693000000000,"state":"active","ping":72},{"user_id":416,"name":"Shylo","steam_id":76561199276858045,"connected_time":1142000000000,"state":"active","ping":56},{"user_id":431,"name":"yewi","steam_id":76561198151350520,"connected_time":665000000000,"state":"active","ping":70},{"user_id":441,"name":"Genetic Komodo (He/Him)","steam_id":76561198174806758,"connected_time":267000000000,"state":"active","ping":44},{"user_id":433,"name":"mineblast99","steam_id":76561199065648954,"connected_time":627000000000,"state":"active","ping":80},{"user_id":439,"name":"sirsmit1","steam_id":76561199129778001,"connected_time":322000000000,"state":"active","ping":101},{"user_id":423,"name":"[chef] iron","steam_id":76561197970888616,"connected_time":1023000000000,"state":"active","ping":59},{"user_id":389,"name":"Lane","steam_id":76561197965828506,"connected_time":2269000000000,"state":"active","ping":47},{"user_id":403,"name":"DesolateScorch","steam_id":76561199123625583,"connected_time":1672000000000,"state":"active","ping":102},{"user_id":424,"name":"the henny man","steam_id":76561198042600523,"connected_time":1023000000000,"state":"active","ping":46}]},{"server_id":5,"name":"Uncletopia | Frankfurt | 1 | All Maps","name_short":"frk-1","host":"frk-1.de.uncletopia.com","port":27015,"enabled":true,"region":"eu","cc":"de","latitude":50.110924,"longitude":8.682127,"reserved":0,"last_update":"0001-01-01T00:00:00Z","name_a2s":"Uncletopia | Frankfurt | 1 | All Maps","protocol":17,"map":"cp_mossrock","folder":"tf","game":"Team Fortress","app_id":440,"player_count":5,"max_players":24,"Bots":0,"server_type":"Dedicated","server_os":"Linux","password":true,"vac":true,"version":"7757534","steam_id":85568392924469989,"keywords":["cp","nocrits","nodmgspread","uncletopia"],"game_id":440,"stv_port":27016,"stv_name":"Uncletopia | Frankfurt | 1 | All Maps | STV","players":[{"user_id":833,"name":"Eno","steam_id":76561198387892963,"connected_time":162000000000,"state":"active","ping":58},{"user_id":831,"name":"Lord","steam_id":76561198241305816,"connected_time":294000000000,"state":"active","ping":114},{"user_id":763,"name":"Man Made Mad","steam_id":76561198808819694,"connected_time":6334000000000,"state":"active","ping":43},{"user_id":822,"name":"lvl. 50 honkler","steam_id":76561198061688660,"connected_time":1137000000000,"state":"active","ping":97},{"user_id":799,"name":"ScarredPixel123","steam_id":76561199165112703,"connected_time":2989000000000,"state":"active","ping":76}]},{"server_id":110,"name":"Uncletopia | Frankfurt | 2 | All Maps","name_short":"frk-2","host":"frk-1.de.uncletopia.com","port":27025,"enabled":true,"region":"eu","cc":"de","latitude":50.110924,"longitude":8.682127,"reserved":0,"last_update":"0001-01-01T00:00:00Z","name_a2s":"Uncletopia | Frankfurt | 2 | All Maps","protocol":17,"map":"pl_badwater","folder":"tf","game":"Team Fortress","app_id":440,"player_count":24,"max_players":24,"Bots":0,"server_type":"Dedicated","server_os":"Linux","password":true,"vac":true,"version":"7757534","steam_id":85568392924469990,"keywords":["nocrits","nodmgspread","payload","uncletopia"],"game_id":440,"stv_port":27026,"stv_name":"Uncletopia | Frankfurt | 2 | All Maps | STV","players":[{"user_id":514,"name":"Vene","steam_id":76561198018116338,"connected_time":3153000000000,"state":"active","ping":75},{"user_id":571,"name":"Tonne","steam_id":76561197970856766,"connected_time":53000000000,"state":"active","ping":53},{"user_id":561,"name":"JeanCorben","steam_id":76561197965133561,"connected_time":322000000000,"state":"active","ping":45},{"user_id":563,"name":"NB","steam_id":76561198079361515,"connected_time":311000000000,"state":"active","ping":68},{"user_id":553,"name":"Shynii","steam_id":76561198194682105,"connected_time":707000000000,"state":"active","ping":65},{"user_id":539,"name":"Average Zoboomafoo Enjoyer","steam_id":76561198084891833,"connected_time":1674000000000,"state":"active","ping":59},{"user_id":536,"name":"Francis Crabb","steam_id":76561198259082154,"connected_time":1716000000000,"state":"active","ping":81},{"user_id":572,"name":"nytronytronytro","steam_id":76561198080496833,"connected_time":38000000000,"state":"active","ping":85},{"user_id":560,"name":"Laceri","steam_id":76561198084877928,"connected_time":343000000000,"state":"active","ping":89},{"user_id":555,"name":"MaccyF","steam_id":76561198039214805,"connected_time":577000000000,"state":"active","ping":61},{"user_id":569,"name":"antuio","steam_id":76561198259489016,"connected_time":193000000000,"state":"active","ping":83},{"user_id":545,"name":"lol.com","steam_id":76561198231764164,"connected_time":1535000000000,"state":"active","ping":44},{"user_id":538,"name":"Feeli","steam_id":76561198026923585,"connected_time":1710000000000,"state":"active","ping":68},{"user_id":565,"name":"Misctek","steam_id":76561199037541925,"connected_time":293000000000,"state":"active","ping":71},{"user_id":559,"name":"Ichbaplaya","steam_id":76561198152701211,"connected_time":352000000000,"state":"active","ping":61},{"user_id":568,"name":"vug","steam_id":76561198042227249,"connected_time":249000000000,"state":"active","ping":44},{"user_id":557,"name":"Reptikality","steam_id":76561199057211698,"connected_time":454000000000,"state":"active","ping":184},{"user_id":548,"name":"ja","steam_id":76561199228540618,"connected_time":1343000000000,"state":"active","ping":82},{"user_id":549,"name":"ShaiKai","steam_id":76561198333319986,"connected_time":1095000000000,"state":"active","ping":159},{"user_id":570,"name":"Vershal Smershal","steam_id":76561198116223995,"connected_time":112000000000,"state":"active","ping":57},{"user_id":523,"name":"Cranto","steam_id":76561198101745576,"connected_time":2954000000000,"state":"active","ping":68},{"user_id":558,"name":"CoqCriard","steam_id":76561198799129042,"connected_time":451000000000,"state":"active","ping":94},{"user_id":566,"name":"hasansaeedifar","steam_id":76561198974563618,"connected_time":286000000000,"state":"active","ping":162},{"user_id":543,"name":"S_ApplePie","steam_id":76561198106947669,"connected_time":1584000000000,"state":"active","ping":85}]},{"server_id":308,"name":"Uncletopia | Frankfurt | 3 | All Maps","name_short":"frk-3","host":"frk-1.de.uncletopia.com","port":27035,"enabled":true,"region":"eu","cc":"de","latitude":50.110924,"longitude":8.682127,"reserved":0,"last_update":"0001-01-01T00:00:00Z","name_a2s":"Uncletopia | Frankfurt | 3 | All Maps","protocol":17,"map":"koth_highpass","folder":"tf","game":"Team Fortress","app_id":440,"player_count":0,"max_players":24,"Bots":0,"server_type":"Dedicated","server_os":"Linux","password":true,"vac":true,"version":"7757534","steam_id":85568392924504274,"keywords":["cp","nocrits","nodmgspread","uncletopia"],"game_id":440,"stv_port":27036,"stv_name":"Uncletopia | Frankfurt | 3 | All Maps | STV","players":null},{"server_id":309,"name":"Uncletopia | Frankfurt | 4 | All Maps","name_short":"frk-4","host":"frk-1.de.uncletopia.com","port":27045,"enabled":true,"region":"eu","cc":"de","latitude":50.110924,"longitude":8.682127,"reserved":0,"last_update":"0001-01-01T00:00:00Z","name_a2s":"Uncletopia | Frankfurt | 4 | All Maps","protocol":17,"map":"cp_process_final","folder":"tf","game":"Team Fortress","app_id":440,"player_count":15,"max_players":24,"Bots":0,"server_type":"Dedicated","server_os":"Linux","password":true,"vac":true,"version":"7757534","steam_id":85568392924504275,"keywords":["cp","nocrits","nodmgspread","uncletopia"],"game_id":440,"stv_port":27046,"stv_name":"Uncletopia | Frankfurt | 4 | All Maps | STV","players":[{"user_id":459,"name":"Endi","steam_id":76561198914938199,"connected_time":40000000000,"state":"active","ping":88},{"user_id":430,"name":"The Boogieman","steam_id":76561198154512305,"connected_time":1888000000000,"state":"active","ping":56},{"user_id":443,"name":"♥ImWithMilk","steam_id":76561198269577569,"connected_time":1535000000000,"state":"active","ping":100},{"user_id":433,"name":"SPONGE","steam_id":76561198040933472,"connected_time":1761000000000,"state":"active","ping":56},{"user_id":393,"name":"Kirvis","steam_id":76561198027831643,"connected_time":4511000000000,"state":"active","ping":80},{"user_id":368,"name":"Bird","steam_id":76561198410598772,"connected_time":6053000000000,"state":"active","ping":50},{"user_id":452,"name":"leeloo","steam_id":76561199256962353,"connected_time":984000000000,"state":"active","ping":50},{"user_id":428,"name":"nyanezt","steam_id":76561198253734265,"connected_time":2265000000000,"state":"active","ping":104},{"user_id":456,"name":"He could be any one of us","steam_id":76561198320506848,"connected_time":417000000000,"state":"active","ping":51},{"user_id":441,"name":"Oak","steam_id":76561198412507725,"connected_time":1599000000000,"state":"active","ping":104},{"user_id":442,"name":"Proud Jojo Fan #TF2SP","steam_id":76561198847327216,"connected_time":1551000000000,"state":"active","ping":57},{"user_id":454,"name":"[T]aKer","steam_id":76561198001778013,"connected_time":827000000000,"state":"active","ping":46},{"user_id":458,"name":"Skylox","steam_id":76561198129291480,"connected_time":179000000000,"state":"active","ping":84},{"user_id":397,"name":"Meta","steam_id":76561198413073432,"connected_time":4472000000000,"state":"active","ping":66},{"user_id":450,"name":"PROFILE NAME","steam_id":76561198180056982,"connected_time":1227000000000,"state":"active","ping":64}]},{"server_id":310,"name":"Uncletopia | Frankfurt | 5 | All Maps","name_short":"frk-5","host":"frk-1.de.uncletopia.com","port":27055,"enabled":true,"region":"eu","cc":"de","latitude":50.110924,"longitude":8.682127,"reserved":0,"last_update":"0001-01-01T00:00:00Z","name_a2s":"Uncletopia | Frankfurt | 5 | All Maps","protocol":17,"map":"pl_badwater","folder":"tf","game":"Team Fortress","app_id":440,"player_count":0,"max_players":24,"Bots":0,"server_type":"Dedicated","server_os":"Linux","password":true,"vac":true,"version":"7757534","steam_id":85568392924504277,"keywords":["nocrits","nodmgspread","payload","uncletopia"],"game_id":440,"stv_port":27056,"stv_name":"Uncletopia | Frankfurt | 5 | All Maps | STV","players":null},{"server_id":311,"name":"Uncletopia | Frankfurt | 6 | All Maps","name_short":"frk-6","host":"frk-1.de.uncletopia.com","port":27065,"enabled":true,"region":"eu","cc":"de","latitude":50.110924,"longitude":8.682127,"reserved":0,"last_update":"0001-01-01T00:00:00Z","name_a2s":"Uncletopia | Frankfurt | 6 | All Maps","protocol":17,"map":"plr_nightfall_final","folder":"tf","game":"Team Fortress","app_id":440,"player_count":0,"max_players":24,"Bots":0,"server_type":"Dedicated","server_os":"Linux","password":true,"vac":true,"version":"7757534","steam_id":85568392924504278,"keywords":["nocrits","nodmgspread","payload","uncletopia"],"game_id":440,"stv_port":27066,"stv_name":"Uncletopia | Frankfurt | 6 | All Maps | STV","players":null},{"server_id":23,"name":"Uncletopia | Frankfurt | 7 | Stopwatch Beta","name_short":"frk-7","host":"frk-1.de.uncletopia.com","port":27075,"enabled":true,"region":"eu","cc":"de","latitude":50.110924,"longitude":8.682127,"reserved":0,"last_update":"0001-01-01T00:00:00Z","name_a2s":"Uncletopia | Frankfurt | 7 | Stopwatch Beta","protocol":17,"map":"workshop/koth_clearcut_b15.ugc2107050255","folder":"tf","game":"Team Fortress","app_id":440,"player_count":0,"max_players":24,"Bots":0,"server_type":"Dedicated","server_os":"Linux","password":true,"vac":true,"version":"7757534","steam_id":85568392924742827,"keywords":["cp","nocrits","nodmgspread","uncletopia"],"game_id":440,"stv_port":27076,"stv_name":"Uncletopia | Frankfurt | 7 | Stopwatch Beta | STV","players":null},{"server_id":24,"name":"Uncletopia | Frankfurt | 8 | Community","name_short":"frk-8","host":"frk-1.de.uncletopia.com","port":27085,"enabled":true,"region":"eu","cc":"de","latitude":50.110924,"longitude":8.682127,"reserved":0,"last_update":"0001-01-01T00:00:00Z","name_a2s":"Uncletopia | Frankfurt | 8 | Community","protocol":17,"map":"workshop/cp_kalinka_rc6a.ugc1272700588","folder":"tf","game":"Team Fortress","app_id":440,"player_count":0,"max_players":24,"Bots":0,"server_type":"Dedicated","server_os":"Linux","password":true,"vac":true,"version":"7757534","steam_id":85568392924742828,"keywords":["cp","nocrits","nodmgspread","uncletopia"],"game_id":440,"stv_port":27086,"stv_name":"Uncletopia | Frankfurt | 8 | Community | STV","players":null},{"server_id":202,"name":"Uncletopia | Hong Kong | 1 | All Maps","name_short":"hgk-1","host":"hgk-1.hk.uncletopia.com","port":27015,"enabled":true,"region":"asia","cc":"hk","latitude":22.302711,"longitude":114.177216,"reserved":0,"last_update":"0001-01-01T00:00:00Z","name_a2s":"Uncletopia | Hong Kong | 1 | All Maps","protocol":17,"map":"pl_borneo","folder":"tf","game":"Team Fortress","app_id":440,"player_count":0,"max_players":24,"Bots":0,"server_type":"Dedicated","server_os":"Linux","password":true,"vac":true,"version":"7757534","steam_id":85568392924494504,"keywords":["nocrits","nodmgspread","payload","uncletopia"],"game_id":440,"stv_port":27016,"stv_name":"Uncletopia | Hong Kong | 1 | All Maps | STV","players":null},{"server_id":1,"name":"Uncletopia | Los Angeles | 1 | All Maps","name_short":"lax-1","host":"lax-1.us.uncletopia.com","port":27015,"enabled":true,"region":"us-west","cc":"us","latitude":33.94279,"longitude":-118.41004,"reserved":0,"last_update":"0001-01-01T00:00:00Z","name_a2s":"Uncletopia | Los Angeles | 1 | All Maps","protocol":17,"map":"koth_lakeside_final","folder":"tf","game":"Team Fortress","app_id":440,"player_count":0,"max_players":24,"Bots":0,"server_type":"Dedicated","server_os":"Linux","password":true,"vac":true,"version":"7757534","steam_id":85568392924469991,"keywords":["cp","nocrits","nodmgspread","uncletopia"],"game_id":440,"stv_port":27016,"stv_name":"Uncletopia | Los Angeles | 1 | All Maps | STV","players":null},{"server_id":112,"name":"Uncletopia | Los Angeles | 2 | All Maps","name_short":"lax-2","host":"lax-1.us.uncletopia.com","port":27025,"enabled":true,"region":"us-west","cc":"us","latitude":33.94279,"longitude":-118.41004,"reserved":0,"last_update":"0001-01-01T00:00:00Z","name_a2s":"Uncletopia | Los Angeles | 2 | All Maps","protocol":17,"map":"pl_badwater","folder":"tf","game":"Team Fortress","app_id":440,"player_count":0,"max_players":24,"Bots":0,"server_type":"Dedicated","server_os":"Linux","password":true,"vac":true,"version":"7757534","steam_id":85568392924469992,"keywords":["nocrits","nodmgspread","payload","uncletopia"],"game_id":440,"stv_port":27026,"stv_name":"Uncletopia | Los Angeles | 2 | All Maps | STV","players":null},{"server_id":324,"name":"Uncletopia | Los Angeles | 3 | All Maps","name_short":"lax-3","host":"lax-1.us.uncletopia.com","port":27035,"enabled":true,"region":"us-west","cc":"us","latitude":33.94279,"longitude":-118.41004,"reserved":0,"last_update":"0001-01-01T00:00:00Z","name_a2s":"Uncletopia | Los Angeles | 3 | All Maps","protocol":17,"map":"pl_barnblitz","folder":"tf","game":"Team Fortress","app_id":440,"player_count":0,"max_players":24,"Bots":0,"server_type":"Dedicated","server_os":"Linux","password":true,"vac":true,"version":"7757534","steam_id":85568392924510198,"keywords":["nocrits","nodmgspread","payload","uncletopia"],"game_id":440,"stv_port":27036,"stv_name":"Uncletopia | Los Angeles | 3 | All Maps | STV","players":null},{"server_id":25,"name":"Uncletopia | Los Angeles | 4 | Stopwatch Beta","name_short":"lax-4","host":"lax-1.us.uncletopia.com","port":27045,"enabled":true,"region":"us-west","cc":"us","latitude":33.94279,"longitude":-118.41004,"reserved":0,"last_update":"0001-01-01T00:00:00Z","name_a2s":"Uncletopia | Los Angeles | 4 | Stopwatch Beta","protocol":17,"map":"pl_swiftwater_final1","folder":"tf","game":"Team Fortress","app_id":440,"player_count":0,"max_players":24,"Bots":0,"server_type":"Dedicated","server_os":"Linux","password":true,"vac":true,"version":"7757534","steam_id":85568392924510199,"keywords":["nocrits","nodmgspread","payload","uncletopia"],"game_id":440,"stv_port":27046,"stv_name":"Uncletopia | Los Angeles | 4 | Stopwatch Beta | STV","players":null},{"server_id":11,"name":"Uncletopia | London | 1 | All Maps","name_short":"lon-1","host":"lon-1.uk.uncletopia.com","port":27015,"enabled":true,"region":"eu","cc":"gb","latitude":51.509865,"longitude":-0.118092,"reserved":0,"last_update":"0001-01-01T00:00:00Z","name_a2s":"Uncletopia | London | 1 | All Maps","protocol":17,"map":"pl_badwater","folder":"tf","game":"Team Fortress","app_id":440,"player_count":22,"max_players":24,"Bots":0,"server_type":"Dedicated","server_os":"Linux","password":true,"vac":true,"version":"7757534","steam_id":85568392924367362,"keywords":["nocrits","nodmgspread","payload","uncletopia"],"game_id":440,"stv_port":27016,"stv_name":"Uncletopia | London | 1 | All Maps | STV","players":[{"user_id":612,"name":"Wedgeridoo","steam_id":76561198082813907,"connected_time":1756000000000,"state":"active","ping":119},{"user_id":619,"name":"Buk Lau","steam_id":76561197993573576,"connected_time":239000000000,"state":"active","ping":98},{"user_id":551,"name":"thespe","steam_id":76561198088225107,"connected_time":8554000000000,"state":"active","ping":67},{"user_id":620,"name":"Instituto Nacional de Empleo","steam_id":76561198317014067,"connected_time":145000000000,"state":"active","ping":62},{"user_id":601,"name":"Son Goku","steam_id":76561199383437138,"connected_time":2957000000000,"state":"active","ping":117},{"user_id":621,"name":"Pepe El grillao","steam_id":76561198177855119,"connected_time":5000000000,"state":"spawning","ping":58},{"user_id":587,"name":"It's a me Malario","steam_id":76561198176546013,"connected_time":4904000000000,"state":"active","ping":40},{"user_id":592,"name":"shooer","steam_id":76561198110531281,"connected_time":4235000000000,"state":"active","ping":71},{"user_id":597,"name":"trite","steam_id":76561197983765323,"connected_time":3384000000000,"state":"active","ping":46},{"user_id":615,"name":"Kraiti","steam_id":76561198847296908,"connected_time":1289000000000,"state":"active","ping":80},{"user_id":558,"name":"SirSangoor","steam_id":76561198044462559,"connected_time":7336000000000,"state":"active","ping":108},{"user_id":608,"name":"Camo Leaf","steam_id":76561197999456575,"connected_time":2606000000000,"state":"active","ping":46},{"user_id":599,"name":"nedilya","steam_id":76561198039692077,"connected_time":3078000000000,"state":"active","ping":65},{"user_id":556,"name":"gnarly business","steam_id":76561198832688767,"connected_time":7347000000000,"state":"active","ping":45},{"user_id":538,"name":"dec","steam_id":76561198009660168,"connected_time":10171000000000,"state":"active","ping":57},{"user_id":602,"name":"Ooze","steam_id":76561198039642637,"connected_time":2934000000000,"state":"active","ping":75},{"user_id":604,"name":"Pinkchup","steam_id":76561198106802803,"connected_time":2847000000000,"state":"active","ping":73},{"user_id":588,"name":"Minimi","steam_id":76561198873850443,"connected_time":4650000000000,"state":"active","ping":41},{"user_id":557,"name":"regimiro","steam_id":76561198120457008,"connected_time":7347000000000,"state":"active","ping":46},{"user_id":613,"name":"shenanigan","steam_id":76561198043452925,"connected_time":1318000000000,"state":"active","ping":99},{"user_id":616,"name":"UltimateSlayer","steam_id":76561198384109309,"connected_time":765000000000,"state":"active","ping":59},{"user_id":618,"name":"xcvbwravdloiy56qw","steam_id":76561198448551449,"connected_time":568000000000,"state":"active","ping":38}]},{"server_id":114,"name":"Uncletopia | London | 2 | All Maps","name_short":"lon-2","host":"lon-1.uk.uncletopia.com","port":27025,"enabled":true,"region":"eu","cc":"gb","latitude":51.509865,"longitude":-0.118092,"reserved":0,"last_update":"0001-01-01T00:00:00Z","name_a2s":"Uncletopia | London | 2 | All Maps","protocol":17,"map":"cp_egypt_final","folder":"tf","game":"Team Fortress","app_id":440,"player_count":23,"max_players":24,"Bots":0,"server_type":"Dedicated","server_os":"Linux","password":true,"vac":true,"version":"7757534","steam_id":85568392924470941,"keywords":["cp","nocrits","nodmgspread","uncletopia"],"game_id":440,"stv_port":27026,"stv_name":"Uncletopia | London | 2 | All Maps | STV","players":[{"user_id":204,"name":"Saken","steam_id":76561198049075295,"connected_time":1678000000000,"state":"active","ping":60},{"user_id":211,"name":"Arti","steam_id":76561197983352845,"connected_time":1156000000000,"state":"active","ping":55},{"user_id":217,"name":"S21","steam_id":76561199191390558,"connected_time":795000000000,"state":"active","ping":90},{"user_id":209,"name":"Mr. House (Real)","steam_id":76561198162554213,"connected_time":1235000000000,"state":"active","ping":77},{"user_id":190,"name":"NitPig","steam_id":76561198212991935,"connected_time":3149000000000,"state":"active","ping":113},{"user_id":229,"name":"John Noob","steam_id":76561197999170026,"connected_time":70000000000,"state":"active","ping":97},{"user_id":206,"name":"HilldogGaming","steam_id":76561198082209322,"connected_time":1488000000000,"state":"active","ping":79},{"user_id":167,"name":"WiiSportKing","steam_id":76561198114139081,"connected_time":4950000000000,"state":"active","ping":56},{"user_id":228,"name":"grandpa's post-mortem photo","steam_id":76561198130116078,"connected_time":104000000000,"state":"active","ping":102},{"user_id":224,"name":"Wubba","steam_id":76561198421341789,"connected_time":179000000000,"state":"active","ping":37},{"user_id":165,"name":"plepek","steam_id":76561198042959598,"connected_time":5134000000000,"state":"active","ping":83},{"user_id":216,"name":"MichaelTheSlav","steam_id":76561198151626040,"connected_time":822000000000,"state":"active","ping":81},{"user_id":186,"name":"Regan","steam_id":76561198100631086,"connected_time":3343000000000,"state":"active","ping":82},{"user_id":223,"name":"Mancubruh BRUB 046","steam_id":76561199158803718,"connected_time":184000000000,"state":"active","ping":52},{"user_id":226,"name":"᠌ ᠌ ᠌᠌ ᠌ ᠌ ᠌","steam_id":76561198312906114,"connected_time":157000000000,"state":"active","ping":60},{"user_id":169,"name":"Wiki","steam_id":76561198106666604,"connected_time":3837000000000,"state":"active","ping":67},{"user_id":213,"name":"Twisted Logic ∞","steam_id":76561198002245428,"connected_time":1122000000000,"state":"active","ping":39},{"user_id":227,"name":"Dora","steam_id":76561198072207649,"connected_time":152000000000,"state":"active","ping":76},{"user_id":222,"name":"TV","steam_id":76561198177326926,"connected_time":558000000000,"state":"active","ping":164},{"user_id":202,"name":"Seneron4","steam_id":76561198107658391,"connected_time":2518000000000,"state":"active","ping":84},{"user_id":219,"name":"FoxyTheFish","steam_id":76561199074190919,"connected_time":751000000000,"state":"active","ping":59},{"user_id":220,"name":"SuntanPikachu","steam_id":76561198121242476,"connected_time":732000000000,"state":"active","ping":59},{"user_id":221,"name":"Kyeel_Smeel","steam_id":76561199164471622,"connected_time":691000000000,"state":"active","ping":67}]},{"server_id":320,"name":"Uncletopia | London | 3 | All Maps","name_short":"lon-3","host":"lon-1.uk.uncletopia.com","port":27035,"enabled":true,"region":"eu","cc":"gb","latitude":51.509865,"longitude":-0.118092,"reserved":0,"last_update":"0001-01-01T00:00:00Z","name_a2s":"Uncletopia | London | 3 | All Maps","protocol":17,"map":"cp_sunshine","folder":"tf","game":"Team Fortress","app_id":440,"player_count":24,"max_players":24,"Bots":0,"server_type":"Dedicated","server_os":"Linux","password":true,"vac":true,"version":"7757534","steam_id":85568392924510192,"keywords":["cp","nocrits","nodmgspread","uncletopia"],"game_id":440,"stv_port":27036,"stv_name":"Uncletopia | London | 3 | All Maps | STV","players":[{"user_id":611,"name":"Buddy","steam_id":76561198050185582,"connected_time":1149000000000,"state":"active","ping":67},{"user_id":569,"name":"gofdrey","steam_id":76561198121941052,"connected_time":5806000000000,"state":"active","ping":57},{"user_id":609,"name":"Purps","steam_id":76561198053886680,"connected_time":1179000000000,"state":"active","ping":44},{"user_id":555,"name":"Welder","steam_id":76561198355300561,"connected_time":6997000000000,"state":"active","ping":65},{"user_id":615,"name":"♥ Aura ★","steam_id":76561198066258544,"connected_time":739000000000,"state":"active","ping":61},{"user_id":610,"name":"flan","steam_id":76561198271900816,"connected_time":1174000000000,"state":"active","ping":51},{"user_id":618,"name":"Alice in Rubberland","steam_id":76561198087328346,"connected_time":694000000000,"state":"active","ping":135},{"user_id":543,"name":"LarsInABox","steam_id":76561198028329262,"connected_time":7663000000000,"state":"active","ping":75},{"user_id":604,"name":"Steen","steam_id":76561198122992510,"connected_time":2927000000000,"state":"active","ping":45},{"user_id":620,"name":"Backup","steam_id":76561197999557567,"connected_time":610000000000,"state":"active","ping":61},{"user_id":593,"name":"8 Ball","steam_id":76561197960988736,"connected_time":3227000000000,"state":"active","ping":45},{"user_id":617,"name":"Tywhip","steam_id":76561199207545191,"connected_time":712000000000,"state":"active","ping":55},{"user_id":619,"name":"Arcader","steam_id":76561198109860110,"connected_time":674000000000,"state":"active","ping":59},{"user_id":608,"name":"Mor'du","steam_id":76561198274105878,"connected_time":1184000000000,"state":"active","ping":92},{"user_id":607,"name":"KnorbertD","steam_id":76561198175745541,"connected_time":1473000000000,"state":"active","ping":88},{"user_id":621,"name":"A cat","steam_id":76561198073769916,"connected_time":606000000000,"state":"active","ping":51},{"user_id":601,"name":"tapeworms!","steam_id":76561198069649097,"connected_time":3116000000000,"state":"active","ping":47},{"user_id":623,"name":"Nasiek (TF2 UPDATE HYPE)","steam_id":76561199388642072,"connected_time":366000000000,"state":"active","ping":54},{"user_id":582,"name":"addicted","steam_id":76561199129801006,"connected_time":4409000000000,"state":"active","ping":60},{"user_id":591,"name":"NotFionn","steam_id":76561198890525176,"connected_time":3331000000000,"state":"active","ping":74},{"user_id":622,"name":"Raingnome @SaveTF2","steam_id":76561198007394958,"connected_time":491000000000,"state":"active","ping":56},{"user_id":592,"name":"PizzaPete123","steam_id":76561198089478290,"connected_time":3329000000000,"state":"active","ping":42},{"user_id":500,"name":"Fat Pigeon","steam_id":76561198817940142,"connected_time":9405000000000,"state":"active","ping":55},{"user_id":567,"name":"Udinese Dion","steam_id":76561198067931573,"connected_time":6156000000000,"state":"active","ping":56}]},{"server_id":321,"name":"Uncletopia | London | 4 | All Maps","name_short":"lon-4","host":"lon-1.uk.uncletopia.com","port":27045,"enabled":true,"region":"eu","cc":"gb","latitude":51.509865,"longitude":-0.118092,"reserved":0,"last_update":"0001-01-01T00:00:00Z","name_a2s":"Uncletopia | London | 4 | All Maps","protocol":17,"map":"pl_badwater","folder":"tf","game":"Team Fortress","app_id":440,"player_count":15,"max_players":24,"Bots":0,"server_type":"Dedicated","server_os":"Linux","password":true,"vac":true,"version":"7757534","steam_id":85568392924510193,"keywords":["cp","nocrits","nodmgspread","uncletopia"],"game_id":440,"stv_port":27046,"stv_name":"Uncletopia | London | 4 | All Maps | STV","players":[{"user_id":171,"name":"Locke","steam_id":76561198339408300,"connected_time":1400000000000,"state":"connecting","ping":82},{"user_id":173,"name":"Toodlesnoot","steam_id":76561198036543689,"connected_time":1356000000000,"state":"connecting","ping":55},{"user_id":189,"name":"Bezoyalapolla","steam_id":76561198236833426,"connected_time":296000000000,"state":"connecting","ping":113},{"user_id":190,"name":"102ping","steam_id":76561199000963772,"connected_time":290000000000,"state":"spawning","ping":69},{"user_id":186,"name":"quack","steam_id":76561198440620067,"connected_time":674000000000,"state":"connecting","ping":50},{"user_id":192,"name":"dr. coom","steam_id":76561198172193711,"connected_time":167000000000,"state":"connecting","ping":49},{"user_id":180,"name":"Nassu","steam_id":76561198147367577,"connected_time":846000000000,"state":"connecting","ping":168},{"user_id":181,"name":"britiliximab","steam_id":76561198141173061,"connected_time":813000000000,"state":"connecting","ping":127},{"user_id":193,"name":"Juiceydough","steam_id":76561197997323419,"connected_time":90000000000,"state":"connecting","ping":94},{"user_id":61,"name":"Illegally Legal","steam_id":76561198982674420,"connected_time":8025000000000,"state":"connecting","ping":55},{"user_id":169,"name":"DDO1","steam_id":76561198348234399,"connected_time":1702000000000,"state":"connecting","ping":67},{"user_id":184,"name":"Breadcrab","steam_id":76561198015924039,"connected_time":740000000000,"state":"connecting","ping":66},{"user_id":187,"name":"SEARCH \"2023 OHIO DERAILMENT\"","steam_id":76561199206660048,"connected_time":665000000000,"state":"connecting","ping":85},{"user_id":168,"name":"Adopted?","steam_id":76561198118667043,"connected_time":1792000000000,"state":"spawning","ping":49}]},{"server_id":21,"name":"Uncletopia | London | 5 | All Maps","name_short":"lon-5","host":"lon-1.uk.uncletopia.com","port":27055,"enabled":true,"region":"eu","cc":"gb","latitude":51.509865,"longitude":-0.118092,"reserved":0,"last_update":"0001-01-01T00:00:00Z","name_a2s":"Uncletopia | London | 5 | All Maps","protocol":17,"map":"pl_swiftwater_final1","folder":"tf","game":"Team Fortress","app_id":440,"player_count":20,"max_players":24,"Bots":0,"server_type":"Dedicated","server_os":"Linux","password":true,"vac":true,"version":"7757534","steam_id":85568392924742829,"keywords":["nocrits","nodmgspread","payload","uncletopia"],"game_id":440,"stv_port":27056,"stv_name":"Uncletopia | London | 5 | All Maps | STV","players":[{"user_id":324,"name":"ash","steam_id":76561198004728744,"connected_time":278000000000,"state":"active","ping":60},{"user_id":328,"name":"❤ shrimpee❤ | [she/they]","steam_id":76561198303128670,"connected_time":15000000000,"state":"spawning","ping":39},{"user_id":310,"name":"Night Fury","steam_id":76561197995207032,"connected_time":2940000000000,"state":"active","ping":85},{"user_id":326,"name":"feed and seed","steam_id":76561199088046420,"connected_time":255000000000,"state":"active","ping":47},{"user_id":327,"name":"Dwevy","steam_id":76561198090379437,"connected_time":248000000000,"state":"active","ping":48},{"user_id":291,"name":"BunkerBoy","steam_id":76561198859439313,"connected_time":5004000000000,"state":"active","ping":86},{"user_id":293,"name":"Hampter","steam_id":76561198012351470,"connected_time":4477000000000,"state":"active","ping":38},{"user_id":300,"name":"Majima Gaming HD","steam_id":76561198365750503,"connected_time":3600000000000,"state":"active","ping":40},{"user_id":329,"name":"Johan","steam_id":76561199380849468,"connected_time":11000000000,"state":"active","ping":66},{"user_id":296,"name":"sebciosz","steam_id":76561198275906734,"connected_time":3647000000000,"state":"active","ping":76},{"user_id":322,"name":"ldshwt","steam_id":76561198090364357,"connected_time":1252000000000,"state":"active","ping":60},{"user_id":295,"name":"jones","steam_id":76561198044434971,"connected_time":3787000000000,"state":"active","ping":64},{"user_id":302,"name":"Lynceus","steam_id":76561198131209426,"connected_time":3583000000000,"state":"active","ping":54},{"user_id":318,"name":"❤ Sparx ❤","steam_id":76561198095009261,"connected_time":2171000000000,"state":"active","ping":53},{"user_id":267,"name":"Sinny","steam_id":76561197999598422,"connected_time":5813000000000,"state":"active","ping":84},{"user_id":280,"name":"Alibi","steam_id":76561198061845595,"connected_time":5439000000000,"state":"active","ping":50},{"user_id":323,"name":"Al3xis","steam_id":76561198183835821,"connected_time":965000000000,"state":"active","ping":84},{"user_id":274,"name":"rz-/Atomic Punch","steam_id":76561199195508541,"connected_time":5738000000000,"state":"active","ping":72},{"user_id":313,"name":"stoppen","steam_id":76561197960281482,"connected_time":2510000000000,"state":"active","ping":73},{"user_id":309,"name":"Bonca","steam_id":76561198137503531,"connected_time":3248000000000,"state":"active","ping":74}]},{"server_id":22,"name":"Uncletopia | London | 6 | All Maps","name_short":"lon-6","host":"lon-1.uk.uncletopia.com","port":27065,"enabled":true,"region":"eu","cc":"gb","latitude":51.509865,"longitude":-0.118092,"reserved":0,"last_update":"0001-01-01T00:00:00Z","name_a2s":"Uncletopia | London | 6 | All Maps","protocol":17,"map":"koth_highpass","folder":"tf","game":"Team Fortress","app_id":440,"player_count":2,"max_players":24,"Bots":0,"server_type":"Dedicated","server_os":"Linux","password":true,"vac":true,"version":"7757534","steam_id":85568392924742830,"keywords":["cp","nocrits","nodmgspread","uncletopia"],"game_id":440,"stv_port":27066,"stv_name":"Uncletopia | London | 6 | All Maps | STV","players":[{"user_id":24,"name":"Ariedente","steam_id":76561198844312151,"connected_time":756000000000,"state":"active","ping":48},{"user_id":25,"name":"Squazz","steam_id":76561198159178189,"connected_time":734000000000,"state":"active","ping":76}]},{"server_id":40,"name":"Uncletopia | London | 7 | No Payload","name_short":"lon-7","host":"lon-1.uk.uncletopia.com","port":27075,"enabled":true,"region":"eu","cc":"gb","latitude":51.509865,"longitude":-0.118092,"reserved":0,"last_update":"0001-01-01T00:00:00Z","name_a2s":"Uncletopia | London | 7 | No Payload","protocol":17,"map":"cp_process_final","folder":"tf","game":"Team Fortress","app_id":440,"player_count":0,"max_players":24,"Bots":0,"server_type":"Dedicated","server_os":"Linux","password":true,"vac":true,"version":"7757534","steam_id":85568392924964314,"keywords":["cp","nocrits","nodmgspread","uncletopia"],"game_id":440,"stv_port":27076,"stv_name":"Uncletopia | London | 7 | No Payload | STV","players":null},{"server_id":41,"name":"Uncletopia | London | 8 | Community","name_short":"lon-8","host":"lon-1.uk.uncletopia.com","port":27085,"enabled":true,"region":"eu","cc":"gb","latitude":51.509865,"longitude":-0.118092,"reserved":0,"last_update":"0001-01-01T00:00:00Z","name_a2s":"Uncletopia | London | 8 | Community","protocol":17,"map":"workshop/cp_propaganda_b18.ugc1603743849","folder":"tf","game":"Team Fortress","app_id":440,"player_count":0,"max_players":24,"Bots":0,"server_type":"Dedicated","server_os":"Linux","password":true,"vac":true,"version":"7757534","steam_id":85568392924964315,"keywords":["cp","nocrits","nodmgspread","uncletopia"],"game_id":440,"stv_port":27086,"stv_name":"Uncletopia | London | 8 | Community | STV","players":null},{"server_id":300,"name":"Uncletopia | Montréal | 1 | All Maps","name_short":"mtl-1","host":"mtl-1.ca.uncletopia.com","port":27015,"enabled":true,"region":"us-east","cc":"ca","latitude":45.50889,"longitude":-73.56167,"reserved":0,"last_update":"0001-01-01T00:00:00Z","name_a2s":"Uncletopia | Montréal | 1 | All Maps","protocol":17,"map":"koth_cascade","folder":"tf","game":"Team Fortress","app_id":440,"player_count":0,"max_players":24,"Bots":0,"server_type":"Dedicated","server_os":"Linux","password":true,"vac":true,"version":"7757534","steam_id":85568392924500087,"keywords":["cp","nocrits","nodmgspread","uncletopia"],"game_id":440,"stv_port":27016,"stv_name":"Uncletopia | Montréal | 1 | All Maps | STV","players":null},{"server_id":301,"name":"Uncletopia | Montréal | 2 | All Maps","name_short":"mtl-2","host":"mtl-1.ca.uncletopia.com","port":27025,"enabled":true,"region":"us-east","cc":"ca","latitude":45.50889,"longitude":-73.56167,"reserved":0,"last_update":"0001-01-01T00:00:00Z","name_a2s":"Uncletopia | Montréal | 2 | All Maps","protocol":17,"map":"pl_snowycoast","folder":"tf","game":"Team Fortress","app_id":440,"player_count":0,"max_players":24,"Bots":0,"server_type":"Dedicated","server_os":"Linux","password":true,"vac":true,"version":"7757534","steam_id":85568392924500088,"keywords":["nocrits","nodmgspread","payload","uncletopia"],"game_id":440,"stv_port":27026,"stv_name":"Uncletopia | Montréal | 2 | All Maps | STV","players":null},{"server_id":302,"name":"Uncletopia | Montréal | 3 | All Maps","name_short":"mtl-3","host":"mtl-1.ca.uncletopia.com","port":27035,"enabled":true,"region":"us-east","cc":"ca","latitude":45.50889,"longitude":-73.56167,"reserved":0,"last_update":"0001-01-01T00:00:00Z","name_a2s":"Uncletopia | Montréal | 3 | All Maps","protocol":17,"map":"pl_swiftwater_final1","folder":"tf","game":"Team Fortress","app_id":440,"player_count":0,"max_players":24,"Bots":0,"server_type":"Dedicated","server_os":"Linux","password":true,"vac":true,"version":"7757534","steam_id":85568392924500089,"keywords":["nocrits","nodmgspread","payload","uncletopia"],"game_id":440,"stv_port":27036,"stv_name":"Uncletopia | Montréal | 3 | All Maps | STV","players":null},{"server_id":303,"name":"Uncletopia | Montréal | 4 | No Payload","name_short":"mtl-4","host":"mtl-1.ca.uncletopia.com","port":27045,"enabled":true,"region":"us-east","cc":"ca","latitude":45.50889,"longitude":-73.56167,"reserved":0,"last_update":"0001-01-01T00:00:00Z","name_a2s":"Uncletopia | Montréal | 4 | No Payload","protocol":17,"map":"cp_mercenarypark","folder":"tf","game":"Team Fortress","app_id":440,"player_count":0,"max_players":24,"Bots":0,"server_type":"Dedicated","server_os":"Linux","password":true,"vac":true,"version":"7757534","steam_id":85568392924500090,"keywords":["cp","nocrits","nodmgspread","uncletopia"],"game_id":440,"stv_port":27046,"stv_name":"Uncletopia | Montréal | 4 | No Payload | STV","players":null},{"server_id":13,"name":"Uncletopia | New York City | 1 | All Maps","name_short":"nyc-1","host":"nyc-1.us.uncletopia.com","port":27015,"enabled":true,"region":"us-east","cc":"us","latitude":40.73061,"longitude":-73.93524,"reserved":0,"last_update":"0001-01-01T00:00:00Z","name_a2s":"Uncletopia | New York City | 1 | All Maps","protocol":17,"map":"cp_5gorge","folder":"tf","game":"Team Fortress","app_id":440,"player_count":23,"max_players":24,"Bots":0,"server_type":"Dedicated","server_os":"Linux","password":true,"vac":true,"version":"7757534","steam_id":85568392924469993,"keywords":["cp","nocrits","nodmgspread","uncletopia"],"game_id":440,"stv_port":27016,"stv_name":"Uncletopia | New York City | 1 | All Maps | STV","players":[{"user_id":62,"name":"Hydrostasis","steam_id":76561198412399283,"connected_time":539000000000,"state":"active","ping":81},{"user_id":54,"name":"clack","steam_id":76561198966980576,"connected_time":1578000000000,"state":"active","ping":41},{"user_id":20,"name":"Hook, Line, and Sphincter","steam_id":76561198078207743,"connected_time":3561000000000,"state":"active","ping":45},{"user_id":70,"name":"Grover","steam_id":76561199079689736,"connected_time":110000000000,"state":"active","ping":105},{"user_id":56,"name":"Super D Duper","steam_id":76561198078203677,"connected_time":1480000000000,"state":"active","ping":52},{"user_id":69,"name":"Shiroompa","steam_id":76561198010705959,"connected_time":168000000000,"state":"active","ping":100},{"user_id":57,"name":"Doost","steam_id":76561198115785902,"connected_time":1193000000000,"state":"active","ping":77},{"user_id":71,"name":"flamingcookies","steam_id":76561198280864779,"connected_time":69000000000,"state":"active","ping":70},{"user_id":73,"name":"dangler","steam_id":76561198060334743,"connected_time":49000000000,"state":"active","ping":60},{"user_id":72,"name":"basilberry","steam_id":76561198145275937,"connected_time":63000000000,"state":"active","ping":98},{"user_id":50,"name":"Pourpel","steam_id":76561198059125470,"connected_time":1905000000000,"state":"active","ping":79},{"user_id":51,"name":"Buttons :)","steam_id":76561198139478534,"connected_time":1903000000000,"state":"active","ping":117},{"user_id":32,"name":"ArnoldGamingﾠٴ","steam_id":76561198040140247,"connected_time":2771000000000,"state":"active","ping":104},{"user_id":33,"name":"TaBunnie","steam_id":76561198197894178,"connected_time":2697000000000,"state":"active","ping":70},{"user_id":53,"name":"hobbiebobbie","steam_id":76561199168320895,"connected_time":1722000000000,"state":"active","ping":89},{"user_id":59,"name":"[F8P] ♠Robs-Insanity♦™","steam_id":76561198055521233,"connected_time":1089000000000,"state":"active","ping":60},{"user_id":74,"name":"DD_440","steam_id":76561199135978082,"connected_time":39000000000,"state":"active","ping":53},{"user_id":37,"name":"Pig","steam_id":76561198276179693,"connected_time":2605000000000,"state":"active","ping":67},{"user_id":75,"name":"MattJettskie","steam_id":76561199229493583,"connected_time":24000000000,"state":"active","ping":101},{"user_id":67,"name":"NeverAcedIt (Pinnacle -\u003e Pit)","steam_id":76561198406671743,"connected_time":305000000000,"state":"active","ping":88},{"user_id":60,"name":"hsoj318","steam_id":76561198062564543,"connected_time":1070000000000,"state":"active","ping":97},{"user_id":76,"name":"The Honorable Sir Knish IV","steam_id":76561198427047948,"connected_time":11000000000,"state":"spawning","ping":63},{"user_id":43,"name":"Hipp-Dip","steam_id":76561199027874633,"connected_time":2527000000000,"state":"active","ping":41}]},{"server_id":14,"name":"Uncletopia | New York City | 2 | All Maps","name_short":"nyc-2","host":"nyc-1.us.uncletopia.com","port":27025,"enabled":true,"region":"us-east","cc":"us","latitude":40.73061,"longitude":-73.93524,"reserved":0,"last_update":"0001-01-01T00:00:00Z","name_a2s":"Uncletopia | New York City | 2 | All Maps","protocol":17,"map":"koth_lakeside_final","folder":"tf","game":"Team Fortress","app_id":440,"player_count":0,"max_players":24,"Bots":0,"server_type":"Dedicated","server_os":"Linux","password":true,"vac":true,"version":"7757534","steam_id":85568392924469994,"keywords":["cp","nocrits","nodmgspread","uncletopia"],"game_id":440,"stv_port":27026,"stv_name":"Uncletopia | New York City | 2 | All Maps | STV","players":null},{"server_id":15,"name":"Uncletopia | New York City | 3 | Stopwatch Beta","name_short":"nyc-3","host":"nyc-1.us.uncletopia.com","port":27035,"enabled":true,"region":"us-east","cc":"us","latitude":40.73061,"longitude":-73.93524,"reserved":0,"last_update":"0001-01-01T00:00:00Z","name_a2s":"Uncletopia | New York City | 3 | Stopwatch Beta","protocol":17,"map":"pl_upward","folder":"tf","game":"Team Fortress","app_id":440,"player_count":0,"max_players":24,"Bots":0,"server_type":"Dedicated","server_os":"Linux","password":true,"vac":true,"version":"7757534","steam_id":85568392924742820,"keywords":["nocrits","nodmgspread","payload","uncletopia"],"game_id":440,"stv_port":27036,"stv_name":"Uncletopia | New York City | 3 | Stopwatch Beta | STV","players":null},{"server_id":16,"name":"Uncletopia | New York City | 4 | Community","name_short":"nyc-4","host":"nyc-1.us.uncletopia.com","port":27045,"enabled":true,"region":"us-east","cc":"us","latitude":40.73061,"longitude":-73.93524,"reserved":0,"last_update":"0001-01-01T00:00:00Z","name_a2s":"Uncletopia | New York City | 4 | Community","protocol":17,"map":"workshop/pl_eruption_b9a.ugc2807898013","folder":"tf","game":"Team Fortress","app_id":440,"player_count":0,"max_players":24,"Bots":0,"server_type":"Dedicated","server_os":"Linux","password":true,"vac":true,"version":"7757534","steam_id":85568392924742821,"keywords":["nocrits","nodmgspread","payload","uncletopia"],"game_id":440,"stv_port":27046,"stv_name":"Uncletopia | New York City | 4 | Community | STV","players":null},{"server_id":142,"name":"Uncletopia | São Paulo | 1 | All Maps","name_short":"sao-1","host":"sao-1.br.uncletopia.com","port":27015,"enabled":true,"region":"sa","cc":"br","latitude":-23.533773,"longitude":-46.62529,"reserved":0,"last_update":"0001-01-01T00:00:00Z","name_a2s":"Uncletopia | São Paulo | 1 | All Maps","protocol":17,"map":"pl_borneo","folder":"tf","game":"Team Fortress","app_id":440,"player_count":11,"max_players":24,"Bots":0,"server_type":"Dedicated","server_os":"Linux","password":true,"vac":true,"version":"7757534","steam_id":85568392924469996,"keywords":["nocrits","nodmgspread","payload","uncletopia"],"game_id":440,"stv_port":27016,"stv_name":"Uncletopia | São Paulo | 1 | All Maps | STV","players":[{"user_id":8,"name":"ailuros","steam_id":76561198171349369,"connected_time":5690000000000,"state":"active","ping":33},{"user_id":48,"name":"forg","steam_id":76561199160422863,"connected_time":508000000000,"state":"active","ping":202},{"user_id":14,"name":"FutanariGirl","steam_id":76561199479462702,"connected_time":4853000000000,"state":"active","ping":46},{"user_id":43,"name":"PrYume","steam_id":76561198976110673,"connected_time":739000000000,"state":"active","ping":61},{"user_id":38,"name":"jr_rusty","steam_id":76561198313937899,"connected_time":1236000000000,"state":"active","ping":41},{"user_id":17,"name":"Kaiser","steam_id":76561199168194896,"connected_time":3670000000000,"state":"active","ping":65},{"user_id":52,"name":"jao","steam_id":76561198408082822,"connected_time":88000000000,"state":"active","ping":51},{"user_id":49,"name":"tales","steam_id":76561198135871794,"connected_time":499000000000,"state":"active","ping":60},{"user_id":51,"name":"Sabot","steam_id":76561198176478934,"connected_time":186000000000,"state":"active","ping":60},{"user_id":42,"name":"La'caca","steam_id":76561199047860229,"connected_time":937000000000,"state":"active","ping":66},{"user_id":47,"name":"watermelon01","steam_id":76561199080817141,"connected_time":585000000000,"state":"active","ping":65}]},{"server_id":143,"name":"Uncletopia | São Paulo | 2 | All Maps","name_short":"sao-2","host":"sao-2.br.uncletopia.com","port":27015,"enabled":true,"region":"sa","cc":"br","latitude":-23.533773,"longitude":-46.62529,"reserved":0,"last_update":"0001-01-01T00:00:00Z","name_a2s":"Uncletopia | São Paulo | 2 | All Maps","protocol":17,"map":"koth_viaduct","folder":"tf","game":"Team Fortress","app_id":440,"player_count":0,"max_players":24,"Bots":0,"server_type":"Dedicated","server_os":"Linux","password":true,"vac":true,"version":"7757534","steam_id":85568392924485349,"keywords":["cp","nocrits","nodmgspread","uncletopia"],"game_id":440,"stv_port":27016,"stv_name":"Uncletopia | São Paulo | 2 | All Maps | STV","players":null},{"server_id":7,"name":"Uncletopia | Seattle | 1 | All Maps","name_short":"sea-1","host":"sea-1.us.uncletopia.com","port":27015,"enabled":true,"region":"us-west","cc":"us","latitude":47.608013,"longitude":-122.33517,"reserved":0,"last_update":"0001-01-01T00:00:00Z","name_a2s":"Uncletopia | Seattle | 1 | All Maps","protocol":17,"map":"pl_upward","folder":"tf","game":"Team Fortress","app_id":440,"player_count":24,"max_players":24,"Bots":0,"server_type":"Dedicated","server_os":"Linux","password":true,"vac":true,"version":"7757534","steam_id":85568392924469997,"keywords":["nocrits","nodmgspread","payload","uncletopia"],"game_id":440,"stv_port":27016,"stv_name":"Uncletopia | Seattle | 1 | All Maps | STV","players":[{"user_id":509,"name":"Captain Demytri","steam_id":76561198097998607,"connected_time":1661000000000,"state":"active","ping":90},{"user_id":520,"name":"Big Jack Horner","steam_id":76561198847690613,"connected_time":666000000000,"state":"active","ping":125},{"user_id":500,"name":"Cottontail","steam_id":76561198213634567,"connected_time":2744000000000,"state":"active","ping":116},{"user_id":511,"name":"Blank_Sicon","steam_id":76561198887041407,"connected_time":1553000000000,"state":"active","ping":85},{"user_id":417,"name":"Thexx ❤","steam_id":76561198113823050,"connected_time":4206000000000,"state":"active","ping":53},{"user_id":522,"name":"Chubby Monarch","steam_id":76561198027487285,"connected_time":577000000000,"state":"active","ping":121},{"user_id":507,"name":"god approaches","steam_id":76561198081617990,"connected_time":1914000000000,"state":"active","ping":121},{"user_id":501,"name":"Fh","steam_id":76561198000903511,"connected_time":2598000000000,"state":"active","ping":69},{"user_id":519,"name":"mango cafe","steam_id":76561198142328193,"connected_time":812000000000,"state":"active","ping":50},{"user_id":526,"name":"Positive0","steam_id":76561198035780181,"connected_time":178000000000,"state":"active","ping":111},{"user_id":363,"name":"Blitzy","steam_id":76561198149472890,"connected_time":7282000000000,"state":"active","ping":61},{"user_id":466,"name":"Cringe Guillotine User","steam_id":76561198997067030,"connected_time":3285000000000,"state":"active","ping":180},{"user_id":381,"name":"🅜🅔🅔🅚🅢🅣🅔\ufffd\ufffd\ufffd","steam_id":76561197999748343,"connected_time":6249000000000,"state":"active","ping":90},{"user_id":514,"name":"fish enthusiast","steam_id":76561198160609198,"connected_time":886000000000,"state":"active","ping":47},{"user_id":515,"name":"minerkid2004","steam_id":76561198044262827,"connected_time":884000000000,"state":"active","ping":67},{"user_id":513,"name":"dance moon","steam_id":76561198110152060,"connected_time":1392000000000,"state":"active","ping":45},{"user_id":414,"name":"Mediarch","steam_id":76561198050765729,"connected_time":4293000000000,"state":"active","ping":55},{"user_id":516,"name":"Mikey Decoy","steam_id":76561198070496601,"connected_time":867000000000,"state":"active","ping":57},{"user_id":527,"name":"Zadok","steam_id":76561198075397776,"connected_time":32000000000,"state":"spawning","ping":51},{"user_id":321,"name":"ratie","steam_id":76561198059399661,"connected_time":10255000000000,"state":"active","ping":89},{"user_id":524,"name":"spacetoven","steam_id":76561198115821131,"connected_time":511000000000,"state":"active","ping":72},{"user_id":456,"name":"5392vin","steam_id":76561198880493511,"connected_time":3410000000000,"state":"active","ping":63},{"user_id":483,"name":"SirJellyRolls","steam_id":76561198119277244,"connected_time":2995000000000,"state":"active","ping":70},{"user_id":432,"name":"jayeskae","steam_id":76561198144220801,"connected_time":3975000000000,"state":"active","ping":54}]},{"server_id":119,"name":"Uncletopia | Seattle | 2 | All Maps","name_short":"sea-2","host":"sea-1.us.uncletopia.com","port":27025,"enabled":true,"region":"us-west","cc":"us","latitude":47.608013,"longitude":-122.33517,"reserved":0,"last_update":"0001-01-01T00:00:00Z","name_a2s":"Uncletopia | Seattle | 2 | All Maps","protocol":17,"map":"cp_5gorge","folder":"tf","game":"Team Fortress","app_id":440,"player_count":24,"max_players":24,"Bots":0,"server_type":"Dedicated","server_os":"Linux","password":true,"vac":true,"version":"7757534","steam_id":85568392924469998,"keywords":["cp","nocrits","nodmgspread","uncletopia"],"game_id":440,"stv_port":27026,"stv_name":"Uncletopia | Seattle | 2 | All Maps | STV","players":[{"user_id":163,"name":"doctor large","steam_id":76561199195836752,"connected_time":2988000000000,"state":"active","ping":112},{"user_id":125,"name":"Deryn Sharp","steam_id":76561198047017346,"connected_time":5238000000000,"state":"active","ping":74},{"user_id":150,"name":"Wavelengths (they/it)","steam_id":76561197997621320,"connected_time":3683000000000,"state":"active","ping":95},{"user_id":148,"name":"Sev","steam_id":76561198053971248,"connected_time":3775000000000,"state":"active","ping":45},{"user_id":134,"name":"Training Arc","steam_id":76561198038832034,"connected_time":4570000000000,"state":"active","ping":59},{"user_id":168,"name":"The Pepsi® Superbowl®!","steam_id":76561198080828981,"connected_time":2125000000000,"state":"active","ping":70},{"user_id":67,"name":"roanoke›","steam_id":76561198048007844,"connected_time":9242000000000,"state":"active","ping":75},{"user_id":186,"name":"They/Them Rattussy","steam_id":76561198238186628,"connected_time":33000000000,"state":"active","ping":75},{"user_id":173,"name":"gloobern","steam_id":76561198341190679,"connected_time":1693000000000,"state":"active","ping":64},{"user_id":174,"name":"VixianUwU","steam_id":76561198948815060,"connected_time":1686000000000,"state":"active","ping":85},{"user_id":159,"name":"Resident Thrussy Lender","steam_id":76561198071790583,"connected_time":3399000000000,"state":"active","ping":106},{"user_id":182,"name":"Butterfly Pancakes","steam_id":76561198286158414,"connected_time":639000000000,"state":"active","ping":69},{"user_id":178,"name":"lowtierdeity","steam_id":76561199154440770,"connected_time":1108000000000,"state":"active","ping":77},{"user_id":126,"name":"RaidersFan34","steam_id":76561198269369893,"connected_time":5222000000000,"state":"active","ping":58},{"user_id":162,"name":"Zero","steam_id":76561199383267408,"connected_time":3296000000000,"state":"active","ping":112},{"user_id":155,"name":"Z71Jeffrey05","steam_id":76561198045992418,"connected_time":3440000000000,"state":"active","ping":47},{"user_id":165,"name":"jordanddean2016","steam_id":76561198323772677,"connected_time":2705000000000,"state":"active","ping":55},{"user_id":157,"name":"89","steam_id":76561198106308056,"connected_time":3431000000000,"state":"active","ping":164},{"user_id":177,"name":"Icy","steam_id":76561198125015366,"connected_time":1221000000000,"state":"active","ping":114},{"user_id":154,"name":"Vlasic_Garlic_Dills99","steam_id":76561198030052564,"connected_time":3520000000000,"state":"active","ping":60},{"user_id":156,"name":"tocka","steam_id":76561198106917662,"connected_time":3440000000000,"state":"active","ping":144},{"user_id":183,"name":"sevanial","steam_id":76561198071532126,"connected_time":628000000000,"state":"active","ping":116},{"user_id":184,"name":"Gocel","steam_id":76561198071467515,"connected_time":623000000000,"state":"active","ping":114},{"user_id":185,"name":"Akira","steam_id":76561198294601519,"connected_time":381000000000,"state":"active","ping":36}]},{"server_id":406,"name":"Uncletopia | Seattle | 3 | Stopwatch Beta","name_short":"sea-3","host":"sea-1.us.uncletopia.com","port":27035,"enabled":true,"region":"us-west","cc":"us","latitude":47.608013,"longitude":-122.33517,"reserved":0,"last_update":"0001-01-01T00:00:00Z","name_a2s":"Uncletopia | Seattle | 3 | Stopwatch Beta","protocol":17,"map":"workshop/koth_clearcut_b15.ugc2107050255","folder":"tf","game":"Team Fortress","app_id":440,"player_count":0,"max_players":24,"Bots":0,"server_type":"Dedicated","server_os":"Linux","password":true,"vac":true,"version":"7757534","steam_id":85568392924515217,"keywords":["cp","nocrits","nodmgspread","uncletopia"],"game_id":440,"stv_port":27036,"stv_name":"Uncletopia | Seattle | 3 | Stopwatch Beta | STV","players":null},{"server_id":17,"name":"Uncletopia | San Francisco | 1 | All Maps","name_short":"sfo-1","host":"sfo-1.us.uncletopia.com","port":27015,"enabled":true,"region":"us-west","cc":"us","latitude":37.77397,"longitude":-122.4313,"reserved":0,"last_update":"0001-01-01T00:00:00Z","name_a2s":"Uncletopia | San Francisco | 1 | All Maps","protocol":17,"map":"cp_dustbowl","folder":"tf","game":"Team Fortress","app_id":440,"player_count":0,"max_players":24,"Bots":0,"server_type":"Dedicated","server_os":"Linux","password":true,"vac":true,"version":"7757534","steam_id":85568392924469999,"keywords":["cp","nocrits","nodmgspread","uncletopia"],"game_id":440,"stv_port":27016,"stv_name":"Uncletopia | San Francisco | 1 | All Maps | STV","players":null},{"server_id":18,"name":"Uncletopia | San Francisco | 2 | All Maps","name_short":"sfo-2","host":"sfo-1.us.uncletopia.com","port":27025,"enabled":true,"region":"us-west","cc":"us","latitude":37.77397,"longitude":-122.4313,"reserved":0,"last_update":"0001-01-01T00:00:00Z","name_a2s":"Uncletopia | San Francisco | 2 | All Maps","protocol":17,"map":"pl_snowycoast","folder":"tf","game":"Team Fortress","app_id":440,"player_count":0,"max_players":24,"Bots":0,"server_type":"Dedicated","server_os":"Linux","password":true,"vac":true,"version":"7757534","steam_id":85568392924470000,"keywords":["nocrits","nodmgspread","payload","uncletopia"],"game_id":440,"stv_port":27026,"stv_name":"Uncletopia | San Francisco | 2 | All Maps | STV","players":null},{"server_id":19,"name":"Uncletopia | San Francisco | 3 | Stopwatch Beta","name_short":"sfo-3","host":"sfo-1.us.uncletopia.com","port":27035,"enabled":true,"region":"us-west","cc":"us","latitude":37.77397,"longitude":-122.4313,"reserved":0,"last_update":"0001-01-01T00:00:00Z","name_a2s":"Uncletopia | San Francisco | 3 | Stopwatch Beta","protocol":17,"map":"koth_lakeside_final","folder":"tf","game":"Team Fortress","app_id":440,"player_count":0,"max_players":24,"Bots":0,"server_type":"Dedicated","server_os":"Linux","password":true,"vac":true,"version":"7757534","steam_id":85568392924742824,"keywords":["cp","nocrits","nodmgspread","uncletopia"],"game_id":440,"stv_port":27036,"stv_name":"Uncletopia | San Francisco | 3 | Stopwatch Beta | STV","players":null},{"server_id":20,"name":"Uncletopia | San Francisco | 4 | Community","name_short":"sfo-4","host":"sfo-1.us.uncletopia.com","port":27045,"enabled":true,"region":"us-west","cc":"us","latitude":37.77397,"longitude":-122.4313,"reserved":0,"last_update":"0001-01-01T00:00:00Z","name_a2s":"Uncletopia | San Francisco | 4 | Community","protocol":17,"map":"workshop/pl_badwater_pro_v12.ugc2142942074","folder":"tf","game":"Team Fortress","app_id":440,"player_count":22,"max_players":24,"Bots":0,"server_type":"Dedicated","server_os":"Linux","password":true,"vac":true,"version":"7757534","steam_id":85568392924742826,"keywords":["cp","nocrits","nodmgspread","uncletopia"],"game_id":440,"stv_port":27046,"stv_name":"Uncletopia | San Francisco | 4 | Community | STV","players":[{"user_id":123,"name":"terrorism? boy howdy","steam_id":76561198844003641,"connected_time":2612000000000,"state":"connecting","ping":79},{"user_id":132,"name":"Reaper","steam_id":76561198435826103,"connected_time":2023000000000,"state":"connecting","ping":118},{"user_id":146,"name":"Da Bird","steam_id":76561198215677985,"connected_time":980000000000,"state":"connecting","ping":74},{"user_id":119,"name":"ุ","steam_id":76561198084134025,"connected_time":2866000000000,"state":"connecting","ping":117},{"user_id":140,"name":"! #freecream","steam_id":76561198298645133,"connected_time":1340000000000,"state":"connecting","ping":82},{"user_id":137,"name":"Cave Dweller","steam_id":76561198374825685,"connected_time":1464000000000,"state":"connecting","ping":79},{"user_id":92,"name":"brea?","steam_id":76561198025130409,"connected_time":5453000000000,"state":"connecting","ping":106},{"user_id":75,"name":"dog","steam_id":76561198090737207,"connected_time":6612000000000,"state":"connecting","ping":71},{"user_id":138,"name":"QueenPinharam","steam_id":76561199015626409,"connected_time":1387000000000,"state":"connecting","ping":105},{"user_id":145,"name":"mud eater","steam_id":76561198351327625,"connected_time":1030000000000,"state":"connecting","ping":124},{"user_id":151,"name":"Kid named download","steam_id":76561199192074448,"connected_time":537000000000,"state":"connecting","ping":158},{"user_id":122,"name":"Queen Chrystaliana","steam_id":76561198312198313,"connected_time":2653000000000,"state":"connecting","ping":93},{"user_id":113,"name":"Thunderchief","steam_id":76561198022802780,"connected_time":3209000000000,"state":"connecting","ping":85},{"user_id":96,"name":"BrightOrangeMango","steam_id":76561198023144607,"connected_time":5021000000000,"state":"connecting","ping":86},{"user_id":141,"name":"Marie","steam_id":76561198056104899,"connected_time":1298000000000,"state":"connecting","ping":126},{"user_id":152,"name":"knatspray","steam_id":76561198832507482,"connected_time":348000000000,"state":"connecting","ping":78},{"user_id":149,"name":"michael myers gaming","steam_id":76561198155843685,"connected_time":864000000000,"state":"connecting","ping":68},{"user_id":143,"name":"the meta","steam_id":76561199071495058,"connected_time":1204000000000,"state":"connecting","ping":145},{"user_id":73,"name":"Rickysuper_52","steam_id":76561198067865179,"connected_time":6653000000000,"state":"connecting","ping":96}]},{"server_id":141,"name":"Uncletopia | Sydney | 1 | All Maps","name_short":"syd-1","host":"syd-1.au.uncletopia.com","port":27015,"enabled":true,"region":"au","cc":"au","latitude":-33.865143,"longitude":151.2099,"reserved":0,"last_update":"0001-01-01T00:00:00Z","name_a2s":"Uncletopia | Sydney | 1 | All Maps","protocol":17,"map":"koth_viaduct","folder":"tf","game":"Team Fortress","app_id":440,"player_count":0,"max_players":24,"Bots":0,"server_type":"Dedicated","server_os":"Linux","password":true,"vac":true,"version":"7757534","steam_id":85568392924470001,"keywords":["cp","nocrits","nodmgspread","uncletopia"],"game_id":440,"stv_port":27016,"stv_name":"Uncletopia | Sydney | 1 | All Maps | STV","players":null},{"server_id":123,"name":"Uncletopia | Sydney | 2 | All Maps","name_short":"syd-2","host":"syd-1.au.uncletopia.com","port":27025,"enabled":true,"region":"au","cc":"au","latitude":-33.865143,"longitude":151.2099,"reserved":0,"last_update":"0001-01-01T00:00:00Z","name_a2s":"Uncletopia | Sydney | 2 | All Maps","protocol":17,"map":"cp_process_final","folder":"tf","game":"Team Fortress","app_id":440,"player_count":0,"max_players":24,"Bots":0,"server_type":"Dedicated","server_os":"Linux","password":true,"vac":true,"version":"7757534","steam_id":85568392924470002,"keywords":["cp","nocrits","nodmgspread","uncletopia"],"game_id":440,"stv_port":27026,"stv_name":"Uncletopia | Sydney | 2 | All Maps | STV","players":null},{"server_id":395,"name":"Uncletopia | Sydney | 3 | All Maps","name_short":"syd-3","host":"syd-1.au.uncletopia.com","port":27035,"enabled":true,"region":"au","cc":"au","latitude":-33.865143,"longitude":151.2099,"reserved":0,"last_update":"0001-01-01T00:00:00Z","name_a2s":"Uncletopia | Sydney | 3 | All Maps","protocol":17,"map":"pl_swiftwater_final1","folder":"tf","game":"Team Fortress","app_id":440,"player_count":0,"max_players":24,"Bots":0,"server_type":"Dedicated","server_os":"Linux","password":true,"vac":true,"version":"7757534","steam_id":85568392925194467,"keywords":["nocrits","nodmgspread","payload","uncletopia"],"game_id":440,"stv_port":27036,"stv_name":"Uncletopia | Sydney | 3 | All Maps | STV","players":null},{"server_id":396,"name":"Uncletopia | Sydney | 4 | All Maps","name_short":"syd-4","host":"syd-1.au.uncletopia.com","port":27045,"enabled":true,"region":"au","cc":"au","latitude":-33.865143,"longitude":151.2099,"reserved":0,"last_update":"0001-01-01T00:00:00Z","name_a2s":"Uncletopia | Sydney | 4 | All Maps","protocol":17,"map":"koth_highpass","folder":"tf","game":"Team Fortress","app_id":440,"player_count":0,"max_players":24,"Bots":0,"server_type":"Dedicated","server_os":"Linux","password":true,"vac":true,"version":"7757534","steam_id":85568392925397958,"keywords":["cp","nocrits","nodmgspread","uncletopia"],"game_id":440,"stv_port":27046,"stv_name":"Uncletopia | Sydney | 4 | All Maps | STV","players":null},{"server_id":58,"name":"Uncletopia | Sydney | 5 | Stopwatch Beta","name_short":"syd-5","host":"syd-1.au.uncletopia.com","port":27055,"enabled":true,"region":"au","cc":"au","latitude":-33.865143,"longitude":151.2099,"reserved":0,"last_update":"0001-01-01T00:00:00Z","name_a2s":"Uncletopia | Sydney | 5 | Stopwatch Beta","protocol":17,"map":"koth_cascade","folder":"tf","game":"Team Fortress","app_id":440,"player_count":0,"max_players":24,"Bots":0,"server_type":"Dedicated","server_os":"Linux","password":true,"vac":true,"version":"7757534","steam_id":85568392925397959,"keywords":["cp","nocrits","nodmgspread","uncletopia"],"game_id":440,"stv_port":27056,"stv_name":"Uncletopia | Sydney | 5 | Stopwatch Beta | STV","players":null},{"server_id":59,"name":"Uncletopia | Sydney | 6 | Community","name_short":"syd-6","host":"syd-1.au.uncletopia.com","port":27065,"enabled":true,"region":"au","cc":"au","latitude":-33.865143,"longitude":151.2099,"reserved":0,"last_update":"0001-01-01T00:00:00Z","name_a2s":"Uncletopia | Sydney | 6 | Community","protocol":17,"map":"cp_snakewater_final1","folder":"tf","game":"Team Fortress","app_id":440,"player_count":0,"max_players":24,"Bots":0,"server_type":"Dedicated","server_os":"Linux","password":true,"vac":true,"version":"7757534","steam_id":85568392925397960,"keywords":["cp","nocrits","nodmgspread","uncletopia"],"game_id":440,"stv_port":27066,"stv_name":"Uncletopia | Sydney | 6 | Community | STV","players":null},{"server_id":49,"name":"Uncletopia | Warsaw | 1 | All Maps","name_short":"waw-1","host":"waw-1.pl.uncletopia.com","port":27015,"enabled":true,"region":"eu","cc":"pl","latitude":52.2297,"longitude":21.017532,"reserved":0,"last_update":"0001-01-01T00:00:00Z","name_a2s":"","protocol":0,"map":"","folder":"","game":"","app_id":0,"player_count":0,"max_players":0,"Bots":0,"server_type":"","server_os":"","password":false,"vac":false,"version":"","steam_id":0,"keywords":null,"game_id":0,"stv_port":0,"stv_name":"","players":null},{"server_id":50,"name":"Uncletopia | Warsaw | 2 | All Maps","name_short":"waw-2","host":"waw-1.pl.uncletopia.com","port":27025,"enabled":true,"region":"eu","cc":"pl","latitude":52.2297,"longitude":21.017532,"reserved":0,"last_update":"0001-01-01T00:00:00Z","name_a2s":"Uncletopia | Warsaw | 2 | All Maps","protocol":17,"map":"pl_barnblitz","folder":"tf","game":"Team Fortress","app_id":440,"player_count":0,"max_players":24,"Bots":0,"server_type":"Dedicated","server_os":"Linux","password":true,"vac":true,"version":"7757534","steam_id":85568392925397851,"keywords":["nocrits","nodmgspread","payload","uncletopia"],"game_id":440,"stv_port":27026,"stv_name":"Uncletopia | Warsaw | 2 | All Maps | STV","players":null},{"server_id":51,"name":"Uncletopia | Warsaw | 3 | All Maps","name_short":"waw-3","host":"waw-1.pl.uncletopia.com","port":27035,"enabled":true,"region":"eu","cc":"pl","latitude":52.2297,"longitude":21.017532,"reserved":0,"last_update":"0001-01-01T00:00:00Z","name_a2s":"Uncletopia | Warsaw | 3 | All Maps","protocol":17,"map":"koth_lakeside_final","folder":"tf","game":"Team Fortress","app_id":440,"player_count":0,"max_players":24,"Bots":0,"server_type":"Dedicated","server_os":"Linux","password":true,"vac":true,"version":"7757534","steam_id":85568392925397852,"keywords":["cp","nocrits","nodmgspread","uncletopia"],"game_id":440,"stv_port":27036,"stv_name":"Uncletopia | Warsaw | 3 | All Maps | STV","players":null},{"server_id":52,"name":"Uncletopia | Warsaw | 4 | All Maps","name_short":"waw-4","host":"waw-1.pl.uncletopia.com","port":27045,"enabled":true,"region":"eu","cc":"pl","latitude":52.2297,"longitude":21.017532,"reserved":0,"last_update":"0001-01-01T00:00:00Z","name_a2s":"Uncletopia | Warsaw | 4 | All Maps","protocol":17,"map":"koth_lakeside_final","folder":"tf","game":"Team Fortress","app_id":440,"player_count":0,"max_players":24,"Bots":0,"server_type":"Dedicated","server_os":"Linux","password":true,"vac":true,"version":"7757534","steam_id":85568392925397853,"keywords":["cp","nocrits","nodmgspread","uncletopia"],"game_id":440,"stv_port":27046,"stv_name":"Uncletopia | Warsaw | 4 | All Maps | STV","players":null},{"server_id":53,"name":"Uncletopia | Warsaw | 5 | Stopwatch Beta","name_short":"waw-5","host":"waw-1.pl.uncletopia.com","port":27055,"enabled":true,"region":"eu","cc":"pl","latitude":52.2297,"longitude":21.017532,"reserved":0,"last_update":"0001-01-01T00:00:00Z","name_a2s":"Uncletopia | Warsaw | 5 | Stopwatch Beta","protocol":17,"map":"pl_borneo","folder":"tf","game":"Team Fortress","app_id":440,"player_count":0,"max_players":24,"Bots":0,"server_type":"Dedicated","server_os":"Linux","password":true,"vac":true,"version":"7757534","steam_id":85568392925397854,"keywords":["nocrits","nodmgspread","payload","uncletopia"],"game_id":440,"stv_port":27056,"stv_name":"Uncletopia | Warsaw | 5 | Stopwatch Beta | STV","players":null},{"server_id":54,"name":"Uncletopia | Warsaw | 6 | Community","name_short":"waw-6","host":"waw-1.pl.uncletopia.com","port":27065,"enabled":true,"region":"eu","cc":"pl","latitude":52.2297,"longitude":21.017532,"reserved":0,"last_update":"0001-01-01T00:00:00Z","name_a2s":"Uncletopia | Warsaw | 6 | Community","protocol":17,"map":"koth_lakeside_final","folder":"tf","game":"Team Fortress","app_id":440,"player_count":0,"max_players":24,"Bots":0,"server_type":"Dedicated","server_os":"Linux","password":true,"vac":true,"version":"7757534","steam_id":85568392925397856,"keywords":["cp","nocrits","nodmgspread","uncletopia"],"game_id":440,"stv_port":27066,"stv_name":"Uncletopia | Warsaw | 6 | Community | STV","players":null}]}