{"status":true,"message":"","result":[{"server_id":9,"name":"Uncletopia | Atlanta | 1 | All Maps","name_short":"atl-1","host":"atl-1.us.uncletopia.com","port":27015,"enabled":true,"region":"us-east","cc":"us","latitude":33.753746,"longitude":-84.38633,"reserved":0,"last_update":"0001-01-01T00:00:00Z","name_a2s":"Uncletopia | Atlanta | 1 | All Maps","protocol":17,"map":"cp_sunshine","folder":"tf","game":"Team Fortress","app_id":440,"player_count":21,"max_players":24,"Bots":0,"server_type":"Dedicated","server_os":"Linux","password":true,"vac":true,"version":"7932396","steam_id":85568392924469982,"keywords":["cp","nocrits","nodmgspread","uncletopia"],"game_id":440,"stv_port":27016,"stv_name":"Uncletopia | Atlanta | 1 | All Maps | STV","players":[{"user_id":205,"name":"KennytheHedgehog","steam_id":76561198094607721,"connected_time":41000000000,"state":"active","ping":89},{"user_id":206,"name":"Kingaasohk","steam_id":76561198431532962,"connected_time":37000000000,"state":"active","ping":117},{"user_id":196,"name":"(TTV) The_Astrum_Guardian","steam_id":76561198130134103,"connected_time":170000000000,"state":"active","ping":59},{"user_id":197,"name":"beepbeep","steam_id":76561198999548768,"connected_time":144000000000,"state":"active","ping":133},{"user_id":198,"name":"Daniel","steam_id":76561198986620510,"connected_time":140000000000,"state":"active","ping":84},{"user_id":199,"name":"Margo_Rae","steam_id":76561198035046430,"connected_time":140000000000,"state":"active","ping":91},{"user_id":187,"name":"Fostrel","steam_id":76561198152160601,"connected_time":512000000000,"state":"active","ping":96},{"user_id":200,"name":"The Noob Sire","steam_id":76561198119219754,"connected_time":137000000000,"state":"active","ping":97},{"user_id":201,"name":"fry","steam_id":76561199122083047,"connected_time":112000000000,"state":"active","ping":106},{"user_id":202,"name":"zuzu","steam_id":76561197969622110,"connected_time":101000000000,"state":"active","ping":157},{"user_id":190,"name":"CAR BATTERY","steam_id":76561199122915452,"connected_time":406000000000,"state":"active","ping":131},{"user_id":105,"name":"–ë–æ–µ—Ü","steam_id":76561199098403553,"connected_time":2473000000000,"state":"active","ping":102},{"user_id":161,"name":"I\u003c3 DUSTBOWL STEEL AND VANGUARD","steam_id":76561198333513882,"connected_time":1247000000000,"state":"active","ping":102},{"user_id":203,"name":"Queso2469","steam_id":76561197993024580,"connected_time":91000000000,"state":"active","ping":91},{"user_id":204,"name":"Flint","steam_id":76561198148412420,"connected_time":72000000000,"state":"active","ping":93},{"user_id":207,"name":"Cahootles","steam_id":76561198056407485,"connected_time":31000000000,"state":"active","ping":95},{"user_id":172,"name":"antbonkk","steam_id":76561198119535018,"connected_time":1023000000000,"state":"active","ping":110},{"user_id":208,"name":"dddumb510","steam_id":76561198030793492,"connected_time":22000000000,"state":"active","ping":522},{"user_id":209,"name":"RedRanger5577","steam_id":76561199031344500,"connected_time":20000000000,"state":"active","ping":190},{"user_id":210,"name":"cakewalk","steam_id":76561198084080386,"connected_time":19000000000,"state":"active","ping":107},{"user_id":170,"name":"Vali","steam_id":76561199487388562,"connected_time":1042000000000,"state":"active","ping":98}]},{"server_id":104,"name":"Uncletopia | Atlanta | 2 | All Maps","name_short":"atl-2","host":"atl-1.us.uncletopia.com","port":27025,"enabled":true,"region":"us-east","cc":"us","latitude":33.753746,"longitude":-84.38633,"reserved":0,"last_update":"0001-01-01T00:00:00Z","name_a2s":"Uncletopia | Atlanta | 2 | All Maps","protocol":17,"map":"pl_pier","folder":"tf","game":"Team Fortress","app_id":440,"player_count":15,"max_players":24,"Bots":0,"server_type":"Dedicated","server_os":"Linux","password":true,"vac":true,"version":"7932396","steam_id":85568392924469983,"keywords":["nocrits","nodmgspread","payload","uncletopia"],"game_id":440,"stv_port":27026,"stv_name":"Uncletopia | Atlanta | 2 | All Maps | STV","players":[{"user_id":972,"name":"Little Baby Burrito","steam_id":76561198334459968,"connected_time":102000000000,"state":"active","ping":59},{"user_id":973,"name":"Fallen_Scholar","steam_id":76561198055468709,"connected_time":81000000000,"state":"spawning","ping":176},{"user_id":974,"name":"Ekohtwo","steam_id":76561198067994868,"connected_time":79000000000,"state":"active","ping":85},{"user_id":976,"name":"dumby","steam_id":76561198163375303,"connected_time":25000000000,"state":"active","ping":77},{"user_id":966,"name":"Arabictruman","steam_id":76561198155112367,"connected_time":157000000000,"state":"active","ping":68},{"user_id":977,"name":"CivilWarMike","steam_id":76561198141188839,"connected_time":8000000000,"state":"spawning","ping":68},{"user_id":956,"name":"medic enthusiast","steam_id":76561198323031964,"connected_time":329000000000,"state":"active","ping":64},{"user_id":957,"name":"Shwal","steam_id":76561198138840448,"connected_time":316000000000,"state":"active","ping":61},{"user_id":915,"name":"Cyberknight","steam_id":76561199384165711,"connected_time":1105000000000,"state":"active","ping":60},{"user_id":917,"name":"bunceian","steam_id":76561198975662918,"connected_time":1066000000000,"state":"active","ping":134},{"user_id":939,"name":"Bramble Seas","steam_id":76561198102524485,"connected_time":740000000000,"state":"active","ping":81},{"user_id":933,"name":"EldestDuke","steam_id":76561198326744684,"connected_time":777000000000,"state":"active","ping":85},{"user_id":971,"name":"MintyPawz","steam_id":76561198111430103,"connected_time":126000000000,"state":"active","ping":112},{"user_id":975,"name":"Steemy","steam_id":76561198041775529,"connected_time":76000000000,"state":"active","ping":79},{"user_id":680,"name":"artgrenadier","steam_id":76561198063305359,"connected_time":5526000000000,"state":"active","ping":71}]},{"server_id":400,"name":"Uncletopia | Atlanta | 3 | Community","name_short":"atl-3","host":"atl-1.us.uncletopia.com","port":27035,"enabled":true,"region":"us-east","cc":"us","latitude":33.753746,"longitude":-84.38633,"reserved":0,"last_update":"0001-01-01T00:00:00Z","name_a2s":"Uncletopia | Atlanta | 3 | Community","protocol":17,"map":"workshop/koth_product_final.ugc454272353","folder":"tf","game":"Team Fortress","app_id":440,"player_count":3,"max_players":24,"Bots":0,"server_type":"Dedicated","server_os":"Linux","password":true,"vac":true,"version":"7932396","steam_id":85568392924515187,"keywords":["cp","nocrits","nodmgspread","uncletopia"],"game_id":440,"stv_port":27036,"stv_name":"Uncletopia | Atlanta | 3 | Community | STV","players":[{"user_id":17,"name":"hollow","steam_id":76561198089173134,"connected_time":762000000000,"state":"active","ping":89},{"user_id":20,"name":"Sea Creature","steam_id":76561198172570269,"connected_time":524000000000,"state":"active","ping":90},{"user_id":21,"name":"peace and love","steam_id":76561199059257565,"connected_time":445000000000,"state":"active","ping":85}]},{"server_id":401,"name":"Uncletopia | Atlanta | 4 | No Payload","name_short":"atl-4","host":"atl-1.us.uncletopia.com","port":27045,"enabled":true,"region":"us-east","cc":"us","latitude":33.753746,"longitude":-84.38633,"reserved":0,"last_update":"0001-01-01T00:00:00Z","name_a2s":"","protocol":0,"map":"","folder":"","game":"","app_id":0,"player_count":0,"max_players":0,"Bots":0,"server_type":"","server_os":"","password":false,"vac":false,"version":"","steam_id":0,"keywords":null,"game_id":0,"stv_port":0,"stv_name":"","players":null},{"server_id":2,"name":"Uncletopia | Chicago | 1 | All Maps","name_short":"chi-1","host":"chi-1.us.uncletopia.com","port":27015,"enabled":true,"region":"us-central","cc":"us","latitude":41.881832,"longitude":-87.62318,"reserved":0,"last_update":"0001-01-01T00:00:00Z","name_a2s":"Uncletopia | Chicago | 1 | All Maps","protocol":17,"map":"pl_badwater","folder":"tf","game":"Team Fortress","app_id":440,"player_count":24,"max_players":24,"Bots":0,"server_type":"Dedicated","server_os":"Linux","password":true,"vac":true,"version":"7932396","steam_id":85568392924469984,"keywords":["nocrits","nodmgspread","payload","uncletopia"],"game_id":440,"stv_port":27016,"stv_name":"Uncletopia | Chicago | 1 | All Maps | STV","players":[{"user_id":389,"name":"Monochrome | Cashmoney","steam_id":76561198377320040,"connected_time":972000000000,"state":"active","ping":76},{"user_id":400,"name":"RedRageKnight","steam_id":76561198858886704,"connected_time":152000000000,"state":"active","ping":75},{"user_id":378,"name":"ChrisCrafter","steam_id":76561198330277088,"connected_time":1930000000000,"state":"active","ping":99},{"user_id":367,"name":"monke12344","steam_id":76561199274757725,"connected_time":3909000000000,"state":"active","ping":55},{"user_id":394,"name":"Vinnie Gognitti","steam_id":76561198069814977,"connected_time":196000000000,"state":"active","ping":68},{"user_id":354,"name":"Noodle","steam_id":76561198040872617,"connected_time":5538000000000,"state":"active","ping":98},{"user_id":331,"name":"Giggles‚Ñ¢","steam_id":76561198058708019,"connected_time":7709000000000,"state":"active","ping":55},{"user_id":386,"name":"ATastyDonut","steam_id":76561198984819894,"connected_time":1233000000000,"state":"active","ping":65},{"user_id":395,"name":"Praise_to_the_Flashlight!","steam_id":76561199001728789,"connected_time":196000000000,"state":"active","ping":61},{"user_id":355,"name":"TobyTurner32","steam_id":76561198018801418,"connected_time":5451000000000,"state":"active","ping":90},{"user_id":401,"name":"fudge lord","steam_id":76561198118318422,"connected_time":39000000000,"state":"active","ping":88},{"user_id":356,"name":"LWebb","steam_id":76561199162936929,"connected_time":5121000000000,"state":"active","ping":85},{"user_id":393,"name":"Meme Foreskin II","steam_id":76561198028157625,"connected_time":728000000000,"state":"active","ping":84},{"user_id":387,"name":"CherriKat","steam_id":76561198821297512,"connected_time":1085000000000,"state":"active","ping":106},{"user_id":351,"name":"JStheguy","steam_id":76561198042168350,"connected_time":5833000000000,"state":"active","ping":59},{"user_id":379,"name":"Acehay14","steam_id":76561198052373291,"connected_time":1775000000000,"state":"active","ping":56},{"user_id":397,"name":"thecal","steam_id":76561198307893384,"connected_time":181000000000,"state":"active","ping":58},{"user_id":396,"name":"Thundermonkey (SMOKE)","steam_id":76561198017631728,"connected_time":193000000000,"state":"active","ping":64},{"user_id":345,"name":"gendermutt","steam_id":76561198152857317,"connected_time":6206000000000,"state":"active","ping":47},{"user_id":399,"name":"kite","steam_id":76561198346516392,"connected_time":169000000000,"state":"active","ping":72},{"user_id":391,"name":"DiGiorno's Pizza","steam_id":76561198142244035,"connected_time":761000000000,"state":"active","ping":55},{"user_id":375,"name":"cheeser","steam_id":76561198281772700,"connected_time":2613000000000,"state":"active","ping":64},{"user_id":384,"name":"Mank","steam_id":76561198189421005,"connected_time":1282000000000,"state":"active","ping":48},{"user_id":385,"name":"Fudge_Cake","steam_id":76561198059218167,"connected_time":1281000000000,"state":"active","ping":77}]},{"server_id":106,"name":"Uncletopia | Chicago | 2 | All Maps","name_short":"chi-2","host":"chi-1.us.uncletopia.com","port":27025,"enabled":true,"region":"us-central","cc":"us","latitude":41.881832,"longitude":-87.62318,"reserved":0,"last_update":"0001-01-01T00:00:00Z","name_a2s":"Uncletopia | Chicago | 2 | All Maps","protocol":17,"map":"pl_snowycoast","folder":"tf","game":"Team Fortress","app_id":440,"player_count":24,"max_players":24,"Bots":0,"server_type":"Dedicated","server_os":"Linux","password":true,"vac":true,"version":"7932396","steam_id":85568392924469985,"keywords":["nocrits","nodmgspread","payload","uncletopia"],"game_id":440,"stv_port":27026,"stv_name":"Uncletopia | Chicago | 2 | All Maps | STV","players":[{"user_id":588,"name":"Uncle Dad","steam_id":76561198058073652,"connected_time":1568000000000,"state":"active","ping":75},{"user_id":622,"name":"Burt Macklin","steam_id":76561198038080028,"connected_time":60000000000,"state":"active","ping":90},{"user_id":615,"name":"0","steam_id":76561198046055673,"connected_time":307000000000,"state":"active","ping":86},{"user_id":607,"name":"JohnnyGitGud","steam_id":76561198401455467,"connected_time":429000000000,"state":"active","ping":112},{"user_id":621,"name":"his largeness","steam_id":76561197977182378,"connected_time":158000000000,"state":"active","ping":45},{"user_id":600,"name":"creamer","steam_id":76561198144095056,"connected_time":1238000000000,"state":"active","ping":62},{"user_id":620,"name":"SirKnight5067","steam_id":76561198377306047,"connected_time":165000000000,"state":"active","ping":62},{"user_id":609,"name":"JlMMY","steam_id":76561198196762079,"connected_time":366000000000,"state":"active","ping":71},{"user_id":567,"name":"drwwby","steam_id":76561198067741339,"connected_time":3257000000000,"state":"active","ping":54},{"user_id":527,"name":"The Shinsh","steam_id":76561198125181238,"connected_time":5910000000000,"state":"active","ping":49},{"user_id":596,"name":"Shady Businessman","steam_id":76561198143855968,"connected_time":1420000000000,"state":"active","ping":94},{"user_id":606,"name":"StompOnYourFace!!!!","steam_id":76561198065581117,"connected_time":448000000000,"state":"active","ping":72},{"user_id":595,"name":"Stranger in a Strange Land","steam_id":76561198049843671,"connected_time":1435000000000,"state":"active","ping":64},{"user_id":589,"name":"weakest onimai enjoyer","steam_id":76561198058865786,"connected_time":1568000000000,"state":"active","ping":84},{"user_id":608,"name":"Dask","steam_id":76561198043385839,"connected_time":403000000000,"state":"active","ping":45},{"user_id":613,"name":"Null | Crack Clan","steam_id":76561198895762836,"connected_time":338000000000,"state":"active","ping":101},{"user_id":619,"name":"Flaxks","steam_id":76561198410260447,"connected_time":232000000000,"state":"active","ping":90},{"user_id":587,"name":"do you like my sowrd sword sowr","steam_id":76561198079416036,"connected_time":1799000000000,"state":"active","ping":45},{"user_id":611,"name":"Vestuvian","steam_id":76561199007823355,"connected_time":362000000000,"state":"active","ping":81},{"user_id":618,"name":"leumas","steam_id":76561198240408540,"connected_time":272000000000,"state":"active","ping":78},{"user_id":546,"name":"door knob","steam_id":76561198123441203,"connected_time":4736000000000,"state":"active","ping":81},{"user_id":604,"name":"Billychicken54","steam_id":76561198022365463,"connected_time":730000000000,"state":"active","ping":57},{"user_id":585,"name":"freyja","steam_id":76561198249206656,"connected_time":1990000000000,"state":"active","ping":88},{"user_id":599,"name":"Prsm","steam_id":76561198053344995,"connected_time":1307000000000,"state":"active","ping":58}]},{"server_id":402,"name":"Uncletopia | Chicago | 3 | All Maps","name_short":"chi-3","host":"chi-1.us.uncletopia.com","port":27035,"enabled":true,"region":"us-central","cc":"us","latitude":41.881832,"longitude":-87.62318,"reserved":0,"last_update":"0001-01-01T00:00:00Z","name_a2s":"Uncletopia | Chicago | 3 | All Maps","protocol":17,"map":"pl_snowycoast","folder":"tf","game":"Team Fortress","app_id":440,"player_count":24,"max_players":24,"Bots":0,"server_type":"Dedicated","server_os":"Linux","password":true,"vac":true,"version":"7932396","steam_id":85568392924515191,"keywords":["nocrits","nodmgspread","payload","uncletopia"],"game_id":440,"stv_port":27036,"stv_name":"Uncletopia | Chicago | 3 | All Maps | STV","players":[{"user_id":399,"name":"Bad Medic Buddy","steam_id":76561198093222632,"connected_time":3751000000000,"state":"active","ping":76},{"user_id":432,"name":"liquid bread","steam_id":76561198012441419,"connected_time":894000000000,"state":"active","ping":40},{"user_id":407,"name":"pinguez","steam_id":76561199003447981,"connected_time":3086000000000,"state":"active","ping":83},{"user_id":435,"name":"HOTA","steam_id":76561199002778841,"connected_time":464000000000,"state":"active","ping":75},{"user_id":437,"name":"Ranger Plague","steam_id":76561198174647666,"connected_time":455000000000,"state":"active","ping":88},{"user_id":400,"name":"mendokusai","steam_id":76561197965022076,"connected_time":3607000000000,"state":"active","ping":52},{"user_id":431,"name":"KING KONG","steam_id":76561198927517471,"connected_time":990000000000,"state":"active","ping":81},{"user_id":430,"name":"Azure","steam_id":76561198260328183,"connected_time":1386000000000,"state":"active","ping":65},{"user_id":420,"name":"Ichthyology Enthusiast","steam_id":76561198854662187,"connected_time":2028000000000,"state":"active","ping":46},{"user_id":443,"name":"fishburger","steam_id":76561198142586591,"connected_time":159000000000,"state":"active","ping":76},{"user_id":444,"name":"A local child molester from Phu","steam_id":76561199482706643,"connected_time":95000000000,"state":"active","ping":78},{"user_id":440,"name":"Emperor Trombone","steam_id":76561199018354359,"connected_time":415000000000,"state":"active","ping":50},{"user_id":442,"name":"Boop","steam_id":76561198376703875,"connected_time":401000000000,"state":"active","ping":85},{"user_id":428,"name":"ALIBABA 2STEP FENTANYL METHOD D","steam_id":76561198048110137,"connected_time":1621000000000,"state":"active","ping":55},{"user_id":438,"name":"mcdoubble","steam_id":76561198089126832,"connected_time":442000000000,"state":"active","ping":81},{"user_id":404,"name":"riSygneD","steam_id":76561198331618687,"connected_time":3518000000000,"state":"active","ping":91},{"user_id":434,"name":"Ibrahim","steam_id":76561198028320625,"connected_time":874000000000,"state":"active","ping":65},{"user_id":439,"name":"anotherl2","steam_id":76561198354418895,"connected_time":439000000000,"state":"active","ping":85},{"user_id":409,"name":"Le4n!!!","steam_id":76561198045522596,"connected_time":2977000000000,"state":"active","ping":78},{"user_id":445,"name":"Picklefrits","steam_id":76561198067070390,"connected_time":46000000000,"state":"spawning","ping":99},{"user_id":419,"name":"A unneeded medic(F2p)","steam_id":76561199388826335,"connected_time":2471000000000,"state":"active","ping":79},{"user_id":436,"name":"yogrrt","steam_id":76561198012510968,"connected_time":464000000000,"state":"active","ping":47},{"user_id":429,"name":"Bread","steam_id":76561198251896612,"connected_time":1465000000000,"state":"active","ping":40}]},{"server_id":403,"name":"Uncletopia | Chicago | 4 | All Maps","name_short":"chi-4","host":"chi-1.us.uncletopia.com","port":27045,"enabled":true,"region":"us-central","cc":"us","latitude":41.881832,"longitude":-87.62318,"reserved":0,"last_update":"0001-01-01T00:00:00Z","name_a2s":"Uncletopia | Chicago | 4 | All Maps","protocol":17,"map":"cp_snakewater_final1","folder":"tf","game":"Team Fortress","app_id":440,"player_count":24,"max_players":24,"Bots":0,"server_type":"Dedicated","server_os":"Linux","password":true,"vac":true,"version":"7932396","steam_id":85568392924515193,"keywords":["cp","nocrits","nodmgspread","uncletopia"],"game_id":440,"stv_port":27046,"stv_name":"Uncletopia | Chicago | 4 | All Maps | STV","players":[{"user_id":480,"name":"the piss boiling machine","steam_id":76561198113716047,"connected_time":1303000000000,"state":"active","ping":72},{"user_id":496,"name":"checkswing","steam_id":76561198999816132,"connected_time":849000000000,"state":"active","ping":74},{"user_id":475,"name":"James","steam_id":76561198077251918,"connected_time":1462000000000,"state":"active","ping":93},{"user_id":493,"name":"‚òπ","steam_id":76561198804763186,"connected_time":1008000000000,"state":"active","ping":64},{"user_id":469,"name":"Capt.Swag","steam_id":76561198088340994,"connected_time":2293000000000,"state":"active","ping":77},{"user_id":484,"name":"tsbro40","steam_id":76561199455605580,"connected_time":1266000000000,"state":"active","ping":100},{"user_id":477,"name":"Zizen","steam_id":76561199011832069,"connected_time":1391000000000,"state":"active","ping":102},{"user_id":490,"name":"Bee","steam_id":76561198074681324,"connected_time":1133000000000,"state":"active","ping":61},{"user_id":478,"name":"Cheesi","steam_id":76561199417190840,"connected_time":1382000000000,"state":"active","ping":68},{"user_id":479,"name":"üÖúüÖîüÖîüÖöüÖ¢üÖ£üÖî\ufffd\ufffd\ufffd","steam_id":76561197999748343,"connected_time":1321000000000,"state":"active","ping":60},{"user_id":481,"name":"Kingpin","steam_id":76561198362916241,"connected_time":1300000000000,"state":"active","ping":59},{"user_id":482,"name":"Luna_Blossom","steam_id":76561198816384987,"connected_time":1287000000000,"state":"active","ping":112},{"user_id":375,"name":"Bag","steam_id":76561198012395490,"connected_time":9190000000000,"state":"active","ping":70},{"user_id":447,"name":"im_phox","steam_id":76561198070555429,"connected_time":3884000000000,"state":"active","ping":89},{"user_id":436,"name":"Twilight Princess","steam_id":76561198049460281,"connected_time":4980000000000,"state":"active","ping":54},{"user_id":452,"name":"Vaudeville Villain","steam_id":76561199212093339,"connected_time":3800000000000,"state":"active","ping":70},{"user_id":483,"name":"Retro Phoenix","steam_id":76561198077176271,"connected_time":1285000000000,"state":"active","ping":65},{"user_id":435,"name":"Chode Mode","steam_id":76561198353840477,"connected_time":5012000000000,"state":"active","ping":45},{"user_id":498,"name":"St. Michael","steam_id":76561198037611052,"connected_time":291000000000,"state":"active","ping":67},{"user_id":499,"name":"Stapler","steam_id":76561198099295077,"connected_time":125000000000,"state":"active","ping":96},{"user_id":495,"name":"evegioyidechadab","steam_id":76561198075991626,"connected_time":950000000000,"state":"active","ping":171},{"user_id":489,"name":"AutoCon17","steam_id":76561198209977473,"connected_time":1193000000000,"state":"active","ping":44},{"user_id":463,"name":"flamingdorit0s","steam_id":76561198869206247,"connected_time":2692000000000,"state":"active","ping":153},{"user_id":497,"name":"Onyx","steam_id":76561198275349640,"connected_time":424000000000,"state":"active","ping":80}]},{"server_id":36,"name":"Uncletopia | Chicago | 5 | All Maps","name_short":"chi-5","host":"chi-2.us.uncletopia.com","port":27015,"enabled":true,"region":"us-central","cc":"us","latitude":41.881832,"longitude":-87.62318,"reserved":0,"last_update":"0001-01-01T00:00:00Z","name_a2s":"Uncletopia | Chicago | 5 | All Maps","protocol":17,"map":"pl_swiftwater_final1","folder":"tf","game":"Team Fortress","app_id":440,"player_count":24,"max_players":24,"Bots":0,"server_type":"Dedicated","server_os":"Linux","password":true,"vac":true,"version":"7932396","steam_id":85568392924866362,"keywords":["nocrits","nodmgspread","payload","uncletopia"],"game_id":440,"stv_port":27016,"stv_name":"Uncletopia | Chicago | 5 | All Maps | STV","players":[{"user_id":696,"name":"Huntpk","steam_id":76561198340591674,"connected_time":535000000000,"state":"active","ping":40},{"user_id":627,"name":"E P H E M E R A L","steam_id":76561198128614882,"connected_time":4452000000000,"state":"active","ping":84},{"user_id":692,"name":"Emangamez","steam_id":76561198143997970,"connected_time":572000000000,"state":"active","ping":68},{"user_id":685,"name":"cotton candy tyrant","steam_id":76561198058998371,"connected_time":980000000000,"state":"active","ping":71},{"user_id":697,"name":"dweamy","steam_id":76561198119181880,"connected_time":434000000000,"state":"active","ping":83},{"user_id":698,"name":"Haveltherock27","steam_id":76561199219844391,"connected_time":135000000000,"state":"active","ping":95},{"user_id":646,"name":"dikclan LFT","steam_id":76561198081847001,"connected_time":2775000000000,"state":"active","ping":72},{"user_id":687,"name":"Le Meilleur","steam_id":76561198054581325,"connected_time":895000000000,"state":"active","ping":62},{"user_id":649,"name":"dunk","steam_id":76561198132476501,"connected_time":2758000000000,"state":"active","ping":49},{"user_id":676,"name":"anonion","steam_id":76561198056477584,"connected_time":2018000000000,"state":"active","ping":90},{"user_id":688,"name":"trackin ops like NORAD","steam_id":76561198040675606,"connected_time":883000000000,"state":"active","ping":74},{"user_id":665,"name":"Wang of Wall St","steam_id":76561198047460598,"connected_time":2293000000000,"state":"active","ping":106},{"user_id":684,"name":"Shanks","steam_id":76561198200408161,"connected_time":1152000000000,"state":"active","ping":92},{"user_id":654,"name":"put my hand in the cashregister","steam_id":76561198062991744,"connected_time":2736000000000,"state":"active","ping":70},{"user_id":658,"name":"Deathpill","steam_id":76561197994404793,"connected_time":2666000000000,"state":"active","ping":78},{"user_id":693,"name":"paetho YT (new vid!)","steam_id":76561198152690003,"connected_time":569000000000,"state":"active","ping":60},{"user_id":601,"name":"Reginald","steam_id":76561198109783729,"connected_time":6795000000000,"state":"active","ping":51},{"user_id":655,"name":"Extinct","steam_id":76561199013696367,"connected_time":2728000000000,"state":"active","ping":73},{"user_id":691,"name":"I have no idea what I am doing?","steam_id":76561198093152207,"connected_time":573000000000,"state":"active","ping":91},{"user_id":656,"name":"Unlock The Shock (She/They)","steam_id":76561198823616667,"connected_time":2723000000000,"state":"active","ping":86},{"user_id":633,"name":"just a gamer","steam_id":76561199208833695,"connected_time":4408000000000,"state":"active","ping":81},{"user_id":694,"name":"Tri-Dot","steam_id":76561199075186597,"connected_time":564000000000,"state":"active","ping":71},{"user_id":681,"name":"Scotch Tape","steam_id":76561199389314894,"connected_time":1668000000000,"state":"active","ping":77},{"user_id":682,"name":"MrNox","steam_id":76561198073449189,"connected_time":1620000000000,"state":"active","ping":74}]},{"server_id":37,"name":"Uncletopia | Chicago | 6 | All Maps","name_short":"chi-6","host":"chi-2.us.uncletopia.com","port":27025,"enabled":true,"region":"us-central","cc":"us","latitude":41.881832,"longitude":-87.62318,"reserved":0,"last_update":"0001-01-01T00:00:00Z","name_a2s":"Uncletopia | Chicago | 6 | All Maps","protocol":17,"map":"cp_gravelpit","folder":"tf","game":"Team Fortress","app_id":440,"player_count":24,"max_players":24,"Bots":0,"server_type":"Dedicated","server_os":"Linux","password":true,"vac":true,"version":"7932396","steam_id":85568392924866363,"keywords":["cp","nocrits","nodmgspread","uncletopia"],"game_id":440,"stv_port":27026,"stv_name":"Uncletopia | Chicago | 6 | All Maps | STV","players":[{"user_id":776,"name":"MinePig","steam_id":76561198963008726,"connected_time":227000000000,"state":"active","ping":86},{"user_id":777,"name":"Load Lord","steam_id":76561197962831078,"connected_time":218000000000,"state":"active","ping":75},{"user_id":782,"name":"Max_Attack","steam_id":76561198944028607,"connected_time":22000000000,"state":"active","ping":79},{"user_id":750,"name":"MR. BEEEEEEEEEEEEEAAAAAAAAAAST","steam_id":76561198205346760,"connected_time":1565000000000,"state":"active","ping":46},{"user_id":767,"name":"Ghworg","steam_id":76561198324891401,"connected_time":1197000000000,"state":"active","ping":46},{"user_id":771,"name":"wedoalittletrolling TF2EASY.COM","steam_id":76561198984807162,"connected_time":720000000000,"state":"active","ping":67},{"user_id":735,"name":"Camero","steam_id":76561198119070238,"connected_time":2787000000000,"state":"active","ping":56},{"user_id":758,"name":"Dr Smeggman","steam_id":76561197966614845,"connected_time":1471000000000,"state":"active","ping":135},{"user_id":781,"name":"Quietsharp","steam_id":76561198277968438,"connected_time":109000000000,"state":"active","ping":107},{"user_id":773,"name":"OgOrpheus","steam_id":76561199233440093,"connected_time":352000000000,"state":"active","ping":78},{"user_id":723,"name":"Globbin","steam_id":76561198146092889,"connected_time":3331000000000,"state":"active","ping":54},{"user_id":740,"name":"Predicta","steam_id":76561198017630616,"connected_time":2551000000000,"state":"active","ping":49},{"user_id":770,"name":"trobin120","steam_id":76561199122420273,"connected_time":856000000000,"state":"active","ping":62},{"user_id":754,"name":"brroddyy","steam_id":76561198343540172,"connected_time":1543000000000,"state":"active","ping":76},{"user_id":756,"name":"Barlon","steam_id":76561198023717515,"connected_time":1525000000000,"state":"active","ping":75},{"user_id":759,"name":"Aids911","steam_id":76561198059601311,"connected_time":1469000000000,"state":"active","ping":108},{"user_id":760,"name":"Teed's Snood and Food","steam_id":76561198079048965,"connected_time":1453000000000,"state":"active","ping":64},{"user_id":762,"name":"Golurk with some bitches","steam_id":76561198085888959,"connected_time":1419000000000,"state":"active","ping":61},{"user_id":761,"name":"Jaguar -ringme","steam_id":76561197971152439,"connected_time":1431000000000,"state":"active","ping":88},{"user_id":783,"name":"Help! I'm Underwater!","steam_id":76561198030291655,"connected_time":2000000000,"state":"spawning","ping":57},{"user_id":763,"name":"Missing Minus","steam_id":76561198120822928,"connected_time":1419000000000,"state":"active","ping":50},{"user_id":769,"name":"InchMan","steam_id":76561198272658825,"connected_time":938000000000,"state":"active","ping":84},{"user_id":779,"name":"Lex","steam_id":76561198069948353,"connected_time":195000000000,"state":"active","ping":115},{"user_id":780,"name":"rxqueen","steam_id":76561198049258493,"connected_time":189000000000,"state":"active","ping":116}]},{"server_id":38,"name":"Uncletopia | Chicago | 7 | Stopwatch Beta","name_short":"chi-7","host":"chi-2.us.uncletopia.com","port":27035,"enabled":true,"region":"us-central","cc":"us","latitude":41.881832,"longitude":-87.62318,"reserved":0,"last_update":"0001-01-01T00:00:00Z","name_a2s":"Uncletopia | Chicago | 7 | Stopwatch Beta","protocol":17,"map":"pl_swiftwater_final1","folder":"tf","game":"Team Fortress","app_id":440,"player_count":0,"max_players":24,"Bots":0,"server_type":"Dedicated","server_os":"Linux","password":true,"vac":true,"version":"7932396","steam_id":85568392924866364,"keywords":["nocrits","nodmgspread","payload","uncletopia"],"game_id":440,"stv_port":27036,"stv_name":"Uncletopia | Chicago | 7 | Stopwatch Beta | STV","players":null},{"server_id":39,"name":"Uncletopia | Chicago | 8 | Community","name_short":"chi-8","host":"chi-2.us.uncletopia.com","port":27045,"enabled":true,"region":"us-central","cc":"us","latitude":41.881832,"longitude":-87.62318,"reserved":0,"last_update":"0001-01-01T00:00:00Z","name_a2s":"Uncletopia | Chicago | 8 | Community","protocol":17,"map":"workshop/koth_ramjam_rc1.ugc459778887","folder":"tf","game":"Team Fortress","app_id":440,"player_count":24,"max_players":24,"Bots":0,"server_type":"Dedicated","server_os":"Linux","password":true,"vac":true,"version":"7932396","steam_id":85568392924866365,"keywords":["cp","nocrits","nodmgspread","uncletopia"],"game_id":440,"stv_port":27046,"stv_name":"Uncletopia | Chicago | 8 | Community | STV","players":[{"user_id":144,"name":"Ohio Survivor","steam_id":76561198031675881,"connected_time":1676000000000,"state":"active","ping":38},{"user_id":160,"name":"Grandpa 1MinecraftEmpire","steam_id":76561198069046338,"connected_time":27000000000,"state":"active","ping":147},{"user_id":113,"name":"GaiBerd","steam_id":76561198177100634,"connected_time":3924000000000,"state":"active","ping":57},{"user_id":154,"name":"FOST!","steam_id":76561198361424714,"connected_time":1070000000000,"state":"active","ping":118},{"user_id":151,"name":"bone(r)","steam_id":76561198053237404,"connected_time":1120000000000,"state":"active","ping":90},{"user_id":134,"name":"kiv","steam_id":76561198838223023,"connected_time":2262000000000,"state":"active","ping":45},{"user_id":158,"name":"i_\u003c3_grandma","steam_id":76561198045818977,"connected_time":119000000000,"state":"active","ping":121},{"user_id":156,"name":"Aviblax","steam_id":76561199487029642,"connected_time":499000000000,"state":"active","ping":94},{"user_id":131,"name":"Little Shuriken","steam_id":76561199020477560,"connected_time":2477000000000,"state":"active","ping":104},{"user_id":136,"name":"Bea","steam_id":76561198044050717,"connected_time":2092000000000,"state":"active","ping":70},{"user_id":161,"name":"0xymoron¬≤","steam_id":76561198135993275,"connected_time":25000000000,"state":"spawning","ping":122},{"user_id":152,"name":"Goodra Is The Best Dragon Type","steam_id":76561199194702127,"connected_time":1089000000000,"state":"active","ping":77},{"user_id":159,"name":"vcx","steam_id":76561198139371143,"connected_time":49000000000,"state":"active","ping":71},{"user_id":153,"name":"euphoricfilth","steam_id":76561198100160865,"connected_time":1082000000000,"state":"active","ping":59},{"user_id":155,"name":"Doktor","steam_id":76561198879811971,"connected_time":547000000000,"state":"spawning","ping":760},{"user_id":162,"name":"[RaTS] Chief","steam_id":76561198073128183,"connected_time":23000000000,"state":"spawning","ping":229},{"user_id":163,"name":"Esteban Delsin","steam_id":76561198433519639,"connected_time":22000000000,"state":"active","ping":98},{"user_id":107,"name":"blindentity","steam_id":76561199240783683,"connected_time":4019000000000,"state":"active","ping":105},{"user_id":112,"name":"cum dried in your armpit","steam_id":76561198013483349,"connected_time":3926000000000,"state":"active","ping":93},{"user_id":140,"name":"sasharudzik","steam_id":76561199126617781,"connected_time":1955000000000,"state":"active","ping":63},{"user_id":97,"name":"mer5277","steam_id":76561198192171041,"connected_time":4640000000000,"state":"active","ping":105},{"user_id":148,"name":"this","steam_id":76561198170195505,"connected_time":1348000000000,"state":"active","ping":86},{"user_id":139,"name":"realhedgehog2082","steam_id":76561198168931330,"connected_time":2050000000000,"state":"active","ping":90},{"user_id":149,"name":"kloada","steam_id":76561198082113271,"connected_time":1348000000000,"state":"active","ping":161}]},{"server_id":8,"name":"Uncletopia | Dallas | 1 | All Maps","name_short":"dal-1","host":"dal-1.us.uncletopia.com","port":27015,"enabled":true,"region":"us-central","cc":"us","latitude":32.779167,"longitude":-96.80889,"reserved":0,"last_update":"0001-01-01T00:00:00Z","name_a2s":"Uncletopia | Dallas | 1 | All Maps","protocol":17,"map":"pl_badwater","folder":"tf","game":"Team Fortress","app_id":440,"player_count":24,"max_players":24,"Bots":0,"server_type":"Dedicated","server_os":"Linux","password":true,"vac":true,"version":"7932396","steam_id":85568392924469986,"keywords":["nocrits","nodmgspread","payload","uncletopia"],"game_id":440,"stv_port":27016,"stv_name":"Uncletopia | Dallas | 1 | All Maps | STV","players":[{"user_id":405,"name":"Clawkikker","steam_id":76561198269433962,"connected_time":905000000000,"state":"active","ping":39},{"user_id":394,"name":"Unreliable Narrator","steam_id":76561198021303959,"connected_time":2072000000000,"state":"active","ping":80},{"user_id":395,"name":"Moonflower ‚ú¶","steam_id":76561198191782483,"connected_time":1963000000000,"state":"active","ping":50},{"user_id":370,"name":"DocDankDandy","steam_id":76561197999440195,"connected_time":4229000000000,"state":"active","ping":72},{"user_id":419,"name":"mkl","steam_id":76561197986401685,"connected_time":98000000000,"state":"active","ping":58},{"user_id":364,"name":"pastaroasta","steam_id":76561198302965298,"connected_time":4805000000000,"state":"active","ping":53},{"user_id":411,"name":"Krow","steam_id":76561198010392099,"connected_time":614000000000,"state":"active","ping":57},{"user_id":406,"name":"DragonHeart","steam_id":76561198013245625,"connected_time":843000000000,"state":"active","ping":72},{"user_id":391,"name":"BOT Fergus","steam_id":76561198453824178,"connected_time":2437000000000,"state":"active","ping":134},{"user_id":363,"name":"Oopsie Daisy ‚ùã","steam_id":76561198042144492,"connected_time":4948000000000,"state":"active","ping":76},{"user_id":345,"name":"{ST} Oxythemoron","steam_id":76561198060089965,"connected_time":5622000000000,"state":"active","ping":55},{"user_id":407,"name":"monkey","steam_id":76561198866788744,"connected_time":733000000000,"state":"active","ping":61},{"user_id":375,"name":"DeckofDragons","steam_id":76561198057398213,"connected_time":3800000000000,"state":"active","ping":81},{"user_id":416,"name":"Lucky","steam_id":76561198418262145,"connected_time":382000000000,"state":"active","ping":133},{"user_id":376,"name":"Project_Counter","steam_id":76561198152786076,"connected_time":3790000000000,"state":"active","ping":55},{"user_id":413,"name":"the lazy gamer","steam_id":76561199070127039,"connected_time":493000000000,"state":"active","ping":126},{"user_id":418,"name":"X P X","steam_id":76561198372411760,"connected_time":187000000000,"state":"active","ping":94},{"user_id":402,"name":"macironi and chesse","steam_id":76561199098060805,"connected_time":1013000000000,"state":"active","ping":82},{"user_id":398,"name":"squish","steam_id":76561198186417941,"connected_time":1711000000000,"state":"active","ping":92},{"user_id":415,"name":"ash","steam_id":76561198127890645,"connected_time":470000000000,"state":"active","ping":78},{"user_id":387,"name":"helen keller","steam_id":76561197979870540,"connected_time":3055000000000,"state":"active","ping":76},{"user_id":393,"name":"NOT Susie Deltarune (not real)","steam_id":76561199007365488,"connected_time":2185000000000,"state":"active","ping":67},{"user_id":397,"name":"(Past Tense)","steam_id":76561197996279335,"connected_time":1725000000000,"state":"active","ping":70},{"user_id":409,"name":"white woman","steam_id":76561199116679777,"connected_time":691000000000,"state":"active","ping":76}]},{"server_id":108,"name":"Uncletopia | Dallas | 2 | All Maps","name_short":"dal-2","host":"dal-1.us.uncletopia.com","port":27025,"enabled":true,"region":"us-central","cc":"us","latitude":32.779167,"longitude":-96.80889,"reserved":0,"last_update":"0001-01-01T00:00:00Z","name_a2s":"Uncletopia | Dallas | 2 | All Maps","protocol":17,"map":"pl_upward","folder":"tf","game":"Team Fortress","app_id":440,"player_count":24,"max_players":24,"Bots":0,"server_type":"Dedicated","server_os":"Linux","password":true,"vac":true,"version":"7932396","steam_id":85568392924469988,"keywords":["nocrits","nodmgspread","payload","uncletopia"],"game_id":440,"stv_port":27026,"stv_name":"Uncletopia | Dallas | 2 | All Maps | STV","players":[{"user_id":237,"name":"Horse","steam_id":76561198004583631,"connected_time":5070000000000,"state":"active","ping":102},{"user_id":230,"name":"Rad0Dragon","steam_id":76561199351578880,"connected_time":5453000000000,"state":"active","ping":103},{"user_id":271,"name":"creeeeeee","steam_id":76561198392539722,"connected_time":2294000000000,"state":"active","ping":80},{"user_id":258,"name":"L + Ratio","steam_id":76561198263786953,"connected_time":2640000000000,"state":"active","ping":77},{"user_id":262,"name":"Pok√©","steam_id":76561198100167641,"connected_time":2458000000000,"state":"active","ping":84},{"user_id":299,"name":"En","steam_id":76561198043977021,"connected_time":677000000000,"state":"active","ping":95},{"user_id":289,"name":"JtsRes","steam_id":76561197994809241,"connected_time":1509000000000,"state":"active","ping":58},{"user_id":298,"name":"cypherzero","steam_id":76561199182960322,"connected_time":755000000000,"state":"active","ping":52},{"user_id":279,"name":"Tuvok Shakur","steam_id":76561198018875334,"connected_time":1625000000000,"state":"active","ping":82},{"user_id":285,"name":"meow","steam_id":76561198055626638,"connected_time":1530000000000,"state":"active","ping":109},{"user_id":233,"name":"uwuziel","steam_id":76561198143355561,"connected_time":5404000000000,"state":"active","ping":79},{"user_id":286,"name":"incredirocks","steam_id":76561198061079993,"connected_time":1526000000000,"state":"active","ping":72},{"user_id":263,"name":"Glaceon","steam_id":76561198177715869,"connected_time":2452000000000,"state":"active","ping":65},{"user_id":294,"name":"emerge","steam_id":76561198186882891,"connected_time":1326000000000,"state":"active","ping":94},{"user_id":296,"name":"iluvtoust","steam_id":76561198869269207,"connected_time":1075000000000,"state":"active","ping":55},{"user_id":308,"name":"chunkyMerchant","steam_id":76561198318701494,"connected_time":180000000000,"state":"active","ping":76},{"user_id":295,"name":"Alan","steam_id":76561198977083959,"connected_time":1285000000000,"state":"active","ping":123},{"user_id":272,"name":"Icaras","steam_id":76561198416724843,"connected_time":2150000000000,"state":"active","ping":148},{"user_id":310,"name":"^w^","steam_id":76561198300550331,"connected_time":92000000000,"state":"active","ping":43},{"user_id":283,"name":"dailydiamond","steam_id":76561199123582502,"connected_time":1599000000000,"state":"active","ping":126},{"user_id":269,"name":"MyTeamIsAzz","steam_id":76561198241921220,"connected_time":2354000000000,"state":"active","ping":96},{"user_id":284,"name":"BrightOrangeMango","steam_id":76561198023144607,"connected_time":1595000000000,"state":"active","ping":78},{"user_id":270,"name":"aintnowaiyboi","steam_id":76561198301372369,"connected_time":2335000000000,"state":"active","ping":40},{"user_id":305,"name":"isaiah","steam_id":76561197962607364,"connected_time":403000000000,"state":"active","ping":78}]},{"server_id":5,"name":"Uncletopia | Frankfurt | 1 | All Maps","name_short":"frk-1","host":"frk-1.de.uncletopia.com","port":27015,"enabled":true,"region":"eu","cc":"de","latitude":50.110924,"longitude":8.682127,"reserved":0,"last_update":"0001-01-01T00:00:00Z","name_a2s":"Uncletopia | Frankfurt | 1 | All Maps","protocol":17,"map":"pl_snowycoast","folder":"tf","game":"Team Fortress","app_id":440,"player_count":0,"max_players":24,"Bots":0,"server_type":"Dedicated","server_os":"Linux","password":true,"vac":true,"version":"7932396","steam_id":85568392924469989,"keywords":["nocrits","nodmgspread","payload","uncletopia"],"game_id":440,"stv_port":27016,"stv_name":"Uncletopia | Frankfurt | 1 | All Maps | STV","players":null},{"server_id":110,"name":"Uncletopia | Frankfurt | 2 | All Maps","name_short":"frk-2","host":"frk-1.de.uncletopia.com","port":27025,"enabled":true,"region":"eu","cc":"de","latitude":50.110924,"longitude":8.682127,"reserved":0,"last_update":"0001-01-01T00:00:00Z","name_a2s":"Uncletopia | Frankfurt | 2 | All Maps","protocol":17,"map":"pl_swiftwater_final1","folder":"tf","game":"Team Fortress","app_id":440,"player_count":0,"max_players":24,"Bots":0,"server_type":"Dedicated","server_os":"Linux","password":true,"vac":true,"version":"7932396","steam_id":85568392924469990,"keywords":["nocrits","nodmgspread","payload","uncletopia"],"game_id":440,"stv_port":27026,"stv_name":"Uncletopia | Frankfurt | 2 | All Maps | STV","players":null},{"server_id":308,"name":"Uncletopia | Frankfurt | 3 | All Maps","name_short":"frk-3","host":"frk-1.de.uncletopia.com","port":27035,"enabled":true,"region":"eu","cc":"de","latitude":50.110924,"longitude":8.682127,"reserved":0,"last_update":"0001-01-01T00:00:00Z","name_a2s":"Uncletopia | Frankfurt | 3 | All Maps","protocol":17,"map":"koth_viaduct","folder":"tf","game":"Team Fortress","app_id":440,"player_count":0,"max_players":24,"Bots":0,"server_type":"Dedicated","server_os":"Linux","password":true,"vac":true,"version":"7932396","steam_id":85568392924504274,"keywords":["cp","nocrits","nodmgspread","uncletopia"],"game_id":440,"stv_port":27036,"stv_name":"Uncletopia | Frankfurt | 3 | All Maps | STV","players":null},{"server_id":309,"name":"Uncletopia | Frankfurt | 4 | All Maps","name_short":"frk-4","host":"frk-1.de.uncletopia.com","port":27045,"enabled":true,"region":"eu","cc":"de","latitude":50.110924,"longitude":8.682127,"reserved":0,"last_update":"0001-01-01T00:00:00Z","name_a2s":"Uncletopia | Frankfurt | 4 | All Maps","protocol":17,"map":"pl_badwater","folder":"tf","game":"Team Fortress","app_id":440,"player_count":12,"max_players":24,"Bots":0,"server_type":"Dedicated","server_os":"Linux","password":true,"vac":true,"version":"7932396","steam_id":85568392924504275,"keywords":["nocrits","nodmgspread","payload","uncletopia"],"game_id":440,"stv_port":27046,"stv_name":"Uncletopia | Frankfurt | 4 | All Maps | STV","players":[{"user_id":482,"name":"Squishie","steam_id":76561198321025400,"connected_time":2502000000000,"state":"active","ping":57},{"user_id":448,"name":"Steen","steam_id":76561198122992510,"connected_time":4409000000000,"state":"active","ping":45},{"user_id":522,"name":"Xx_EpicGaymer_xX","steam_id":76561198846784757,"connected_time":1236000000000,"state":"active","ping":67},{"user_id":510,"name":"Your boobs are the correct size","steam_id":76561197977122134,"connected_time":1793000000000,"state":"active","ping":61},{"user_id":536,"name":"Soldier","steam_id":76561199144302768,"connected_time":210000000000,"state":"active","ping":143},{"user_id":524,"name":"Dr.Disrespect","steam_id":76561198043820228,"connected_time":1190000000000,"state":"active","ping":45},{"user_id":535,"name":"‚öúÔ∏é LoGaN ‚öú","steam_id":76561198300678500,"connected_time":292000000000,"state":"active","ping":72},{"user_id":530,"name":"il","steam_id":76561198122662610,"connected_time":740000000000,"state":"active","ping":76},{"user_id":504,"name":"fb","steam_id":76561197988802856,"connected_time":1910000000000,"state":"active","ping":57},{"user_id":532,"name":"etc","steam_id":76561197998394797,"connected_time":543000000000,"state":"active","ping":47},{"user_id":533,"name":"Outlaw","steam_id":76561198389862837,"connected_time":488000000000,"state":"active","ping":75},{"user_id":529,"name":"Truegr","steam_id":76561198811912339,"connected_time":892000000000,"state":"active","ping":73}]},{"server_id":310,"name":"Uncletopia | Frankfurt | 5 | All Maps","name_short":"frk-5","host":"frk-1.de.uncletopia.com","port":27055,"enabled":true,"region":"eu","cc":"de","latitude":50.110924,"longitude":8.682127,"reserved":0,"last_update":"0001-01-01T00:00:00Z","name_a2s":"Uncletopia | Frankfurt | 5 | All Maps","protocol":17,"map":"koth_lakeside_final","folder":"tf","game":"Team Fortress","app_id":440,"player_count":0,"max_players":24,"Bots":0,"server_type":"Dedicated","server_os":"Linux","password":true,"vac":true,"version":"7932396","steam_id":85568392924504277,"keywords":["cp","nocrits","nodmgspread","uncletopia"],"game_id":440,"stv_port":27056,"stv_name":"Uncletopia | Frankfurt | 5 | All Maps | STV","players":null},{"server_id":311,"name":"Uncletopia | Frankfurt | 6 | All Maps","name_short":"frk-6","host":"frk-1.de.uncletopia.com","port":27065,"enabled":true,"region":"eu","cc":"de","latitude":50.110924,"longitude":8.682127,"reserved":0,"last_update":"0001-01-01T00:00:00Z","name_a2s":"Uncletopia | Frankfurt | 6 | All Maps","protocol":17,"map":"pl_frontier_final","folder":"tf","game":"Team Fortress","app_id":440,"player_count":0,"max_players":24,"Bots":0,"server_type":"Dedicated","server_os":"Linux","password":true,"vac":true,"version":"7932396","steam_id":85568392924504278,"keywords":["nocrits","nodmgspread","payload","uncletopia"],"game_id":440,"stv_port":27066,"stv_name":"Uncletopia | Frankfurt | 6 | All Maps | STV","players":null},{"server_id":23,"name":"Uncletopia | Frankfurt | 7 | Stopwatch Beta","name_short":"frk-7","host":"frk-1.de.uncletopia.com","port":27075,"enabled":true,"region":"eu","cc":"de","latitude":50.110924,"longitude":8.682127,"reserved":0,"last_update":"0001-01-01T00:00:00Z","name_a2s":"Uncletopia | Frankfurt | 7 | Stopwatch Beta","protocol":17,"map":"workshop/koth_product_final.ugc454272353","folder":"tf","game":"Team Fortress","app_id":440,"player_count":0,"max_players":24,"Bots":0,"server_type":"Dedicated","server_os":"Linux","password":true,"vac":true,"version":"7932396","steam_id":85568392924742827,"keywords":["cp","nocrits","nodmgspread","uncletopia"],"game_id":440,"stv_port":27076,"stv_name":"Uncletopia | Frankfurt | 7 | Stopwatch Beta | STV","players":null},{"server_id":24,"name":"Uncletopia | Frankfurt | 8 | Community","name_short":"frk-8","host":"frk-1.de.uncletopia.com","port":27085,"enabled":true,"region":"eu","cc":"de","latitude":50.110924,"longitude":8.682127,"reserved":0,"last_update":"0001-01-01T00:00:00Z","name_a2s":"Uncletopia | Frankfurt | 8 | Community","protocol":17,"map":"workshop/koth_slaughter_rc1.ugc1712845210","folder":"tf","game":"Team Fortress","app_id":440,"player_count":0,"max_players":24,"Bots":0,"server_type":"Dedicated","server_os":"Linux","password":true,"vac":true,"version":"7932396","steam_id":85568392924742828,"keywords":["cp","nocrits","nodmgspread","uncletopia"],"game_id":440,"stv_port":27086,"stv_name":"Uncletopia | Frankfurt | 8 | Community | STV","players":null},{"server_id":202,"name":"Uncletopia | Hong Kong | 1 | All Maps","name_short":"hgk-1","host":"hgk-1.hk.uncletopia.com","port":27015,"enabled":true,"region":"asia","cc":"hk","latitude":22.302711,"longitude":114.177216,"reserved":0,"last_update":"0001-01-01T00:00:00Z","name_a2s":"Uncletopia | Hong Kong | 1 | All Maps","protocol":17,"map":"pl_badwater","folder":"tf","game":"Team Fortress","app_id":440,"player_count":0,"max_players":24,"Bots":0,"server_type":"Dedicated","server_os":"Linux","password":true,"vac":true,"version":"7932396","steam_id":85568392924494504,"keywords":["nocrits","nodmgspread","payload","uncletopia"],"game_id":440,"stv_port":27016,"stv_name":"Uncletopia | Hong Kong | 1 | All Maps | STV","players":null},{"server_id":1,"name":"Uncletopia | Los Angeles | 1 | All Maps","name_short":"lax-1","host":"lax-1.us.uncletopia.com","port":27015,"enabled":true,"region":"us-west","cc":"us","latitude":33.94279,"longitude":-118.41004,"reserved":0,"last_update":"0001-01-01T00:00:00Z","name_a2s":"Uncletopia | Los Angeles | 1 | All Maps","protocol":17,"map":"cp_process_final","folder":"tf","game":"Team Fortress","app_id":440,"player_count":23,"max_players":24,"Bots":0,"server_type":"Dedicated","server_os":"Linux","password":true,"vac":true,"version":"7932396","steam_id":85568392924469991,"keywords":["cp","nocrits","nodmgspread","uncletopia"],"game_id":440,"stv_port":27016,"stv_name":"Uncletopia | Los Angeles | 1 | All Maps | STV","players":[{"user_id":325,"name":"Regret","steam_id":76561198255257967,"connected_time":2582000000000,"state":"active","ping":97},{"user_id":301,"name":"frostedflakes99","steam_id":76561199049292578,"connected_time":4762000000000,"state":"active","ping":47},{"user_id":292,"name":"dohnuts","steam_id":76561198025965230,"connected_time":5406000000000,"state":"active","ping":118},{"user_id":343,"name":"Paicer","steam_id":76561198813556631,"connected_time":872000000000,"state":"active","ping":188},{"user_id":281,"name":"GRONT","steam_id":76561198040464533,"connected_time":6726000000000,"state":"active","ping":99},{"user_id":341,"name":"rest","steam_id":76561199127056127,"connected_time":1163000000000,"state":"active","ping":179},{"user_id":347,"name":"porksoda","steam_id":76561198021451377,"connected_time":448000000000,"state":"active","ping":66},{"user_id":344,"name":"Altruisticailuridae","steam_id":76561198335295596,"connected_time":484000000000,"state":"active","ping":54},{"user_id":349,"name":"Desolater","steam_id":76561198001370428,"connected_time":427000000000,"state":"active","ping":74},{"user_id":298,"name":"werolat","steam_id":76561197960544784,"connected_time":4788000000000,"state":"active","ping":50},{"user_id":329,"name":"Insert_User_","steam_id":76561199229663997,"connected_time":1850000000000,"state":"active","ping":91},{"user_id":308,"name":"thebaconnator2016","steam_id":76561199100270424,"connected_time":3953000000000,"state":"active","ping":78},{"user_id":338,"name":"PunyHappyFace","steam_id":76561198118059305,"connected_time":1611000000000,"state":"active","ping":46},{"user_id":350,"name":"BrickTrooper","steam_id":76561199099591449,"connected_time":421000000000,"state":"active","ping":94},{"user_id":339,"name":"Chud Monkey","steam_id":76561199092840401,"connected_time":1548000000000,"state":"active","ping":61},{"user_id":345,"name":"HeroOfTime","steam_id":76561199096218001,"connected_time":466000000000,"state":"active","ping":54},{"user_id":342,"name":"flamingcookies","steam_id":76561198280864779,"connected_time":1104000000000,"state":"active","ping":140},{"user_id":346,"name":"HydriusYin","steam_id":76561198071591352,"connected_time":464000000000,"state":"active","ping":100},{"user_id":348,"name":"al-Kohol","steam_id":76561197998530400,"connected_time":443000000000,"state":"active","ping":60},{"user_id":335,"name":"Farseer Ulwithy","steam_id":76561197965179245,"connected_time":1673000000000,"state":"active","ping":86},{"user_id":352,"name":"Enforcer Enthusiast","steam_id":76561199124102271,"connected_time":129000000000,"state":"active","ping":81},{"user_id":337,"name":"Versuski","steam_id":76561198085193084,"connected_time":1641000000000,"state":"active","ping":113},{"user_id":297,"name":"Jimmy","steam_id":76561198857959855,"connected_time":4799000000000,"state":"active","ping":47}]},{"server_id":112,"name":"Uncletopia | Los Angeles | 2 | All Maps","name_short":"lax-2","host":"lax-1.us.uncletopia.com","port":27025,"enabled":true,"region":"us-west","cc":"us","latitude":33.94279,"longitude":-118.41004,"reserved":0,"last_update":"0001-01-01T00:00:00Z","name_a2s":"Uncletopia | Los Angeles | 2 | All Maps","protocol":17,"map":"pl_badwater","folder":"tf","game":"Team Fortress","app_id":440,"player_count":24,"max_players":24,"Bots":0,"server_type":"Dedicated","server_os":"Linux","password":true,"vac":true,"version":"7932396","steam_id":85568392924469992,"keywords":["nocrits","nodmgspread","payload","uncletopia"],"game_id":440,"stv_port":27026,"stv_name":"Uncletopia | Los Angeles | 2 | All Maps | STV","players":[{"user_id":101,"name":"·≤º·≤º·≤º","steam_id":76561198845246815,"connected_time":1195000000000,"state":"active","ping":45},{"user_id":106,"name":"beblonski","steam_id":76561198067053408,"connected_time":777000000000,"state":"active","ping":46},{"user_id":78,"name":"sloth","steam_id":76561198318126190,"connected_time":1997000000000,"state":"active","ping":146},{"user_id":107,"name":"Skarp129","steam_id":76561198108679057,"connected_time":777000000000,"state":"active","ping":47},{"user_id":97,"name":"jandajanda","steam_id":76561198235722476,"connected_time":1315000000000,"state":"active","ping":99},{"user_id":84,"name":"Gubbington","steam_id":76561198959381302,"connected_time":1576000000000,"state":"active","ping":131},{"user_id":85,"name":"baked","steam_id":76561198157111640,"connected_time":1560000000000,"state":"active","ping":46},{"user_id":108,"name":"Rinsworth","steam_id":76561198071110753,"connected_time":764000000000,"state":"active","ping":44},{"user_id":87,"name":"TwelvePackofSaltyBones","steam_id":76561198224764664,"connected_time":1554000000000,"state":"active","ping":127},{"user_id":88,"name":"bluebluepickles","steam_id":76561198119503953,"connected_time":1537000000000,"state":"active","ping":103},{"user_id":120,"name":"well i'll be","steam_id":76561198272092906,"connected_time":66000000000,"state":"active","ping":97},{"user_id":89,"name":"Agent Q","steam_id":76561198830829003,"connected_time":1502000000000,"state":"active","ping":74},{"user_id":109,"name":"Glad","steam_id":76561198046359489,"connected_time":749000000000,"state":"active","ping":71},{"user_id":110,"name":"Huh?","steam_id":76561198054866271,"connected_time":734000000000,"state":"active","ping":70},{"user_id":119,"name":"ElShaggy","steam_id":76561198148870214,"connected_time":487000000000,"state":"active","ping":62},{"user_id":121,"name":"AzovStal'","steam_id":76561198081841996,"connected_time":3000000000,"state":"spawning","ping":46},{"user_id":40,"name":"how do i control my guy?","steam_id":76561198158855211,"connected_time":5531000000000,"state":"active","ping":69},{"user_id":118,"name":"p4","steam_id":76561198078400787,"connected_time":514000000000,"state":"active","ping":77},{"user_id":114,"name":"u know i keep","steam_id":76561198094615739,"connected_time":654000000000,"state":"active","ping":82},{"user_id":91,"name":"Chirp","steam_id":76561198240780230,"connected_time":1461000000000,"state":"active","ping":45},{"user_id":115,"name":"GUINNESS ANYONE?","steam_id":76561197985970131,"connected_time":598000000000,"state":"active","ping":110},{"user_id":96,"name":"Slick","steam_id":76561198071949167,"connected_time":1352000000000,"state":"active","ping":70},{"user_id":116,"name":"AlligatorFan","steam_id":76561199044011999,"connected_time":597000000000,"state":"active","ping":53},{"user_id":47,"name":"Lock'd","steam_id":76561198170108230,"connected_time":5458000000000,"state":"active","ping":47}]},{"server_id":324,"name":"Uncletopia | Los Angeles | 3 | All Maps","name_short":"lax-3","host":"lax-1.us.uncletopia.com","port":27035,"enabled":true,"region":"us-west","cc":"us","latitude":33.94279,"longitude":-118.41004,"reserved":0,"last_update":"0001-01-01T00:00:00Z","name_a2s":"Uncletopia | Los Angeles | 3 | All Maps","protocol":17,"map":"pl_pier","folder":"tf","game":"Team Fortress","app_id":440,"player_count":3,"max_players":24,"Bots":0,"server_type":"Dedicated","server_os":"Linux","password":true,"vac":true,"version":"7932396","steam_id":85568392924510198,"keywords":["nocrits","nodmgspread","payload","uncletopia"],"game_id":440,"stv_port":27036,"stv_name":"Uncletopia | Los Angeles | 3 | All Maps | STV","players":[{"user_id":17,"name":"Alex Manneks","steam_id":76561198118579501,"connected_time":511000000000,"state":"active","ping":61},{"user_id":20,"name":"california jew","steam_id":76561198914032112,"connected_time":161000000000,"state":"active","ping":42},{"user_id":22,"name":"panpanpanpanpan","steam_id":76561198277478746,"connected_time":77000000000,"state":"active","ping":62}]},{"server_id":25,"name":"Uncletopia | Los Angeles | 4 | Stopwatch Beta","name_short":"lax-4","host":"lax-1.us.uncletopia.com","port":27045,"enabled":true,"region":"us-west","cc":"us","latitude":33.94279,"longitude":-118.41004,"reserved":0,"last_update":"0001-01-01T00:00:00Z","name_a2s":"Uncletopia | Los Angeles | 4 | Stopwatch Beta","protocol":17,"map":"cp_sunshine","folder":"tf","game":"Team Fortress","app_id":440,"player_count":0,"max_players":24,"Bots":0,"server_type":"Dedicated","server_os":"Linux","password":true,"vac":true,"version":"7932396","steam_id":85568392924510199,"keywords":["cp","nocrits","nodmgspread","uncletopia"],"game_id":440,"stv_port":27046,"stv_name":"Uncletopia | Los Angeles | 4 | Stopwatch Beta | STV","players":null},{"server_id":11,"name":"Uncletopia | London | 1 | All Maps","name_short":"lon-1","host":"lon-1.uk.uncletopia.com","port":27015,"enabled":true,"region":"eu","cc":"gb","latitude":51.509865,"longitude":-0.118092,"reserved":0,"last_update":"0001-01-01T00:00:00Z","name_a2s":"Uncletopia | London | 1 | All Maps","protocol":17,"map":"pl_upward","folder":"tf","game":"Team Fortress","app_id":440,"player_count":24,"max_players":24,"Bots":0,"server_type":"Dedicated","server_os":"Linux","password":true,"vac":true,"version":"7932396","steam_id":85568392924367362,"keywords":["nocrits","nodmgspread","payload","uncletopia"],"game_id":440,"stv_port":27016,"stv_name":"Uncletopia | London | 1 | All Maps | STV","players":[{"user_id":767,"name":"aight","steam_id":76561198174474613,"connected_time":1059000000000,"state":"active","ping":41},{"user_id":752,"name":"pardner","steam_id":76561198451471161,"connected_time":2617000000000,"state":"active","ping":52},{"user_id":750,"name":"Jarl SwagDog","steam_id":76561198097553711,"connected_time":2671000000000,"state":"active","ping":115},{"user_id":715,"name":"zee","steam_id":76561197994492154,"connected_time":6033000000000,"state":"active","ping":77},{"user_id":706,"name":"Marquis de Hoto","steam_id":76561198080687708,"connected_time":6295000000000,"state":"active","ping":71},{"user_id":658,"name":"beebo","steam_id":76561199120277007,"connected_time":10852000000000,"state":"active","ping":40},{"user_id":768,"name":"jonbob","steam_id":76561197963506620,"connected_time":1056000000000,"state":"active","ping":49},{"user_id":763,"name":"MITE FUZZ","steam_id":76561198008653550,"connected_time":1873000000000,"state":"active","ping":44},{"user_id":773,"name":"53differentmen","steam_id":76561198982477860,"connected_time":453000000000,"state":"active","ping":161},{"user_id":759,"name":"Sakari","steam_id":76561197997811299,"connected_time":2418000000000,"state":"active","ping":60},{"user_id":769,"name":"Guppy","steam_id":76561198135398757,"connected_time":1037000000000,"state":"active","ping":50},{"user_id":753,"name":"Dimonki","steam_id":76561198821015001,"connected_time":2584000000000,"state":"active","ping":72},{"user_id":770,"name":"Derexas","steam_id":76561198010438489,"connected_time":1010000000000,"state":"active","ping":60},{"user_id":775,"name":"ja","steam_id":76561199228540618,"connected_time":287000000000,"state":"active","ping":80},{"user_id":760,"name":"clown testicles go honk honk","steam_id":76561198300792108,"connected_time":2353000000000,"state":"active","ping":75},{"user_id":738,"name":"VideoJames","steam_id":76561197970114051,"connected_time":3821000000000,"state":"active","ping":43},{"user_id":765,"name":"t0ast","steam_id":76561198141722573,"connected_time":1284000000000,"state":"active","ping":31},{"user_id":776,"name":"Fey","steam_id":76561198039087098,"connected_time":162000000000,"state":"active","ping":59},{"user_id":766,"name":"TheEventGuy","steam_id":76561197972797744,"connected_time":1245000000000,"state":"active","ping":68},{"user_id":740,"name":"Peat","steam_id":76561197992168067,"connected_time":3718000000000,"state":"active","ping":65},{"user_id":721,"name":"TheMasterOfTheZaZa","steam_id":76561197994310420,"connected_time":5905000000000,"state":"active","ping":59},{"user_id":755,"name":"REN","steam_id":76561198000596385,"connected_time":2565000000000,"state":"active","ping":65},{"user_id":764,"name":"Nebe0","steam_id":76561199133770186,"connected_time":1840000000000,"state":"active","ping":160},{"user_id":772,"name":"Jason Gaming","steam_id":76561198215467601,"connected_time":801000000000,"state":"active","ping":139}]},{"server_id":114,"name":"Uncletopia | London | 2 | All Maps","name_short":"lon-2","host":"lon-1.uk.uncletopia.com","port":27025,"enabled":true,"region":"eu","cc":"gb","latitude":51.509865,"longitude":-0.118092,"reserved":0,"last_update":"0001-01-01T00:00:00Z","name_a2s":"Uncletopia | London | 2 | All Maps","protocol":17,"map":"koth_viaduct","folder":"tf","game":"Team Fortress","app_id":440,"player_count":0,"max_players":24,"Bots":0,"server_type":"Dedicated","server_os":"Linux","password":true,"vac":true,"version":"7932396","steam_id":85568392924470941,"keywords":["cp","nocrits","nodmgspread","uncletopia"],"game_id":440,"stv_port":27026,"stv_name":"Uncletopia | London | 2 | All Maps | STV","players":null},{"server_id":320,"name":"Uncletopia | London | 3 | All Maps","name_short":"lon-3","host":"lon-1.uk.uncletopia.com","port":27035,"enabled":true,"region":"eu","cc":"gb","latitude":51.509865,"longitude":-0.118092,"reserved":0,"last_update":"0001-01-01T00:00:00Z","name_a2s":"Uncletopia | London | 3 | All Maps","protocol":17,"map":"koth_lakeside_final","folder":"tf","game":"Team Fortress","app_id":440,"player_count":0,"max_players":24,"Bots":0,"server_type":"Dedicated","server_os":"Linux","password":true,"vac":true,"version":"7932396","steam_id":85568392924510192,"keywords":["cp","nocrits","nodmgspread","uncletopia"],"game_id":440,"stv_port":27036,"stv_name":"Uncletopia | London | 3 | All Maps | STV","players":null},{"server_id":321,"name":"Uncletopia | London | 4 | All Maps","name_short":"lon-4","host":"lon-1.uk.uncletopia.com","port":27045,"enabled":true,"region":"eu","cc":"gb","latitude":51.509865,"longitude":-0.118092,"reserved":0,"last_update":"0001-01-01T00:00:00Z","name_a2s":"Uncletopia | London | 4 | All Maps","protocol":17,"map":"pl_upward","folder":"tf","game":"Team Fortress","app_id":440,"player_count":18,"max_players":24,"Bots":0,"server_type":"Dedicated","server_os":"Linux","password":true,"vac":true,"version":"7932396","steam_id":85568392924510193,"keywords":["nocrits","nodmgspread","payload","uncletopia"],"game_id":440,"stv_port":27046,"stv_name":"Uncletopia | London | 4 | All Maps | STV","players":[{"user_id":471,"name":"the indomitable human spirit","steam_id":76561198718760200,"connected_time":246000000000,"state":"active","ping":47},{"user_id":469,"name":"swagmaster9000","steam_id":76561198232259356,"connected_time":571000000000,"state":"active","ping":60},{"user_id":470,"name":"B O R F","steam_id":76561197962461333,"connected_time":511000000000,"state":"active","ping":45},{"user_id":468,"name":"iL1KEwAifU","steam_id":76561199199070680,"connected_time":629000000000,"state":"active","ping":170},{"user_id":458,"name":"Mob","steam_id":76561199054382117,"connected_time":1833000000000,"state":"active","ping":54},{"user_id":472,"name":"Bounty","steam_id":76561198032698137,"connected_time":227000000000,"state":"active","ping":71},{"user_id":412,"name":"Take head in tf2-Give Heads irL","steam_id":76561199155716159,"connected_time":4175000000000,"state":"active","ping":56},{"user_id":473,"name":"0of64","steam_id":76561198376708545,"connected_time":78000000000,"state":"active","ping":181},{"user_id":368,"name":"Alos","steam_id":76561198023772457,"connected_time":7521000000000,"state":"active","ping":58},{"user_id":376,"name":"Adib al-asfar","steam_id":76561198095691592,"connected_time":6836000000000,"state":"active","ping":69},{"user_id":474,"name":"mr118slay","steam_id":76561198359784658,"connected_time":48000000000,"state":"active","ping":54},{"user_id":452,"name":"Tortes","steam_id":76561199049185884,"connected_time":2020000000000,"state":"active","ping":104},{"user_id":464,"name":"The Lord William Campbell","steam_id":76561198105442559,"connected_time":988000000000,"state":"active","ping":64},{"user_id":475,"name":"KittyKate ‚ù§","steam_id":76561198116340817,"connected_time":14000000000,"state":"active","ping":63},{"user_id":466,"name":"Svettiga Gunnar","steam_id":76561197998579531,"connected_time":762000000000,"state":"active","ping":77},{"user_id":476,"name":"BuzzBees ‚ù§","steam_id":76561198101502273,"connected_time":4000000000,"state":"spawning","ping":58},{"user_id":449,"name":"LuckLuster","steam_id":76561198092986647,"connected_time":2305000000000,"state":"active","ping":98},{"user_id":448,"name":"Jinxie","steam_id":76561198008762303,"connected_time":2352000000000,"state":"active","ping":68}]},{"server_id":21,"name":"Uncletopia | London | 5 | All Maps","name_short":"lon-5","host":"lon-1.uk.uncletopia.com","port":27055,"enabled":true,"region":"eu","cc":"gb","latitude":51.509865,"longitude":-0.118092,"reserved":0,"last_update":"0001-01-01T00:00:00Z","name_a2s":"Uncletopia | London | 5 | All Maps","protocol":17,"map":"koth_lakeside_final","folder":"tf","game":"Team Fortress","app_id":440,"player_count":0,"max_players":24,"Bots":0,"server_type":"Dedicated","server_os":"Linux","password":true,"vac":true,"version":"7932396","steam_id":85568392924742829,"keywords":["cp","nocrits","nodmgspread","uncletopia"],"game_id":440,"stv_port":27056,"stv_name":"Uncletopia | London | 5 | All Maps | STV","players":null},{"server_id":22,"name":"Uncletopia | London | 6 | All Maps","name_short":"lon-6","host":"lon-1.uk.uncletopia.com","port":27065,"enabled":true,"region":"eu","cc":"gb","latitude":51.509865,"longitude":-0.118092,"reserved":0,"last_update":"0001-01-01T00:00:00Z","name_a2s":"Uncletopia | London | 6 | All Maps","protocol":17,"map":"koth_highpass","folder":"tf","game":"Team Fortress","app_id":440,"player_count":0,"max_players":24,"Bots":0,"server_type":"Dedicated","server_os":"Linux","password":true,"vac":true,"version":"7932396","steam_id":85568392924742830,"keywords":["cp","nocrits","nodmgspread","uncletopia"],"game_id":440,"stv_port":27066,"stv_name":"Uncletopia | London | 6 | All Maps | STV","players":null},{"server_id":40,"name":"Uncletopia | London | 7 | No Payload","name_short":"lon-7","host":"lon-1.uk.uncletopia.com","port":27075,"enabled":true,"region":"eu","cc":"gb","latitude":51.509865,"longitude":-0.118092,"reserved":0,"last_update":"0001-01-01T00:00:00Z","name_a2s":"Uncletopia | London | 7 | No Payload","protocol":17,"map":"koth_highpass","folder":"tf","game":"Team Fortress","app_id":440,"player_count":0,"max_players":24,"Bots":0,"server_type":"Dedicated","server_os":"Linux","password":true,"vac":true,"version":"7932396","steam_id":85568392924964314,"keywords":["cp","nocrits","nodmgspread","uncletopia"],"game_id":440,"stv_port":27076,"stv_name":"Uncletopia | London | 7 | No Payload | STV","players":null},{"server_id":41,"name":"Uncletopia | London | 8 | Community","name_short":"lon-8","host":"lon-1.uk.uncletopia.com","port":27085,"enabled":true,"region":"eu","cc":"gb","latitude":51.509865,"longitude":-0.118092,"reserved":0,"last_update":"0001-01-01T00:00:00Z","name_a2s":"Uncletopia | London | 8 | Community","protocol":17,"map":"workshop/pl_eruption_b9a.ugc2807898013","folder":"tf","game":"Team Fortress","app_id":440,"player_count":0,"max_players":24,"Bots":0,"server_type":"Dedicated","server_os":"Linux","password":true,"vac":true,"version":"7932396","steam_id":85568392924964315,"keywords":["nocrits","nodmgspread","payload","uncletopia"],"game_id":440,"stv_port":27086,"stv_name":"Uncletopia | London | 8 | Community | STV","players":null},{"server_id":300,"name":"Uncletopia | Montr√©al | 1 | All Maps","name_short":"mtl-1","host":"mtl-1.ca.uncletopia.com","port":27015,"enabled":true,"region":"us-east","cc":"ca","latitude":45.50889,"longitude":-73.56167,"reserved":0,"last_update":"0001-01-01T00:00:00Z","name_a2s":"Uncletopia | Montr√©al | 1 | All Maps","protocol":17,"map":"koth_lakeside_final","folder":"tf","game":"Team Fortress","app_id":440,"player_count":7,"max_players":24,"Bots":0,"server_type":"Dedicated","server_os":"Linux","password":true,"vac":true,"version":"7932396","steam_id":85568392924500087,"keywords":["cp","nocrits","nodmgspread","uncletopia"],"game_id":440,"stv_port":27016,"stv_name":"Uncletopia | Montr√©al | 1 | All Maps | STV","players":[{"user_id":11,"name":"Henry Ota-Clay","steam_id":76561198053232470,"connected_time":1349000000000,"state":"active","ping":72},{"user_id":12,"name":"TheQwertyGuy","steam_id":76561198041646396,"connected_time":1327000000000,"state":"active","ping":73},{"user_id":13,"name":"Earthan","steam_id":76561198102416696,"connected_time":1291000000000,"state":"active","ping":75},{"user_id":14,"name":"colorfree5117","steam_id":76561198325736063,"connected_time":1244000000000,"state":"active","ping":97},{"user_id":15,"name":"Decoy Nixon","steam_id":76561198102877645,"connected_time":1034000000000,"state":"active","ping":78},{"user_id":17,"name":"SnazzyCelestial","steam_id":76561198328763813,"connected_time":363000000000,"state":"active","ping":83},{"user_id":19,"name":"chronically bitchless","steam_id":76561199056802747,"connected_time":156000000000,"state":"active","ping":78}]},{"server_id":301,"name":"Uncletopia | Montr√©al | 2 | All Maps","name_short":"mtl-2","host":"mtl-1.ca.uncletopia.com","port":27025,"enabled":true,"region":"us-east","cc":"ca","latitude":45.50889,"longitude":-73.56167,"reserved":0,"last_update":"0001-01-01T00:00:00Z","name_a2s":"Uncletopia | Montr√©al | 2 | All Maps","protocol":17,"map":"cp_mountainlab","folder":"tf","game":"Team Fortress","app_id":440,"player_count":0,"max_players":24,"Bots":0,"server_type":"Dedicated","server_os":"Linux","password":true,"vac":true,"version":"7932396","steam_id":85568392924500088,"keywords":["cp","nocrits","nodmgspread","uncletopia"],"game_id":440,"stv_port":27026,"stv_name":"Uncletopia | Montr√©al | 2 | All Maps | STV","players":null},{"server_id":302,"name":"Uncletopia | Montr√©al | 3 | All Maps","name_short":"mtl-3","host":"mtl-1.ca.uncletopia.com","port":27035,"enabled":true,"region":"us-east","cc":"ca","latitude":45.50889,"longitude":-73.56167,"reserved":0,"last_update":"0001-01-01T00:00:00Z","name_a2s":"Uncletopia | Montr√©al | 3 | All Maps","protocol":17,"map":"pl_badwater","folder":"tf","game":"Team Fortress","app_id":440,"player_count":0,"max_players":24,"Bots":0,"server_type":"Dedicated","server_os":"Linux","password":true,"vac":true,"version":"7932396","steam_id":85568392924500089,"keywords":["nocrits","nodmgspread","payload","uncletopia"],"game_id":440,"stv_port":27036,"stv_name":"Uncletopia | Montr√©al | 3 | All Maps | STV","players":null},{"server_id":303,"name":"Uncletopia | Montr√©al | 4 | No Payload","name_short":"mtl-4","host":"mtl-1.ca.uncletopia.com","port":27045,"enabled":true,"region":"us-east","cc":"ca","latitude":45.50889,"longitude":-73.56167,"reserved":0,"last_update":"0001-01-01T00:00:00Z","name_a2s":"Uncletopia | Montr√©al | 4 | No Payload","protocol":17,"map":"cp_badlands","folder":"tf","game":"Team Fortress","app_id":440,"player_count":0,"max_players":24,"Bots":0,"server_type":"Dedicated","server_os":"Linux","password":true,"vac":true,"version":"7932396","steam_id":85568392924500090,"keywords":["cp","nocrits","nodmgspread","uncletopia"],"game_id":440,"stv_port":27046,"stv_name":"Uncletopia | Montr√©al | 4 | No Payload | STV","players":null},{"server_id":13,"name":"Uncletopia | New York City | 1 | All Maps","name_short":"nyc-1","host":"nyc-1.us.uncletopia.com","port":27015,"enabled":true,"region":"us-east","cc":"us","latitude":40.73061,"longitude":-73.93524,"reserved":0,"last_update":"0001-01-01T00:00:00Z","name_a2s":"Uncletopia | New York City | 1 | All Maps","protocol":17,"map":"pl_upward","folder":"tf","game":"Team Fortress","app_id":440,"player_count":24,"max_players":24,"Bots":0,"server_type":"Dedicated","server_os":"Linux","password":true,"vac":true,"version":"7932396","steam_id":85568392924469993,"keywords":["nocrits","nodmgspread","payload","uncletopia"],"game_id":440,"stv_port":27016,"stv_name":"Uncletopia | New York City | 1 | All Maps | STV","players":[{"user_id":234,"name":"pele","steam_id":76561198021224745,"connected_time":5506000000000,"state":"active","ping":34},{"user_id":303,"name":"false-faced female","steam_id":76561198088778979,"connected_time":746000000000,"state":"active","ping":126},{"user_id":205,"name":"JHLO","steam_id":76561198074359967,"connected_time":7117000000000,"state":"active","ping":57},{"user_id":214,"name":"Xraverz","steam_id":76561198008891628,"connected_time":6920000000000,"state":"active","ping":75},{"user_id":304,"name":"Spongy Sponge","steam_id":76561198998864570,"connected_time":666000000000,"state":"active","ping":68},{"user_id":305,"name":"Centipede on a Game Boy","steam_id":76561199016285746,"connected_time":662000000000,"state":"active","ping":95},{"user_id":296,"name":"Luther_51","steam_id":76561198042994473,"connected_time":1450000000000,"state":"active","ping":66},{"user_id":250,"name":"meowfang","steam_id":76561198123056791,"connected_time":4909000000000,"state":"active","ping":52},{"user_id":287,"name":"Elena Manetta","steam_id":76561197998344054,"connected_time":2437000000000,"state":"active","ping":30},{"user_id":297,"name":"Apetometrist","steam_id":76561198045391635,"connected_time":1436000000000,"state":"active","ping":77},{"user_id":284,"name":"chuck","steam_id":76561198102300433,"connected_time":2463000000000,"state":"active","ping":70},{"user_id":249,"name":"Goofball","steam_id":76561198074189084,"connected_time":4921000000000,"state":"active","ping":36},{"user_id":282,"name":"Mi1stOG","steam_id":76561198158796326,"connected_time":2489000000000,"state":"active","ping":54},{"user_id":292,"name":"Megalon Enjoyer","steam_id":76561198140691887,"connected_time":1522000000000,"state":"active","ping":60},{"user_id":270,"name":"SublunarFox","steam_id":76561198886387474,"connected_time":3579000000000,"state":"active","ping":56},{"user_id":251,"name":"Chewbacca","steam_id":76561198041927925,"connected_time":4860000000000,"state":"active","ping":53},{"user_id":308,"name":"marinara sauce","steam_id":76561198093246716,"connected_time":375000000000,"state":"active","ping":67},{"user_id":306,"name":"Lazulf","steam_id":76561198041410859,"connected_time":656000000000,"state":"active","ping":110},{"user_id":309,"name":"chesterwnimitz","steam_id":76561198062664377,"connected_time":364000000000,"state":"active","ping":109},{"user_id":302,"name":"Kevin the Minion","steam_id":76561198052380794,"connected_time":860000000000,"state":"active","ping":64},{"user_id":300,"name":"Person","steam_id":76561198093244204,"connected_time":1404000000000,"state":"active","ping":65},{"user_id":274,"name":"Ghost Modern Warfare 2 (2022)","steam_id":76561198116295334,"connected_time":3304000000000,"state":"active","ping":58},{"user_id":311,"name":"‚ô•Bunny‚ô•Slut‚ô•","steam_id":76561198206376851,"connected_time":135000000000,"state":"active","ping":95}]},{"server_id":14,"name":"Uncletopia | New York City | 2 | All Maps","name_short":"nyc-2","host":"nyc-1.us.uncletopia.com","port":27025,"enabled":true,"region":"us-east","cc":"us","latitude":40.73061,"longitude":-73.93524,"reserved":0,"last_update":"0001-01-01T00:00:00Z","name_a2s":"Uncletopia | New York City | 2 | All Maps","protocol":17,"map":"pl_barnblitz","folder":"tf","game":"Team Fortress","app_id":440,"player_count":24,"max_players":24,"Bots":0,"server_type":"Dedicated","server_os":"Linux","password":true,"vac":true,"version":"7932396","steam_id":85568392924469994,"keywords":["nocrits","nodmgspread","payload","uncletopia"],"game_id":440,"stv_port":27026,"stv_name":"Uncletopia | New York City | 2 | All Maps | STV","players":[{"user_id":223,"name":"Numanis","steam_id":76561199229661082,"connected_time":300000000000,"state":"active","ping":73},{"user_id":221,"name":"shoxidizer","steam_id":76561198981983698,"connected_time":335000000000,"state":"active","ping":69},{"user_id":122,"name":"Sudo","steam_id":76561198123714026,"connected_time":6997000000000,"state":"active","ping":124},{"user_id":158,"name":"Tony hawks pro skater 2 dlc","steam_id":76561198243387974,"connected_time":3537000000000,"state":"active","ping":53},{"user_id":209,"name":"SLAYC hyphen #TWICECOMEBACK","steam_id":76561198097422673,"connected_time":761000000000,"state":"active","ping":90},{"user_id":210,"name":"vynn","steam_id":76561198017218011,"connected_time":759000000000,"state":"active","ping":69},{"user_id":224,"name":"hashmap","steam_id":76561198043794014,"connected_time":295000000000,"state":"active","ping":60},{"user_id":192,"name":"smuffy","steam_id":76561198091459506,"connected_time":2193000000000,"state":"active","ping":50},{"user_id":218,"name":"Little Caesar's Crazy Bread","steam_id":76561198062464764,"connected_time":621000000000,"state":"active","ping":98},{"user_id":226,"name":"nori_420","steam_id":76561199117134203,"connected_time":284000000000,"state":"active","ping":132},{"user_id":205,"name":"Definitely Not A Replicant.","steam_id":76561198087464370,"connected_time":1259000000000,"state":"active","ping":92},{"user_id":202,"name":"6t26j","steam_id":76561198278282836,"connected_time":1743000000000,"state":"active","ping":58},{"user_id":220,"name":"Kokonut","steam_id":76561198006479007,"connected_time":435000000000,"state":"active","ping":46},{"user_id":201,"name":"Bulk","steam_id":76561199009814535,"connected_time":1919000000000,"state":"active","ping":48},{"user_id":206,"name":"Tax Evasion Wario","steam_id":76561198049563704,"connected_time":1246000000000,"state":"active","ping":94},{"user_id":196,"name":"Zhenaj","steam_id":76561199209016136,"connected_time":2072000000000,"state":"active","ping":61},{"user_id":197,"name":"SpongedSocks","steam_id":76561198374009086,"connected_time":2064000000000,"state":"active","ping":54},{"user_id":225,"name":"Bird of Paradise","steam_id":76561198891152046,"connected_time":292000000000,"state":"active","ping":105},{"user_id":194,"name":"Yoshimelon","steam_id":76561198253054325,"connected_time":2135000000000,"state":"active","ping":80},{"user_id":198,"name":"Toilet Slave Tournament","steam_id":76561197997915494,"connected_time":2045000000000,"state":"active","ping":136},{"user_id":216,"name":"Freewave","steam_id":76561198156282541,"connected_time":685000000000,"state":"active","ping":60},{"user_id":176,"name":"irritable vowel syndrome","steam_id":76561198117033273,"connected_time":2782000000000,"state":"active","ping":128},{"user_id":219,"name":"A_Malebolgia","steam_id":76561198097722818,"connected_time":590000000000,"state":"active","ping":86},{"user_id":230,"name":"Shocker807","steam_id":76561198850545155,"connected_time":156000000000,"state":"active","ping":75}]},{"server_id":15,"name":"Uncletopia | New York City | 3 | Stopwatch Beta","name_short":"nyc-3","host":"nyc-1.us.uncletopia.com","port":27035,"enabled":true,"region":"us-east","cc":"us","latitude":40.73061,"longitude":-73.93524,"reserved":0,"last_update":"0001-01-01T00:00:00Z","name_a2s":"Uncletopia | New York City | 3 | Stopwatch Beta","protocol":17,"map":"workshop/koth_ramjam_rc1.ugc459778887","folder":"tf","game":"Team Fortress","app_id":440,"player_count":24,"max_players":24,"Bots":0,"server_type":"Dedicated","server_os":"Linux","password":true,"vac":true,"version":"7932396","steam_id":85568392924742820,"keywords":["cp","nocrits","nodmgspread","uncletopia"],"game_id":440,"stv_port":27036,"stv_name":"Uncletopia | New York City | 3 | Stopwatch Beta | STV","players":[{"user_id":11,"name":"Bee_Pirate","steam_id":76561199000599111,"connected_time":4690000000000,"state":"active","ping":74},{"user_id":55,"name":"GCTypo","steam_id":76561198111510726,"connected_time":855000000000,"state":"active","ping":124},{"user_id":56,"name":"EvilsConscience","steam_id":76561198073451760,"connected_time":690000000000,"state":"active","ping":71},{"user_id":57,"name":"Crabo Stabbo","steam_id":76561198061227228,"connected_time":689000000000,"state":"active","ping":81},{"user_id":50,"name":"BOSS BALDING","steam_id":76561198373683462,"connected_time":971000000000,"state":"active","ping":69},{"user_id":63,"name":"God's Drunkest Driver","steam_id":76561198165175875,"connected_time":482000000000,"state":"active","ping":66},{"user_id":44,"name":"Rabid-Gentleman","steam_id":76561199071967379,"connected_time":1632000000000,"state":"active","ping":75},{"user_id":64,"name":"neet","steam_id":76561197968115168,"connected_time":461000000000,"state":"active","ping":46},{"user_id":52,"name":"papi perro","steam_id":76561198021649180,"connected_time":909000000000,"state":"active","ping":39},{"user_id":45,"name":"Mr_Frosty","steam_id":76561199380389079,"connected_time":1386000000000,"state":"active","ping":76},{"user_id":65,"name":"Poltergeist","steam_id":76561198080353122,"connected_time":401000000000,"state":"active","ping":61},{"user_id":27,"name":"stupid bastard","steam_id":76561199195104977,"connected_time":2021000000000,"state":"active","ping":53},{"user_id":53,"name":"Amauri","steam_id":76561198130809137,"connected_time":894000000000,"state":"active","ping":79},{"user_id":54,"name":"orangesuit1","steam_id":76561199020443017,"connected_time":890000000000,"state":"active","ping":139},{"user_id":32,"name":"tf_anvildrop 1","steam_id":76561198138221795,"connected_time":1909000000000,"state":"active","ping":92},{"user_id":69,"name":"Juvice","steam_id":76561198843371502,"connected_time":210000000000,"state":"active","ping":41},{"user_id":34,"name":"TreesRUs","steam_id":76561198305740611,"connected_time":1901000000000,"state":"active","ping":94},{"user_id":61,"name":"london","steam_id":76561198269668934,"connected_time":560000000000,"state":"active","ping":55},{"user_id":66,"name":"TractorKid45","steam_id":76561198087472085,"connected_time":401000000000,"state":"active","ping":112},{"user_id":46,"name":"DistantJragon","steam_id":76561198117563641,"connected_time":1364000000000,"state":"active","ping":70},{"user_id":47,"name":"Dr. Fritz Ludwig","steam_id":76561198355949229,"connected_time":1282000000000,"state":"active","ping":65},{"user_id":67,"name":"JTCR","steam_id":76561198128156322,"connected_time":391000000000,"state":"active","ping":49},{"user_id":68,"name":"FishNachoz","steam_id":76561198026519426,"connected_time":353000000000,"state":"active","ping":120},{"user_id":41,"name":"crashymicsplody","steam_id":76561198213916765,"connected_time":1827000000000,"state":"active","ping":79}]},{"server_id":16,"name":"Uncletopia | New York City | 4 | Community","name_short":"nyc-4","host":"nyc-1.us.uncletopia.com","port":27045,"enabled":true,"region":"us-east","cc":"us","latitude":40.73061,"longitude":-73.93524,"reserved":0,"last_update":"0001-01-01T00:00:00Z","name_a2s":"Uncletopia | New York City | 4 | Community","protocol":17,"map":"workshop/koth_ramjam_rc1.ugc459778887","folder":"tf","game":"Team Fortress","app_id":440,"player_count":0,"max_players":24,"Bots":0,"server_type":"Dedicated","server_os":"Linux","password":true,"vac":true,"version":"7932396","steam_id":85568392924742821,"keywords":["cp","nocrits","nodmgspread","uncletopia"],"game_id":440,"stv_port":27046,"stv_name":"Uncletopia | New York City | 4 | Community | STV","players":null},{"server_id":142,"name":"Uncletopia | S√£o Paulo | 1 | All Maps","name_short":"sao-1","host":"sao-1.br.uncletopia.com","port":27015,"enabled":true,"region":"sa","cc":"br","latitude":-23.533773,"longitude":-46.62529,"reserved":0,"last_update":"0001-01-01T00:00:00Z","name_a2s":"Uncletopia | S√£o Paulo | 1 | All Maps","protocol":17,"map":"koth_highpass","folder":"tf","game":"Team Fortress","app_id":440,"player_count":0,"max_players":24,"Bots":0,"server_type":"Dedicated","server_os":"Linux","password":true,"vac":true,"version":"7932396","steam_id":85568392924469996,"keywords":["cp","nocrits","nodmgspread","uncletopia"],"game_id":440,"stv_port":27016,"stv_name":"Uncletopia | S√£o Paulo | 1 | All Maps | STV","players":null},{"server_id":143,"name":"Uncletopia | S√£o Paulo | 2 | All Maps","name_short":"sao-2","host":"sao-2.br.uncletopia.com","port":27015,"enabled":true,"region":"sa","cc":"br","latitude":-23.533773,"longitude":-46.62529,"reserved":0,"last_update":"0001-01-01T00:00:00Z","name_a2s":"Uncletopia | S√£o Paulo | 2 | All Maps","protocol":17,"map":"koth_cascade","folder":"tf","game":"Team Fortress","app_id":440,"player_count":0,"max_players":24,"Bots":0,"server_type":"Dedicated","server_os":"Linux","password":true,"vac":true,"version":"7932396","steam_id":85568392924485349,"keywords":["cp","nocrits","nodmgspread","uncletopia"],"game_id":440,"stv_port":27016,"stv_name":"Uncletopia | S√£o Paulo | 2 | All Maps | STV","players":null},{"server_id":7,"name":"Uncletopia | Seattle | 1 | All Maps","name_short":"sea-1","host":"sea-1.us.uncletopia.com","port":27015,"enabled":true,"region":"us-west","cc":"us","latitude":47.608013,"longitude":-122.33517,"reserved":0,"last_update":"0001-01-01T00:00:00Z","name_a2s":"Uncletopia | Seattle | 1 | All Maps","protocol":17,"map":"cp_powerhouse","folder":"tf","game":"Team Fortress","app_id":440,"player_count":24,"max_players":24,"Bots":0,"server_type":"Dedicated","server_os":"Linux","password":true,"vac":true,"version":"7932396","steam_id":85568392924469997,"keywords":["cp","nocrits","nodmgspread","uncletopia"],"game_id":440,"stv_port":27016,"stv_name":"Uncletopia | Seattle | 1 | All Maps | STV","players":[{"user_id":437,"name":"abaddon_amogTTV #savetf2","steam_id":76561198268581959,"connected_time":1868000000000,"state":"active","ping":65},{"user_id":420,"name":"Ymiir","steam_id":76561198118284271,"connected_time":3517000000000,"state":"active","ping":84},{"user_id":340,"name":"Huell Howser","steam_id":76561198035658537,"connected_time":10134000000000,"state":"active","ping":39},{"user_id":441,"name":"Infuzion4","steam_id":76561198119664203,"connected_time":1451000000000,"state":"active","ping":97},{"user_id":455,"name":"forest (minecraft npc)","steam_id":76561198157960257,"connected_time":495000000000,"state":"active","ping":44},{"user_id":451,"name":"Junimo","steam_id":76561198984855994,"connected_time":886000000000,"state":"active","ping":74},{"user_id":454,"name":"¬∞Creamy Gilligan","steam_id":76561198001569384,"connected_time":732000000000,"state":"active","ping":125},{"user_id":389,"name":"gloobern","steam_id":76561198341190679,"connected_time":6557000000000,"state":"active","ping":60},{"user_id":402,"name":"Lord Hater","steam_id":76561199158148782,"connected_time":5228000000000,"state":"active","ping":55},{"user_id":440,"name":"louie, (winni)peggin'","steam_id":76561198168084763,"connected_time":1602000000000,"state":"active","ping":44},{"user_id":448,"name":"Keamy","steam_id":76561199471434875,"connected_time":937000000000,"state":"active","ping":42},{"user_id":388,"name":"VerminKing","steam_id":76561198060887391,"connected_time":7119000000000,"state":"active","ping":60},{"user_id":447,"name":"Dimple #TF2Center","steam_id":76561198980324190,"connected_time":951000000000,"state":"active","ping":55},{"user_id":430,"name":"zinnk","steam_id":76561198092081825,"connected_time":2759000000000,"state":"active","ping":58},{"user_id":431,"name":"lili","steam_id":76561199391478575,"connected_time":2520000000000,"state":"active","ping":64},{"user_id":453,"name":"Dusken","steam_id":76561198357667080,"connected_time":856000000000,"state":"active","ping":78},{"user_id":442,"name":"Ceph","steam_id":76561199223559872,"connected_time":1172000000000,"state":"active","ping":48},{"user_id":439,"name":"Ayayayayayahuasca","steam_id":76561199002906056,"connected_time":1615000000000,"state":"active","ping":52},{"user_id":450,"name":"smaerdevahot","steam_id":76561198369075257,"connected_time":912000000000,"state":"active","ping":51},{"user_id":452,"name":"Loading...","steam_id":76561198075555396,"connected_time":880000000000,"state":"active","ping":54},{"user_id":410,"name":"goldhed","steam_id":76561198051751133,"connected_time":3774000000000,"state":"active","ping":59},{"user_id":419,"name":"SibilantSerpent","steam_id":76561198154488754,"connected_time":3526000000000,"state":"active","ping":57},{"user_id":445,"name":"toilet thief","steam_id":76561198057486874,"connected_time":1002000000000,"state":"active","ping":75},{"user_id":435,"name":"mini vegas stan","steam_id":76561198126029630,"connected_time":1938000000000,"state":"active","ping":128}]},{"server_id":119,"name":"Uncletopia | Seattle | 2 | All Maps","name_short":"sea-2","host":"sea-1.us.uncletopia.com","port":27025,"enabled":true,"region":"us-west","cc":"us","latitude":47.608013,"longitude":-122.33517,"reserved":0,"last_update":"0001-01-01T00:00:00Z","name_a2s":"Uncletopia | Seattle | 2 | All Maps","protocol":17,"map":"pl_snowycoast","folder":"tf","game":"Team Fortress","app_id":440,"player_count":22,"max_players":24,"Bots":0,"server_type":"Dedicated","server_os":"Linux","password":true,"vac":true,"version":"7932396","steam_id":85568392924469998,"keywords":["nocrits","nodmgspread","payload","uncletopia"],"game_id":440,"stv_port":27026,"stv_name":"Uncletopia | Seattle | 2 | All Maps | STV","players":[{"user_id":266,"name":"Arizona Killer","steam_id":76561198110345484,"connected_time":389000000000,"state":"active","ping":60},{"user_id":273,"name":"IntermitentArachnid","steam_id":76561198218018404,"connected_time":40000000000,"state":"active","ping":52},{"user_id":242,"name":"Bendidy","steam_id":76561198041964300,"connected_time":905000000000,"state":"active","ping":67},{"user_id":240,"name":"Arctic","steam_id":76561199134893517,"connected_time":981000000000,"state":"active","ping":136},{"user_id":274,"name":"CashGordon","steam_id":76561197975594096,"connected_time":29000000000,"state":"active","ping":38},{"user_id":268,"name":"Nottawink","steam_id":76561198071248705,"connected_time":116000000000,"state":"active","ping":93},{"user_id":127,"name":"PJROCK101","steam_id":76561198070616561,"connected_time":10133000000000,"state":"active","ping":71},{"user_id":246,"name":"A UsedNom","steam_id":76561198402832756,"connected_time":844000000000,"state":"active","ping":67},{"user_id":244,"name":"i forgor","steam_id":76561199120622265,"connected_time":894000000000,"state":"active","ping":107},{"user_id":250,"name":"Camohno","steam_id":76561198283519918,"connected_time":756000000000,"state":"active","ping":75},{"user_id":251,"name":"xX_{FAZE-POPE-HENTAI}_Xx","steam_id":76561198072457602,"connected_time":730000000000,"state":"active","ping":65},{"user_id":234,"name":"V‚àÜlume The 1rd","steam_id":76561198133260990,"connected_time":1794000000000,"state":"active","ping":60},{"user_id":252,"name":"LACTAID","steam_id":76561198276585202,"connected_time":712000000000,"state":"active","ping":74},{"user_id":254,"name":"nzippy","steam_id":76561199048618678,"connected_time":691000000000,"state":"active","ping":86},{"user_id":255,"name":"Lucerne‚òÖFlower","steam_id":76561198264105406,"connected_time":668000000000,"state":"active","ping":131},{"user_id":257,"name":"too many fives","steam_id":76561198128465482,"connected_time":607000000000,"state":"active","ping":81},{"user_id":258,"name":"volta","steam_id":76561199214283884,"connected_time":593000000000,"state":"active","ping":145},{"user_id":259,"name":"Dejected Jester","steam_id":76561197972171675,"connected_time":588000000000,"state":"active","ping":72},{"user_id":265,"name":"Jonatello","steam_id":76561198045699189,"connected_time":455000000000,"state":"active","ping":88},{"user_id":263,"name":"Five","steam_id":76561198026640473,"connected_time":534000000000,"state":"active","ping":59},{"user_id":264,"name":"G2 DamDam","steam_id":76561198173095997,"connected_time":529000000000,"state":"active","ping":116},{"user_id":271,"name":"It's a Doggydog World","steam_id":76561198018232414,"connected_time":109000000000,"state":"active","ping":85}]},{"server_id":406,"name":"Uncletopia | Seattle | 3 | Stopwatch Beta","name_short":"sea-3","host":"sea-1.us.uncletopia.com","port":27035,"enabled":true,"region":"us-west","cc":"us","latitude":47.608013,"longitude":-122.33517,"reserved":0,"last_update":"0001-01-01T00:00:00Z","name_a2s":"Uncletopia | Seattle | 3 | Stopwatch Beta","protocol":17,"map":"workshop/koth_bagel_rc6.ugc2514036946","folder":"tf","game":"Team Fortress","app_id":440,"player_count":0,"max_players":24,"Bots":0,"server_type":"Dedicated","server_os":"Linux","password":true,"vac":true,"version":"7932396","steam_id":85568392924515217,"keywords":["cp","nocrits","nodmgspread","uncletopia"],"game_id":440,"stv_port":27036,"stv_name":"Uncletopia | Seattle | 3 | Stopwatch Beta | STV","players":null},{"server_id":17,"name":"Uncletopia | San Francisco | 1 | All Maps","name_short":"sfo-1","host":"sfo-1.us.uncletopia.com","port":27015,"enabled":true,"region":"us-west","cc":"us","latitude":37.77397,"longitude":-122.4313,"reserved":0,"last_update":"0001-01-01T00:00:00Z","name_a2s":"Uncletopia | San Francisco | 1 | All Maps","protocol":17,"map":"pl_pier","folder":"tf","game":"Team Fortress","app_id":440,"player_count":24,"max_players":24,"Bots":0,"server_type":"Dedicated","server_os":"Linux","password":true,"vac":true,"version":"7932396","steam_id":85568392924469999,"keywords":["nocrits","nodmgspread","payload","uncletopia"],"game_id":440,"stv_port":27016,"stv_name":"Uncletopia | San Francisco | 1 | All Maps | STV","players":[{"user_id":210,"name":"Tokiw","steam_id":76561197996334383,"connected_time":646000000000,"state":"active","ping":61},{"user_id":212,"name":"bob from vegetable","steam_id":76561199089515791,"connected_time":611000000000,"state":"active","ping":59},{"user_id":217,"name":"PaidProgramming","steam_id":76561198329193255,"connected_time":103000000000,"state":"active","ping":106},{"user_id":184,"name":"Psych03","steam_id":76561198061753667,"connected_time":1875000000000,"state":"active","ping":54},{"user_id":202,"name":"Zeeze","steam_id":76561197998153057,"connected_time":1251000000000,"state":"active","ping":90},{"user_id":186,"name":"rad killl raccoon","steam_id":76561198980975595,"connected_time":1779000000000,"state":"active","ping":83},{"user_id":127,"name":"Grassman (Cc)","steam_id":76561198026488532,"connected_time":5505000000000,"state":"active","ping":47},{"user_id":198,"name":"Steve Jobs' cousin Hand Jobs","steam_id":76561198282766831,"connected_time":1384000000000,"state":"active","ping":101},{"user_id":206,"name":"Local","steam_id":76561198069537437,"connected_time":1017000000000,"state":"active","ping":61},{"user_id":219,"name":"Rowmaster","steam_id":76561198271659574,"connected_time":62000000000,"state":"active","ping":77},{"user_id":182,"name":"SgtHotLead","steam_id":76561197995477998,"connected_time":1938000000000,"state":"active","ping":108},{"user_id":192,"name":"lolgamer247","steam_id":76561198974645534,"connected_time":1638000000000,"state":"active","ping":89},{"user_id":155,"name":"shelf","steam_id":76561198260021696,"connected_time":3861000000000,"state":"active","ping":66},{"user_id":153,"name":"elephant thumb","steam_id":76561198118859752,"connected_time":4155000000000,"state":"active","ping":52},{"user_id":208,"name":"culture shock","steam_id":76561198212421513,"connected_time":860000000000,"state":"active","ping":62},{"user_id":187,"name":"duckinss","steam_id":76561199151936460,"connected_time":1775000000000,"state":"active","ping":71},{"user_id":188,"name":"Deep Sea Diver","steam_id":76561198336807745,"connected_time":1773000000000,"state":"active","ping":56},{"user_id":203,"name":"delight","steam_id":76561197980280272,"connected_time":1182000000000,"state":"active","ping":64},{"user_id":215,"name":"lasky","steam_id":76561198017030029,"connected_time":181000000000,"state":"active","ping":60},{"user_id":125,"name":"ShredMaan","steam_id":76561198429982138,"connected_time":6047000000000,"state":"active","ping":68},{"user_id":191,"name":"ImmuneToPeas","steam_id":76561198342411594,"connected_time":1686000000000,"state":"active","ping":66},{"user_id":207,"name":"Tiparium","steam_id":76561198060021230,"connected_time":881000000000,"state":"active","ping":46},{"user_id":218,"name":"Allotrope","steam_id":76561197998450103,"connected_time":90000000000,"state":"active","ping":86},{"user_id":108,"name":"LittleFieryOne","steam_id":76561198107463724,"connected_time":7690000000000,"state":"active","ping":109}]},{"server_id":18,"name":"Uncletopia | San Francisco | 2 | All Maps","name_short":"sfo-2","host":"sfo-1.us.uncletopia.com","port":27025,"enabled":true,"region":"us-west","cc":"us","latitude":37.77397,"longitude":-122.4313,"reserved":0,"last_update":"0001-01-01T00:00:00Z","name_a2s":"Uncletopia | San Francisco | 2 | All Maps","protocol":17,"map":"cp_steel","folder":"tf","game":"Team Fortress","app_id":440,"player_count":24,"max_players":24,"Bots":0,"server_type":"Dedicated","server_os":"Linux","password":true,"vac":true,"version":"7932396","steam_id":85568392924470000,"keywords":["cp","nocrits","nodmgspread","uncletopia"],"game_id":440,"stv_port":27026,"stv_name":"Uncletopia | San Francisco | 2 | All Maps | STV","players":[{"user_id":15,"name":"a cat plushie","steam_id":76561198080046542,"connected_time":2772000000000,"state":"active","ping":61},{"user_id":56,"name":"-_-","steam_id":76561198048754646,"connected_time":850000000000,"state":"active","ping":54},{"user_id":48,"name":"curious inclinations","steam_id":76561198042913843,"connected_time":1285000000000,"state":"active","ping":75},{"user_id":19,"name":"Rem","steam_id":76561198809869555,"connected_time":2636000000000,"state":"active","ping":71},{"user_id":17,"name":"Mooshroom's Domain","steam_id":76561198877535531,"connected_time":2747000000000,"state":"active","ping":48},{"user_id":25,"name":"Googol","steam_id":76561198015967429,"connected_time":2148000000000,"state":"active","ping":50},{"user_id":59,"name":"honku honku","steam_id":76561198325760629,"connected_time":612000000000,"state":"active","ping":100},{"user_id":53,"name":"naturia","steam_id":76561198092317849,"connected_time":954000000000,"state":"active","ping":53},{"user_id":51,"name":"Caspian","steam_id":76561199041466962,"connected_time":1055000000000,"state":"active","ping":37},{"user_id":47,"name":"HanakoToast","steam_id":76561198045233131,"connected_time":1293000000000,"state":"active","ping":76},{"user_id":57,"name":"sams","steam_id":76561199093161260,"connected_time":747000000000,"state":"active","ping":56},{"user_id":29,"name":"Snipar","steam_id":76561198129725862,"connected_time":1579000000000,"state":"active","ping":113},{"user_id":38,"name":"MCman","steam_id":76561198412110305,"connected_time":1375000000000,"state":"active","ping":72},{"user_id":31,"name":"Rainy Devil","steam_id":76561198271886440,"connected_time":1547000000000,"state":"active","ping":141},{"user_id":49,"name":"arsenic","steam_id":76561198176391550,"connected_time":1194000000000,"state":"active","ping":93},{"user_id":33,"name":"Mr. Carfox","steam_id":76561198041664428,"connected_time":1507000000000,"state":"active","ping":45},{"user_id":35,"name":"Mint Widget","steam_id":76561198036875245,"connected_time":1467000000000,"state":"active","ping":80},{"user_id":36,"name":"Raphael","steam_id":76561198101425586,"connected_time":1464000000000,"state":"active","ping":75},{"user_id":55,"name":"Zion Chavez","steam_id":76561198178536999,"connected_time":914000000000,"state":"active","ping":61},{"user_id":40,"name":"FiddyFoMike","steam_id":76561198057072581,"connected_time":1364000000000,"state":"active","ping":48},{"user_id":58,"name":"speed","steam_id":76561198074489549,"connected_time":725000000000,"state":"active","ping":55},{"user_id":43,"name":"space mann","steam_id":76561198174447043,"connected_time":1343000000000,"state":"active","ping":105},{"user_id":44,"name":"CapKolea","steam_id":76561198194894413,"connected_time":1338000000000,"state":"active","ping":120},{"user_id":60,"name":"-œÄ- BakaD","steam_id":76561197960559169,"connected_time":504000000000,"state":"active","ping":102}]},{"server_id":19,"name":"Uncletopia | San Francisco | 3 | Stopwatch Beta","name_short":"sfo-3","host":"sfo-1.us.uncletopia.com","port":27035,"enabled":true,"region":"us-west","cc":"us","latitude":37.77397,"longitude":-122.4313,"reserved":0,"last_update":"0001-01-01T00:00:00Z","name_a2s":"Uncletopia | San Francisco | 3 | Stopwatch Beta","protocol":17,"map":"cp_dustbowl","folder":"tf","game":"Team Fortress","app_id":440,"player_count":0,"max_players":24,"Bots":0,"server_type":"Dedicated","server_os":"Linux","password":true,"vac":true,"version":"7932396","steam_id":85568392924742824,"keywords":["cp","nocrits","nodmgspread","uncletopia"],"game_id":440,"stv_port":27036,"stv_name":"Uncletopia | San Francisco | 3 | Stopwatch Beta | STV","players":null},{"server_id":20,"name":"Uncletopia | San Francisco | 4 | Community","name_short":"sfo-4","host":"sfo-1.us.uncletopia.com","port":27045,"enabled":true,"region":"us-west","cc":"us","latitude":37.77397,"longitude":-122.4313,"reserved":0,"last_update":"0001-01-01T00:00:00Z","name_a2s":"Uncletopia | San Francisco | 4 | Community","protocol":17,"map":"workshop/koth_ashville_final.ugc2130459942","folder":"tf","game":"Team Fortress","app_id":440,"player_count":0,"max_players":24,"Bots":0,"server_type":"Dedicated","server_os":"Linux","password":true,"vac":true,"version":"7932396","steam_id":85568392924742826,"keywords":["cp","nocrits","nodmgspread","uncletopia"],"game_id":440,"stv_port":27046,"stv_name":"Uncletopia | San Francisco | 4 | Community | STV","players":null},{"server_id":141,"name":"Uncletopia | Sydney | 1 | All Maps","name_short":"syd-1","host":"syd-1.au.uncletopia.com","port":27015,"enabled":true,"region":"au","cc":"au","latitude":-33.865143,"longitude":151.2099,"reserved":0,"last_update":"0001-01-01T00:00:00Z","name_a2s":"Uncletopia | Sydney | 1 | All Maps","protocol":17,"map":"pl_upward","folder":"tf","game":"Team Fortress","app_id":440,"player_count":0,"max_players":24,"Bots":0,"server_type":"Dedicated","server_os":"Linux","password":true,"vac":true,"version":"7932396","steam_id":85568392924470001,"keywords":["nocrits","nodmgspread","payload","uncletopia"],"game_id":440,"stv_port":27016,"stv_name":"Uncletopia | Sydney | 1 | All Maps | STV","players":null},{"server_id":123,"name":"Uncletopia | Sydney | 2 | All Maps","name_short":"syd-2","host":"syd-1.au.uncletopia.com","port":27025,"enabled":true,"region":"au","cc":"au","latitude":-33.865143,"longitude":151.2099,"reserved":0,"last_update":"0001-01-01T00:00:00Z","name_a2s":"Uncletopia | Sydney | 2 | All Maps","protocol":17,"map":"cp_dustbowl","folder":"tf","game":"Team Fortress","app_id":440,"player_count":0,"max_players":24,"Bots":0,"server_type":"Dedicated","server_os":"Linux","password":true,"vac":true,"version":"7932396","steam_id":85568392924470002,"keywords":["cp","nocrits","nodmgspread","uncletopia"],"game_id":440,"stv_port":27026,"stv_name":"Uncletopia | Sydney | 2 | All Maps | STV","players":null},{"server_id":395,"name":"Uncletopia | Sydney | 3 | All Maps","name_short":"syd-3","host":"syd-1.au.uncletopia.com","port":27035,"enabled":true,"region":"au","cc":"au","latitude":-33.865143,"longitude":151.2099,"reserved":0,"last_update":"0001-01-01T00:00:00Z","name_a2s":"Uncletopia | Sydney | 3 | All Maps","protocol":17,"map":"cp_mountainlab","folder":"tf","game":"Team Fortress","app_id":440,"player_count":0,"max_players":24,"Bots":0,"server_type":"Dedicated","server_os":"Linux","password":true,"vac":true,"version":"7932396","steam_id":85568392925194467,"keywords":["cp","nocrits","nodmgspread","uncletopia"],"game_id":440,"stv_port":27036,"stv_name":"Uncletopia | Sydney | 3 | All Maps | STV","players":null},{"server_id":396,"name":"Uncletopia | Sydney | 4 | All Maps","name_short":"syd-4","host":"syd-1.au.uncletopia.com","port":27045,"enabled":true,"region":"au","cc":"au","latitude":-33.865143,"longitude":151.2099,"reserved":0,"last_update":"0001-01-01T00:00:00Z","name_a2s":"Uncletopia | Sydney | 4 | All Maps","protocol":17,"map":"koth_viaduct","folder":"tf","game":"Team Fortress","app_id":440,"player_count":0,"max_players":24,"Bots":0,"server_type":"Dedicated","server_os":"Linux","password":true,"vac":true,"version":"7932396","steam_id":85568392925397958,"keywords":["cp","nocrits","nodmgspread","uncletopia"],"game_id":440,"stv_port":27046,"stv_name":"Uncletopia | Sydney | 4 | All Maps | STV","players":null},{"server_id":58,"name":"Uncletopia | Sydney | 5 | Stopwatch Beta","name_short":"syd-5","host":"syd-1.au.uncletopia.com","port":27055,"enabled":true,"region":"au","cc":"au","latitude":-33.865143,"longitude":151.2099,"reserved":0,"last_update":"0001-01-01T00:00:00Z","name_a2s":"Uncletopia | Sydney | 5 | Stopwatch Beta","protocol":17,"map":"workshop/pl_vigil_rc9.ugc1266210012","folder":"tf","game":"Team Fortress","app_id":440,"player_count":0,"max_players":24,"Bots":0,"server_type":"Dedicated","server_os":"Linux","password":true,"vac":true,"version":"7932396","steam_id":85568392925397959,"keywords":["nocrits","nodmgspread","payload","uncletopia"],"game_id":440,"stv_port":27056,"stv_name":"Uncletopia | Sydney | 5 | Stopwatch Beta | STV","players":null},{"server_id":59,"name":"Uncletopia | Sydney | 6 | Community","name_short":"syd-6","host":"syd-1.au.uncletopia.com","port":27065,"enabled":true,"region":"au","cc":"au","latitude":-33.865143,"longitude":151.2099,"reserved":0,"last_update":"0001-01-01T00:00:00Z","name_a2s":"Uncletopia | Sydney | 6 | Community","protocol":17,"map":"cp_altitude","folder":"tf","game":"Team Fortress","app_id":440,"player_count":0,"max_players":24,"Bots":0,"server_type":"Dedicated","server_os":"Linux","password":true,"vac":true,"version":"7932396","steam_id":85568392925397960,"keywords":["cp","nocrits","nodmgspread","uncletopia"],"game_id":440,"stv_port":27066,"stv_name":"Uncletopia | Sydney | 6 | Community | STV","players":null},{"server_id":49,"name":"Uncletopia | Warsaw | 1 | All Maps","name_short":"waw-1","host":"waw-1.pl.uncletopia.com","port":27015,"enabled":true,"region":"eu","cc":"pl","latitude":52.2297,"longitude":21.017532,"reserved":0,"last_update":"0001-01-01T00:00:00Z","name_a2s":"","protocol":0,"map":"","folder":"","game":"","app_id":0,"player_count":0,"max_players":0,"Bots":0,"server_type":"","server_os":"","password":false,"vac":false,"version":"","steam_id":0,"keywords":null,"game_id":0,"stv_port":0,"stv_name":"","players":null},{"server_id":50,"name":"Uncletopia | Warsaw | 2 | All Maps","name_short":"waw-2","host":"waw-1.pl.uncletopia.com","port":27025,"enabled":true,"region":"eu","cc":"pl","latitude":52.2297,"longitude":21.017532,"reserved":0,"last_update":"0001-01-01T00:00:00Z","name_a2s":"Uncletopia | Warsaw | 2 | All Maps","protocol":17,"map":"pl_frontier_final","folder":"tf","game":"Team Fortress","app_id":440,"player_count":0,"max_players":24,"Bots":0,"server_type":"Dedicated","server_os":"Linux","password":true,"vac":true,"version":"7932396","steam_id":85568392925397851,"keywords":["nocrits","nodmgspread","payload","uncletopia"],"game_id":440,"stv_port":27026,"stv_name":"Uncletopia | Warsaw | 2 | All Maps | STV","players":null},{"server_id":51,"name":"Uncletopia | Warsaw | 3 | All Maps","name_short":"waw-3","host":"waw-1.pl.uncletopia.com","port":27035,"enabled":true,"region":"eu","cc":"pl","latitude":52.2297,"longitude":21.017532,"reserved":0,"last_update":"0001-01-01T00:00:00Z","name_a2s":"Uncletopia | Warsaw | 3 | All Maps","protocol":17,"map":"koth_lakeside_final","folder":"tf","game":"Team Fortress","app_id":440,"player_count":0,"max_players":24,"Bots":0,"server_type":"Dedicated","server_os":"Linux","password":true,"vac":true,"version":"7932396","steam_id":85568392925397852,"keywords":["cp","nocrits","nodmgspread","uncletopia"],"game_id":440,"stv_port":27036,"stv_name":"Uncletopia | Warsaw | 3 | All Maps | STV","players":null},{"server_id":52,"name":"Uncletopia | Warsaw | 4 | All Maps","name_short":"waw-4","host":"waw-1.pl.uncletopia.com","port":27045,"enabled":true,"region":"eu","cc":"pl","latitude":52.2297,"longitude":21.017532,"reserved":0,"last_update":"0001-01-01T00:00:00Z","name_a2s":"Uncletopia | Warsaw | 4 | All Maps","protocol":17,"map":"koth_lakeside_final","folder":"tf","game":"Team Fortress","app_id":440,"player_count":0,"max_players":24,"Bots":0,"server_type":"Dedicated","server_os":"Linux","password":true,"vac":true,"version":"7932396","steam_id":85568392925397853,"keywords":["cp","nocrits","nodmgspread","uncletopia"],"game_id":440,"stv_port":27046,"stv_name":"Uncletopia | Warsaw | 4 | All Maps | STV","players":null},{"server_id":53,"name":"Uncletopia | Warsaw | 5 | Stopwatch Beta","name_short":"waw-5","host":"waw-1.pl.uncletopia.com","port":27055,"enabled":true,"region":"eu","cc":"pl","latitude":52.2297,"longitude":21.017532,"reserved":0,"last_update":"0001-01-01T00:00:00Z","name_a2s":"Uncletopia | Warsaw | 5 | Stopwatch Beta","protocol":17,"map":"koth_cascade","folder":"tf","game":"Team Fortress","app_id":440,"player_count":0,"max_players":24,"Bots":0,"server_type":"Dedicated","server_os":"Linux","password":true,"vac":true,"version":"7932396","steam_id":85568392925397854,"keywords":["cp","nocrits","nodmgspread","uncletopia"],"game_id":440,"stv_port":27056,"stv_name":"Uncletopia | Warsaw | 5 | Stopwatch Beta | STV","players":null},{"server_id":54,"name":"Uncletopia | Warsaw | 6 | Community","name_short":"waw-6","host":"waw-1.pl.uncletopia.com","port":27065,"enabled":true,"region":"eu","cc":"pl","latitude":52.2297,"longitude":21.017532,"reserved":0,"last_update":"0001-01-01T00:00:00Z","name_a2s":"Uncletopia | Warsaw | 6 | Community","protocol":17,"map":"workshop/cp_propaganda_b18.ugc1603743849","folder":"tf","game":"Team Fortress","app_id":440,"player_count":0,"max_players":24,"Bots":0,"server_type":"Dedicated","server_os":"Linux","password":true,"vac":true,"version":"7932396","steam_id":85568392925397856,"keywords":["cp","nocrits","nodmgspread","uncletopia"],"game_id":440,"stv_port":27066,"stv_name":"Uncletopia | Warsaw | 6 | Community | STV","players":null}]}