{"status":true,"message":"","result":[{"server_id":9,"name":"Uncletopia | Atlanta | 1 | All Maps","name_short":"atl-1","host":"atl-1.us.uncletopia.com","port":27015,"enabled":true,"region":"us-east","cc":"us","latitude":33.753746,"longitude":-84.38633,"reserved":0,"last_update":"0001-01-01T00:00:00Z","name_a2s":"Uncletopia | Atlanta | 1 | All Maps","protocol":17,"map":"pl_upward","folder":"tf","game":"Team Fortress","app_id":440,"player_count":24,"max_players":24,"Bots":0,"server_type":"Dedicated","server_os":"Linux","password":true,"vac":true,"version":"7961495","steam_id":85568392924469982,"keywords":["nocrits","nodmgspread","payload","uncletopia"],"game_id":440,"stv_port":27016,"stv_name":"Uncletopia | Atlanta | 1 | All Maps | STV","players":[{"user_id":210,"name":"Sinta","steam_id":76561198098398841,"connected_time":2761000000000,"state":"active","ping":51},{"user_id":225,"name":"BIG HOG","steam_id":76561198079923652,"connected_time":1037000000000,"state":"active","ping":60},{"user_id":235,"name":"Mog","steam_id":76561198025575870,"connected_time":28000000000,"state":"active","ping":61},{"user_id":218,"name":"why","steam_id":76561199059732212,"connected_time":2054000000000,"state":"active","ping":57},{"user_id":234,"name":"Heathcliff","steam_id":76561198044288534,"connected_time":571000000000,"state":"active","ping":71},{"user_id":153,"name":"LazyDoll","steam_id":76561198053186338,"connected_time":7859000000000,"state":"active","ping":103},{"user_id":155,"name":"Juan","steam_id":76561198095212136,"connected_time":7853000000000,"state":"active","ping":60},{"user_id":214,"name":"yomommasabitch","steam_id":76561198323217150,"connected_time":2528000000000,"state":"active","ping":50},{"user_id":181,"name":"nefarious criminal","steam_id":76561198077506415,"connected_time":5419000000000,"state":"active","ping":56},{"user_id":193,"name":"HarryjusttHarry","steam_id":76561198982810452,"connected_time":4380000000000,"state":"active","ping":74},{"user_id":227,"name":"vv","steam_id":76561198134813102,"connected_time":733000000000,"state":"active","ping":75},{"user_id":228,"name":"Annoying M4N","steam_id":76561199021460632,"connected_time":712000000000,"state":"active","ping":92},{"user_id":232,"name":"Albino Jellyfish","steam_id":76561198208561097,"connected_time":608000000000,"state":"active","ping":57},{"user_id":233,"name":"Grandpa´s Last Drop of Cum","steam_id":76561198079516696,"connected_time":604000000000,"state":"active","ping":102},{"user_id":236,"name":"Waffle Wannabe","steam_id":76561198064510650,"connected_time":28000000000,"state":"active","ping":63},{"user_id":191,"name":"lil hog","steam_id":76561199230929836,"connected_time":4427000000000,"state":"active","ping":92},{"user_id":237,"name":"Pango","steam_id":76561198069811545,"connected_time":5000000000,"state":"spawning","ping":74},{"user_id":215,"name":"lynt","steam_id":76561198988333976,"connected_time":2527000000000,"state":"active","ping":36},{"user_id":200,"name":"lolfreyja","steam_id":76561198249206656,"connected_time":4125000000000,"state":"active","ping":82},{"user_id":222,"name":"Puck Norris","steam_id":76561198151256410,"connected_time":1050000000000,"state":"active","ping":115},{"user_id":231,"name":"IGOR","steam_id":76561199128786637,"connected_time":619000000000,"state":"active","ping":82},{"user_id":212,"name":"kite","steam_id":76561198346516392,"connected_time":2540000000000,"state":"active","ping":84},{"user_id":208,"name":"blind4545","steam_id":76561198983194317,"connected_time":2924000000000,"state":"active","ping":62},{"user_id":224,"name":"Boneless Blithen","steam_id":76561197989955619,"connected_time":1050000000000,"state":"active","ping":123}]},{"server_id":104,"name":"Uncletopia | Atlanta | 2 | All Maps","name_short":"atl-2","host":"atl-1.us.uncletopia.com","port":27025,"enabled":true,"region":"us-east","cc":"us","latitude":33.753746,"longitude":-84.38633,"reserved":0,"last_update":"0001-01-01T00:00:00Z","name_a2s":"Uncletopia | Atlanta | 2 | All Maps","protocol":17,"map":"koth_cascade","folder":"tf","game":"Team Fortress","app_id":440,"player_count":0,"max_players":24,"Bots":0,"server_type":"Dedicated","server_os":"Linux","password":true,"vac":true,"version":"7961495","steam_id":85568392924469983,"keywords":["cp","nocrits","nodmgspread","uncletopia"],"game_id":440,"stv_port":27026,"stv_name":"Uncletopia | Atlanta | 2 | All Maps | STV","players":null},{"server_id":400,"name":"Uncletopia | Atlanta | 3 | Stopwatch","name_short":"atl-3","host":"atl-1.us.uncletopia.com","port":27035,"enabled":true,"region":"us-east","cc":"us","latitude":33.753746,"longitude":-84.38633,"reserved":0,"last_update":"0001-01-01T00:00:00Z","name_a2s":"Uncletopia | Atlanta | 3 | Stopwatch","protocol":17,"map":"pl_badwater","folder":"tf","game":"Team Fortress","app_id":440,"player_count":0,"max_players":24,"Bots":0,"server_type":"Dedicated","server_os":"Linux","password":true,"vac":true,"version":"7961495","steam_id":85568392924515187,"keywords":["nocrits","nodmgspread","payload","uncletopia"],"game_id":440,"stv_port":27036,"stv_name":"Uncletopia | Atlanta | 3 | Stopwatch | STV","players":null},{"server_id":401,"name":"Uncletopia | Atlanta | 4 | Community","name_short":"atl-4","host":"atl-1.us.uncletopia.com","port":27045,"enabled":true,"region":"us-east","cc":"us","latitude":33.753746,"longitude":-84.38633,"reserved":0,"last_update":"0001-01-01T00:00:00Z","name_a2s":"Uncletopia | Atlanta | 4 | Community","protocol":17,"map":"workshop/cp_indulge.ugc528106646","folder":"tf","game":"Team Fortress","app_id":440,"player_count":0,"max_players":24,"Bots":0,"server_type":"Dedicated","server_os":"Linux","password":true,"vac":true,"version":"7961495","steam_id":85568392924515188,"keywords":["cp","nocrits","nodmgspread","uncletopia"],"game_id":440,"stv_port":27046,"stv_name":"Uncletopia | Atlanta | 4 | Community | STV","players":null},{"server_id":2,"name":"Uncletopia | Chicago | 1 | All Maps","name_short":"chi-1","host":"chi-1.us.uncletopia.com","port":27015,"enabled":true,"region":"us-central","cc":"us","latitude":41.881832,"longitude":-87.62318,"reserved":0,"last_update":"0001-01-01T00:00:00Z","name_a2s":"Uncletopia | Chicago | 1 | All Maps","protocol":17,"map":"koth_highpass","folder":"tf","game":"Team Fortress","app_id":440,"player_count":24,"max_players":24,"Bots":0,"server_type":"Dedicated","server_os":"Linux","password":true,"vac":true,"version":"7961495","steam_id":85568392924469984,"keywords":["cp","nocrits","nodmgspread","uncletopia"],"game_id":440,"stv_port":27016,"stv_name":"Uncletopia | Chicago | 1 | All Maps | STV","players":[{"user_id":34,"name":"Kieran","steam_id":76561198072788168,"connected_time":679000000000,"state":"active","ping":65},{"user_id":44,"name":"Grimm","steam_id":76561197987193828,"connected_time":473000000000,"state":"active","ping":55},{"user_id":14,"name":"dr martin luther bling","steam_id":76561198986534519,"connected_time":1061000000000,"state":"active","ping":89},{"user_id":47,"name":"average haunted mound fan","steam_id":76561198315692300,"connected_time":13000000000,"state":"spawning","ping":59},{"user_id":46,"name":"yoodle doodle","steam_id":76561198054897884,"connected_time":146000000000,"state":"active","ping":71},{"user_id":17,"name":"VinylHabooski","steam_id":76561198154472375,"connected_time":950000000000,"state":"active","ping":48},{"user_id":18,"name":"Penis Man Balls Funny","steam_id":76561198207718944,"connected_time":917000000000,"state":"active","ping":64},{"user_id":19,"name":"BleppingCats","steam_id":76561198304967274,"connected_time":907000000000,"state":"active","ping":84},{"user_id":20,"name":"eloressa","steam_id":76561198120330867,"connected_time":904000000000,"state":"active","ping":55},{"user_id":21,"name":"skoops","steam_id":76561198083276946,"connected_time":871000000000,"state":"active","ping":72},{"user_id":22,"name":"Iron Fox (Update-sized)","steam_id":76561198326520372,"connected_time":858000000000,"state":"active","ping":75},{"user_id":24,"name":"Eomy","steam_id":76561198297783627,"connected_time":821000000000,"state":"active","ping":83},{"user_id":25,"name":"Kira, The Merchant","steam_id":76561198255823904,"connected_time":796000000000,"state":"active","ping":79},{"user_id":38,"name":"ez$ airballer","steam_id":76561198165899125,"connected_time":664000000000,"state":"active","ping":69},{"user_id":27,"name":"bony","steam_id":76561198241893988,"connected_time":772000000000,"state":"active","ping":65},{"user_id":28,"name":"Bucket Hat Trick","steam_id":76561198381785132,"connected_time":771000000000,"state":"active","ping":88},{"user_id":29,"name":"leumas","steam_id":76561198240408540,"connected_time":765000000000,"state":"active","ping":58},{"user_id":30,"name":"[_Dr.Scythe_]","steam_id":76561198845245858,"connected_time":764000000000,"state":"active","ping":84},{"user_id":43,"name":"Applesauce","steam_id":76561198047011689,"connected_time":476000000000,"state":"active","ping":115},{"user_id":32,"name":"Fobby #Savetf2","steam_id":76561198047681469,"connected_time":746000000000,"state":"active","ping":83},{"user_id":41,"name":"Drachma","steam_id":76561198007310514,"connected_time":569000000000,"state":"active","ping":57},{"user_id":37,"name":"beats (16:38)","steam_id":76561199245717718,"connected_time":672000000000,"state":"active","ping":52},{"user_id":39,"name":"Boofenshmirtz","steam_id":76561198071649858,"connected_time":649000000000,"state":"active","ping":69},{"user_id":40,"name":"the keebler","steam_id":76561199486326945,"connected_time":634000000000,"state":"active","ping":77}]},{"server_id":106,"name":"Uncletopia | Chicago | 2 | All Maps","name_short":"chi-2","host":"chi-1.us.uncletopia.com","port":27025,"enabled":true,"region":"us-central","cc":"us","latitude":41.881832,"longitude":-87.62318,"reserved":0,"last_update":"0001-01-01T00:00:00Z","name_a2s":"Uncletopia | Chicago | 2 | All Maps","protocol":17,"map":"cp_mountainlab","folder":"tf","game":"Team Fortress","app_id":440,"player_count":4,"max_players":24,"Bots":0,"server_type":"Dedicated","server_os":"Linux","password":true,"vac":true,"version":"7961495","steam_id":85568392924469985,"keywords":["cp","nocrits","nodmgspread","uncletopia"],"game_id":440,"stv_port":27026,"stv_name":"Uncletopia | Chicago | 2 | All Maps | STV","players":[{"user_id":5,"name":"Jel1440","steam_id":76561198179045366,"connected_time":574000000000,"state":"active","ping":45},{"user_id":10,"name":"6 million bees","steam_id":76561198400438007,"connected_time":129000000000,"state":"active","ping":47},{"user_id":7,"name":"Hunt0rb","steam_id":76561198120527608,"connected_time":537000000000,"state":"active","ping":58},{"user_id":11,"name":"w + m2","steam_id":76561199438893811,"connected_time":81000000000,"state":"active","ping":77}]},{"server_id":402,"name":"Uncletopia | Chicago | 3 | All Maps","name_short":"chi-3","host":"chi-1.us.uncletopia.com","port":27035,"enabled":true,"region":"us-central","cc":"us","latitude":41.881832,"longitude":-87.62318,"reserved":0,"last_update":"0001-01-01T00:00:00Z","name_a2s":"Uncletopia | Chicago | 3 | All Maps","protocol":17,"map":"pl_thundermountain","folder":"tf","game":"Team Fortress","app_id":440,"player_count":24,"max_players":24,"Bots":0,"server_type":"Dedicated","server_os":"Linux","password":true,"vac":true,"version":"7961495","steam_id":85568392924515191,"keywords":["nocrits","nodmgspread","payload","uncletopia"],"game_id":440,"stv_port":27036,"stv_name":"Uncletopia | Chicago | 3 | All Maps | STV","players":[{"user_id":370,"name":"Strange Diplomat","steam_id":76561198428191920,"connected_time":1100000000000,"state":"active","ping":70},{"user_id":364,"name":"Blake...","steam_id":76561198064090974,"connected_time":1317000000000,"state":"active","ping":92},{"user_id":334,"name":"DualiTea","steam_id":76561198081733870,"connected_time":3736000000000,"state":"active","ping":54},{"user_id":372,"name":"Probably George","steam_id":76561198320099889,"connected_time":712000000000,"state":"active","ping":63},{"user_id":314,"name":"Rad0Dragon","steam_id":76561199351578880,"connected_time":6272000000000,"state":"active","ping":72},{"user_id":351,"name":"StinkyTofu Palpitating","steam_id":76561198125372241,"connected_time":2540000000000,"state":"active","ping":57},{"user_id":329,"name":"ThatGamingKiwi","steam_id":76561199170522237,"connected_time":4982000000000,"state":"active","ping":81},{"user_id":358,"name":"Kartyac","steam_id":76561197991069005,"connected_time":1594000000000,"state":"active","ping":76},{"user_id":348,"name":"bobbymcbobington","steam_id":76561199089411172,"connected_time":2747000000000,"state":"active","ping":119},{"user_id":327,"name":"Window Licker #pride","steam_id":76561198386717007,"connected_time":5576000000000,"state":"active","ping":52},{"user_id":301,"name":"4 My Hood","steam_id":76561197995620232,"connected_time":6608000000000,"state":"active","ping":60},{"user_id":373,"name":"swan","steam_id":76561198012569200,"connected_time":306000000000,"state":"active","ping":84},{"user_id":368,"name":"lcy13vv","steam_id":76561197995997446,"connected_time":1180000000000,"state":"active","ping":60},{"user_id":374,"name":"ther","steam_id":76561199191376935,"connected_time":52000000000,"state":"active","ping":87},{"user_id":369,"name":"Doom Cart","steam_id":76561198158543955,"connected_time":1111000000000,"state":"active","ping":56},{"user_id":365,"name":"THE FOOL","steam_id":76561198243965308,"connected_time":1289000000000,"state":"active","ping":93},{"user_id":367,"name":"medium p bands","steam_id":76561198202843510,"connected_time":1204000000000,"state":"active","ping":67},{"user_id":347,"name":"RangeDad","steam_id":76561198028186133,"connected_time":2759000000000,"state":"active","ping":84},{"user_id":356,"name":"Hobo Shanker","steam_id":76561198001785187,"connected_time":2211000000000,"state":"active","ping":93},{"user_id":363,"name":"a bellhop","steam_id":76561198046797995,"connected_time":1320000000000,"state":"active","ping":60},{"user_id":341,"name":"Sickduck Mcgee","steam_id":76561198028577159,"connected_time":3207000000000,"state":"active","ping":79},{"user_id":326,"name":"Filthy Acts at Reasonable Price","steam_id":76561198354615890,"connected_time":5878000000000,"state":"active","ping":112},{"user_id":350,"name":"Manna","steam_id":76561198172298563,"connected_time":2708000000000,"state":"active","ping":72},{"user_id":352,"name":"Stuff","steam_id":76561199229774519,"connected_time":2540000000000,"state":"active","ping":93}]},{"server_id":403,"name":"Uncletopia | Chicago | 4 | All Maps","name_short":"chi-4","host":"chi-1.us.uncletopia.com","port":27045,"enabled":true,"region":"us-central","cc":"us","latitude":41.881832,"longitude":-87.62318,"reserved":0,"last_update":"0001-01-01T00:00:00Z","name_a2s":"Uncletopia | Chicago | 4 | All Maps","protocol":17,"map":"koth_cascade","folder":"tf","game":"Team Fortress","app_id":440,"player_count":0,"max_players":24,"Bots":0,"server_type":"Dedicated","server_os":"Linux","password":true,"vac":true,"version":"7961495","steam_id":85568392924515193,"keywords":["cp","nocrits","nodmgspread","uncletopia"],"game_id":440,"stv_port":27046,"stv_name":"Uncletopia | Chicago | 4 | All Maps | STV","players":null},{"server_id":36,"name":"Uncletopia | Chicago | 5 | All Maps","name_short":"chi-5","host":"chi-2.us.uncletopia.com","port":27015,"enabled":true,"region":"us-central","cc":"us","latitude":41.881832,"longitude":-87.62318,"reserved":0,"last_update":"0001-01-01T00:00:00Z","name_a2s":"Uncletopia | Chicago | 5 | All Maps","protocol":17,"map":"koth_viaduct","folder":"tf","game":"Team Fortress","app_id":440,"player_count":0,"max_players":24,"Bots":0,"server_type":"Dedicated","server_os":"Linux","password":true,"vac":true,"version":"7961495","steam_id":85568392924866362,"keywords":["cp","nocrits","nodmgspread","uncletopia"],"game_id":440,"stv_port":27016,"stv_name":"Uncletopia | Chicago | 5 | All Maps | STV","players":null},{"server_id":37,"name":"Uncletopia | Chicago | 6 | All Maps","name_short":"chi-6","host":"chi-2.us.uncletopia.com","port":27025,"enabled":true,"region":"us-central","cc":"us","latitude":41.881832,"longitude":-87.62318,"reserved":0,"last_update":"0001-01-01T00:00:00Z","name_a2s":"Uncletopia | Chicago | 6 | All Maps","protocol":17,"map":"pl_badwater","folder":"tf","game":"Team Fortress","app_id":440,"player_count":0,"max_players":24,"Bots":0,"server_type":"Dedicated","server_os":"Linux","password":true,"vac":true,"version":"7961495","steam_id":85568392924866363,"keywords":["nocrits","nodmgspread","payload","uncletopia"],"game_id":440,"stv_port":27026,"stv_name":"Uncletopia | Chicago | 6 | All Maps | STV","players":null},{"server_id":38,"name":"Uncletopia | Chicago | 7 | Stopwatch","name_short":"chi-7","host":"chi-2.us.uncletopia.com","port":27035,"enabled":true,"region":"us-central","cc":"us","latitude":41.881832,"longitude":-87.62318,"reserved":0,"last_update":"0001-01-01T00:00:00Z","name_a2s":"Uncletopia | Chicago | 7 | Stopwatch","protocol":17,"map":"pl_badwater","folder":"tf","game":"Team Fortress","app_id":440,"player_count":0,"max_players":24,"Bots":0,"server_type":"Dedicated","server_os":"Linux","password":true,"vac":true,"version":"7961495","steam_id":85568392924866364,"keywords":["nocrits","nodmgspread","payload","uncletopia"],"game_id":440,"stv_port":27036,"stv_name":"Uncletopia | Chicago | 7 | Stopwatch | STV","players":null},{"server_id":39,"name":"Uncletopia | Chicago | 8 | Community","name_short":"chi-8","host":"chi-2.us.uncletopia.com","port":27045,"enabled":true,"region":"us-central","cc":"us","latitude":41.881832,"longitude":-87.62318,"reserved":0,"last_update":"0001-01-01T00:00:00Z","name_a2s":"Uncletopia | Chicago | 8 | Community","protocol":17,"map":"workshop/koth_synthetic_rc6a.ugc1549817316","folder":"tf","game":"Team Fortress","app_id":440,"player_count":0,"max_players":24,"Bots":0,"server_type":"Dedicated","server_os":"Linux","password":true,"vac":true,"version":"7961495","steam_id":85568392924866365,"keywords":["cp","nocrits","nodmgspread","uncletopia"],"game_id":440,"stv_port":27046,"stv_name":"Uncletopia | Chicago | 8 | Community | STV","players":null},{"server_id":8,"name":"Uncletopia | Dallas | 1 | All Maps","name_short":"dal-1","host":"dal-1.us.uncletopia.com","port":27015,"enabled":true,"region":"us-central","cc":"us","latitude":32.779167,"longitude":-96.80889,"reserved":0,"last_update":"0001-01-01T00:00:00Z","name_a2s":"Uncletopia | Dallas | 1 | All Maps","protocol":17,"map":"koth_viaduct","folder":"tf","game":"Team Fortress","app_id":440,"player_count":0,"max_players":24,"Bots":0,"server_type":"Dedicated","server_os":"Linux","password":true,"vac":true,"version":"7961495","steam_id":85568392924469986,"keywords":["cp","nocrits","nodmgspread","uncletopia"],"game_id":440,"stv_port":27016,"stv_name":"Uncletopia | Dallas | 1 | All Maps | STV","players":null},{"server_id":108,"name":"Uncletopia | Dallas | 2 | All Maps","name_short":"dal-2","host":"dal-1.us.uncletopia.com","port":27025,"enabled":true,"region":"us-central","cc":"us","latitude":32.779167,"longitude":-96.80889,"reserved":0,"last_update":"0001-01-01T00:00:00Z","name_a2s":"Uncletopia | Dallas | 2 | All Maps","protocol":17,"map":"cp_dustbowl","folder":"tf","game":"Team Fortress","app_id":440,"player_count":20,"max_players":24,"Bots":0,"server_type":"Dedicated","server_os":"Linux","password":true,"vac":true,"version":"7961495","steam_id":85568392924469988,"keywords":["cp","nocrits","nodmgspread","uncletopia"],"game_id":440,"stv_port":27026,"stv_name":"Uncletopia | Dallas | 2 | All Maps | STV","players":[{"user_id":110,"name":"HK G36","steam_id":76561199217503417,"connected_time":3760000000000,"state":"active","ping":116},{"user_id":155,"name":"Drakon","steam_id":76561198078210822,"connected_time":170000000000,"state":"active","ping":90},{"user_id":159,"name":"JobsDone2","steam_id":76561198159158870,"connected_time":82000000000,"state":"active","ping":79},{"user_id":143,"name":"the munch","steam_id":76561199164347838,"connected_time":1186000000000,"state":"active","ping":63},{"user_id":156,"name":"Zycron0","steam_id":76561199122983789,"connected_time":135000000000,"state":"active","ping":102},{"user_id":114,"name":"Aztea","steam_id":76561198982089893,"connected_time":3141000000000,"state":"active","ping":86},{"user_id":157,"name":"Don't Fuckle with Shuckle","steam_id":76561199020102367,"connected_time":134000000000,"state":"active","ping":96},{"user_id":158,"name":"Wingull Enjoyer","steam_id":76561199367211208,"connected_time":120000000000,"state":"active","ping":77},{"user_id":153,"name":"Noah","steam_id":76561198059048749,"connected_time":472000000000,"state":"active","ping":101},{"user_id":139,"name":"Bingo Bango Bongo","steam_id":76561198035421550,"connected_time":1260000000000,"state":"active","ping":84},{"user_id":154,"name":"incredirocks","steam_id":76561198061079993,"connected_time":281000000000,"state":"active","ping":71},{"user_id":97,"name":"Femboy Chad","steam_id":76561199338554815,"connected_time":4928000000000,"state":"active","ping":84},{"user_id":117,"name":"GothicRogue48","steam_id":76561199246864422,"connected_time":3082000000000,"state":"active","ping":87},{"user_id":137,"name":"AckWhack","steam_id":76561199060503258,"connected_time":1438000000000,"state":"active","ping":87},{"user_id":133,"name":"evil tiger","steam_id":76561198152818418,"connected_time":1743000000000,"state":"active","ping":58},{"user_id":147,"name":"A mild inconvenience","steam_id":76561198033455618,"connected_time":1106000000000,"state":"active","ping":60},{"user_id":151,"name":"RadicalToad","steam_id":76561198151116956,"connected_time":913000000000,"state":"active","ping":62},{"user_id":118,"name":"Cooki","steam_id":76561198051705314,"connected_time":3072000000000,"state":"active","ping":103},{"user_id":134,"name":"HyperOrange|#SaveTF2","steam_id":76561198068071327,"connected_time":1724000000000,"state":"active","ping":92},{"user_id":135,"name":"lebron bugleberry","steam_id":76561198060288611,"connected_time":1719000000000,"state":"active","ping":55}]},{"server_id":404,"name":"Uncletopia | Dallas | 3 | All Maps","name_short":"dal-3","host":"dal-1.us.uncletopia.com","port":27035,"enabled":true,"region":"us-central","cc":"us","latitude":32.779167,"longitude":-96.80889,"reserved":0,"last_update":"0001-01-01T00:00:00Z","name_a2s":"Uncletopia | Dallas | 3 | All Maps","protocol":17,"map":"pl_badwater","folder":"tf","game":"Team Fortress","app_id":440,"player_count":0,"max_players":24,"Bots":0,"server_type":"Dedicated","server_os":"Linux","password":true,"vac":true,"version":"7961495","steam_id":85568392924515219,"keywords":["nocrits","nodmgspread","payload","uncletopia"],"game_id":440,"stv_port":27036,"stv_name":"Uncletopia | Dallas | 3 | All Maps | STV","players":null},{"server_id":405,"name":"Uncletopia | Dallas | 4 | Community","name_short":"dal-4","host":"dal-1.us.uncletopia.com","port":27045,"enabled":true,"region":"us-central","cc":"us","latitude":32.779167,"longitude":-96.80889,"reserved":0,"last_update":"0001-01-01T00:00:00Z","name_a2s":"Uncletopia | Dallas | 4 | Community","protocol":17,"map":"pl_pier","folder":"tf","game":"Team Fortress","app_id":440,"player_count":0,"max_players":24,"Bots":0,"server_type":"Dedicated","server_os":"Linux","password":true,"vac":true,"version":"7961495","steam_id":85568392924515220,"keywords":["nocrits","nodmgspread","payload","uncletopia"],"game_id":440,"stv_port":27046,"stv_name":"Uncletopia | Dallas | 4 | Community | STV","players":null},{"server_id":5,"name":"Uncletopia | Frankfurt | 1 | All Maps","name_short":"frk-1","host":"frk-1.de.uncletopia.com","port":27015,"enabled":true,"region":"eu","cc":"de","latitude":50.110924,"longitude":8.682127,"reserved":0,"last_update":"0001-01-01T00:00:00Z","name_a2s":"Uncletopia | Frankfurt | 1 | All Maps","protocol":17,"map":"pl_barnblitz","folder":"tf","game":"Team Fortress","app_id":440,"player_count":23,"max_players":24,"Bots":0,"server_type":"Dedicated","server_os":"Linux","password":true,"vac":true,"version":"7961495","steam_id":85568392924469989,"keywords":["nocrits","nodmgspread","payload","uncletopia"],"game_id":440,"stv_port":27016,"stv_name":"Uncletopia | Frankfurt | 1 | All Maps | STV","players":[{"user_id":566,"name":"Vischan but worse","steam_id":76561199371650805,"connected_time":3696000000000,"state":"active","ping":89},{"user_id":581,"name":"salami","steam_id":76561198297812094,"connected_time":2209000000000,"state":"active","ping":96},{"user_id":589,"name":"Pudlich","steam_id":76561198300089671,"connected_time":1686000000000,"state":"active","ping":67},{"user_id":599,"name":"takumi fujara","steam_id":76561198078928120,"connected_time":45000000000,"state":"active","ping":69},{"user_id":593,"name":"dop","steam_id":76561199043447608,"connected_time":485000000000,"state":"active","ping":146},{"user_id":551,"name":"Para Bellum","steam_id":76561198375413446,"connected_time":4246000000000,"state":"active","ping":52},{"user_id":582,"name":"REYFONOX","steam_id":76561198164332758,"connected_time":2163000000000,"state":"active","ping":70},{"user_id":577,"name":"Miito","steam_id":76561198188000642,"connected_time":2484000000000,"state":"active","ping":62},{"user_id":564,"name":"Japive","steam_id":76561198046099739,"connected_time":3789000000000,"state":"active","ping":232},{"user_id":596,"name":"ULTRAGURKATTV","steam_id":76561198113657772,"connected_time":59000000000,"state":"active","ping":75},{"user_id":576,"name":"MoistMomMauler","steam_id":76561198069359049,"connected_time":2845000000000,"state":"active","ping":89},{"user_id":600,"name":"please do not the cat","steam_id":76561198089003514,"connected_time":44000000000,"state":"active","ping":46},{"user_id":597,"name":"Vagabundas","steam_id":76561198343529494,"connected_time":56000000000,"state":"active","ping":77},{"user_id":598,"name":"collat chris","steam_id":76561198076219289,"connected_time":56000000000,"state":"active","ping":51},{"user_id":545,"name":"TOP SKILL PRODUCTION","steam_id":76561198209882969,"connected_time":4704000000000,"state":"active","ping":69},{"user_id":498,"name":"else1","steam_id":76561197996558319,"connected_time":7625000000000,"state":"active","ping":76},{"user_id":590,"name":"bro.Scrub[MicBroke]","steam_id":76561197971095217,"connected_time":1685000000000,"state":"active","ping":89},{"user_id":591,"name":"Absolute_clamp","steam_id":76561198958563865,"connected_time":1677000000000,"state":"active","ping":46},{"user_id":549,"name":"Severeburrito16","steam_id":76561198353155991,"connected_time":4497000000000,"state":"active","ping":138},{"user_id":553,"name":"Profesor_Gabriel","steam_id":76561199095920354,"connected_time":4122000000000,"state":"active","ping":78},{"user_id":578,"name":"Conan the Librarian","steam_id":76561198007224654,"connected_time":2407000000000,"state":"active","ping":64},{"user_id":592,"name":"nero","steam_id":76561199104782664,"connected_time":1666000000000,"state":"spawning","ping":46},{"user_id":595,"name":"Kaisbald","steam_id":76561198151929487,"connected_time":395000000000,"state":"active","ping":106}]},{"server_id":110,"name":"Uncletopia | Frankfurt | 2 | All Maps","name_short":"frk-2","host":"frk-1.de.uncletopia.com","port":27025,"enabled":true,"region":"eu","cc":"de","latitude":50.110924,"longitude":8.682127,"reserved":0,"last_update":"0001-01-01T00:00:00Z","name_a2s":"Uncletopia | Frankfurt | 2 | All Maps","protocol":17,"map":"pl_pier","folder":"tf","game":"Team Fortress","app_id":440,"player_count":23,"max_players":24,"Bots":0,"server_type":"Dedicated","server_os":"Linux","password":true,"vac":true,"version":"7961495","steam_id":85568392924469990,"keywords":["nocrits","nodmgspread","payload","uncletopia"],"game_id":440,"stv_port":27026,"stv_name":"Uncletopia | Frankfurt | 2 | All Maps | STV","players":[{"user_id":360,"name":"VW Golf MK2 GTI","steam_id":76561199250808808,"connected_time":969000000000,"state":"active","ping":71},{"user_id":372,"name":"Brandutz","steam_id":76561199058501684,"connected_time":630000000000,"state":"active","ping":76},{"user_id":380,"name":"tensh1","steam_id":76561198282471866,"connected_time":50000000000,"state":"active","ping":107},{"user_id":376,"name":"Superiumentarius","steam_id":76561198081642249,"connected_time":514000000000,"state":"active","ping":52},{"user_id":331,"name":"invis","steam_id":76561198120668070,"connected_time":3328000000000,"state":"active","ping":58},{"user_id":381,"name":"KermitTheFuckingFrog","steam_id":76561198072102459,"connected_time":40000000000,"state":"active","ping":149},{"user_id":366,"name":"jaime","steam_id":76561197980590671,"connected_time":704000000000,"state":"active","ping":90},{"user_id":241,"name":"Gaxkang","steam_id":76561198125768571,"connected_time":9914000000000,"state":"active","ping":68},{"user_id":323,"name":"FistfulOfKittens","steam_id":76561198323611129,"connected_time":4137000000000,"state":"active","ping":72},{"user_id":352,"name":"guru{Hari}","steam_id":76561197997001681,"connected_time":1203000000000,"state":"active","ping":58},{"user_id":353,"name":"keleos82","steam_id":76561198123916013,"connected_time":1131000000000,"state":"active","ping":59},{"user_id":334,"name":"Seteesh","steam_id":76561199479420894,"connected_time":3297000000000,"state":"active","ping":155},{"user_id":370,"name":"shmax","steam_id":76561198889012709,"connected_time":654000000000,"state":"active","ping":83},{"user_id":335,"name":"Skelet","steam_id":76561198051685232,"connected_time":3218000000000,"state":"active","ping":56},{"user_id":340,"name":"tube sock","steam_id":76561198073576350,"connected_time":2272000000000,"state":"active","ping":69},{"user_id":327,"name":"ZENISHIRA","steam_id":76561198148357250,"connected_time":3987000000000,"state":"spawning","ping":63},{"user_id":355,"name":"armani","steam_id":76561198066367407,"connected_time":1096000000000,"state":"active","ping":73},{"user_id":367,"name":"puncake4you","steam_id":76561198366512937,"connected_time":695000000000,"state":"active","ping":59},{"user_id":377,"name":"ksg","steam_id":76561198042894236,"connected_time":151000000000,"state":"active","ping":60},{"user_id":342,"name":"golfmastr","steam_id":76561198993144124,"connected_time":2137000000000,"state":"active","ping":72},{"user_id":379,"name":"Danny Mullen Freed The Slaves","steam_id":76561198198803773,"connected_time":85000000000,"state":"active","ping":62},{"user_id":368,"name":"ana","steam_id":76561197994492154,"connected_time":688000000000,"state":"active","ping":60},{"user_id":362,"name":"Rocket Queen's consort","steam_id":76561198092995429,"connected_time":896000000000,"state":"active","ping":135}]},{"server_id":308,"name":"Uncletopia | Frankfurt | 3 | All Maps","name_short":"frk-3","host":"frk-1.de.uncletopia.com","port":27035,"enabled":true,"region":"eu","cc":"de","latitude":50.110924,"longitude":8.682127,"reserved":0,"last_update":"0001-01-01T00:00:00Z","name_a2s":"Uncletopia | Frankfurt | 3 | All Maps","protocol":17,"map":"pl_thundermountain","folder":"tf","game":"Team Fortress","app_id":440,"player_count":24,"max_players":24,"Bots":0,"server_type":"Dedicated","server_os":"Linux","password":true,"vac":true,"version":"7961495","steam_id":85568392924504274,"keywords":["nocrits","nodmgspread","payload","uncletopia"],"game_id":440,"stv_port":27036,"stv_name":"Uncletopia | Frankfurt | 3 | All Maps | STV","players":[{"user_id":509,"name":"Irrevalent Sieur","steam_id":76561199501327945,"connected_time":74000000000,"state":"active","ping":81},{"user_id":515,"name":"stopydapbip","steam_id":76561198332245230,"connected_time":13000000000,"state":"spawning","ping":89},{"user_id":496,"name":"Joe","steam_id":76561198061717026,"connected_time":866000000000,"state":"active","ping":53},{"user_id":503,"name":"Apollo","steam_id":76561198866054007,"connected_time":495000000000,"state":"active","ping":84},{"user_id":482,"name":"simon","steam_id":76561197960506122,"connected_time":1970000000000,"state":"active","ping":74},{"user_id":498,"name":"AllDrugsLegal","steam_id":76561198064115286,"connected_time":816000000000,"state":"active","ping":62},{"user_id":469,"name":"FurryHunter64","steam_id":76561198440923597,"connected_time":2509000000000,"state":"active","ping":89},{"user_id":495,"name":"hbivnm","steam_id":76561197996468677,"connected_time":915000000000,"state":"active","ping":60},{"user_id":511,"name":"-Vincredible Paniccia-","steam_id":76561198024952787,"connected_time":47000000000,"state":"active","ping":79},{"user_id":500,"name":"Bulgur","steam_id":76561198015064675,"connected_time":588000000000,"state":"active","ping":61},{"user_id":512,"name":"SynthBox3","steam_id":76561199094075745,"connected_time":45000000000,"state":"active","ping":90},{"user_id":504,"name":"An Idiot in space","steam_id":76561198011089239,"connected_time":374000000000,"state":"active","ping":64},{"user_id":470,"name":"Sandvich","steam_id":76561199079493666,"connected_time":2371000000000,"state":"active","ping":75},{"user_id":481,"name":"jonesy","steam_id":76561198075068529,"connected_time":1977000000000,"state":"active","ping":50},{"user_id":513,"name":"sp00ky","steam_id":76561199181412601,"connected_time":37000000000,"state":"active","ping":260},{"user_id":458,"name":"a man of great pleasure","steam_id":76561198241772340,"connected_time":2733000000000,"state":"active","ping":118},{"user_id":473,"name":"WrytXander","steam_id":76561198067856323,"connected_time":2165000000000,"state":"active","ping":84},{"user_id":507,"name":"Old Beavis","steam_id":76561198065951617,"connected_time":250000000000,"state":"active","ping":73},{"user_id":487,"name":"Dapper Pan Man","steam_id":76561197981874399,"connected_time":1608000000000,"state":"active","ping":87},{"user_id":446,"name":"Keroz1n","steam_id":76561197998681491,"connected_time":3259000000000,"state":"active","ping":60},{"user_id":510,"name":"☭ French Lym","steam_id":76561198954876624,"connected_time":70000000000,"state":"active","ping":64},{"user_id":514,"name":"bitkomet","steam_id":76561198058232147,"connected_time":22000000000,"state":"spawning","ping":65},{"user_id":484,"name":"essah","steam_id":76561197985717714,"connected_time":1966000000000,"state":"active","ping":75},{"user_id":490,"name":"Pipper","steam_id":76561197970326616,"connected_time":1555000000000,"state":"active","ping":64}]},{"server_id":309,"name":"Uncletopia | Frankfurt | 4 | All Maps","name_short":"frk-4","host":"frk-1.de.uncletopia.com","port":27045,"enabled":true,"region":"eu","cc":"de","latitude":50.110924,"longitude":8.682127,"reserved":0,"last_update":"0001-01-01T00:00:00Z","name_a2s":"Uncletopia | Frankfurt | 4 | All Maps","protocol":17,"map":"koth_harvest_final","folder":"tf","game":"Team Fortress","app_id":440,"player_count":23,"max_players":24,"Bots":0,"server_type":"Dedicated","server_os":"Linux","password":true,"vac":true,"version":"7961495","steam_id":85568392924504275,"keywords":["cp","nocrits","nodmgspread","uncletopia"],"game_id":440,"stv_port":27046,"stv_name":"Uncletopia | Frankfurt | 4 | All Maps | STV","players":[{"user_id":169,"name":"vetzakski","steam_id":76561198988041775,"connected_time":2117000000000,"state":"active","ping":76},{"user_id":200,"name":"Bobby(the real one)","steam_id":76561198413275515,"connected_time":91000000000,"state":"active","ping":85},{"user_id":128,"name":"Atua","steam_id":76561198349648942,"connected_time":5347000000000,"state":"active","ping":89},{"user_id":84,"name":"simeswipe","steam_id":76561198188471097,"connected_time":7616000000000,"state":"active","ping":71},{"user_id":76,"name":"Ephix","steam_id":76561197977164055,"connected_time":8162000000000,"state":"active","ping":44},{"user_id":166,"name":"Z.","steam_id":76561198838692532,"connected_time":2448000000000,"state":"active","ping":110},{"user_id":196,"name":"NitPig","steam_id":76561198212991935,"connected_time":513000000000,"state":"active","ping":105},{"user_id":195,"name":"capetanunito","steam_id":76561199364524852,"connected_time":538000000000,"state":"active","ping":108},{"user_id":177,"name":"gentoo stage 1 tarball","steam_id":76561199077022985,"connected_time":1850000000000,"state":"active","ping":55},{"user_id":142,"name":"CRITICAL_HIT!","steam_id":76561198349330393,"connected_time":3974000000000,"state":"active","ping":75},{"user_id":144,"name":"henoadam","steam_id":76561198151350377,"connected_time":3583000000000,"state":"active","ping":69},{"user_id":199,"name":"Qdarks","steam_id":76561198013391340,"connected_time":108000000000,"state":"active","ping":137},{"user_id":182,"name":"AwaDeMora","steam_id":76561198283945258,"connected_time":1327000000000,"state":"active","ping":95},{"user_id":189,"name":"Kart is Useless","steam_id":76561198950842095,"connected_time":726000000000,"state":"active","ping":44},{"user_id":198,"name":"0\u003e0","steam_id":76561198049741238,"connected_time":174000000000,"state":"active","ping":90},{"user_id":184,"name":"Fellebelle","steam_id":76561198239306488,"connected_time":1305000000000,"state":"active","ping":60},{"user_id":186,"name":"Maxin","steam_id":76561197999923364,"connected_time":986000000000,"state":"active","ping":63},{"user_id":194,"name":"Durin sein Vater","steam_id":76561198021246713,"connected_time":586000000000,"state":"active","ping":44},{"user_id":154,"name":"zazuza","steam_id":76561198049820905,"connected_time":3354000000000,"state":"active","ping":60},{"user_id":192,"name":"mike","steam_id":76561198271977336,"connected_time":670000000000,"state":"active","ping":85},{"user_id":193,"name":"The Empire Ant","steam_id":76561198082466790,"connected_time":659000000000,"state":"active","ping":59},{"user_id":156,"name":"Vonacht","steam_id":76561198016033944,"connected_time":2988000000000,"state":"active","ping":60},{"user_id":165,"name":"Ecin","steam_id":76561198816655769,"connected_time":2661000000000,"state":"active","ping":56}]},{"server_id":310,"name":"Uncletopia | Frankfurt | 5 | All Maps","name_short":"frk-5","host":"frk-1.de.uncletopia.com","port":27055,"enabled":true,"region":"eu","cc":"de","latitude":50.110924,"longitude":8.682127,"reserved":0,"last_update":"0001-01-01T00:00:00Z","name_a2s":"Uncletopia | Frankfurt | 5 | All Maps","protocol":17,"map":"pl_frontier_final","folder":"tf","game":"Team Fortress","app_id":440,"player_count":24,"max_players":24,"Bots":0,"server_type":"Dedicated","server_os":"Linux","password":true,"vac":true,"version":"7961495","steam_id":85568392924504277,"keywords":["nocrits","nodmgspread","payload","uncletopia"],"game_id":440,"stv_port":27056,"stv_name":"Uncletopia | Frankfurt | 5 | All Maps | STV","players":[{"user_id":379,"name":"bone lord","steam_id":76561198334042273,"connected_time":1790000000000,"state":"active","ping":67},{"user_id":403,"name":"Sakefake","steam_id":76561198029594679,"connected_time":986000000000,"state":"active","ping":45},{"user_id":404,"name":"Pharaoh | ez","steam_id":76561198974553024,"connected_time":933000000000,"state":"active","ping":105},{"user_id":397,"name":"Speedyjoestar","steam_id":76561198907130963,"connected_time":1176000000000,"state":"active","ping":62},{"user_id":407,"name":"Rakiru","steam_id":76561198334097259,"connected_time":887000000000,"state":"active","ping":85},{"user_id":357,"name":"Jimmy Poppadopolos","steam_id":76561198044825612,"connected_time":4181000000000,"state":"active","ping":60},{"user_id":387,"name":"sAmasam","steam_id":76561198114953928,"connected_time":1649000000000,"state":"active","ping":54},{"user_id":410,"name":"bady_3","steam_id":76561199030975778,"connected_time":536000000000,"state":"active","ping":161},{"user_id":388,"name":"d5","steam_id":76561199339997328,"connected_time":1588000000000,"state":"active","ping":169},{"user_id":360,"name":"Razef","steam_id":76561198030309484,"connected_time":3772000000000,"state":"active","ping":69},{"user_id":371,"name":"Mael-chan\u003c3","steam_id":76561197996852498,"connected_time":2766000000000,"state":"active","ping":45},{"user_id":329,"name":"Bruschetta","steam_id":76561198251927162,"connected_time":6692000000000,"state":"active","ping":62},{"user_id":405,"name":"Coincé entre deux nichons","steam_id":76561198000866783,"connected_time":925000000000,"state":"active","ping":47},{"user_id":406,"name":"Moth","steam_id":76561198845262365,"connected_time":922000000000,"state":"active","ping":103},{"user_id":399,"name":"Der Herr Doktor","steam_id":76561198119476089,"connected_time":1069000000000,"state":"active","ping":53},{"user_id":411,"name":"turdh","steam_id":76561198420188090,"connected_time":432000000000,"state":"active","ping":66},{"user_id":391,"name":"_3tHeR_","steam_id":76561199109870743,"connected_time":1533000000000,"state":"active","ping":55},{"user_id":409,"name":"JohnyDejw","steam_id":76561198057457922,"connected_time":849000000000,"state":"active","ping":79},{"user_id":412,"name":"skai","steam_id":76561198184881255,"connected_time":387000000000,"state":"active","ping":75},{"user_id":333,"name":"Shade","steam_id":76561198087923808,"connected_time":6651000000000,"state":"active","ping":63},{"user_id":413,"name":"Gamlader","steam_id":76561198306177608,"connected_time":319000000000,"state":"active","ping":90},{"user_id":385,"name":"Hex Reflect","steam_id":76561197972572841,"connected_time":1736000000000,"state":"active","ping":79},{"user_id":386,"name":"111","steam_id":76561199228000330,"connected_time":1721000000000,"state":"active","ping":63},{"user_id":402,"name":"Кашак","steam_id":76561198206102275,"connected_time":1023000000000,"state":"active","ping":84}]},{"server_id":311,"name":"Uncletopia | Frankfurt | 6 | All Maps","name_short":"frk-6","host":"frk-1.de.uncletopia.com","port":27065,"enabled":true,"region":"eu","cc":"de","latitude":50.110924,"longitude":8.682127,"reserved":0,"last_update":"0001-01-01T00:00:00Z","name_a2s":"Uncletopia | Frankfurt | 6 | All Maps","protocol":17,"map":"pl_borneo","folder":"tf","game":"Team Fortress","app_id":440,"player_count":23,"max_players":24,"Bots":0,"server_type":"Dedicated","server_os":"Linux","password":true,"vac":true,"version":"7961495","steam_id":85568392924504278,"keywords":["nocrits","nodmgspread","payload","uncletopia"],"game_id":440,"stv_port":27066,"stv_name":"Uncletopia | Frankfurt | 6 | All Maps | STV","players":[{"user_id":268,"name":"LeGerooo","steam_id":76561199110422160,"connected_time":1397000000000,"state":"active","ping":87},{"user_id":275,"name":"Nick","steam_id":76561198036109469,"connected_time":962000000000,"state":"active","ping":85},{"user_id":154,"name":"Wardruna96","steam_id":76561199057083828,"connected_time":10707000000000,"state":"active","ping":75},{"user_id":276,"name":"dochris.2","steam_id":76561198026478625,"connected_time":623000000000,"state":"active","ping":43},{"user_id":239,"name":"Optimist 50","steam_id":76561198039631442,"connected_time":4211000000000,"state":"active","ping":80},{"user_id":260,"name":"poliakov.noam","steam_id":76561199259322961,"connected_time":2164000000000,"state":"active","ping":108},{"user_id":280,"name":"Mr Acehole","steam_id":76561198123475157,"connected_time":231000000000,"state":"active","ping":72},{"user_id":266,"name":"interface","steam_id":76561198154677956,"connected_time":1845000000000,"state":"active","ping":69},{"user_id":157,"name":"Spajro","steam_id":76561198257383813,"connected_time":10294000000000,"state":"active","ping":43},{"user_id":251,"name":"Carlo","steam_id":76561198276491098,"connected_time":2896000000000,"state":"active","ping":56},{"user_id":264,"name":"Hexagon","steam_id":76561198151205758,"connected_time":1907000000000,"state":"active","ping":50},{"user_id":232,"name":"woop","steam_id":76561198985105074,"connected_time":4422000000000,"state":"active","ping":78},{"user_id":255,"name":"DrExplosive","steam_id":76561198063678579,"connected_time":2826000000000,"state":"active","ping":63},{"user_id":225,"name":"RemRem","steam_id":76561199005155029,"connected_time":4541000000000,"state":"active","ping":70},{"user_id":257,"name":"executive producer larry david","steam_id":76561198057868438,"connected_time":2497000000000,"state":"active","ping":59},{"user_id":274,"name":"Veirū Viseris","steam_id":76561197989857176,"connected_time":1220000000000,"state":"active","ping":72},{"user_id":261,"name":"Kraftlos","steam_id":76561198074350350,"connected_time":2150000000000,"state":"active","ping":148},{"user_id":210,"name":"wtabs","steam_id":76561198831766743,"connected_time":5623000000000,"state":"active","ping":74},{"user_id":279,"name":"Joo ♦","steam_id":76561197987609203,"connected_time":550000000000,"state":"active","ping":74},{"user_id":273,"name":"Oxygen","steam_id":76561198067064551,"connected_time":1287000000000,"state":"active","ping":78},{"user_id":240,"name":"LivEssense","steam_id":76561198052476979,"connected_time":4203000000000,"state":"active","ping":75},{"user_id":265,"name":"AlfonsoM","steam_id":76561198138832894,"connected_time":1904000000000,"state":"active","ping":105},{"user_id":267,"name":"sareena","steam_id":76561198810194062,"connected_time":1556000000000,"state":"active","ping":74}]},{"server_id":23,"name":"Uncletopia | Frankfurt | 7 | Stopwatch","name_short":"frk-7","host":"frk-1.de.uncletopia.com","port":27075,"enabled":true,"region":"eu","cc":"de","latitude":50.110924,"longitude":8.682127,"reserved":0,"last_update":"0001-01-01T00:00:00Z","name_a2s":"Uncletopia | Frankfurt | 7 | Stopwatch","protocol":17,"map":"pl_frontier_final","folder":"tf","game":"Team Fortress","app_id":440,"player_count":0,"max_players":24,"Bots":0,"server_type":"Dedicated","server_os":"Linux","password":true,"vac":true,"version":"7961495","steam_id":85568392924742827,"keywords":["nocrits","nodmgspread","payload","uncletopia"],"game_id":440,"stv_port":27076,"stv_name":"Uncletopia | Frankfurt | 7 | Stopwatch | STV","players":null},{"server_id":24,"name":"Uncletopia | Frankfurt | 8 | Community","name_short":"frk-8","host":"frk-1.de.uncletopia.com","port":27085,"enabled":true,"region":"eu","cc":"de","latitude":50.110924,"longitude":8.682127,"reserved":0,"last_update":"0001-01-01T00:00:00Z","name_a2s":"Uncletopia | Frankfurt | 8 | Community","protocol":17,"map":"workshop/koth_bagel_rc6.ugc2514036946","folder":"tf","game":"Team Fortress","app_id":440,"player_count":0,"max_players":24,"Bots":0,"server_type":"Dedicated","server_os":"Linux","password":true,"vac":true,"version":"7961495","steam_id":85568392924742828,"keywords":["cp","nocrits","nodmgspread","uncletopia"],"game_id":440,"stv_port":27086,"stv_name":"Uncletopia | Frankfurt | 8 | Community | STV","players":null},{"server_id":202,"name":"Uncletopia | Hong Kong | 1 | All Maps","name_short":"hgk-1","host":"hgk-1.hk.uncletopia.com","port":27015,"enabled":true,"region":"asia","cc":"hk","latitude":22.302711,"longitude":114.177216,"reserved":0,"last_update":"0001-01-01T00:00:00Z","name_a2s":"Uncletopia | Hong Kong | 1 | All Maps","protocol":17,"map":"pl_barnblitz","folder":"tf","game":"Team Fortress","app_id":440,"player_count":3,"max_players":24,"Bots":0,"server_type":"Dedicated","server_os":"Linux","password":true,"vac":true,"version":"7961495","steam_id":85568392924494504,"keywords":["nocrits","nodmgspread","payload","uncletopia"],"game_id":440,"stv_port":27016,"stv_name":"Uncletopia | Hong Kong | 1 | All Maps | STV","players":[{"user_id":460,"name":"PanDorA The Radioman","steam_id":76561198864942478,"connected_time":7898000000000,"state":"active","ping":105},{"user_id":477,"name":"Milf (The fan O'Milk)","steam_id":76561198213031155,"connected_time":5517000000000,"state":"active","ping":87},{"user_id":403,"name":"Juice","steam_id":76561199010058387,"connected_time":14124000000000,"state":"active","ping":62}]},{"server_id":1,"name":"Uncletopia | Los Angeles | 1 | All Maps","name_short":"lax-1","host":"lax-1.us.uncletopia.com","port":27015,"enabled":true,"region":"us-west","cc":"us","latitude":33.94279,"longitude":-118.41004,"reserved":0,"last_update":"0001-01-01T00:00:00Z","name_a2s":"Uncletopia | Los Angeles | 1 | All Maps","protocol":17,"map":"pl_pier","folder":"tf","game":"Team Fortress","app_id":440,"player_count":5,"max_players":24,"Bots":0,"server_type":"Dedicated","server_os":"Linux","password":true,"vac":true,"version":"7961495","steam_id":85568392924469991,"keywords":["nocrits","nodmgspread","payload","uncletopia"],"game_id":440,"stv_port":27016,"stv_name":"Uncletopia | Los Angeles | 1 | All Maps | STV","players":[{"user_id":17,"name":"Firedust19","steam_id":76561198153238631,"connected_time":1043000000000,"state":"active","ping":57},{"user_id":16,"name":"Saiko","steam_id":76561198982717237,"connected_time":1421000000000,"state":"active","ping":68},{"user_id":22,"name":"cajun thotsauce","steam_id":76561198101636066,"connected_time":73000000000,"state":"active","ping":43},{"user_id":20,"name":"miguelrodriguez2013","steam_id":76561198269253587,"connected_time":838000000000,"state":"active","ping":46},{"user_id":13,"name":"Petrivus","steam_id":76561198202152453,"connected_time":2864000000000,"state":"active","ping":70}]},{"server_id":112,"name":"Uncletopia | Los Angeles | 2 | All Maps","name_short":"lax-2","host":"lax-1.us.uncletopia.com","port":27025,"enabled":true,"region":"us-west","cc":"us","latitude":33.94279,"longitude":-118.41004,"reserved":0,"last_update":"0001-01-01T00:00:00Z","name_a2s":"Uncletopia | Los Angeles | 2 | All Maps","protocol":17,"map":"cp_mountainlab","folder":"tf","game":"Team Fortress","app_id":440,"player_count":0,"max_players":24,"Bots":0,"server_type":"Dedicated","server_os":"Linux","password":true,"vac":true,"version":"7961495","steam_id":85568392924469992,"keywords":["cp","nocrits","nodmgspread","uncletopia"],"game_id":440,"stv_port":27026,"stv_name":"Uncletopia | Los Angeles | 2 | All Maps | STV","players":null},{"server_id":324,"name":"Uncletopia | Los Angeles | 3 | All Maps","name_short":"lax-3","host":"lax-1.us.uncletopia.com","port":27035,"enabled":true,"region":"us-west","cc":"us","latitude":33.94279,"longitude":-118.41004,"reserved":0,"last_update":"0001-01-01T00:00:00Z","name_a2s":"Uncletopia | Los Angeles | 3 | All Maps","protocol":17,"map":"pl_frontier_final","folder":"tf","game":"Team Fortress","app_id":440,"player_count":0,"max_players":24,"Bots":0,"server_type":"Dedicated","server_os":"Linux","password":true,"vac":true,"version":"7961495","steam_id":85568392924510198,"keywords":["nocrits","nodmgspread","payload","uncletopia"],"game_id":440,"stv_port":27036,"stv_name":"Uncletopia | Los Angeles | 3 | All Maps | STV","players":null},{"server_id":25,"name":"Uncletopia | Los Angeles | 4 | Stopwatch","name_short":"lax-4","host":"lax-1.us.uncletopia.com","port":27045,"enabled":true,"region":"us-west","cc":"us","latitude":33.94279,"longitude":-118.41004,"reserved":0,"last_update":"0001-01-01T00:00:00Z","name_a2s":"Uncletopia | Los Angeles | 4 | Stopwatch","protocol":17,"map":"pl_barnblitz","folder":"tf","game":"Team Fortress","app_id":440,"player_count":0,"max_players":24,"Bots":0,"server_type":"Dedicated","server_os":"Linux","password":true,"vac":true,"version":"7961495","steam_id":85568392924510199,"keywords":["nocrits","nodmgspread","payload","uncletopia"],"game_id":440,"stv_port":27046,"stv_name":"Uncletopia | Los Angeles | 4 | Stopwatch | STV","players":null},{"server_id":11,"name":"Uncletopia | London | 1 | All Maps","name_short":"lon-1","host":"lon-1.uk.uncletopia.com","port":27015,"enabled":true,"region":"eu","cc":"gb","latitude":51.509865,"longitude":-0.118092,"reserved":0,"last_update":"0001-01-01T00:00:00Z","name_a2s":"Uncletopia | London | 1 | All Maps","protocol":17,"map":"cp_steel","folder":"tf","game":"Team Fortress","app_id":440,"player_count":24,"max_players":24,"Bots":0,"server_type":"Dedicated","server_os":"Linux","password":true,"vac":true,"version":"7961495","steam_id":85568392924367362,"keywords":["cp","nocrits","nodmgspread","uncletopia"],"game_id":440,"stv_port":27016,"stv_name":"Uncletopia | London | 1 | All Maps | STV","players":[{"user_id":466,"name":"unconditional love","steam_id":76561199026097466,"connected_time":4302000000000,"state":"active","ping":77},{"user_id":513,"name":"face beautiful lies","steam_id":76561198079277466,"connected_time":740000000000,"state":"active","ping":75},{"user_id":516,"name":"Baba Sraka","steam_id":76561198128292318,"connected_time":517000000000,"state":"active","ping":130},{"user_id":506,"name":"Plep","steam_id":76561198840259819,"connected_time":960000000000,"state":"active","ping":61},{"user_id":515,"name":"Zamorocian","steam_id":76561198076604017,"connected_time":584000000000,"state":"active","ping":43},{"user_id":507,"name":"Fucking Nep Nep","steam_id":76561198340419043,"connected_time":855000000000,"state":"active","ping":150},{"user_id":493,"name":"rigel_","steam_id":76561198148640847,"connected_time":1948000000000,"state":"active","ping":83},{"user_id":481,"name":"Shapeshifter","steam_id":76561198052898368,"connected_time":2780000000000,"state":"active","ping":86},{"user_id":479,"name":"Black Tom","steam_id":76561198335730273,"connected_time":3230000000000,"state":"active","ping":64},{"user_id":480,"name":"deadkep","steam_id":76561198097463968,"connected_time":2907000000000,"state":"active","ping":62},{"user_id":475,"name":"Topia","steam_id":76561198163571788,"connected_time":3680000000000,"state":"active","ping":92},{"user_id":514,"name":"Hogs Sidekick","steam_id":76561198136433205,"connected_time":680000000000,"state":"active","ping":38},{"user_id":485,"name":"Flarp von Karma","steam_id":76561198043855292,"connected_time":2255000000000,"state":"active","ping":50},{"user_id":476,"name":"reika","steam_id":76561198043601838,"connected_time":3363000000000,"state":"active","ping":60},{"user_id":510,"name":"Equinox","steam_id":76561198274279754,"connected_time":785000000000,"state":"active","ping":141},{"user_id":473,"name":"sushii","steam_id":76561198297987372,"connected_time":3915000000000,"state":"active","ping":57},{"user_id":498,"name":"Bill_nye_epic","steam_id":76561199216249214,"connected_time":1705000000000,"state":"active","ping":143},{"user_id":501,"name":"{UA} tom shelbey","steam_id":76561198080912087,"connected_time":1233000000000,"state":"active","ping":75},{"user_id":478,"name":"GoblinGaming","steam_id":76561198360395476,"connected_time":3261000000000,"state":"active","ping":59},{"user_id":402,"name":"ඞauraඞ","steam_id":76561198066258544,"connected_time":9889000000000,"state":"active","ping":57},{"user_id":499,"name":"albert","steam_id":76561198353496134,"connected_time":1405000000000,"state":"active","ping":59},{"user_id":518,"name":"SpineJuice","steam_id":76561199084272069,"connected_time":497000000000,"state":"active","ping":67},{"user_id":494,"name":"kelpie (eepiest girl)","steam_id":76561198128327529,"connected_time":1947000000000,"state":"active","ping":49},{"user_id":392,"name":"ahh, eto... nya :3c","steam_id":76561198878171763,"connected_time":10739000000000,"state":"active","ping":50}]},{"server_id":114,"name":"Uncletopia | London | 2 | All Maps","name_short":"lon-2","host":"lon-1.uk.uncletopia.com","port":27025,"enabled":true,"region":"eu","cc":"gb","latitude":51.509865,"longitude":-0.118092,"reserved":0,"last_update":"0001-01-01T00:00:00Z","name_a2s":"Uncletopia | London | 2 | All Maps","protocol":17,"map":"pl_frontier_final","folder":"tf","game":"Team Fortress","app_id":440,"player_count":21,"max_players":24,"Bots":0,"server_type":"Dedicated","server_os":"Linux","password":true,"vac":true,"version":"7961495","steam_id":85568392924470941,"keywords":["nocrits","nodmgspread","payload","uncletopia"],"game_id":440,"stv_port":27026,"stv_name":"Uncletopia | London | 2 | All Maps | STV","players":[{"user_id":129,"name":"Mr. Hunts","steam_id":76561197981910397,"connected_time":1500000000000,"state":"active","ping":61},{"user_id":126,"name":"big bug buttz","steam_id":76561198115106008,"connected_time":1668000000000,"state":"active","ping":50},{"user_id":145,"name":"After8","steam_id":76561198090750865,"connected_time":58000000000,"state":"active","ping":64},{"user_id":146,"name":"Gol D. Roger","steam_id":76561199499108654,"connected_time":38000000000,"state":"active","ping":104},{"user_id":147,"name":"The worst TF2 player(Real)","steam_id":76561199184873889,"connected_time":33000000000,"state":"active","ping":71},{"user_id":130,"name":"mhib","steam_id":76561198048037379,"connected_time":1424000000000,"state":"active","ping":85},{"user_id":135,"name":"Pan","steam_id":76561198436871448,"connected_time":817000000000,"state":"active","ping":36},{"user_id":148,"name":"Semtilion","steam_id":76561198107642445,"connected_time":27000000000,"state":"active","ping":111},{"user_id":131,"name":"GrzMik","steam_id":76561198061951968,"connected_time":1371000000000,"state":"active","ping":91},{"user_id":144,"name":"collateralaoe","steam_id":76561198297151242,"connected_time":91000000000,"state":"active","ping":45},{"user_id":138,"name":"Fatmagic Mukbang ASMR","steam_id":76561198063492110,"connected_time":766000000000,"state":"active","ping":78},{"user_id":96,"name":"luisar02","steam_id":76561198254259783,"connected_time":3133000000000,"state":"active","ping":72},{"user_id":140,"name":"Wolgang with 210HP","steam_id":76561198989449047,"connected_time":641000000000,"state":"active","ping":133},{"user_id":141,"name":"mesλ","steam_id":76561198324582918,"connected_time":262000000000,"state":"active","ping":91},{"user_id":87,"name":"Pvt Talbot","steam_id":76561198261001389,"connected_time":3723000000000,"state":"active","ping":60},{"user_id":109,"name":"Jela331","steam_id":76561198112625107,"connected_time":2457000000000,"state":"active","ping":75},{"user_id":113,"name":"Himsagi Yoichi","steam_id":76561197967683724,"connected_time":2233000000000,"state":"active","ping":45},{"user_id":115,"name":"JuanPonchoGringo™","steam_id":76561198038046899,"connected_time":2213000000000,"state":"active","ping":143},{"user_id":58,"name":"[FP] Shiken","steam_id":76561198257905663,"connected_time":5352000000000,"state":"active","ping":61},{"user_id":117,"name":"Codex","steam_id":76561198068748584,"connected_time":2066000000000,"state":"active","ping":46},{"user_id":137,"name":"roblox obby","steam_id":76561199149307190,"connected_time":815000000000,"state":"active","ping":83}]},{"server_id":320,"name":"Uncletopia | London | 3 | All Maps","name_short":"lon-3","host":"lon-1.uk.uncletopia.com","port":27035,"enabled":true,"region":"eu","cc":"gb","latitude":51.509865,"longitude":-0.118092,"reserved":0,"last_update":"0001-01-01T00:00:00Z","name_a2s":"Uncletopia | London | 3 | All Maps","protocol":17,"map":"cp_steel","folder":"tf","game":"Team Fortress","app_id":440,"player_count":23,"max_players":24,"Bots":0,"server_type":"Dedicated","server_os":"Linux","password":true,"vac":true,"version":"7961495","steam_id":85568392924510192,"keywords":["cp","nocrits","nodmgspread","uncletopia"],"game_id":440,"stv_port":27036,"stv_name":"Uncletopia | London | 3 | All Maps | STV","players":[{"user_id":112,"name":"jones","steam_id":76561198044434971,"connected_time":1197000000000,"state":"active","ping":69},{"user_id":116,"name":"Saken","steam_id":76561198049075295,"connected_time":995000000000,"state":"active","ping":60},{"user_id":62,"name":"Irbynx","steam_id":76561197980421195,"connected_time":2803000000000,"state":"active","ping":91},{"user_id":101,"name":"Ghetto Reimo","steam_id":76561198189315728,"connected_time":1446000000000,"state":"active","ping":79},{"user_id":124,"name":"ghetto gamer","steam_id":76561199208283508,"connected_time":143000000000,"state":"active","ping":91},{"user_id":99,"name":"Stefman","steam_id":76561199025104038,"connected_time":1483000000000,"state":"active","ping":42},{"user_id":86,"name":"Rodia","steam_id":76561197968293161,"connected_time":2302000000000,"state":"active","ping":77},{"user_id":37,"name":"Berdly","steam_id":76561199029872533,"connected_time":3333000000000,"state":"active","ping":47},{"user_id":103,"name":"Ginger Jesus","steam_id":76561198052386458,"connected_time":1419000000000,"state":"active","ping":109},{"user_id":53,"name":"$*#! • Maixant","steam_id":76561197961492326,"connected_time":2909000000000,"state":"active","ping":76},{"user_id":41,"name":"Walle","steam_id":76561197995148937,"connected_time":3287000000000,"state":"active","ping":74},{"user_id":120,"name":"Star Throne","steam_id":76561198132171027,"connected_time":601000000000,"state":"active","ping":59},{"user_id":114,"name":"d u k k i","steam_id":76561198071807437,"connected_time":1148000000000,"state":"active","ping":88},{"user_id":108,"name":"Dr Zoidcrab","steam_id":76561198023709882,"connected_time":1381000000000,"state":"active","ping":69},{"user_id":52,"name":"The Imperial","steam_id":76561198374118102,"connected_time":2918000000000,"state":"active","ping":44},{"user_id":121,"name":"fetus muncher","steam_id":76561198323757113,"connected_time":524000000000,"state":"active","ping":68},{"user_id":56,"name":"albus 47","steam_id":76561198058192493,"connected_time":2887000000000,"state":"active","ping":81},{"user_id":57,"name":"MegaChungusUnderCheeto_69420","steam_id":76561199159878197,"connected_time":2884000000000,"state":"active","ping":48},{"user_id":115,"name":"beer creator","steam_id":76561198039472276,"connected_time":1099000000000,"state":"active","ping":76},{"user_id":100,"name":"cropping","steam_id":76561198026586456,"connected_time":1480000000000,"state":"active","ping":60},{"user_id":118,"name":"gothmoth","steam_id":76561198386910896,"connected_time":895000000000,"state":"active","ping":69},{"user_id":92,"name":"lark","steam_id":76561198091724522,"connected_time":1845000000000,"state":"active","ping":60},{"user_id":122,"name":"The One (and only)","steam_id":76561198827193499,"connected_time":510000000000,"state":"active","ping":81}]},{"server_id":321,"name":"Uncletopia | London | 4 | All Maps","name_short":"lon-4","host":"lon-1.uk.uncletopia.com","port":27045,"enabled":true,"region":"eu","cc":"gb","latitude":51.509865,"longitude":-0.118092,"reserved":0,"last_update":"0001-01-01T00:00:00Z","name_a2s":"Uncletopia | London | 4 | All Maps","protocol":17,"map":"cp_steel","folder":"tf","game":"Team Fortress","app_id":440,"player_count":24,"max_players":24,"Bots":0,"server_type":"Dedicated","server_os":"Linux","password":true,"vac":true,"version":"7961495","steam_id":85568392924510193,"keywords":["cp","nocrits","nodmgspread","uncletopia"],"game_id":440,"stv_port":27046,"stv_name":"Uncletopia | London | 4 | All Maps | STV","players":[{"user_id":160,"name":"GMsU | Rebikas","steam_id":76561198077053764,"connected_time":216000000000,"state":"active","ping":47},{"user_id":168,"name":"Ghost11","steam_id":76561198068892992,"connected_time":141000000000,"state":"active","ping":115},{"user_id":158,"name":"Marty McFry","steam_id":76561198359702503,"connected_time":746000000000,"state":"active","ping":60},{"user_id":159,"name":"Spinya","steam_id":76561198086653667,"connected_time":220000000000,"state":"active","ping":53},{"user_id":150,"name":"ScudFXX","steam_id":76561198136603848,"connected_time":1204000000000,"state":"active","ping":69},{"user_id":170,"name":"cherrypowder","steam_id":76561199006915718,"connected_time":74000000000,"state":"active","ping":60},{"user_id":165,"name":"sticks","steam_id":76561198127099299,"connected_time":190000000000,"state":"active","ping":40},{"user_id":153,"name":"scott steiners strongest warrio","steam_id":76561198148888622,"connected_time":981000000000,"state":"active","ping":63},{"user_id":147,"name":"Kinjiko","steam_id":76561199124619827,"connected_time":1360000000000,"state":"active","ping":66},{"user_id":82,"name":"DEFENDOR62","steam_id":76561199386703896,"connected_time":5952000000000,"state":"active","ping":56},{"user_id":161,"name":"STROKINMA.MD","steam_id":76561198052261111,"connected_time":214000000000,"state":"active","ping":45},{"user_id":166,"name":"drink 16 litres of water now","steam_id":76561198281256009,"connected_time":189000000000,"state":"active","ping":101},{"user_id":151,"name":"Çodar","steam_id":76561198235518444,"connected_time":1186000000000,"state":"active","ping":35},{"user_id":124,"name":"G_raff","steam_id":76561199048512726,"connected_time":3025000000000,"state":"active","ping":87},{"user_id":154,"name":"GMsU | Smiley","steam_id":76561198121494414,"connected_time":950000000000,"state":"active","ping":186},{"user_id":157,"name":"warforge3","steam_id":76561199276024310,"connected_time":756000000000,"state":"active","ping":114},{"user_id":96,"name":"Bob Sacamano","steam_id":76561198085610701,"connected_time":4084000000000,"state":"active","ping":107},{"user_id":144,"name":"mohemmedmokhter2005","steam_id":76561199197650506,"connected_time":1473000000000,"state":"active","ping":109},{"user_id":162,"name":"DudeoftheRock","steam_id":76561198059401865,"connected_time":211000000000,"state":"active","ping":54},{"user_id":121,"name":"NESS","steam_id":76561197995225318,"connected_time":3102000000000,"state":"active","ping":45},{"user_id":146,"name":"Ullr","steam_id":76561198140547483,"connected_time":1411000000000,"state":"active","ping":44},{"user_id":167,"name":"papa Sloath","steam_id":76561198046382160,"connected_time":176000000000,"state":"active","ping":45},{"user_id":138,"name":"Dolcelatte","steam_id":76561198038501770,"connected_time":1699000000000,"state":"active","ping":60},{"user_id":109,"name":"hoizil","steam_id":76561198800688436,"connected_time":3686000000000,"state":"active","ping":74}]},{"server_id":21,"name":"Uncletopia | London | 5 | All Maps","name_short":"lon-5","host":"lon-1.uk.uncletopia.com","port":27055,"enabled":true,"region":"eu","cc":"gb","latitude":51.509865,"longitude":-0.118092,"reserved":0,"last_update":"0001-01-01T00:00:00Z","name_a2s":"Uncletopia | London | 5 | All Maps","protocol":17,"map":"koth_lakeside_final","folder":"tf","game":"Team Fortress","app_id":440,"player_count":0,"max_players":24,"Bots":0,"server_type":"Dedicated","server_os":"Linux","password":true,"vac":true,"version":"7961495","steam_id":85568392924742829,"keywords":["cp","nocrits","nodmgspread","uncletopia"],"game_id":440,"stv_port":27056,"stv_name":"Uncletopia | London | 5 | All Maps | STV","players":null},{"server_id":22,"name":"Uncletopia | London | 6 | All Maps","name_short":"lon-6","host":"lon-1.uk.uncletopia.com","port":27065,"enabled":true,"region":"eu","cc":"gb","latitude":51.509865,"longitude":-0.118092,"reserved":0,"last_update":"0001-01-01T00:00:00Z","name_a2s":"Uncletopia | London | 6 | All Maps","protocol":17,"map":"koth_harvest_final","folder":"tf","game":"Team Fortress","app_id":440,"player_count":24,"max_players":24,"Bots":0,"server_type":"Dedicated","server_os":"Linux","password":true,"vac":true,"version":"7961495","steam_id":85568392924742830,"keywords":["cp","nocrits","nodmgspread","uncletopia"],"game_id":440,"stv_port":27066,"stv_name":"Uncletopia | London | 6 | All Maps | STV","players":[{"user_id":13,"name":"Tx_madmash and knuckles","steam_id":76561198924656512,"connected_time":2653000000000,"state":"active","ping":82},{"user_id":49,"name":"max-iwnl-","steam_id":76561198027033926,"connected_time":115000000000,"state":"active","ping":46},{"user_id":35,"name":"Apollo","steam_id":76561198067219228,"connected_time":1163000000000,"state":"active","ping":97},{"user_id":46,"name":"Fingortar","steam_id":76561198277143302,"connected_time":651000000000,"state":"active","ping":76},{"user_id":17,"name":"Average meme enjoyer","steam_id":76561199087566663,"connected_time":1918000000000,"state":"spawning","ping":360},{"user_id":18,"name":"Joe Swanson","steam_id":76561198178175462,"connected_time":1916000000000,"state":"active","ping":53},{"user_id":50,"name":"cat aesthetics","steam_id":76561199062437546,"connected_time":110000000000,"state":"active","ping":58},{"user_id":20,"name":"xam.₉⁹₉","steam_id":76561198375761256,"connected_time":1854000000000,"state":"active","ping":81},{"user_id":21,"name":"algae","steam_id":76561199215524659,"connected_time":1554000000000,"state":"active","ping":115},{"user_id":22,"name":"TECHnoMITE","steam_id":76561198066443315,"connected_time":1545000000000,"state":"active","ping":65},{"user_id":27,"name":"Daddy-O","steam_id":76561198120101147,"connected_time":1347000000000,"state":"active","ping":107},{"user_id":24,"name":"armadillo","steam_id":76561198324656652,"connected_time":1506000000000,"state":"active","ping":50},{"user_id":25,"name":"tete","steam_id":76561198045222850,"connected_time":1494000000000,"state":"active","ping":69},{"user_id":26,"name":"EspAlex","steam_id":76561198121411649,"connected_time":1488000000000,"state":"active","ping":84},{"user_id":42,"name":"I-C-U-P","steam_id":76561198996995074,"connected_time":830000000000,"state":"active","ping":147},{"user_id":29,"name":"Tispy","steam_id":76561199207410049,"connected_time":1287000000000,"state":"active","ping":87},{"user_id":51,"name":"Fat Pigeon","steam_id":76561198817940142,"connected_time":81000000000,"state":"active","ping":45},{"user_id":31,"name":"Begone","steam_id":76561199093369711,"connected_time":1251000000000,"state":"active","ping":100},{"user_id":48,"name":"Drip-O-bama","steam_id":76561199135631057,"connected_time":158000000000,"state":"active","ping":92},{"user_id":34,"name":"Rat King","steam_id":76561198256783599,"connected_time":1188000000000,"state":"active","ping":55},{"user_id":36,"name":"JEAN-BERNARD THE SEX LORD","steam_id":76561198799097492,"connected_time":1102000000000,"state":"active","ping":45},{"user_id":39,"name":"trans werewolf","steam_id":76561198107235989,"connected_time":976000000000,"state":"active","ping":67},{"user_id":47,"name":"TSM Garp","steam_id":76561198261795972,"connected_time":569000000000,"state":"active","ping":59},{"user_id":44,"name":"Skitzo","steam_id":76561198157357959,"connected_time":777000000000,"state":"active","ping":179}]},{"server_id":40,"name":"Uncletopia | London | 7 | Stopwatch","name_short":"lon-7","host":"lon-1.uk.uncletopia.com","port":27075,"enabled":true,"region":"eu","cc":"gb","latitude":51.509865,"longitude":-0.118092,"reserved":0,"last_update":"0001-01-01T00:00:00Z","name_a2s":"Uncletopia | London | 7 | Stopwatch","protocol":17,"map":"workshop/koth_ramjam_rc1.ugc459778887","folder":"tf","game":"Team Fortress","app_id":440,"player_count":0,"max_players":24,"Bots":0,"server_type":"Dedicated","server_os":"Linux","password":true,"vac":true,"version":"7961495","steam_id":85568392924964314,"keywords":["cp","nocrits","nodmgspread","uncletopia"],"game_id":440,"stv_port":27076,"stv_name":"Uncletopia | London | 7 | Stopwatch | STV","players":null},{"server_id":41,"name":"Uncletopia | London | 8 | Community","name_short":"lon-8","host":"lon-1.uk.uncletopia.com","port":27085,"enabled":true,"region":"eu","cc":"gb","latitude":51.509865,"longitude":-0.118092,"reserved":0,"last_update":"0001-01-01T00:00:00Z","name_a2s":"Uncletopia | London | 8 | Community","protocol":17,"map":"workshop/cp_bruhstbowl_b6.ugc2878604990","folder":"tf","game":"Team Fortress","app_id":440,"player_count":0,"max_players":24,"Bots":0,"server_type":"Dedicated","server_os":"Linux","password":true,"vac":true,"version":"7961495","steam_id":85568392924964315,"keywords":["cp","nocrits","nodmgspread","uncletopia"],"game_id":440,"stv_port":27086,"stv_name":"Uncletopia | London | 8 | Community | STV","players":null},{"server_id":300,"name":"Uncletopia | Montréal | 1 | One Thousand Uncles","name_short":"mtl-1","host":"mtl-1.ca.uncletopia.com","port":27015,"enabled":true,"region":"us-east","cc":"ca","latitude":45.50889,"longitude":-73.56167,"reserved":0,"last_update":"0001-01-01T00:00:00Z","name_a2s":"","protocol":0,"map":"","folder":"","game":"","app_id":0,"player_count":1,"max_players":0,"Bots":0,"server_type":"","server_os":"","password":false,"vac":false,"version":"","steam_id":0,"keywords":null,"game_id":0,"stv_port":0,"stv_name":"","players":[{"user_id":115,"name":"Meat Dragon","steam_id":76561198120319256,"connected_time":3540000000000,"state":"active","ping":71}]},{"server_id":301,"name":"Uncletopia | Montréal | 2 | One Thousand Uncles","name_short":"mtl-2","host":"mtl-1.ca.uncletopia.com","port":27025,"enabled":true,"region":"us-east","cc":"ca","latitude":45.50889,"longitude":-73.56167,"reserved":0,"last_update":"0001-01-01T00:00:00Z","name_a2s":"","protocol":0,"map":"","folder":"","game":"","app_id":0,"player_count":0,"max_players":0,"Bots":0,"server_type":"","server_os":"","password":false,"vac":false,"version":"","steam_id":0,"keywords":null,"game_id":0,"stv_port":0,"stv_name":"","players":null},{"server_id":302,"name":"Uncletopia | Montréal | 3 | One Thousand Uncles","name_short":"mtl-3","host":"mtl-1.ca.uncletopia.com","port":27035,"enabled":true,"region":"us-east","cc":"ca","latitude":45.50889,"longitude":-73.56167,"reserved":0,"last_update":"0001-01-01T00:00:00Z","name_a2s":"","protocol":0,"map":"","folder":"","game":"","app_id":0,"player_count":0,"max_players":0,"Bots":0,"server_type":"","server_os":"","password":false,"vac":false,"version":"","steam_id":0,"keywords":null,"game_id":0,"stv_port":0,"stv_name":"","players":null},{"server_id":13,"name":"Uncletopia | New York City | 1 | All Maps","name_short":"nyc-1","host":"nyc-1.us.uncletopia.com","port":27015,"enabled":true,"region":"us-east","cc":"us","latitude":40.73061,"longitude":-73.93524,"reserved":0,"last_update":"0001-01-01T00:00:00Z","name_a2s":"Uncletopia | New York City | 1 | All Maps","protocol":17,"map":"pl_barnblitz","folder":"tf","game":"Team Fortress","app_id":440,"player_count":0,"max_players":24,"Bots":0,"server_type":"Dedicated","server_os":"Linux","password":true,"vac":true,"version":"7961495","steam_id":85568392924469993,"keywords":["nocrits","nodmgspread","payload","uncletopia"],"game_id":440,"stv_port":27016,"stv_name":"Uncletopia | New York City | 1 | All Maps | STV","players":null},{"server_id":14,"name":"Uncletopia | New York City | 2 | All Maps","name_short":"nyc-2","host":"nyc-1.us.uncletopia.com","port":27025,"enabled":true,"region":"us-east","cc":"us","latitude":40.73061,"longitude":-73.93524,"reserved":0,"last_update":"0001-01-01T00:00:00Z","name_a2s":"Uncletopia | New York City | 2 | All Maps","protocol":17,"map":"pl_frontier_final","folder":"tf","game":"Team Fortress","app_id":440,"player_count":0,"max_players":24,"Bots":0,"server_type":"Dedicated","server_os":"Linux","password":true,"vac":true,"version":"7961495","steam_id":85568392924469994,"keywords":["nocrits","nodmgspread","payload","uncletopia"],"game_id":440,"stv_port":27026,"stv_name":"Uncletopia | New York City | 2 | All Maps | STV","players":null},{"server_id":15,"name":"Uncletopia | New York City | 3 | Stopwatch","name_short":"nyc-3","host":"nyc-1.us.uncletopia.com","port":27035,"enabled":true,"region":"us-east","cc":"us","latitude":40.73061,"longitude":-73.93524,"reserved":0,"last_update":"0001-01-01T00:00:00Z","name_a2s":"Uncletopia | New York City | 3 | Stopwatch","protocol":17,"map":"workshop/cp_process_f12.ugc2302948105","folder":"tf","game":"Team Fortress","app_id":440,"player_count":0,"max_players":24,"Bots":0,"server_type":"Dedicated","server_os":"Linux","password":true,"vac":true,"version":"7961495","steam_id":85568392924742820,"keywords":["cp","nocrits","nodmgspread","uncletopia"],"game_id":440,"stv_port":27036,"stv_name":"Uncletopia | New York City | 3 | Stopwatch | STV","players":null},{"server_id":16,"name":"Uncletopia | New York City | 4 | Community","name_short":"nyc-4","host":"nyc-1.us.uncletopia.com","port":27045,"enabled":true,"region":"us-east","cc":"us","latitude":40.73061,"longitude":-73.93524,"reserved":0,"last_update":"0001-01-01T00:00:00Z","name_a2s":"Uncletopia | New York City | 4 | Community","protocol":17,"map":"cp_altitude","folder":"tf","game":"Team Fortress","app_id":440,"player_count":0,"max_players":24,"Bots":0,"server_type":"Dedicated","server_os":"Linux","password":true,"vac":true,"version":"7961495","steam_id":85568392924742821,"keywords":["cp","nocrits","nodmgspread","uncletopia"],"game_id":440,"stv_port":27046,"stv_name":"Uncletopia | New York City | 4 | Community | STV","players":null},{"server_id":142,"name":"Uncletopia | São Paulo | 1 | All Maps","name_short":"sao-1","host":"sao-1.br.uncletopia.com","port":27015,"enabled":true,"region":"sa","cc":"br","latitude":-23.533773,"longitude":-46.62529,"reserved":0,"last_update":"0001-01-01T00:00:00Z","name_a2s":"Uncletopia | São Paulo | 1 | All Maps","protocol":17,"map":"koth_cascade","folder":"tf","game":"Team Fortress","app_id":440,"player_count":0,"max_players":24,"Bots":0,"server_type":"Dedicated","server_os":"Linux","password":true,"vac":true,"version":"7961495","steam_id":85568392924469996,"keywords":["cp","nocrits","nodmgspread","uncletopia"],"game_id":440,"stv_port":27016,"stv_name":"Uncletopia | São Paulo | 1 | All Maps | STV","players":null},{"server_id":143,"name":"Uncletopia | São Paulo | 2 | Community","name_short":"sao-2","host":"sao-2.br.uncletopia.com","port":27015,"enabled":true,"region":"sa","cc":"br","latitude":-23.533773,"longitude":-46.62529,"reserved":0,"last_update":"0001-01-01T00:00:00Z","name_a2s":"Uncletopia | São Paulo | 2 | Community","protocol":17,"map":"workshop/koth_product_final.ugc454272353","folder":"tf","game":"Team Fortress","app_id":440,"player_count":0,"max_players":24,"Bots":0,"server_type":"Dedicated","server_os":"Linux","password":true,"vac":true,"version":"7961495","steam_id":85568392924485349,"keywords":["cp","nocrits","nodmgspread","uncletopia"],"game_id":440,"stv_port":27016,"stv_name":"Uncletopia | São Paulo | 2 | Community | STV","players":null},{"server_id":7,"name":"Uncletopia | Seattle | 1 | All Maps","name_short":"sea-1","host":"sea-1.us.uncletopia.com","port":27015,"enabled":true,"region":"us-west","cc":"us","latitude":47.608013,"longitude":-122.33517,"reserved":0,"last_update":"0001-01-01T00:00:00Z","name_a2s":"Uncletopia | Seattle | 1 | All Maps","protocol":17,"map":"plr_hightower","folder":"tf","game":"Team Fortress","app_id":440,"player_count":22,"max_players":24,"Bots":0,"server_type":"Dedicated","server_os":"Linux","password":true,"vac":true,"version":"7961495","steam_id":85568392924469997,"keywords":["nocrits","nodmgspread","payload","uncletopia"],"game_id":440,"stv_port":27016,"stv_name":"Uncletopia | Seattle | 1 | All Maps | STV","players":[{"user_id":86,"name":"ThePriceIsRice","steam_id":76561198079069543,"connected_time":1114000000000,"state":"active","ping":61},{"user_id":97,"name":"your mommy","steam_id":76561198083347687,"connected_time":275000000000,"state":"active","ping":101},{"user_id":96,"name":"gretchling","steam_id":76561198046111695,"connected_time":290000000000,"state":"active","ping":90},{"user_id":85,"name":"Skeleop TF2EASY.COM","steam_id":76561198981106464,"connected_time":1281000000000,"state":"active","ping":75},{"user_id":37,"name":"Divinitas","steam_id":76561199079034911,"connected_time":4808000000000,"state":"active","ping":95},{"user_id":75,"name":"Laxoloni","steam_id":76561199197045700,"connected_time":1861000000000,"state":"active","ping":77},{"user_id":92,"name":"Giddy","steam_id":76561198271951969,"connected_time":746000000000,"state":"active","ping":77},{"user_id":16,"name":"HappilyDisturbed","steam_id":76561198156158743,"connected_time":5535000000000,"state":"active","ping":91},{"user_id":80,"name":"grape","steam_id":76561197993980328,"connected_time":1456000000000,"state":"active","ping":54},{"user_id":60,"name":"Neat","steam_id":76561198046049949,"connected_time":2381000000000,"state":"active","ping":66},{"user_id":98,"name":"LavenderSys","steam_id":76561198289106015,"connected_time":254000000000,"state":"active","ping":43},{"user_id":77,"name":"dofarnem","steam_id":76561199112000229,"connected_time":1697000000000,"state":"active","ping":91},{"user_id":100,"name":"lorient","steam_id":76561198150831438,"connected_time":236000000000,"state":"active","ping":84},{"user_id":22,"name":"Lavender (FEMBOY)","steam_id":76561198135961731,"connected_time":5434000000000,"state":"active","ping":94},{"user_id":35,"name":"wendigo","steam_id":76561197994528974,"connected_time":4969000000000,"state":"active","ping":92},{"user_id":64,"name":"Buswolley","steam_id":76561197995205571,"connected_time":2324000000000,"state":"active","ping":58},{"user_id":102,"name":"Dim","steam_id":76561198061411324,"connected_time":136000000000,"state":"active","ping":126},{"user_id":82,"name":"stir-fried human tonsils","steam_id":76561198312126442,"connected_time":1353000000000,"state":"active","ping":54},{"user_id":103,"name":"Bige Rone","steam_id":76561198066718191,"connected_time":126000000000,"state":"active","ping":49},{"user_id":104,"name":"Brandino!","steam_id":76561198000446932,"connected_time":121000000000,"state":"active","ping":101},{"user_id":105,"name":"Barbatruc","steam_id":76561198119019916,"connected_time":38000000000,"state":"active","ping":193},{"user_id":70,"name":"gulch","steam_id":76561199227946025,"connected_time":2096000000000,"state":"active","ping":106}]},{"server_id":119,"name":"Uncletopia | Seattle | 2 | All Maps","name_short":"sea-2","host":"sea-1.us.uncletopia.com","port":27025,"enabled":true,"region":"us-west","cc":"us","latitude":47.608013,"longitude":-122.33517,"reserved":0,"last_update":"0001-01-01T00:00:00Z","name_a2s":"Uncletopia | Seattle | 2 | All Maps","protocol":17,"map":"pl_swiftwater_final1","folder":"tf","game":"Team Fortress","app_id":440,"player_count":0,"max_players":24,"Bots":0,"server_type":"Dedicated","server_os":"Linux","password":true,"vac":true,"version":"7961495","steam_id":85568392924469998,"keywords":["nocrits","nodmgspread","payload","uncletopia"],"game_id":440,"stv_port":27026,"stv_name":"Uncletopia | Seattle | 2 | All Maps | STV","players":null},{"server_id":406,"name":"Uncletopia | Seattle | 3 | Stopwatch","name_short":"sea-3","host":"sea-1.us.uncletopia.com","port":27035,"enabled":true,"region":"us-west","cc":"us","latitude":47.608013,"longitude":-122.33517,"reserved":0,"last_update":"0001-01-01T00:00:00Z","name_a2s":"Uncletopia | Seattle | 3 | Stopwatch","protocol":17,"map":"pl_pier","folder":"tf","game":"Team Fortress","app_id":440,"player_count":0,"max_players":24,"Bots":0,"server_type":"Dedicated","server_os":"Linux","password":true,"vac":true,"version":"7961495","steam_id":85568392924515217,"keywords":["nocrits","nodmgspread","payload","uncletopia"],"game_id":440,"stv_port":27036,"stv_name":"Uncletopia | Seattle | 3 | Stopwatch | STV","players":null},{"server_id":17,"name":"Uncletopia | San Francisco | 1 | All Maps","name_short":"sfo-1","host":"sfo-1.us.uncletopia.com","port":27015,"enabled":true,"region":"us-west","cc":"us","latitude":37.77397,"longitude":-122.4313,"reserved":0,"last_update":"0001-01-01T00:00:00Z","name_a2s":"Uncletopia | San Francisco | 1 | All Maps","protocol":17,"map":"koth_cascade","folder":"tf","game":"Team Fortress","app_id":440,"player_count":0,"max_players":24,"Bots":0,"server_type":"Dedicated","server_os":"Linux","password":true,"vac":true,"version":"7961495","steam_id":85568392924469999,"keywords":["cp","nocrits","nodmgspread","uncletopia"],"game_id":440,"stv_port":27016,"stv_name":"Uncletopia | San Francisco | 1 | All Maps | STV","players":null},{"server_id":18,"name":"Uncletopia | San Francisco | 2 | All Maps","name_short":"sfo-2","host":"sfo-1.us.uncletopia.com","port":27025,"enabled":true,"region":"us-west","cc":"us","latitude":37.77397,"longitude":-122.4313,"reserved":0,"last_update":"0001-01-01T00:00:00Z","name_a2s":"Uncletopia | San Francisco | 2 | All Maps","protocol":17,"map":"pl_frontier_final","folder":"tf","game":"Team Fortress","app_id":440,"player_count":0,"max_players":24,"Bots":0,"server_type":"Dedicated","server_os":"Linux","password":true,"vac":true,"version":"7961495","steam_id":85568392924470000,"keywords":["nocrits","nodmgspread","payload","uncletopia"],"game_id":440,"stv_port":27026,"stv_name":"Uncletopia | San Francisco | 2 | All Maps | STV","players":null},{"server_id":19,"name":"Uncletopia | San Francisco | 3 | Stopwatch","name_short":"sfo-3","host":"sfo-1.us.uncletopia.com","port":27035,"enabled":true,"region":"us-west","cc":"us","latitude":37.77397,"longitude":-122.4313,"reserved":0,"last_update":"0001-01-01T00:00:00Z","name_a2s":"Uncletopia | San Francisco | 3 | Stopwatch","protocol":17,"map":"pl_pier","folder":"tf","game":"Team Fortress","app_id":440,"player_count":0,"max_players":24,"Bots":0,"server_type":"Dedicated","server_os":"Linux","password":true,"vac":true,"version":"7961495","steam_id":85568392924742824,"keywords":["nocrits","nodmgspread","payload","uncletopia"],"game_id":440,"stv_port":27036,"stv_name":"Uncletopia | San Francisco | 3 | Stopwatch | STV","players":null},{"server_id":20,"name":"Uncletopia | San Francisco | 4 | Community","name_short":"sfo-4","host":"sfo-1.us.uncletopia.com","port":27045,"enabled":true,"region":"us-west","cc":"us","latitude":37.77397,"longitude":-122.4313,"reserved":0,"last_update":"0001-01-01T00:00:00Z","name_a2s":"Uncletopia | San Francisco | 4 | Community","protocol":17,"map":"workshop/pl_badwater_pro_v12.ugc2142942074","folder":"tf","game":"Team Fortress","app_id":440,"player_count":0,"max_players":24,"Bots":0,"server_type":"Dedicated","server_os":"Linux","password":true,"vac":true,"version":"7961495","steam_id":85568392924742826,"keywords":["nocrits","nodmgspread","payload","uncletopia"],"game_id":440,"stv_port":27046,"stv_name":"Uncletopia | San Francisco | 4 | Community | STV","players":null},{"server_id":141,"name":"Uncletopia | Sydney | 1 | All Maps","name_short":"syd-1","host":"syd-1.au.uncletopia.com","port":27015,"enabled":true,"region":"au","cc":"au","latitude":-33.865143,"longitude":151.2099,"reserved":0,"last_update":"0001-01-01T00:00:00Z","name_a2s":"Uncletopia | Sydney | 1 | All Maps","protocol":17,"map":"koth_lakeside_final","folder":"tf","game":"Team Fortress","app_id":440,"player_count":0,"max_players":24,"Bots":0,"server_type":"Dedicated","server_os":"Linux","password":true,"vac":true,"version":"7961495","steam_id":85568392924470001,"keywords":["cp","nocrits","nodmgspread","uncletopia"],"game_id":440,"stv_port":27016,"stv_name":"Uncletopia | Sydney | 1 | All Maps | STV","players":null},{"server_id":123,"name":"Uncletopia | Sydney | 2 | All Maps","name_short":"syd-2","host":"syd-1.au.uncletopia.com","port":27025,"enabled":true,"region":"au","cc":"au","latitude":-33.865143,"longitude":151.2099,"reserved":0,"last_update":"0001-01-01T00:00:00Z","name_a2s":"Uncletopia | Sydney | 2 | All Maps","protocol":17,"map":"pl_frontier_final","folder":"tf","game":"Team Fortress","app_id":440,"player_count":0,"max_players":24,"Bots":0,"server_type":"Dedicated","server_os":"Linux","password":true,"vac":true,"version":"7961495","steam_id":85568392924470002,"keywords":["nocrits","nodmgspread","payload","uncletopia"],"game_id":440,"stv_port":27026,"stv_name":"Uncletopia | Sydney | 2 | All Maps | STV","players":null},{"server_id":395,"name":"Uncletopia | Sydney | 3 | All Maps","name_short":"syd-3","host":"syd-1.au.uncletopia.com","port":27035,"enabled":true,"region":"au","cc":"au","latitude":-33.865143,"longitude":151.2099,"reserved":0,"last_update":"0001-01-01T00:00:00Z","name_a2s":"Uncletopia | Sydney | 3 | All Maps","protocol":17,"map":"koth_cascade","folder":"tf","game":"Team Fortress","app_id":440,"player_count":0,"max_players":24,"Bots":0,"server_type":"Dedicated","server_os":"Linux","password":true,"vac":true,"version":"7961495","steam_id":85568392925194467,"keywords":["cp","nocrits","nodmgspread","uncletopia"],"game_id":440,"stv_port":27036,"stv_name":"Uncletopia | Sydney | 3 | All Maps | STV","players":null},{"server_id":396,"name":"Uncletopia | Sydney | 4 | All Maps","name_short":"syd-4","host":"syd-1.au.uncletopia.com","port":27045,"enabled":true,"region":"au","cc":"au","latitude":-33.865143,"longitude":151.2099,"reserved":0,"last_update":"0001-01-01T00:00:00Z","name_a2s":"Uncletopia | Sydney | 4 | All Maps","protocol":17,"map":"koth_cascade","folder":"tf","game":"Team Fortress","app_id":440,"player_count":0,"max_players":24,"Bots":0,"server_type":"Dedicated","server_os":"Linux","password":true,"vac":true,"version":"7961495","steam_id":85568392925397958,"keywords":["cp","nocrits","nodmgspread","uncletopia"],"game_id":440,"stv_port":27046,"stv_name":"Uncletopia | Sydney | 4 | All Maps | STV","players":null},{"server_id":58,"name":"Uncletopia | Sydney | 5 | Stopwatch","name_short":"syd-5","host":"syd-1.au.uncletopia.com","port":27055,"enabled":true,"region":"au","cc":"au","latitude":-33.865143,"longitude":151.2099,"reserved":0,"last_update":"0001-01-01T00:00:00Z","name_a2s":"Uncletopia | Sydney | 5 | Stopwatch","protocol":17,"map":"workshop/koth_clearcut_b15.ugc2107050255","folder":"tf","game":"Team Fortress","app_id":440,"player_count":0,"max_players":24,"Bots":0,"server_type":"Dedicated","server_os":"Linux","password":true,"vac":true,"version":"7961495","steam_id":85568392925397959,"keywords":["cp","nocrits","nodmgspread","uncletopia"],"game_id":440,"stv_port":27056,"stv_name":"Uncletopia | Sydney | 5 | Stopwatch | STV","players":null},{"server_id":59,"name":"Uncletopia | Sydney | 6 | Community","name_short":"syd-6","host":"syd-1.au.uncletopia.com","port":27065,"enabled":true,"region":"au","cc":"au","latitude":-33.865143,"longitude":151.2099,"reserved":0,"last_update":"0001-01-01T00:00:00Z","name_a2s":"Uncletopia | Sydney | 6 | Community","protocol":17,"map":"cp_sunshine","folder":"tf","game":"Team Fortress","app_id":440,"player_count":0,"max_players":24,"Bots":0,"server_type":"Dedicated","server_os":"Linux","password":true,"vac":true,"version":"7961495","steam_id":85568392925397960,"keywords":["cp","nocrits","nodmgspread","uncletopia"],"game_id":440,"stv_port":27066,"stv_name":"Uncletopia | Sydney | 6 | Community | STV","players":null},{"server_id":49,"name":"Uncletopia | Warsaw | 1 | One Thousand Uncles","name_short":"waw-1","host":"waw-1.pl.uncletopia.com","port":27015,"enabled":true,"region":"eu","cc":"pl","latitude":52.2297,"longitude":21.017532,"reserved":0,"last_update":"0001-01-01T00:00:00Z","name_a2s":"Uncletopia | Warsaw | 1 | One Thousand Uncles","protocol":17,"map":"cp_dustbowl","folder":"tf","game":"Team Fortress","app_id":440,"player_count":27,"max_players":32,"Bots":16,"server_type":"Dedicated","server_os":"Linux","password":true,"vac":true,"version":"7961495","steam_id":85568392925397850,"keywords":["alltalk","bots","cp","danepve","increased_maxplayers","nocrits","norespawntime","uncletopia"],"game_id":440,"stv_port":0,"stv_name":"","players":[{"user_id":412,"name":"philippoliverCat","steam_id":76561198877008415,"connected_time":120000000000,"state":"active","ping":85},{"user_id":396,"name":"Pinecone Eater","steam_id":76561199398026346,"connected_time":2240000000000,"state":"active","ping":67},{"user_id":401,"name":"Katta363","steam_id":76561198877144992,"connected_time":1413000000000,"state":"active","ping":86},{"user_id":409,"name":"in the balls","steam_id":76561199196015973,"connected_time":317000000000,"state":"active","ping":87},{"user_id":393,"name":"Bodalika","steam_id":76561199238644230,"connected_time":2392000000000,"state":"active","ping":73},{"user_id":343,"name":"[HK]我係香港人","steam_id":76561198165376815,"connected_time":5748000000000,"state":"active","ping":76},{"user_id":410,"name":"T_Crow","steam_id":76561198052999669,"connected_time":273000000000,"state":"active","ping":52},{"user_id":408,"name":"BIGMOOD","steam_id":76561199086966716,"connected_time":661000000000,"state":"active","ping":188},{"user_id":405,"name":"Nexsiu","steam_id":76561198334222167,"connected_time":1156000000000,"state":"active","ping":32},{"user_id":373,"name":"Boris_Bober","steam_id":76561199176831467,"connected_time":3850000000000,"state":"active","ping":66},{"user_id":357,"name":"Scout","steam_id":76561198992898803,"connected_time":4970000000000,"state":"active","ping":63}]},{"server_id":50,"name":"Uncletopia | Warsaw | 2 | One Thousand Uncles","name_short":"waw-2","host":"waw-1.pl.uncletopia.com","port":27025,"enabled":true,"region":"eu","cc":"pl","latitude":52.2297,"longitude":21.017532,"reserved":0,"last_update":"0001-01-01T00:00:00Z","name_a2s":"Uncletopia | Warsaw | 2 | One Thousand Uncles","protocol":17,"map":"pl_pier","folder":"tf","game":"Team Fortress","app_id":440,"player_count":28,"max_players":32,"Bots":16,"server_type":"Dedicated","server_os":"Linux","password":true,"vac":true,"version":"7961495","steam_id":85568392925397851,"keywords":["alltalk","bots","danepve","increased_maxplayers","nocrits","norespawntime","payload","uncletopia"],"game_id":440,"stv_port":0,"stv_name":"","players":[{"user_id":348,"name":"ScampSixteen","steam_id":76561198021771000,"connected_time":472000000000,"state":"active","ping":67},{"user_id":335,"name":"vurtun","steam_id":76561198857395274,"connected_time":1809000000000,"state":"active","ping":59},{"user_id":339,"name":"Riky95","steam_id":76561198095289436,"connected_time":1352000000000,"state":"active","ping":59},{"user_id":340,"name":"Mr_Pulse_","steam_id":76561198095001602,"connected_time":1028000000000,"state":"active","ping":106},{"user_id":276,"name":"CurlyPaty - [YouTube]","steam_id":76561198125025171,"connected_time":4071000000000,"state":"active","ping":24},{"user_id":185,"name":"Zigs","steam_id":76561198116266716,"connected_time":11010000000000,"state":"active","ping":72},{"user_id":307,"name":"JayMaloney","steam_id":76561198050173547,"connected_time":2767000000000,"state":"active","ping":74},{"user_id":360,"name":"Keelan","steam_id":76561198013665543,"connected_time":267000000000,"state":"active","ping":88},{"user_id":334,"name":"the meme lord","steam_id":76561198279369377,"connected_time":1857000000000,"state":"active","ping":71},{"user_id":359,"name":"Grenouillator","steam_id":76561197991694500,"connected_time":408000000000,"state":"active","ping":85},{"user_id":361,"name":"al.koll1212","steam_id":76561198410670217,"connected_time":184000000000,"state":"active","ping":60},{"user_id":363,"name":"Phil","steam_id":76561199124377794,"connected_time":109000000000,"state":"active","ping":164}]},{"server_id":51,"name":"Uncletopia | Warsaw | 3 | All Maps","name_short":"waw-3","host":"waw-1.pl.uncletopia.com","port":27035,"enabled":true,"region":"eu","cc":"pl","latitude":52.2297,"longitude":21.017532,"reserved":0,"last_update":"0001-01-01T00:00:00Z","name_a2s":"Uncletopia | Warsaw | 3 | All Maps","protocol":17,"map":"plr_pipeline","folder":"tf","game":"Team Fortress","app_id":440,"player_count":0,"max_players":24,"Bots":0,"server_type":"Dedicated","server_os":"Linux","password":true,"vac":true,"version":"7961495","steam_id":85568392925397852,"keywords":["nocrits","nodmgspread","payload","uncletopia"],"game_id":440,"stv_port":27036,"stv_name":"Uncletopia | Warsaw | 3 | All Maps | STV","players":null},{"server_id":52,"name":"Uncletopia | Warsaw | 4 | All Maps","name_short":"waw-4","host":"waw-1.pl.uncletopia.com","port":27045,"enabled":true,"region":"eu","cc":"pl","latitude":52.2297,"longitude":21.017532,"reserved":0,"last_update":"0001-01-01T00:00:00Z","name_a2s":"Uncletopia | Warsaw | 4 | All Maps","protocol":17,"map":"koth_cascade","folder":"tf","game":"Team Fortress","app_id":440,"player_count":5,"max_players":24,"Bots":0,"server_type":"Dedicated","server_os":"Linux","password":true,"vac":true,"version":"7961495","steam_id":85568392925397853,"keywords":["cp","nocrits","nodmgspread","uncletopia"],"game_id":440,"stv_port":27046,"stv_name":"Uncletopia | Warsaw | 4 | All Maps | STV","players":[{"user_id":94,"name":"Serg","steam_id":76561198218959001,"connected_time":1115000000000,"state":"active","ping":46},{"user_id":95,"name":"Greem","steam_id":76561198241711724,"connected_time":648000000000,"state":"active","ping":69},{"user_id":96,"name":"Adamkarz","steam_id":76561198796428403,"connected_time":416000000000,"state":"active","ping":59},{"user_id":97,"name":"Spaguetti","steam_id":76561198002913092,"connected_time":178000000000,"state":"active","ping":90},{"user_id":98,"name":"Capitão Falcão","steam_id":76561198062424541,"connected_time":109000000000,"state":"active","ping":87}]},{"server_id":53,"name":"Uncletopia | Warsaw | 5 | Stopwatch","name_short":"waw-5","host":"waw-1.pl.uncletopia.com","port":27055,"enabled":true,"region":"eu","cc":"pl","latitude":52.2297,"longitude":21.017532,"reserved":0,"last_update":"0001-01-01T00:00:00Z","name_a2s":"Uncletopia | Warsaw | 5 | Stopwatch","protocol":17,"map":"workshop/koth_ashville_final.ugc2130459942","folder":"tf","game":"Team Fortress","app_id":440,"player_count":0,"max_players":24,"Bots":0,"server_type":"Dedicated","server_os":"Linux","password":true,"vac":true,"version":"7961495","steam_id":85568392925397854,"keywords":["cp","nocrits","nodmgspread","uncletopia"],"game_id":440,"stv_port":27056,"stv_name":"Uncletopia | Warsaw | 5 | Stopwatch | STV","players":null},{"server_id":54,"name":"Uncletopia | Warsaw | 6 | Community","name_short":"waw-6","host":"waw-1.pl.uncletopia.com","port":27065,"enabled":true,"region":"eu","cc":"pl","latitude":52.2297,"longitude":21.017532,"reserved":0,"last_update":"0001-01-01T00:00:00Z","name_a2s":"Uncletopia | Warsaw | 6 | Community","protocol":17,"map":"workshop/koth_ashville_final.ugc2130459942","folder":"tf","game":"Team Fortress","app_id":440,"player_count":0,"max_players":24,"Bots":0,"server_type":"Dedicated","server_os":"Linux","password":true,"vac":true,"version":"7961495","steam_id":85568392925397856,"keywords":["cp","nocrits","nodmgspread","uncletopia"],"game_id":440,"stv_port":27066,"stv_name":"Uncletopia | Warsaw | 6 | Community | STV","players":null}]}