{"status":true,"message":"","result":[{"server_id":9,"name":"Uncletopia | Atlanta | 1 | All Maps","name_short":"atl-1","host":"atl-1.us.uncletopia.com","port":27015,"enabled":true,"region":"us-east","cc":"us","latitude":33.753746,"longitude":-84.38633,"reserved":0,"last_update":"0001-01-01T00:00:00Z","name_a2s":"Uncletopia | Atlanta | 1 | All Maps","protocol":17,"map":"pl_pier","folder":"tf","game":"Team Fortress","app_id":440,"player_count":6,"max_players":24,"Bots":0,"server_type":"Dedicated","server_os":"Linux","password":true,"vac":true,"version":"7961495","steam_id":85568392924469982,"keywords":["nocrits","nodmgspread","payload","uncletopia"],"game_id":440,"stv_port":27016,"stv_name":"Uncletopia | Atlanta | 1 | All Maps | STV","players":[{"user_id":949,"name":"Faeruune","steam_id":76561198066824710,"connected_time":205000000000,"state":"active","ping":53},{"user_id":948,"name":"DrDefault","steam_id":76561197972494920,"connected_time":487000000000,"state":"active","ping":66},{"user_id":944,"name":"Spiceitwithred","steam_id":76561198313150295,"connected_time":1088000000000,"state":"active","ping":105},{"user_id":936,"name":"euphoricfilth","steam_id":76561198100160865,"connected_time":1517000000000,"state":"active","ping":53},{"user_id":887,"name":"gallowsCalibrator","steam_id":76561198404707578,"connected_time":4598000000000,"state":"active","ping":78},{"user_id":843,"name":"Kick Down Door 6:00AM TUCK☃RO","steam_id":76561197976146738,"connected_time":7621000000000,"state":"active","ping":74}]},{"server_id":104,"name":"Uncletopia | Atlanta | 2 | All Maps","name_short":"atl-2","host":"atl-1.us.uncletopia.com","port":27025,"enabled":true,"region":"us-east","cc":"us","latitude":33.753746,"longitude":-84.38633,"reserved":0,"last_update":"0001-01-01T00:00:00Z","name_a2s":"Uncletopia | Atlanta | 2 | All Maps","protocol":17,"map":"cp_steel","folder":"tf","game":"Team Fortress","app_id":440,"player_count":0,"max_players":24,"Bots":0,"server_type":"Dedicated","server_os":"Linux","password":true,"vac":true,"version":"7961495","steam_id":85568392924469983,"keywords":["cp","nocrits","nodmgspread","uncletopia"],"game_id":440,"stv_port":27026,"stv_name":"Uncletopia | Atlanta | 2 | All Maps | STV","players":null},{"server_id":400,"name":"Uncletopia | Atlanta | 3 | Stopwatch","name_short":"atl-3","host":"atl-1.us.uncletopia.com","port":27035,"enabled":true,"region":"us-east","cc":"us","latitude":33.753746,"longitude":-84.38633,"reserved":0,"last_update":"0001-01-01T00:00:00Z","name_a2s":"Uncletopia | Atlanta | 3 | Stopwatch","protocol":17,"map":"workshop/cp_reckoner_rc6.ugc674719999","folder":"tf","game":"Team Fortress","app_id":440,"player_count":0,"max_players":24,"Bots":0,"server_type":"Dedicated","server_os":"Linux","password":true,"vac":true,"version":"7961495","steam_id":85568392924515187,"keywords":["cp","nocrits","nodmgspread","uncletopia"],"game_id":440,"stv_port":27036,"stv_name":"Uncletopia | Atlanta | 3 | Stopwatch | STV","players":null},{"server_id":401,"name":"Uncletopia | Atlanta | 4 | Community","name_short":"atl-4","host":"atl-1.us.uncletopia.com","port":27045,"enabled":true,"region":"us-east","cc":"us","latitude":33.753746,"longitude":-84.38633,"reserved":0,"last_update":"0001-01-01T00:00:00Z","name_a2s":"Uncletopia | Atlanta | 4 | Community","protocol":17,"map":"workshop/pl_cashworks_final1.ugc2904065412","folder":"tf","game":"Team Fortress","app_id":440,"player_count":0,"max_players":24,"Bots":0,"server_type":"Dedicated","server_os":"Linux","password":true,"vac":true,"version":"7961495","steam_id":85568392924515188,"keywords":["nocrits","nodmgspread","payload","uncletopia"],"game_id":440,"stv_port":27046,"stv_name":"Uncletopia | Atlanta | 4 | Community | STV","players":null},{"server_id":2,"name":"Uncletopia | Chicago | 1 | All Maps","name_short":"chi-1","host":"chi-1.us.uncletopia.com","port":27015,"enabled":true,"region":"us-central","cc":"us","latitude":41.881832,"longitude":-87.62318,"reserved":0,"last_update":"0001-01-01T00:00:00Z","name_a2s":"Uncletopia | Chicago | 1 | All Maps","protocol":17,"map":"pl_badwater","folder":"tf","game":"Team Fortress","app_id":440,"player_count":24,"max_players":24,"Bots":0,"server_type":"Dedicated","server_os":"Linux","password":true,"vac":true,"version":"7961495","steam_id":85568392924469984,"keywords":["nocrits","nodmgspread","payload","uncletopia"],"game_id":440,"stv_port":27016,"stv_name":"Uncletopia | Chicago | 1 | All Maps | STV","players":[{"user_id":825,"name":"Yoshimelon","steam_id":76561198253054325,"connected_time":953000000000,"state":"active","ping":60},{"user_id":826,"name":"GULLY","steam_id":76561198028354983,"connected_time":906000000000,"state":"active","ping":88},{"user_id":812,"name":"breezewax","steam_id":76561198121702006,"connected_time":2526000000000,"state":"active","ping":69},{"user_id":796,"name":"goblin?","steam_id":76561198007192438,"connected_time":4041000000000,"state":"active","ping":61},{"user_id":827,"name":"dog food eater","steam_id":76561198047950170,"connected_time":680000000000,"state":"active","ping":111},{"user_id":828,"name":"balls","steam_id":76561198215813163,"connected_time":501000000000,"state":"active","ping":97},{"user_id":785,"name":"autism creature","steam_id":76561198016250523,"connected_time":5795000000000,"state":"active","ping":106},{"user_id":795,"name":"Howard Hamlin","steam_id":76561198881039861,"connected_time":4043000000000,"state":"active","ping":99},{"user_id":829,"name":"oppenheimer style","steam_id":76561198026664629,"connected_time":473000000000,"state":"active","ping":52},{"user_id":816,"name":"CatLionCake","steam_id":76561199287448032,"connected_time":2376000000000,"state":"active","ping":80},{"user_id":776,"name":"The Horny","steam_id":76561198863639459,"connected_time":7560000000000,"state":"active","ping":141},{"user_id":817,"name":"Philo","steam_id":76561198061873341,"connected_time":2372000000000,"state":"active","ping":89},{"user_id":834,"name":"Mank","steam_id":76561198189421005,"connected_time":75000000000,"state":"active","ping":47},{"user_id":797,"name":"Tobo","steam_id":76561198085846393,"connected_time":4037000000000,"state":"active","ping":97},{"user_id":823,"name":"Cooler Ye","steam_id":76561198068830312,"connected_time":2010000000000,"state":"active","ping":46},{"user_id":822,"name":"Large Man","steam_id":76561198880396651,"connected_time":2030000000000,"state":"active","ping":84},{"user_id":810,"name":"Dzhoshua","steam_id":76561198071915251,"connected_time":2891000000000,"state":"active","ping":67},{"user_id":775,"name":"Fever Dreams","steam_id":76561198116614620,"connected_time":7592000000000,"state":"active","ping":72},{"user_id":824,"name":"Untermensch","steam_id":76561198149634242,"connected_time":1728000000000,"state":"active","ping":99},{"user_id":811,"name":"Socialist Warrior","steam_id":76561198085664421,"connected_time":2687000000000,"state":"active","ping":60},{"user_id":818,"name":"Female Gamer","steam_id":76561199366482682,"connected_time":2365000000000,"state":"active","ping":111},{"user_id":821,"name":"debin","steam_id":76561198070711217,"connected_time":2162000000000,"state":"active","ping":50},{"user_id":691,"name":"Azure","steam_id":76561198260328183,"connected_time":15270000000000,"state":"active","ping":63},{"user_id":832,"name":"Rat God","steam_id":76561198066161598,"connected_time":334000000000,"state":"active","ping":62}]},{"server_id":106,"name":"Uncletopia | Chicago | 2 | All Maps","name_short":"chi-2","host":"chi-1.us.uncletopia.com","port":27025,"enabled":true,"region":"us-central","cc":"us","latitude":41.881832,"longitude":-87.62318,"reserved":0,"last_update":"0001-01-01T00:00:00Z","name_a2s":"Uncletopia | Chicago | 2 | All Maps","protocol":17,"map":"koth_cascade","folder":"tf","game":"Team Fortress","app_id":440,"player_count":0,"max_players":24,"Bots":0,"server_type":"Dedicated","server_os":"Linux","password":true,"vac":true,"version":"7961495","steam_id":85568392924469985,"keywords":["cp","nocrits","nodmgspread","uncletopia"],"game_id":440,"stv_port":27026,"stv_name":"Uncletopia | Chicago | 2 | All Maps | STV","players":null},{"server_id":402,"name":"Uncletopia | Chicago | 3 | All Maps","name_short":"chi-3","host":"chi-1.us.uncletopia.com","port":27035,"enabled":true,"region":"us-central","cc":"us","latitude":41.881832,"longitude":-87.62318,"reserved":0,"last_update":"0001-01-01T00:00:00Z","name_a2s":"Uncletopia | Chicago | 3 | All Maps","protocol":17,"map":"cp_process_final","folder":"tf","game":"Team Fortress","app_id":440,"player_count":24,"max_players":24,"Bots":0,"server_type":"Dedicated","server_os":"Linux","password":true,"vac":true,"version":"7961495","steam_id":85568392924515191,"keywords":["cp","nocrits","nodmgspread","uncletopia"],"game_id":440,"stv_port":27036,"stv_name":"Uncletopia | Chicago | 3 | All Maps | STV","players":[{"user_id":715,"name":"joyeuxnoelle","steam_id":76561198062423120,"connected_time":828000000000,"state":"active","ping":77},{"user_id":717,"name":"May Your L's Be Many","steam_id":76561199192245921,"connected_time":497000000000,"state":"active","ping":71},{"user_id":698,"name":"Owls = Government Drones","steam_id":76561198439793697,"connected_time":2086000000000,"state":"active","ping":60},{"user_id":705,"name":"Ninjoth","steam_id":76561198038611753,"connected_time":1774000000000,"state":"active","ping":87},{"user_id":633,"name":"RoseaVenefica","steam_id":76561198020660560,"connected_time":8258000000000,"state":"active","ping":60},{"user_id":713,"name":"Gardangle","steam_id":76561198394173831,"connected_time":1159000000000,"state":"active","ping":100},{"user_id":707,"name":"Jon Arbuckle","steam_id":76561198153295874,"connected_time":1715000000000,"state":"active","ping":112},{"user_id":702,"name":"Thequirka","steam_id":76561198968058652,"connected_time":1861000000000,"state":"active","ping":94},{"user_id":711,"name":"Ghost","steam_id":76561198110914180,"connected_time":1293000000000,"state":"active","ping":176},{"user_id":718,"name":"Minin","steam_id":76561198018819047,"connected_time":435000000000,"state":"active","ping":85},{"user_id":723,"name":"KevilPo","steam_id":76561199244507267,"connected_time":142000000000,"state":"active","ping":68},{"user_id":648,"name":"NvAka","steam_id":76561199044781490,"connected_time":6161000000000,"state":"active","ping":55},{"user_id":709,"name":"Snoopist","steam_id":76561198144023761,"connected_time":1701000000000,"state":"active","ping":34},{"user_id":714,"name":"GMFD! Juustin","steam_id":76561198121922413,"connected_time":1054000000000,"state":"active","ping":104},{"user_id":644,"name":"tail slap +36 (4d12+18)","steam_id":76561198040425096,"connected_time":6215000000000,"state":"active","ping":65},{"user_id":679,"name":"Frog Finance Gutter Justice","steam_id":76561198067247951,"connected_time":3710000000000,"state":"active","ping":61},{"user_id":686,"name":"如願","steam_id":76561198038486613,"connected_time":2662000000000,"state":"active","ping":60},{"user_id":716,"name":"GatorAIDS","steam_id":76561198043220092,"connected_time":743000000000,"state":"active","ping":85},{"user_id":719,"name":"mhp","steam_id":76561198219815228,"connected_time":350000000000,"state":"active","ping":69},{"user_id":694,"name":"Rat Bastard","steam_id":76561198153443658,"connected_time":2484000000000,"state":"active","ping":85},{"user_id":703,"name":"St. Michael","steam_id":76561198037611052,"connected_time":1833000000000,"state":"active","ping":62},{"user_id":722,"name":"Supercoxylac","steam_id":76561198376300138,"connected_time":252000000000,"state":"active","ping":152},{"user_id":721,"name":"Person","steam_id":76561198093244204,"connected_time":285000000000,"state":"active","ping":75},{"user_id":685,"name":"smorgis","steam_id":76561199218284628,"connected_time":2843000000000,"state":"active","ping":92}]},{"server_id":403,"name":"Uncletopia | Chicago | 4 | All Maps","name_short":"chi-4","host":"chi-1.us.uncletopia.com","port":27045,"enabled":true,"region":"us-central","cc":"us","latitude":41.881832,"longitude":-87.62318,"reserved":0,"last_update":"0001-01-01T00:00:00Z","name_a2s":"Uncletopia | Chicago | 4 | All Maps","protocol":17,"map":"pl_badwater","folder":"tf","game":"Team Fortress","app_id":440,"player_count":0,"max_players":24,"Bots":0,"server_type":"Dedicated","server_os":"Linux","password":true,"vac":true,"version":"7961495","steam_id":85568392924515193,"keywords":["nocrits","nodmgspread","payload","uncletopia"],"game_id":440,"stv_port":27046,"stv_name":"Uncletopia | Chicago | 4 | All Maps | STV","players":null},{"server_id":36,"name":"Uncletopia | Chicago | 5 | All Maps","name_short":"chi-5","host":"chi-2.us.uncletopia.com","port":27015,"enabled":true,"region":"us-central","cc":"us","latitude":41.881832,"longitude":-87.62318,"reserved":0,"last_update":"0001-01-01T00:00:00Z","name_a2s":"Uncletopia | Chicago | 5 | All Maps","protocol":17,"map":"ctf_2fort","folder":"tf","game":"Team Fortress","app_id":440,"player_count":0,"max_players":24,"Bots":0,"server_type":"Dedicated","server_os":"Linux","password":true,"vac":true,"version":"7961495","steam_id":85568392924866362,"keywords":["ctf","nocrits","nodmgspread","uncletopia"],"game_id":440,"stv_port":27016,"stv_name":"Uncletopia | Chicago | 5 | All Maps | STV","players":null},{"server_id":37,"name":"Uncletopia | Chicago | 6 | All Maps","name_short":"chi-6","host":"chi-2.us.uncletopia.com","port":27025,"enabled":true,"region":"us-central","cc":"us","latitude":41.881832,"longitude":-87.62318,"reserved":0,"last_update":"0001-01-01T00:00:00Z","name_a2s":"Uncletopia | Chicago | 6 | All Maps","protocol":17,"map":"cp_sunshine","folder":"tf","game":"Team Fortress","app_id":440,"player_count":0,"max_players":24,"Bots":0,"server_type":"Dedicated","server_os":"Linux","password":true,"vac":true,"version":"7961495","steam_id":85568392924866363,"keywords":["cp","nocrits","nodmgspread","uncletopia"],"game_id":440,"stv_port":27026,"stv_name":"Uncletopia | Chicago | 6 | All Maps | STV","players":null},{"server_id":38,"name":"Uncletopia | Chicago | 7 | Stopwatch","name_short":"chi-7","host":"chi-2.us.uncletopia.com","port":27035,"enabled":true,"region":"us-central","cc":"us","latitude":41.881832,"longitude":-87.62318,"reserved":0,"last_update":"0001-01-01T00:00:00Z","name_a2s":"Uncletopia | Chicago | 7 | Stopwatch","protocol":17,"map":"koth_highpass","folder":"tf","game":"Team Fortress","app_id":440,"player_count":0,"max_players":24,"Bots":0,"server_type":"Dedicated","server_os":"Linux","password":true,"vac":true,"version":"7961495","steam_id":85568392924866364,"keywords":["cp","nocrits","nodmgspread","uncletopia"],"game_id":440,"stv_port":27036,"stv_name":"Uncletopia | Chicago | 7 | Stopwatch | STV","players":null},{"server_id":39,"name":"Uncletopia | Chicago | 8 | Community","name_short":"chi-8","host":"chi-2.us.uncletopia.com","port":27045,"enabled":true,"region":"us-central","cc":"us","latitude":41.881832,"longitude":-87.62318,"reserved":0,"last_update":"0001-01-01T00:00:00Z","name_a2s":"Uncletopia | Chicago | 8 | Community","protocol":17,"map":"pl_pier","folder":"tf","game":"Team Fortress","app_id":440,"player_count":0,"max_players":24,"Bots":0,"server_type":"Dedicated","server_os":"Linux","password":true,"vac":true,"version":"7961495","steam_id":85568392924866365,"keywords":["nocrits","nodmgspread","payload","uncletopia"],"game_id":440,"stv_port":27046,"stv_name":"Uncletopia | Chicago | 8 | Community | STV","players":null},{"server_id":8,"name":"Uncletopia | Dallas | 1 | All Maps","name_short":"dal-1","host":"dal-1.us.uncletopia.com","port":27015,"enabled":true,"region":"us-central","cc":"us","latitude":32.779167,"longitude":-96.80889,"reserved":0,"last_update":"0001-01-01T00:00:00Z","name_a2s":"Uncletopia | Dallas | 1 | All Maps","protocol":17,"map":"pl_swiftwater_final1","folder":"tf","game":"Team Fortress","app_id":440,"player_count":23,"max_players":24,"Bots":0,"server_type":"Dedicated","server_os":"Linux","password":true,"vac":true,"version":"7961495","steam_id":85568392924469986,"keywords":["nocrits","nodmgspread","payload","uncletopia"],"game_id":440,"stv_port":27016,"stv_name":"Uncletopia | Dallas | 1 | All Maps | STV","players":[{"user_id":778,"name":"sekia sessions","steam_id":76561199061380038,"connected_time":5055000000000,"state":"active","ping":75},{"user_id":806,"name":"Dr.Nooo!!!!!!!!","steam_id":76561198064738479,"connected_time":1503000000000,"state":"active","ping":88},{"user_id":825,"name":"Wizard02","steam_id":76561198178293623,"connected_time":402000000000,"state":"active","ping":57},{"user_id":611,"name":"errant","steam_id":76561197961758410,"connected_time":15379000000000,"state":"active","ping":43},{"user_id":826,"name":"keffers","steam_id":76561198202338796,"connected_time":366000000000,"state":"active","ping":77},{"user_id":828,"name":"Degenerate Mustang Owner","steam_id":76561198259388205,"connected_time":147000000000,"state":"active","ping":75},{"user_id":808,"name":"Captain Buggy","steam_id":76561198024444448,"connected_time":1470000000000,"state":"active","ping":96},{"user_id":827,"name":"financial regret","steam_id":76561198448523433,"connected_time":273000000000,"state":"active","ping":197},{"user_id":829,"name":"Rdforzer","steam_id":76561198243101872,"connected_time":125000000000,"state":"active","ping":80},{"user_id":821,"name":"The Lunar Barista","steam_id":76561198180602091,"connected_time":876000000000,"state":"active","ping":69},{"user_id":791,"name":"shellaa","steam_id":76561198044124102,"connected_time":4119000000000,"state":"active","ping":46},{"user_id":819,"name":"tgirl swag","steam_id":76561198128164970,"connected_time":924000000000,"state":"active","ping":80},{"user_id":756,"name":"skegeton","steam_id":76561198095581099,"connected_time":6061000000000,"state":"active","ping":56},{"user_id":830,"name":"Gimplor","steam_id":76561198336945932,"connected_time":124000000000,"state":"active","ping":87},{"user_id":831,"name":"snake eyes","steam_id":76561198099285010,"connected_time":122000000000,"state":"active","ping":82},{"user_id":824,"name":"Anomic","steam_id":76561198044000414,"connected_time":791000000000,"state":"active","ping":87},{"user_id":832,"name":"lucky＊","steam_id":76561199175972510,"connected_time":1000000000,"state":"spawning","ping":44},{"user_id":805,"name":"pumpitup","steam_id":76561198169219561,"connected_time":2378000000000,"state":"active","ping":76},{"user_id":816,"name":"bad","steam_id":76561198090531755,"connected_time":1041000000000,"state":"active","ping":45},{"user_id":817,"name":"LIMBS","steam_id":76561198101220604,"connected_time":1039000000000,"state":"active","ping":83},{"user_id":818,"name":"Alejandro","steam_id":76561197970051493,"connected_time":1031000000000,"state":"active","ping":124},{"user_id":820,"name":"No More What Ifs","steam_id":76561198410957728,"connected_time":919000000000,"state":"active","ping":80},{"user_id":804,"name":"ATL1 | yateyay","steam_id":76561198311004039,"connected_time":2537000000000,"state":"active","ping":89}]},{"server_id":108,"name":"Uncletopia | Dallas | 2 | All Maps","name_short":"dal-2","host":"dal-1.us.uncletopia.com","port":27025,"enabled":true,"region":"us-central","cc":"us","latitude":32.779167,"longitude":-96.80889,"reserved":0,"last_update":"0001-01-01T00:00:00Z","name_a2s":"Uncletopia | Dallas | 2 | All Maps","protocol":17,"map":"pl_upward","folder":"tf","game":"Team Fortress","app_id":440,"player_count":24,"max_players":24,"Bots":0,"server_type":"Dedicated","server_os":"Linux","password":true,"vac":true,"version":"7961495","steam_id":85568392924469988,"keywords":["nocrits","nodmgspread","payload","uncletopia"],"game_id":440,"stv_port":27026,"stv_name":"Uncletopia | Dallas | 2 | All Maps | STV","players":[{"user_id":700,"name":"Context","steam_id":76561197972634187,"connected_time":8564000000000,"state":"active","ping":78},{"user_id":771,"name":"darkness.danny3481","steam_id":76561198132808002,"connected_time":2021000000000,"state":"active","ping":75},{"user_id":767,"name":"ultralisk52","steam_id":76561198051666604,"connected_time":2762000000000,"state":"active","ping":73},{"user_id":790,"name":"PlatniumBoi","steam_id":76561198276140755,"connected_time":30000000000,"state":"active","ping":133},{"user_id":783,"name":"Averyx","steam_id":76561199104530916,"connected_time":1113000000000,"state":"active","ping":110},{"user_id":754,"name":"Kenny[Goblin]","steam_id":76561199005805984,"connected_time":3910000000000,"state":"active","ping":43},{"user_id":753,"name":"gyat","steam_id":76561198043684960,"connected_time":3965000000000,"state":"active","ping":45},{"user_id":751,"name":"Filthy Hobo","steam_id":76561198174373015,"connected_time":4160000000000,"state":"active","ping":119},{"user_id":785,"name":"derb","steam_id":76561198110369487,"connected_time":571000000000,"state":"active","ping":73},{"user_id":755,"name":"freyja","steam_id":76561198012480197,"connected_time":3891000000000,"state":"active","ping":76},{"user_id":779,"name":"Dollop","steam_id":76561198055444075,"connected_time":1618000000000,"state":"active","ping":87},{"user_id":718,"name":"fluffythemessiah","steam_id":76561199013202758,"connected_time":6410000000000,"state":"active","ping":67},{"user_id":780,"name":"hatsune miku","steam_id":76561199445009981,"connected_time":1481000000000,"state":"active","ping":98},{"user_id":723,"name":"KiWii","steam_id":76561199013608864,"connected_time":6191000000000,"state":"active","ping":64},{"user_id":786,"name":"The Announcer's Feet","steam_id":76561199501227879,"connected_time":558000000000,"state":"active","ping":60},{"user_id":768,"name":"Kyle","steam_id":76561198150061073,"connected_time":2702000000000,"state":"active","ping":60},{"user_id":756,"name":"Ahten Xevious","steam_id":76561198075469828,"connected_time":3882000000000,"state":"active","ping":76},{"user_id":757,"name":"Willowl","steam_id":76561198074612980,"connected_time":3848000000000,"state":"active","ping":107},{"user_id":775,"name":"Blueberry Lemonade","steam_id":76561198056377822,"connected_time":1774000000000,"state":"active","ping":92},{"user_id":784,"name":"Lil Air Moist","steam_id":76561198073300835,"connected_time":896000000000,"state":"active","ping":73},{"user_id":787,"name":"Punished Shitster","steam_id":76561198150452857,"connected_time":531000000000,"state":"active","ping":48},{"user_id":788,"name":"C∅RVUS","steam_id":76561198100640019,"connected_time":463000000000,"state":"active","ping":100},{"user_id":789,"name":"Puddles","steam_id":76561198110832624,"connected_time":322000000000,"state":"active","ping":60},{"user_id":782,"name":"Oliver","steam_id":76561199036584550,"connected_time":1385000000000,"state":"active","ping":37}]},{"server_id":404,"name":"Uncletopia | Dallas | 3 | All Maps","name_short":"dal-3","host":"dal-1.us.uncletopia.com","port":27035,"enabled":true,"region":"us-central","cc":"us","latitude":32.779167,"longitude":-96.80889,"reserved":0,"last_update":"0001-01-01T00:00:00Z","name_a2s":"Uncletopia | Dallas | 3 | All Maps","protocol":17,"map":"cp_sunshine","folder":"tf","game":"Team Fortress","app_id":440,"player_count":0,"max_players":24,"Bots":0,"server_type":"Dedicated","server_os":"Linux","password":true,"vac":true,"version":"7961495","steam_id":85568392924515219,"keywords":["cp","nocrits","nodmgspread","uncletopia"],"game_id":440,"stv_port":27036,"stv_name":"Uncletopia | Dallas | 3 | All Maps | STV","players":null},{"server_id":405,"name":"Uncletopia | Dallas | 4 | Community","name_short":"dal-4","host":"dal-1.us.uncletopia.com","port":27045,"enabled":true,"region":"us-central","cc":"us","latitude":32.779167,"longitude":-96.80889,"reserved":0,"last_update":"0001-01-01T00:00:00Z","name_a2s":"Uncletopia | Dallas | 4 | Community","protocol":17,"map":"workshop/koth_ramjam_rc1.ugc459778887","folder":"tf","game":"Team Fortress","app_id":440,"player_count":0,"max_players":24,"Bots":0,"server_type":"Dedicated","server_os":"Linux","password":true,"vac":true,"version":"7961495","steam_id":85568392924515220,"keywords":["cp","nocrits","nodmgspread","uncletopia"],"game_id":440,"stv_port":27046,"stv_name":"Uncletopia | Dallas | 4 | Community | STV","players":null},{"server_id":5,"name":"Uncletopia | Frankfurt | 1 | All Maps","name_short":"frk-1","host":"frk-1.de.uncletopia.com","port":27015,"enabled":true,"region":"eu","cc":"de","latitude":50.110924,"longitude":8.682127,"reserved":0,"last_update":"0001-01-01T00:00:00Z","name_a2s":"Uncletopia | Frankfurt | 1 | All Maps","protocol":17,"map":"koth_highpass","folder":"tf","game":"Team Fortress","app_id":440,"player_count":0,"max_players":24,"Bots":0,"server_type":"Dedicated","server_os":"Linux","password":true,"vac":true,"version":"7961495","steam_id":85568392924469989,"keywords":["cp","nocrits","nodmgspread","uncletopia"],"game_id":440,"stv_port":27016,"stv_name":"Uncletopia | Frankfurt | 1 | All Maps | STV","players":null},{"server_id":110,"name":"Uncletopia | Frankfurt | 2 | All Maps","name_short":"frk-2","host":"frk-1.de.uncletopia.com","port":27025,"enabled":true,"region":"eu","cc":"de","latitude":50.110924,"longitude":8.682127,"reserved":0,"last_update":"0001-01-01T00:00:00Z","name_a2s":"Uncletopia | Frankfurt | 2 | All Maps","protocol":17,"map":"cp_dustbowl","folder":"tf","game":"Team Fortress","app_id":440,"player_count":0,"max_players":24,"Bots":0,"server_type":"Dedicated","server_os":"Linux","password":true,"vac":true,"version":"7961495","steam_id":85568392924469990,"keywords":["cp","nocrits","nodmgspread","uncletopia"],"game_id":440,"stv_port":27026,"stv_name":"Uncletopia | Frankfurt | 2 | All Maps | STV","players":null},{"server_id":308,"name":"Uncletopia | Frankfurt | 3 | All Maps","name_short":"frk-3","host":"frk-1.de.uncletopia.com","port":27035,"enabled":true,"region":"eu","cc":"de","latitude":50.110924,"longitude":8.682127,"reserved":0,"last_update":"0001-01-01T00:00:00Z","name_a2s":"Uncletopia | Frankfurt | 3 | All Maps","protocol":17,"map":"pl_barnblitz","folder":"tf","game":"Team Fortress","app_id":440,"player_count":7,"max_players":24,"Bots":0,"server_type":"Dedicated","server_os":"Linux","password":true,"vac":true,"version":"7961495","steam_id":85568392924504274,"keywords":["nocrits","nodmgspread","payload","uncletopia"],"game_id":440,"stv_port":27036,"stv_name":"Uncletopia | Frankfurt | 3 | All Maps | STV","players":[{"user_id":9,"name":"2bunnies","steam_id":76561198866822016,"connected_time":216000000000,"state":"active","ping":86},{"user_id":5,"name":"Calsim","steam_id":76561198164877219,"connected_time":514000000000,"state":"active","ping":52},{"user_id":6,"name":"The CEO of Sex Inc.","steam_id":76561198385989487,"connected_time":430000000000,"state":"active","ping":97},{"user_id":7,"name":"Proud. True. Toyota","steam_id":76561198020247749,"connected_time":413000000000,"state":"active","ping":71},{"user_id":8,"name":"Marky","steam_id":76561199474556920,"connected_time":256000000000,"state":"active","ping":78},{"user_id":10,"name":"Rambi","steam_id":76561199058078505,"connected_time":208000000000,"state":"active","ping":139},{"user_id":11,"name":"Tynnyri","steam_id":76561198075516541,"connected_time":29000000000,"state":"active","ping":103}]},{"server_id":309,"name":"Uncletopia | Frankfurt | 4 | All Maps","name_short":"frk-4","host":"frk-1.de.uncletopia.com","port":27045,"enabled":true,"region":"eu","cc":"de","latitude":50.110924,"longitude":8.682127,"reserved":0,"last_update":"0001-01-01T00:00:00Z","name_a2s":"Uncletopia | Frankfurt | 4 | All Maps","protocol":17,"map":"koth_highpass","folder":"tf","game":"Team Fortress","app_id":440,"player_count":0,"max_players":24,"Bots":0,"server_type":"Dedicated","server_os":"Linux","password":true,"vac":true,"version":"7961495","steam_id":85568392924504275,"keywords":["cp","nocrits","nodmgspread","uncletopia"],"game_id":440,"stv_port":27046,"stv_name":"Uncletopia | Frankfurt | 4 | All Maps | STV","players":null},{"server_id":310,"name":"Uncletopia | Frankfurt | 5 | All Maps","name_short":"frk-5","host":"frk-1.de.uncletopia.com","port":27055,"enabled":true,"region":"eu","cc":"de","latitude":50.110924,"longitude":8.682127,"reserved":0,"last_update":"0001-01-01T00:00:00Z","name_a2s":"Uncletopia | Frankfurt | 5 | All Maps","protocol":17,"map":"cp_process_final","folder":"tf","game":"Team Fortress","app_id":440,"player_count":0,"max_players":24,"Bots":0,"server_type":"Dedicated","server_os":"Linux","password":true,"vac":true,"version":"7961495","steam_id":85568392924504277,"keywords":["cp","nocrits","nodmgspread","uncletopia"],"game_id":440,"stv_port":27056,"stv_name":"Uncletopia | Frankfurt | 5 | All Maps | STV","players":null},{"server_id":311,"name":"Uncletopia | Frankfurt | 6 | All Maps","name_short":"frk-6","host":"frk-1.de.uncletopia.com","port":27065,"enabled":true,"region":"eu","cc":"de","latitude":50.110924,"longitude":8.682127,"reserved":0,"last_update":"0001-01-01T00:00:00Z","name_a2s":"Uncletopia | Frankfurt | 6 | All Maps","protocol":17,"map":"cp_altitude","folder":"tf","game":"Team Fortress","app_id":440,"player_count":1,"max_players":24,"Bots":0,"server_type":"Dedicated","server_os":"Linux","password":true,"vac":true,"version":"7961495","steam_id":85568392924504278,"keywords":["cp","nocrits","nodmgspread","uncletopia"],"game_id":440,"stv_port":27066,"stv_name":"Uncletopia | Frankfurt | 6 | All Maps | STV","players":[{"user_id":4,"name":"Little Rascal","steam_id":76561197969825907,"connected_time":214000000000,"state":"active","ping":63}]},{"server_id":23,"name":"Uncletopia | Frankfurt | 7 | Stopwatch","name_short":"frk-7","host":"frk-1.de.uncletopia.com","port":27075,"enabled":true,"region":"eu","cc":"de","latitude":50.110924,"longitude":8.682127,"reserved":0,"last_update":"0001-01-01T00:00:00Z","name_a2s":"Uncletopia | Frankfurt | 7 | Stopwatch","protocol":17,"map":"pl_frontier_final","folder":"tf","game":"Team Fortress","app_id":440,"player_count":0,"max_players":24,"Bots":0,"server_type":"Dedicated","server_os":"Linux","password":true,"vac":true,"version":"7961495","steam_id":85568392924742827,"keywords":["nocrits","nodmgspread","payload","uncletopia"],"game_id":440,"stv_port":27076,"stv_name":"Uncletopia | Frankfurt | 7 | Stopwatch | STV","players":null},{"server_id":24,"name":"Uncletopia | Frankfurt | 8 | Community","name_short":"frk-8","host":"frk-1.de.uncletopia.com","port":27085,"enabled":true,"region":"eu","cc":"de","latitude":50.110924,"longitude":8.682127,"reserved":0,"last_update":"0001-01-01T00:00:00Z","name_a2s":"Uncletopia | Frankfurt | 8 | Community","protocol":17,"map":"cp_mountainlab","folder":"tf","game":"Team Fortress","app_id":440,"player_count":0,"max_players":24,"Bots":0,"server_type":"Dedicated","server_os":"Linux","password":true,"vac":true,"version":"7961495","steam_id":85568392924742828,"keywords":["cp","nocrits","nodmgspread","uncletopia"],"game_id":440,"stv_port":27086,"stv_name":"Uncletopia | Frankfurt | 8 | Community | STV","players":null},{"server_id":202,"name":"Uncletopia | Hong Kong | 1 | All Maps","name_short":"hgk-1","host":"hgk-1.hk.uncletopia.com","port":27015,"enabled":true,"region":"asia","cc":"hk","latitude":22.302711,"longitude":114.177216,"reserved":0,"last_update":"0001-01-01T00:00:00Z","name_a2s":"Uncletopia | Hong Kong | 1 | All Maps","protocol":17,"map":"pl_borneo","folder":"tf","game":"Team Fortress","app_id":440,"player_count":9,"max_players":24,"Bots":0,"server_type":"Dedicated","server_os":"Linux","password":true,"vac":true,"version":"7961495","steam_id":85568392924494504,"keywords":["nocrits","nodmgspread","payload","uncletopia"],"game_id":440,"stv_port":27016,"stv_name":"Uncletopia | Hong Kong | 1 | All Maps | STV","players":[{"user_id":47,"name":"The MONKE","steam_id":76561199114571176,"connected_time":2229000000000,"state":"active","ping":89},{"user_id":52,"name":"tuna.mp4","steam_id":76561199166987061,"connected_time":1345000000000,"state":"active","ping":129},{"user_id":53,"name":"⬞","steam_id":76561199373637717,"connected_time":1051000000000,"state":"active","ping":59},{"user_id":54,"name":"Hay","steam_id":76561199438952901,"connected_time":991000000000,"state":"active","ping":49},{"user_id":56,"name":"water tastes good","steam_id":76561199375947670,"connected_time":876000000000,"state":"active","ping":65},{"user_id":57,"name":"ArcticDolphin","steam_id":76561198203626319,"connected_time":791000000000,"state":"active","ping":125},{"user_id":58,"name":"beaver the domestic terrorist","steam_id":76561199219484527,"connected_time":640000000000,"state":"active","ping":90},{"user_id":59,"name":"engineer main","steam_id":76561199276695163,"connected_time":622000000000,"state":"active","ping":126},{"user_id":63,"name":"UZ","steam_id":76561198179320563,"connected_time":207000000000,"state":"active","ping":146}]},{"server_id":1,"name":"Uncletopia | Los Angeles | 1 | All Maps","name_short":"lax-1","host":"lax-1.us.uncletopia.com","port":27015,"enabled":true,"region":"us-west","cc":"us","latitude":33.94279,"longitude":-118.41004,"reserved":0,"last_update":"0001-01-01T00:00:00Z","name_a2s":"Uncletopia | Los Angeles | 1 | All Maps","protocol":17,"map":"pl_borneo","folder":"tf","game":"Team Fortress","app_id":440,"player_count":18,"max_players":24,"Bots":0,"server_type":"Dedicated","server_os":"Linux","password":true,"vac":true,"version":"7961495","steam_id":85568392924469991,"keywords":["nocrits","nodmgspread","payload","uncletopia"],"game_id":440,"stv_port":27016,"stv_name":"Uncletopia | Los Angeles | 1 | All Maps | STV","players":[{"user_id":243,"name":"johnny","steam_id":76561198050225055,"connected_time":14810000000000,"state":"active","ping":45},{"user_id":439,"name":"Azurite The Lucario","steam_id":76561199472435344,"connected_time":1708000000000,"state":"active","ping":120},{"user_id":435,"name":"fish","steam_id":76561198054070811,"connected_time":1896000000000,"state":"active","ping":45},{"user_id":448,"name":"hapa demon punk","steam_id":76561198308883028,"connected_time":1050000000000,"state":"active","ping":56},{"user_id":452,"name":"cringy","steam_id":76561198323000455,"connected_time":292000000000,"state":"active","ping":59},{"user_id":398,"name":"baedeker","steam_id":76561199081837220,"connected_time":4197000000000,"state":"active","ping":98},{"user_id":453,"name":"Geesemans","steam_id":76561199478892816,"connected_time":181000000000,"state":"active","ping":132},{"user_id":446,"name":"wugmup","steam_id":76561199096287734,"connected_time":1194000000000,"state":"active","ping":122},{"user_id":449,"name":"Soda","steam_id":76561198219209367,"connected_time":825000000000,"state":"active","ping":56},{"user_id":450,"name":"Lambchop","steam_id":76561198043900363,"connected_time":726000000000,"state":"active","ping":73},{"user_id":424,"name":"exx","steam_id":76561198090552145,"connected_time":2579000000000,"state":"active","ping":44},{"user_id":425,"name":"Randy Salvage","steam_id":76561198099496163,"connected_time":2579000000000,"state":"active","ping":98},{"user_id":320,"name":"what the fuck is that !?","steam_id":76561198145669711,"connected_time":9589000000000,"state":"active","ping":41},{"user_id":430,"name":"de_pandora","steam_id":76561198075490385,"connected_time":2474000000000,"state":"active","ping":45},{"user_id":442,"name":"Toxic Medic Main (he/they)","steam_id":76561198009314845,"connected_time":1429000000000,"state":"active","ping":69},{"user_id":408,"name":"purple hatsune miku","steam_id":76561198108844158,"connected_time":3691000000000,"state":"active","ping":98},{"user_id":429,"name":"Slyth3r0","steam_id":76561198438359723,"connected_time":2521000000000,"state":"active","ping":85},{"user_id":441,"name":"Omegabigfoot","steam_id":76561198373027460,"connected_time":1687000000000,"state":"active","ping":56}]},{"server_id":112,"name":"Uncletopia | Los Angeles | 2 | All Maps","name_short":"lax-2","host":"lax-1.us.uncletopia.com","port":27025,"enabled":true,"region":"us-west","cc":"us","latitude":33.94279,"longitude":-118.41004,"reserved":0,"last_update":"0001-01-01T00:00:00Z","name_a2s":"Uncletopia | Los Angeles | 2 | All Maps","protocol":17,"map":"koth_highpass","folder":"tf","game":"Team Fortress","app_id":440,"player_count":0,"max_players":24,"Bots":0,"server_type":"Dedicated","server_os":"Linux","password":true,"vac":true,"version":"7961495","steam_id":85568392924469992,"keywords":["cp","nocrits","nodmgspread","uncletopia"],"game_id":440,"stv_port":27026,"stv_name":"Uncletopia | Los Angeles | 2 | All Maps | STV","players":null},{"server_id":324,"name":"Uncletopia | Los Angeles | 3 | All Maps","name_short":"lax-3","host":"lax-1.us.uncletopia.com","port":27035,"enabled":true,"region":"us-west","cc":"us","latitude":33.94279,"longitude":-118.41004,"reserved":0,"last_update":"0001-01-01T00:00:00Z","name_a2s":"Uncletopia | Los Angeles | 3 | All Maps","protocol":17,"map":"cp_snakewater_final1","folder":"tf","game":"Team Fortress","app_id":440,"player_count":16,"max_players":24,"Bots":0,"server_type":"Dedicated","server_os":"Linux","password":true,"vac":true,"version":"7961495","steam_id":85568392924510198,"keywords":["cp","nocrits","nodmgspread","uncletopia"],"game_id":440,"stv_port":27036,"stv_name":"Uncletopia | Los Angeles | 3 | All Maps | STV","players":[{"user_id":585,"name":"cruiser","steam_id":76561198216976569,"connected_time":3322000000000,"state":"active","ping":54},{"user_id":605,"name":"surfe","steam_id":76561198407056645,"connected_time":814000000000,"state":"active","ping":106},{"user_id":598,"name":"nori","steam_id":76561198014744084,"connected_time":1323000000000,"state":"active","ping":87},{"user_id":607,"name":"jams","steam_id":76561198131701290,"connected_time":506000000000,"state":"active","ping":42},{"user_id":592,"name":"Stardust","steam_id":76561198169175897,"connected_time":2053000000000,"state":"active","ping":114},{"user_id":536,"name":"Mocha Josie","steam_id":76561198066452726,"connected_time":6561000000000,"state":"active","ping":83},{"user_id":358,"name":"rat","steam_id":76561198130412963,"connected_time":15821000000000,"state":"active","ping":80},{"user_id":599,"name":"Konnor","steam_id":76561199136300254,"connected_time":1322000000000,"state":"active","ping":44},{"user_id":589,"name":"Zesty Zucchini Ziti","steam_id":76561198092494136,"connected_time":2418000000000,"state":"active","ping":65},{"user_id":608,"name":"Kamin","steam_id":76561198255299559,"connected_time":282000000000,"state":"active","ping":89},{"user_id":593,"name":"Larry","steam_id":76561198189961581,"connected_time":2048000000000,"state":"active","ping":65},{"user_id":604,"name":"triph","steam_id":76561198067196509,"connected_time":903000000000,"state":"active","ping":34},{"user_id":586,"name":"rise","steam_id":76561198452312880,"connected_time":3104000000000,"state":"active","ping":72},{"user_id":556,"name":"joshua.theSAVAGE69","steam_id":76561198115458307,"connected_time":5292000000000,"state":"active","ping":47},{"user_id":570,"name":"yellow ᗜˬᗜ","steam_id":76561198366474647,"connected_time":4221000000000,"state":"active","ping":53},{"user_id":583,"name":"felicities","steam_id":76561199446921772,"connected_time":3490000000000,"state":"active","ping":45}]},{"server_id":25,"name":"Uncletopia | Los Angeles | 4 | Stopwatch","name_short":"lax-4","host":"lax-1.us.uncletopia.com","port":27045,"enabled":true,"region":"us-west","cc":"us","latitude":33.94279,"longitude":-118.41004,"reserved":0,"last_update":"0001-01-01T00:00:00Z","name_a2s":"Uncletopia | Los Angeles | 4 | Stopwatch","protocol":17,"map":"workshop/koth_ashville_final.ugc2130459942","folder":"tf","game":"Team Fortress","app_id":440,"player_count":0,"max_players":24,"Bots":0,"server_type":"Dedicated","server_os":"Linux","password":true,"vac":true,"version":"7961495","steam_id":85568392924510199,"keywords":["cp","nocrits","nodmgspread","uncletopia"],"game_id":440,"stv_port":27046,"stv_name":"Uncletopia | Los Angeles | 4 | Stopwatch | STV","players":null},{"server_id":11,"name":"Uncletopia | London | 1 | All Maps","name_short":"lon-1","host":"lon-1.uk.uncletopia.com","port":27015,"enabled":true,"region":"eu","cc":"gb","latitude":51.509865,"longitude":-0.118092,"reserved":0,"last_update":"0001-01-01T00:00:00Z","name_a2s":"Uncletopia | London | 1 | All Maps","protocol":17,"map":"pl_upward","folder":"tf","game":"Team Fortress","app_id":440,"player_count":24,"max_players":24,"Bots":0,"server_type":"Dedicated","server_os":"Linux","password":true,"vac":true,"version":"7961495","steam_id":85568392924367362,"keywords":["nocrits","nodmgspread","payload","uncletopia"],"game_id":440,"stv_port":27016,"stv_name":"Uncletopia | London | 1 | All Maps | STV","players":[{"user_id":69,"name":"CORVO","steam_id":76561199320547010,"connected_time":3471000000000,"state":"active","ping":97},{"user_id":93,"name":"Nik_KiP","steam_id":76561198003030143,"connected_time":1312000000000,"state":"active","ping":99},{"user_id":76,"name":"DOME","steam_id":76561198085155381,"connected_time":2681000000000,"state":"active","ping":74},{"user_id":95,"name":"rioleyva2002","steam_id":76561199501788956,"connected_time":1023000000000,"state":"active","ping":143},{"user_id":7,"name":"Lyncurion","steam_id":76561199260022725,"connected_time":8040000000000,"state":"active","ping":77},{"user_id":99,"name":"[SSRB] Kiri","steam_id":76561198193983787,"connected_time":926000000000,"state":"active","ping":144},{"user_id":79,"name":"Circle | Gkost","steam_id":76561198045553992,"connected_time":2170000000000,"state":"active","ping":80},{"user_id":21,"name":"Marcel","steam_id":76561198348686648,"connected_time":7417000000000,"state":"active","ping":45},{"user_id":102,"name":"dongy","steam_id":76561198050319619,"connected_time":625000000000,"state":"active","ping":64},{"user_id":90,"name":"FilipeskoBro  trade.tf","steam_id":76561198831347261,"connected_time":1435000000000,"state":"active","ping":69},{"user_id":101,"name":"delta man","steam_id":76561198204491245,"connected_time":696000000000,"state":"active","ping":150},{"user_id":96,"name":"cof","steam_id":76561199128417805,"connected_time":1010000000000,"state":"active","ping":45},{"user_id":48,"name":"Robert Rockets","steam_id":76561199407941086,"connected_time":5621000000000,"state":"active","ping":72},{"user_id":61,"name":"yuno appreciator","steam_id":76561198083286511,"connected_time":4388000000000,"state":"active","ping":43},{"user_id":108,"name":"Lemings_","steam_id":76561198021070460,"connected_time":138000000000,"state":"active","ping":87},{"user_id":62,"name":"Nome","steam_id":76561198867982828,"connected_time":4380000000000,"state":"active","ping":133},{"user_id":57,"name":"Vivid","steam_id":76561198346546144,"connected_time":4693000000000,"state":"active","ping":53},{"user_id":98,"name":"Syd","steam_id":76561198020515027,"connected_time":963000000000,"state":"active","ping":127},{"user_id":89,"name":"Nutty Dark^^","steam_id":76561198036241064,"connected_time":1501000000000,"state":"active","ping":70},{"user_id":100,"name":"Armolitskiy","steam_id":76561198443646513,"connected_time":897000000000,"state":"active","ping":135},{"user_id":105,"name":"lebensgott","steam_id":76561198037909575,"connected_time":447000000000,"state":"active","ping":71},{"user_id":72,"name":"milof","steam_id":76561198809199604,"connected_time":3378000000000,"state":"active","ping":76},{"user_id":107,"name":"Random Weeb [YUE]","steam_id":76561198839212897,"connected_time":359000000000,"state":"active","ping":108},{"user_id":92,"name":"Alice","steam_id":76561198052410860,"connected_time":1396000000000,"state":"active","ping":142}]},{"server_id":114,"name":"Uncletopia | London | 2 | All Maps","name_short":"lon-2","host":"lon-1.uk.uncletopia.com","port":27025,"enabled":true,"region":"eu","cc":"gb","latitude":51.509865,"longitude":-0.118092,"reserved":0,"last_update":"0001-01-01T00:00:00Z","name_a2s":"Uncletopia | London | 2 | All Maps","protocol":17,"map":"koth_lakeside_final","folder":"tf","game":"Team Fortress","app_id":440,"player_count":0,"max_players":24,"Bots":0,"server_type":"Dedicated","server_os":"Linux","password":true,"vac":true,"version":"7961495","steam_id":85568392924470941,"keywords":["cp","nocrits","nodmgspread","uncletopia"],"game_id":440,"stv_port":27026,"stv_name":"Uncletopia | London | 2 | All Maps | STV","players":null},{"server_id":320,"name":"Uncletopia | London | 3 | All Maps","name_short":"lon-3","host":"lon-1.uk.uncletopia.com","port":27035,"enabled":true,"region":"eu","cc":"gb","latitude":51.509865,"longitude":-0.118092,"reserved":0,"last_update":"0001-01-01T00:00:00Z","name_a2s":"Uncletopia | London | 3 | All Maps","protocol":17,"map":"cp_process_final","folder":"tf","game":"Team Fortress","app_id":440,"player_count":0,"max_players":24,"Bots":0,"server_type":"Dedicated","server_os":"Linux","password":true,"vac":true,"version":"7961495","steam_id":85568392924510192,"keywords":["cp","nocrits","nodmgspread","uncletopia"],"game_id":440,"stv_port":27036,"stv_name":"Uncletopia | London | 3 | All Maps | STV","players":null},{"server_id":321,"name":"Uncletopia | London | 4 | All Maps","name_short":"lon-4","host":"lon-1.uk.uncletopia.com","port":27045,"enabled":true,"region":"eu","cc":"gb","latitude":51.509865,"longitude":-0.118092,"reserved":0,"last_update":"0001-01-01T00:00:00Z","name_a2s":"Uncletopia | London | 4 | All Maps","protocol":17,"map":"koth_cascade","folder":"tf","game":"Team Fortress","app_id":440,"player_count":0,"max_players":24,"Bots":0,"server_type":"Dedicated","server_os":"Linux","password":true,"vac":true,"version":"7961495","steam_id":85568392924510193,"keywords":["cp","nocrits","nodmgspread","uncletopia"],"game_id":440,"stv_port":27046,"stv_name":"Uncletopia | London | 4 | All Maps | STV","players":null},{"server_id":21,"name":"Uncletopia | London | 5 | All Maps","name_short":"lon-5","host":"lon-1.uk.uncletopia.com","port":27055,"enabled":true,"region":"eu","cc":"gb","latitude":51.509865,"longitude":-0.118092,"reserved":0,"last_update":"0001-01-01T00:00:00Z","name_a2s":"Uncletopia | London | 5 | All Maps","protocol":17,"map":"koth_lakeside_final","folder":"tf","game":"Team Fortress","app_id":440,"player_count":0,"max_players":24,"Bots":0,"server_type":"Dedicated","server_os":"Linux","password":true,"vac":true,"version":"7961495","steam_id":85568392924742829,"keywords":["cp","nocrits","nodmgspread","uncletopia"],"game_id":440,"stv_port":27056,"stv_name":"Uncletopia | London | 5 | All Maps | STV","players":null},{"server_id":22,"name":"Uncletopia | London | 6 | All Maps","name_short":"lon-6","host":"lon-1.uk.uncletopia.com","port":27065,"enabled":true,"region":"eu","cc":"gb","latitude":51.509865,"longitude":-0.118092,"reserved":0,"last_update":"0001-01-01T00:00:00Z","name_a2s":"Uncletopia | London | 6 | All Maps","protocol":17,"map":"cp_dustbowl","folder":"tf","game":"Team Fortress","app_id":440,"player_count":0,"max_players":24,"Bots":0,"server_type":"Dedicated","server_os":"Linux","password":true,"vac":true,"version":"7961495","steam_id":85568392924742830,"keywords":["cp","nocrits","nodmgspread","uncletopia"],"game_id":440,"stv_port":27066,"stv_name":"Uncletopia | London | 6 | All Maps | STV","players":null},{"server_id":40,"name":"Uncletopia | London | 7 | Stopwatch","name_short":"lon-7","host":"lon-1.uk.uncletopia.com","port":27075,"enabled":true,"region":"eu","cc":"gb","latitude":51.509865,"longitude":-0.118092,"reserved":0,"last_update":"0001-01-01T00:00:00Z","name_a2s":"Uncletopia | London | 7 | Stopwatch","protocol":17,"map":"koth_lakeside_final","folder":"tf","game":"Team Fortress","app_id":440,"player_count":0,"max_players":24,"Bots":0,"server_type":"Dedicated","server_os":"Linux","password":true,"vac":true,"version":"7961495","steam_id":85568392924964314,"keywords":["cp","nocrits","nodmgspread","uncletopia"],"game_id":440,"stv_port":27076,"stv_name":"Uncletopia | London | 7 | Stopwatch | STV","players":null},{"server_id":41,"name":"Uncletopia | London | 8 | Community","name_short":"lon-8","host":"lon-1.uk.uncletopia.com","port":27085,"enabled":true,"region":"eu","cc":"gb","latitude":51.509865,"longitude":-0.118092,"reserved":0,"last_update":"0001-01-01T00:00:00Z","name_a2s":"Uncletopia | London | 8 | Community","protocol":17,"map":"cp_snakewater_final1","folder":"tf","game":"Team Fortress","app_id":440,"player_count":0,"max_players":24,"Bots":0,"server_type":"Dedicated","server_os":"Linux","password":true,"vac":true,"version":"7961495","steam_id":85568392924964315,"keywords":["cp","nocrits","nodmgspread","uncletopia"],"game_id":440,"stv_port":27086,"stv_name":"Uncletopia | London | 8 | Community | STV","players":null},{"server_id":300,"name":"Uncletopia | Montréal | 1 | One Thousand Uncles","name_short":"mtl-1","host":"mtl-1.ca.uncletopia.com","port":27015,"enabled":true,"region":"us-east","cc":"ca","latitude":45.50889,"longitude":-73.56167,"reserved":0,"last_update":"0001-01-01T00:00:00Z","name_a2s":"","protocol":0,"map":"","folder":"","game":"","app_id":0,"player_count":0,"max_players":0,"Bots":0,"server_type":"","server_os":"","password":false,"vac":false,"version":"","steam_id":0,"keywords":null,"game_id":0,"stv_port":0,"stv_name":"","players":null},{"server_id":301,"name":"Uncletopia | Montréal | 2 | One Thousand Uncles","name_short":"mtl-2","host":"mtl-1.ca.uncletopia.com","port":27025,"enabled":true,"region":"us-east","cc":"ca","latitude":45.50889,"longitude":-73.56167,"reserved":0,"last_update":"0001-01-01T00:00:00Z","name_a2s":"","protocol":0,"map":"","folder":"","game":"","app_id":0,"player_count":0,"max_players":0,"Bots":0,"server_type":"","server_os":"","password":false,"vac":false,"version":"","steam_id":0,"keywords":null,"game_id":0,"stv_port":0,"stv_name":"","players":null},{"server_id":302,"name":"Uncletopia | Montréal | 3 | One Thousand Uncles","name_short":"mtl-3","host":"mtl-1.ca.uncletopia.com","port":27035,"enabled":true,"region":"us-east","cc":"ca","latitude":45.50889,"longitude":-73.56167,"reserved":0,"last_update":"0001-01-01T00:00:00Z","name_a2s":"","protocol":0,"map":"","folder":"","game":"","app_id":0,"player_count":0,"max_players":0,"Bots":0,"server_type":"","server_os":"","password":false,"vac":false,"version":"","steam_id":0,"keywords":null,"game_id":0,"stv_port":0,"stv_name":"","players":null},{"server_id":13,"name":"Uncletopia | New York City | 1 | All Maps","name_short":"nyc-1","host":"nyc-1.us.uncletopia.com","port":27015,"enabled":true,"region":"us-east","cc":"us","latitude":40.73061,"longitude":-73.93524,"reserved":0,"last_update":"0001-01-01T00:00:00Z","name_a2s":"Uncletopia | New York City | 1 | All Maps","protocol":17,"map":"koth_viaduct","folder":"tf","game":"Team Fortress","app_id":440,"player_count":0,"max_players":24,"Bots":0,"server_type":"Dedicated","server_os":"Linux","password":true,"vac":true,"version":"7961495","steam_id":85568392924469993,"keywords":["cp","nocrits","nodmgspread","uncletopia"],"game_id":440,"stv_port":27016,"stv_name":"Uncletopia | New York City | 1 | All Maps | STV","players":null},{"server_id":14,"name":"Uncletopia | New York City | 2 | All Maps","name_short":"nyc-2","host":"nyc-1.us.uncletopia.com","port":27025,"enabled":true,"region":"us-east","cc":"us","latitude":40.73061,"longitude":-73.93524,"reserved":0,"last_update":"0001-01-01T00:00:00Z","name_a2s":"Uncletopia | New York City | 2 | All Maps","protocol":17,"map":"cp_dustbowl","folder":"tf","game":"Team Fortress","app_id":440,"player_count":14,"max_players":24,"Bots":0,"server_type":"Dedicated","server_os":"Linux","password":true,"vac":true,"version":"7961495","steam_id":85568392924469994,"keywords":["cp","nocrits","nodmgspread","uncletopia"],"game_id":440,"stv_port":27026,"stv_name":"Uncletopia | New York City | 2 | All Maps | STV","players":[{"user_id":718,"name":"-Avh-","steam_id":76561198087593160,"connected_time":175000000000,"state":"active","ping":53},{"user_id":711,"name":"ShadowWasUhOh","steam_id":76561198400361935,"connected_time":850000000000,"state":"active","ping":61},{"user_id":640,"name":"Beta Fish","steam_id":76561198073504861,"connected_time":6802000000000,"state":"active","ping":62},{"user_id":712,"name":"Broden622","steam_id":76561198256017495,"connected_time":798000000000,"state":"active","ping":45},{"user_id":709,"name":"Barkin MADDOX","steam_id":76561198446108776,"connected_time":1307000000000,"state":"active","ping":34},{"user_id":713,"name":"Rusted Cake","steam_id":76561198209755931,"connected_time":763000000000,"state":"active","ping":104},{"user_id":714,"name":"13£","steam_id":76561198425726464,"connected_time":763000000000,"state":"active","ping":87},{"user_id":678,"name":"AlmondMilk","steam_id":76561198151229725,"connected_time":3534000000000,"state":"active","ping":41},{"user_id":693,"name":"cynics","steam_id":76561198086719843,"connected_time":3009000000000,"state":"active","ping":59},{"user_id":706,"name":"Prist","steam_id":76561198039323021,"connected_time":1834000000000,"state":"active","ping":61},{"user_id":661,"name":"TTV hunter","steam_id":76561198115812405,"connected_time":4672000000000,"state":"active","ping":56},{"user_id":694,"name":"brisky","steam_id":76561198869675719,"connected_time":3009000000000,"state":"active","ping":60},{"user_id":698,"name":"GoldtoothFour","steam_id":76561198055529332,"connected_time":2469000000000,"state":"active","ping":72},{"user_id":668,"name":"gooey sticky","steam_id":76561198817982061,"connected_time":4458000000000,"state":"active","ping":82}]},{"server_id":15,"name":"Uncletopia | New York City | 3 | Stopwatch","name_short":"nyc-3","host":"nyc-1.us.uncletopia.com","port":27035,"enabled":true,"region":"us-east","cc":"us","latitude":40.73061,"longitude":-73.93524,"reserved":0,"last_update":"0001-01-01T00:00:00Z","name_a2s":"Uncletopia | New York City | 3 | Stopwatch","protocol":17,"map":"workshop/koth_ashville_final.ugc2130459942","folder":"tf","game":"Team Fortress","app_id":440,"player_count":0,"max_players":24,"Bots":0,"server_type":"Dedicated","server_os":"Linux","password":true,"vac":true,"version":"7961495","steam_id":85568392924742820,"keywords":["cp","nocrits","nodmgspread","uncletopia"],"game_id":440,"stv_port":27036,"stv_name":"Uncletopia | New York City | 3 | Stopwatch | STV","players":null},{"server_id":16,"name":"Uncletopia | New York City | 4 | Community","name_short":"nyc-4","host":"nyc-1.us.uncletopia.com","port":27045,"enabled":true,"region":"us-east","cc":"us","latitude":40.73061,"longitude":-73.93524,"reserved":0,"last_update":"0001-01-01T00:00:00Z","name_a2s":"Uncletopia | New York City | 4 | Community","protocol":17,"map":"workshop/rd_asteroid_redux_b1.ugc2154902912","folder":"tf","game":"Team Fortress","app_id":440,"player_count":0,"max_players":24,"Bots":0,"server_type":"Dedicated","server_os":"Linux","password":true,"vac":true,"version":"7961495","steam_id":85568392924742821,"keywords":["beta","nocrits","nodmgspread","rd","uncletopia"],"game_id":440,"stv_port":27046,"stv_name":"Uncletopia | New York City | 4 | Community | STV","players":null},{"server_id":142,"name":"Uncletopia | São Paulo | 1 | All Maps","name_short":"sao-1","host":"sao-1.br.uncletopia.com","port":27015,"enabled":true,"region":"sa","cc":"br","latitude":-23.533773,"longitude":-46.62529,"reserved":0,"last_update":"0001-01-01T00:00:00Z","name_a2s":"Uncletopia | São Paulo | 1 | All Maps","protocol":17,"map":"koth_lakeside_final","folder":"tf","game":"Team Fortress","app_id":440,"player_count":0,"max_players":24,"Bots":0,"server_type":"Dedicated","server_os":"Linux","password":true,"vac":true,"version":"7961495","steam_id":85568392924469996,"keywords":["cp","nocrits","nodmgspread","uncletopia"],"game_id":440,"stv_port":27016,"stv_name":"Uncletopia | São Paulo | 1 | All Maps | STV","players":null},{"server_id":143,"name":"Uncletopia | São Paulo | 2 | Community","name_short":"sao-2","host":"sao-2.br.uncletopia.com","port":27015,"enabled":true,"region":"sa","cc":"br","latitude":-23.533773,"longitude":-46.62529,"reserved":0,"last_update":"0001-01-01T00:00:00Z","name_a2s":"Uncletopia | São Paulo | 2 | Community","protocol":17,"map":"workshop/koth_kemptown_rc1.ugc767410655","folder":"tf","game":"Team Fortress","app_id":440,"player_count":0,"max_players":24,"Bots":0,"server_type":"Dedicated","server_os":"Linux","password":true,"vac":true,"version":"7961495","steam_id":85568392924485349,"keywords":["cp","nocrits","nodmgspread","uncletopia"],"game_id":440,"stv_port":27016,"stv_name":"Uncletopia | São Paulo | 2 | Community | STV","players":null},{"server_id":7,"name":"Uncletopia | Seattle | 1 | All Maps","name_short":"sea-1","host":"sea-1.us.uncletopia.com","port":27015,"enabled":true,"region":"us-west","cc":"us","latitude":47.608013,"longitude":-122.33517,"reserved":0,"last_update":"0001-01-01T00:00:00Z","name_a2s":"Uncletopia | Seattle | 1 | All Maps","protocol":17,"map":"pl_pier","folder":"tf","game":"Team Fortress","app_id":440,"player_count":24,"max_players":24,"Bots":0,"server_type":"Dedicated","server_os":"Linux","password":true,"vac":true,"version":"7961495","steam_id":85568392924469997,"keywords":["nocrits","nodmgspread","payload","uncletopia"],"game_id":440,"stv_port":27016,"stv_name":"Uncletopia | Seattle | 1 | All Maps | STV","players":[{"user_id":669,"name":"Blackbeard","steam_id":76561198046952265,"connected_time":1921000000000,"state":"active","ping":44},{"user_id":665,"name":"peachy","steam_id":76561198028721790,"connected_time":2384000000000,"state":"active","ping":61},{"user_id":662,"name":"Franticraven177","steam_id":76561198334105579,"connected_time":2830000000000,"state":"active","ping":63},{"user_id":636,"name":"Attrition","steam_id":76561197969881916,"connected_time":5991000000000,"state":"active","ping":59},{"user_id":683,"name":"Spam The Alien","steam_id":76561199122290968,"connected_time":299000000000,"state":"active","ping":78},{"user_id":605,"name":"Octopus","steam_id":76561198114639980,"connected_time":6911000000000,"state":"active","ping":62},{"user_id":640,"name":"Kaiga","steam_id":76561198044052046,"connected_time":5601000000000,"state":"active","ping":132},{"user_id":676,"name":"exephur","steam_id":76561198135763234,"connected_time":589000000000,"state":"active","ping":60},{"user_id":648,"name":"The Foolish Samurai","steam_id":76561198094494945,"connected_time":3807000000000,"state":"active","ping":103},{"user_id":549,"name":"Havi","steam_id":76561198197832829,"connected_time":11541000000000,"state":"active","ping":45},{"user_id":667,"name":"Mitchell","steam_id":76561197972922328,"connected_time":1953000000000,"state":"active","ping":58},{"user_id":677,"name":"gorlab","steam_id":76561198025089694,"connected_time":552000000000,"state":"active","ping":61},{"user_id":584,"name":"Brathic","steam_id":76561198966232163,"connected_time":8564000000000,"state":"active","ping":76},{"user_id":690,"name":"Stack Man","steam_id":76561198114863794,"connected_time":81000000000,"state":"active","ping":77},{"user_id":641,"name":"Princess?","steam_id":76561198080963759,"connected_time":5469000000000,"state":"active","ping":81},{"user_id":679,"name":"Oogie (OddMonster)","steam_id":76561198026802918,"connected_time":426000000000,"state":"active","ping":92},{"user_id":674,"name":"MegumiTame","steam_id":76561198450280686,"connected_time":850000000000,"state":"active","ping":58},{"user_id":685,"name":"Dia Shakez","steam_id":76561198099617734,"connected_time":267000000000,"state":"active","ping":45},{"user_id":681,"name":"BurgrEatr","steam_id":76561198093883448,"connected_time":356000000000,"state":"active","ping":57},{"user_id":686,"name":"Cheeps Kat","steam_id":76561198143688410,"connected_time":263000000000,"state":"active","ping":78},{"user_id":643,"name":"Toaster (Hamilton Beach)","steam_id":76561198039891934,"connected_time":4079000000000,"state":"active","ping":68},{"user_id":687,"name":"Donny Q","steam_id":76561198020901703,"connected_time":230000000000,"state":"active","ping":45},{"user_id":688,"name":"chanoc","steam_id":76561198026734746,"connected_time":214000000000,"state":"active","ping":64},{"user_id":664,"name":"Grand","steam_id":76561198290143399,"connected_time":2548000000000,"state":"active","ping":75}]},{"server_id":119,"name":"Uncletopia | Seattle | 2 | All Maps","name_short":"sea-2","host":"sea-1.us.uncletopia.com","port":27025,"enabled":true,"region":"us-west","cc":"us","latitude":47.608013,"longitude":-122.33517,"reserved":0,"last_update":"0001-01-01T00:00:00Z","name_a2s":"Uncletopia | Seattle | 2 | All Maps","protocol":17,"map":"cp_powerhouse","folder":"tf","game":"Team Fortress","app_id":440,"player_count":24,"max_players":24,"Bots":0,"server_type":"Dedicated","server_os":"Linux","password":true,"vac":true,"version":"7961495","steam_id":85568392924469998,"keywords":["cp","nocrits","nodmgspread","uncletopia"],"game_id":440,"stv_port":27026,"stv_name":"Uncletopia | Seattle | 2 | All Maps | STV","players":[{"user_id":662,"name":"Croctor™","steam_id":76561198134309750,"connected_time":72000000000,"state":"active","ping":91},{"user_id":659,"name":"Chris","steam_id":76561197974464484,"connected_time":648000000000,"state":"active","ping":46},{"user_id":635,"name":"gerg","steam_id":76561197997127387,"connected_time":2735000000000,"state":"active","ping":63},{"user_id":660,"name":"ArjayTheWeenie","steam_id":76561198275999294,"connected_time":304000000000,"state":"active","ping":52},{"user_id":611,"name":"Martin","steam_id":76561199068623664,"connected_time":4156000000000,"state":"active","ping":56},{"user_id":649,"name":"rushy :))","steam_id":76561198065825165,"connected_time":1711000000000,"state":"active","ping":91},{"user_id":612,"name":"AWGER","steam_id":76561198284683624,"connected_time":4139000000000,"state":"active","ping":78},{"user_id":651,"name":"social distance warrior","steam_id":76561198128992994,"connected_time":1695000000000,"state":"active","ping":52},{"user_id":622,"name":"ed","steam_id":76561198080475712,"connected_time":3677000000000,"state":"active","ping":67},{"user_id":661,"name":"Noah1k","steam_id":76561199428633514,"connected_time":243000000000,"state":"active","ping":57},{"user_id":599,"name":"NEBULA","steam_id":76561198086878595,"connected_time":5515000000000,"state":"active","ping":69},{"user_id":642,"name":"Hawksgamer","steam_id":76561198152405941,"connected_time":2077000000000,"state":"active","ping":45},{"user_id":655,"name":"hart","steam_id":76561198046073848,"connected_time":1377000000000,"state":"active","ping":52},{"user_id":640,"name":"lfk thunderous prophet","steam_id":76561198131166135,"connected_time":2556000000000,"state":"active","ping":42},{"user_id":641,"name":"Mr8bittripper","steam_id":76561198133894229,"connected_time":2500000000000,"state":"active","ping":47},{"user_id":582,"name":"no vc no c","steam_id":76561197989503095,"connected_time":6406000000000,"state":"active","ping":153},{"user_id":633,"name":"Zincian","steam_id":76561198055484259,"connected_time":3044000000000,"state":"active","ping":60},{"user_id":639,"name":"Under an Unquiet Skull","steam_id":76561198164782653,"connected_time":2600000000000,"state":"active","ping":120},{"user_id":645,"name":"gwen","steam_id":76561198046815360,"connected_time":2040000000000,"state":"active","ping":78},{"user_id":648,"name":"Shields","steam_id":76561198043216746,"connected_time":1805000000000,"state":"active","ping":48},{"user_id":606,"name":"kill me","steam_id":76561198032625036,"connected_time":4828000000000,"state":"active","ping":60},{"user_id":617,"name":"Bananaphone","steam_id":76561198049452877,"connected_time":4123000000000,"state":"active","ping":119},{"user_id":656,"name":"Mr Beast","steam_id":76561198100385184,"connected_time":991000000000,"state":"active","ping":85},{"user_id":579,"name":"rock gaming","steam_id":76561199402868311,"connected_time":6437000000000,"state":"active","ping":75}]},{"server_id":406,"name":"Uncletopia | Seattle | 3 | Stopwatch","name_short":"sea-3","host":"sea-1.us.uncletopia.com","port":27035,"enabled":true,"region":"us-west","cc":"us","latitude":47.608013,"longitude":-122.33517,"reserved":0,"last_update":"0001-01-01T00:00:00Z","name_a2s":"Uncletopia | Seattle | 3 | Stopwatch","protocol":17,"map":"workshop/koth_bagel_rc6.ugc2514036946","folder":"tf","game":"Team Fortress","app_id":440,"player_count":0,"max_players":24,"Bots":0,"server_type":"Dedicated","server_os":"Linux","password":true,"vac":true,"version":"7961495","steam_id":85568392924515217,"keywords":["cp","nocrits","nodmgspread","uncletopia"],"game_id":440,"stv_port":27036,"stv_name":"Uncletopia | Seattle | 3 | Stopwatch | STV","players":null},{"server_id":17,"name":"Uncletopia | San Francisco | 1 | All Maps","name_short":"sfo-1","host":"sfo-1.us.uncletopia.com","port":27015,"enabled":true,"region":"us-west","cc":"us","latitude":37.77397,"longitude":-122.4313,"reserved":0,"last_update":"0001-01-01T00:00:00Z","name_a2s":"Uncletopia | San Francisco | 1 | All Maps","protocol":17,"map":"pl_frontier_final","folder":"tf","game":"Team Fortress","app_id":440,"player_count":22,"max_players":24,"Bots":0,"server_type":"Dedicated","server_os":"Linux","password":true,"vac":true,"version":"7961495","steam_id":85568392924469999,"keywords":["nocrits","nodmgspread","payload","uncletopia"],"game_id":440,"stv_port":27016,"stv_name":"Uncletopia | San Francisco | 1 | All Maps | STV","players":[{"user_id":257,"name":"Da Bird","steam_id":76561198215677985,"connected_time":1749000000000,"state":"active","ping":79},{"user_id":198,"name":"Hector Salamanca","steam_id":76561199103213955,"connected_time":6517000000000,"state":"active","ping":61},{"user_id":277,"name":"Shoe","steam_id":76561199201045563,"connected_time":389000000000,"state":"active","ping":162},{"user_id":275,"name":"Riven","steam_id":76561198091701349,"connected_time":456000000000,"state":"active","ping":105},{"user_id":231,"name":"Meskoozy","steam_id":76561198102394479,"connected_time":3796000000000,"state":"active","ping":121},{"user_id":269,"name":"klobb kobold","steam_id":76561198069606362,"connected_time":1089000000000,"state":"active","ping":76},{"user_id":282,"name":"Whimsy!","steam_id":76561197989578836,"connected_time":61000000000,"state":"active","ping":51},{"user_id":233,"name":"Therapy Goth","steam_id":76561198048448497,"connected_time":3506000000000,"state":"active","ping":120},{"user_id":278,"name":"Glenn Figglefeeder","steam_id":76561198849549258,"connected_time":380000000000,"state":"active","ping":73},{"user_id":239,"name":"legalize nuclear bombs","steam_id":76561198418172095,"connected_time":3372000000000,"state":"active","ping":91},{"user_id":254,"name":"ADMlN!!! he doin it sideways","steam_id":76561198085470745,"connected_time":2395000000000,"state":"active","ping":52},{"user_id":255,"name":"Astral","steam_id":76561198851258754,"connected_time":2132000000000,"state":"active","ping":90},{"user_id":152,"name":"Pissless Pissmass Pissman","steam_id":76561198409907417,"connected_time":11312000000000,"state":"active","ping":73},{"user_id":280,"name":"Charles","steam_id":76561198155322277,"connected_time":241000000000,"state":"active","ping":48},{"user_id":245,"name":"Violet The Derg","steam_id":76561198002525691,"connected_time":3130000000000,"state":"active","ping":75},{"user_id":258,"name":"I Must Frag","steam_id":76561198909415646,"connected_time":1570000000000,"state":"active","ping":91},{"user_id":281,"name":"Big Tony","steam_id":76561198086790000,"connected_time":134000000000,"state":"active","ping":93},{"user_id":283,"name":"Asshole","steam_id":76561198012157352,"connected_time":52000000000,"state":"active","ping":57},{"user_id":248,"name":"rf","steam_id":76561198195359229,"connected_time":3044000000000,"state":"active","ping":60},{"user_id":249,"name":"skao","steam_id":76561198133360797,"connected_time":3032000000000,"state":"active","ping":60},{"user_id":229,"name":"Bcuz","steam_id":76561197981318027,"connected_time":4223000000000,"state":"active","ping":76},{"user_id":264,"name":"trent golem","steam_id":76561198044188907,"connected_time":1326000000000,"state":"active","ping":60}]},{"server_id":18,"name":"Uncletopia | San Francisco | 2 | All Maps","name_short":"sfo-2","host":"sfo-1.us.uncletopia.com","port":27025,"enabled":true,"region":"us-west","cc":"us","latitude":37.77397,"longitude":-122.4313,"reserved":0,"last_update":"0001-01-01T00:00:00Z","name_a2s":"Uncletopia | San Francisco | 2 | All Maps","protocol":17,"map":"pl_upward","folder":"tf","game":"Team Fortress","app_id":440,"player_count":0,"max_players":24,"Bots":0,"server_type":"Dedicated","server_os":"Linux","password":true,"vac":true,"version":"7961495","steam_id":85568392924470000,"keywords":["nocrits","nodmgspread","payload","uncletopia"],"game_id":440,"stv_port":27026,"stv_name":"Uncletopia | San Francisco | 2 | All Maps | STV","players":null},{"server_id":19,"name":"Uncletopia | San Francisco | 3 | Stopwatch","name_short":"sfo-3","host":"sfo-1.us.uncletopia.com","port":27035,"enabled":true,"region":"us-west","cc":"us","latitude":37.77397,"longitude":-122.4313,"reserved":0,"last_update":"0001-01-01T00:00:00Z","name_a2s":"Uncletopia | San Francisco | 3 | Stopwatch","protocol":17,"map":"workshop/koth_bagel_rc6.ugc2514036946","folder":"tf","game":"Team Fortress","app_id":440,"player_count":0,"max_players":24,"Bots":0,"server_type":"Dedicated","server_os":"Linux","password":true,"vac":true,"version":"7961495","steam_id":85568392924742824,"keywords":["cp","nocrits","nodmgspread","uncletopia"],"game_id":440,"stv_port":27036,"stv_name":"Uncletopia | San Francisco | 3 | Stopwatch | STV","players":null},{"server_id":20,"name":"Uncletopia | San Francisco | 4 | Community","name_short":"sfo-4","host":"sfo-1.us.uncletopia.com","port":27045,"enabled":true,"region":"us-west","cc":"us","latitude":37.77397,"longitude":-122.4313,"reserved":0,"last_update":"0001-01-01T00:00:00Z","name_a2s":"Uncletopia | San Francisco | 4 | Community","protocol":17,"map":"workshop/cp_snowbase_b21.ugc2081770490","folder":"tf","game":"Team Fortress","app_id":440,"player_count":0,"max_players":24,"Bots":0,"server_type":"Dedicated","server_os":"Linux","password":true,"vac":true,"version":"7961495","steam_id":85568392924742826,"keywords":["cp","nocrits","nodmgspread","uncletopia"],"game_id":440,"stv_port":27046,"stv_name":"Uncletopia | San Francisco | 4 | Community | STV","players":null},{"server_id":141,"name":"Uncletopia | Sydney | 1 | All Maps","name_short":"syd-1","host":"syd-1.au.uncletopia.com","port":27015,"enabled":true,"region":"au","cc":"au","latitude":-33.865143,"longitude":151.2099,"reserved":0,"last_update":"0001-01-01T00:00:00Z","name_a2s":"Uncletopia | Sydney | 1 | All Maps","protocol":17,"map":"pl_barnblitz","folder":"tf","game":"Team Fortress","app_id":440,"player_count":24,"max_players":24,"Bots":0,"server_type":"Dedicated","server_os":"Linux","password":true,"vac":true,"version":"7961495","steam_id":85568392924470001,"keywords":["nocrits","nodmgspread","payload","uncletopia"],"game_id":440,"stv_port":27016,"stv_name":"Uncletopia | Sydney | 1 | All Maps | STV","players":[{"user_id":141,"name":"P. Ness","steam_id":76561198037664265,"connected_time":685000000000,"state":"active","ping":60},{"user_id":52,"name":"LaFleur","steam_id":76561198869499113,"connected_time":6690000000000,"state":"active","ping":54},{"user_id":139,"name":"Reefo","steam_id":76561198161626796,"connected_time":936000000000,"state":"active","ping":70},{"user_id":85,"name":"soupy","steam_id":76561198073734936,"connected_time":4999000000000,"state":"active","ping":90},{"user_id":142,"name":"Directionaly Disabled Donkey","steam_id":76561198282615275,"connected_time":664000000000,"state":"active","ping":89},{"user_id":140,"name":"Tristar1337","steam_id":76561198143078885,"connected_time":848000000000,"state":"active","ping":90},{"user_id":146,"name":"michael","steam_id":76561198052848358,"connected_time":307000000000,"state":"active","ping":63},{"user_id":132,"name":"saturation","steam_id":76561199457046392,"connected_time":1710000000000,"state":"active","ping":81},{"user_id":134,"name":"boogalumpus snickelpuff","steam_id":76561198063481761,"connected_time":1494000000000,"state":"active","ping":39},{"user_id":133,"name":"Stab Calloway","steam_id":76561198027827983,"connected_time":1699000000000,"state":"active","ping":48},{"user_id":135,"name":"Snowy","steam_id":76561198255720598,"connected_time":1353000000000,"state":"active","ping":46},{"user_id":116,"name":"JFIFMAFIA","steam_id":76561198079351541,"connected_time":3083000000000,"state":"active","ping":45},{"user_id":145,"name":"Pompadouraus","steam_id":76561198327530525,"connected_time":353000000000,"state":"active","ping":75},{"user_id":143,"name":"Glockenspe (She/Her)","steam_id":76561199184115241,"connected_time":610000000000,"state":"active","ping":45},{"user_id":109,"name":"Sezama [HF]","steam_id":76561198816829053,"connected_time":3338000000000,"state":"active","ping":56},{"user_id":144,"name":"Pasta. (She/They)","steam_id":76561198124243169,"connected_time":402000000000,"state":"active","ping":58},{"user_id":117,"name":"Ᵽ𐌄Ť𐌄Ұ","steam_id":76561199140764838,"connected_time":3073000000000,"state":"active","ping":59},{"user_id":101,"name":"yoga","steam_id":76561199163801558,"connected_time":3922000000000,"state":"active","ping":47},{"user_id":72,"name":"Albert in the hand is worth two","steam_id":76561198301282416,"connected_time":5856000000000,"state":"active","ping":51},{"user_id":112,"name":"Tashwelyn","steam_id":76561198098678905,"connected_time":3206000000000,"state":"active","ping":78},{"user_id":78,"name":"webbadon, the horrid ᘛ⁐̤\ufffd\ufffd","steam_id":76561198061998379,"connected_time":5426000000000,"state":"active","ping":49},{"user_id":126,"name":"♥ BILL!!! ♥","steam_id":76561198066726621,"connected_time":2116000000000,"state":"active","ping":55},{"user_id":127,"name":"C3ratops","steam_id":76561198847054264,"connected_time":1870000000000,"state":"active","ping":113},{"user_id":131,"name":"ktoś","steam_id":76561199032717840,"connected_time":1807000000000,"state":"active","ping":71}]},{"server_id":123,"name":"Uncletopia | Sydney | 2 | All Maps","name_short":"syd-2","host":"syd-1.au.uncletopia.com","port":27025,"enabled":true,"region":"au","cc":"au","latitude":-33.865143,"longitude":151.2099,"reserved":0,"last_update":"0001-01-01T00:00:00Z","name_a2s":"Uncletopia | Sydney | 2 | All Maps","protocol":17,"map":"pl_upward","folder":"tf","game":"Team Fortress","app_id":440,"player_count":24,"max_players":24,"Bots":0,"server_type":"Dedicated","server_os":"Linux","password":true,"vac":true,"version":"7961495","steam_id":85568392924470002,"keywords":["nocrits","nodmgspread","payload","uncletopia"],"game_id":440,"stv_port":27026,"stv_name":"Uncletopia | Sydney | 2 | All Maps | STV","players":[{"user_id":67,"name":"Malphas","steam_id":76561198011425371,"connected_time":351000000000,"state":"active","ping":56},{"user_id":10,"name":"lavender","steam_id":76561198081681647,"connected_time":3910000000000,"state":"active","ping":74},{"user_id":18,"name":"FascismSalad","steam_id":76561198262410973,"connected_time":3113000000000,"state":"active","ping":52},{"user_id":12,"name":"McCrab","steam_id":76561199088821963,"connected_time":3779000000000,"state":"active","ping":80},{"user_id":9,"name":"Gravitas","steam_id":76561198061391894,"connected_time":4420000000000,"state":"active","ping":98},{"user_id":45,"name":"Paper","steam_id":76561198041517737,"connected_time":1337000000000,"state":"active","ping":37},{"user_id":60,"name":"ItzDecster","steam_id":76561198321908932,"connected_time":853000000000,"state":"active","ping":71},{"user_id":58,"name":"james16","steam_id":76561198362678073,"connected_time":942000000000,"state":"active","ping":29},{"user_id":22,"name":"Amburger","steam_id":76561198348492407,"connected_time":2734000000000,"state":"active","ping":52},{"user_id":44,"name":"Goofy Guy","steam_id":76561199226306425,"connected_time":1447000000000,"state":"active","ping":74},{"user_id":26,"name":"Second Lieutenant Pisser","steam_id":76561198866538028,"connected_time":2432000000000,"state":"active","ping":86},{"user_id":40,"name":"rule","steam_id":76561198045589950,"connected_time":1628000000000,"state":"active","ping":62},{"user_id":68,"name":"Dadszoo","steam_id":76561198296611122,"connected_time":341000000000,"state":"active","ping":60},{"user_id":61,"name":"Diavolo Diablo","steam_id":76561198166295333,"connected_time":776000000000,"state":"active","ping":156},{"user_id":34,"name":"🦐","steam_id":76561198021502813,"connected_time":1926000000000,"state":"active","ping":66},{"user_id":35,"name":"Steve","steam_id":76561198429235506,"connected_time":1898000000000,"state":"active","ping":51},{"user_id":37,"name":"crab","steam_id":76561198826018059,"connected_time":1819000000000,"state":"active","ping":55},{"user_id":49,"name":"Doinkler","steam_id":76561198119147696,"connected_time":1149000000000,"state":"active","ping":71},{"user_id":43,"name":"Sammy","steam_id":76561199199672451,"connected_time":1569000000000,"state":"active","ping":90},{"user_id":65,"name":"Batmangamer1234","steam_id":76561198377832282,"connected_time":481000000000,"state":"active","ping":49},{"user_id":64,"name":"nash","steam_id":76561198047549077,"connected_time":528000000000,"state":"active","ping":59},{"user_id":53,"name":"Michael Ehrmantraut","steam_id":76561198202307960,"connected_time":1125000000000,"state":"active","ping":74},{"user_id":69,"name":"monkeyjonezzz","steam_id":76561198136218040,"connected_time":302000000000,"state":"active","ping":60},{"user_id":70,"name":"LilCringe","steam_id":76561198171135461,"connected_time":288000000000,"state":"active","ping":73}]},{"server_id":395,"name":"Uncletopia | Sydney | 3 | All Maps","name_short":"syd-3","host":"syd-1.au.uncletopia.com","port":27035,"enabled":true,"region":"au","cc":"au","latitude":-33.865143,"longitude":151.2099,"reserved":0,"last_update":"0001-01-01T00:00:00Z","name_a2s":"Uncletopia | Sydney | 3 | All Maps","protocol":17,"map":"pl_frontier_final","folder":"tf","game":"Team Fortress","app_id":440,"player_count":0,"max_players":24,"Bots":0,"server_type":"Dedicated","server_os":"Linux","password":true,"vac":true,"version":"7961495","steam_id":85568392925194467,"keywords":["nocrits","nodmgspread","payload","uncletopia"],"game_id":440,"stv_port":27036,"stv_name":"Uncletopia | Sydney | 3 | All Maps | STV","players":null},{"server_id":396,"name":"Uncletopia | Sydney | 4 | All Maps","name_short":"syd-4","host":"syd-1.au.uncletopia.com","port":27045,"enabled":true,"region":"au","cc":"au","latitude":-33.865143,"longitude":151.2099,"reserved":0,"last_update":"0001-01-01T00:00:00Z","name_a2s":"Uncletopia | Sydney | 4 | All Maps","protocol":17,"map":"koth_lakeside_final","folder":"tf","game":"Team Fortress","app_id":440,"player_count":0,"max_players":24,"Bots":0,"server_type":"Dedicated","server_os":"Linux","password":true,"vac":true,"version":"7961495","steam_id":85568392925397958,"keywords":["cp","nocrits","nodmgspread","uncletopia"],"game_id":440,"stv_port":27046,"stv_name":"Uncletopia | Sydney | 4 | All Maps | STV","players":null},{"server_id":58,"name":"Uncletopia | Sydney | 5 | Stopwatch","name_short":"syd-5","host":"syd-1.au.uncletopia.com","port":27055,"enabled":true,"region":"au","cc":"au","latitude":-33.865143,"longitude":151.2099,"reserved":0,"last_update":"0001-01-01T00:00:00Z","name_a2s":"Uncletopia | Sydney | 5 | Stopwatch","protocol":17,"map":"workshop/pl_vigil_rc10.ugc1266210012","folder":"tf","game":"Team Fortress","app_id":440,"player_count":0,"max_players":24,"Bots":0,"server_type":"Dedicated","server_os":"Linux","password":true,"vac":true,"version":"7961495","steam_id":85568392925397959,"keywords":["nocrits","nodmgspread","payload","uncletopia"],"game_id":440,"stv_port":27056,"stv_name":"Uncletopia | Sydney | 5 | Stopwatch | STV","players":null},{"server_id":59,"name":"Uncletopia | Sydney | 6 | Community","name_short":"syd-6","host":"syd-1.au.uncletopia.com","port":27065,"enabled":true,"region":"au","cc":"au","latitude":-33.865143,"longitude":151.2099,"reserved":0,"last_update":"0001-01-01T00:00:00Z","name_a2s":"Uncletopia | Sydney | 6 | Community","protocol":17,"map":"workshop/pl_badwater_pro_v12.ugc2142942074","folder":"tf","game":"Team Fortress","app_id":440,"player_count":0,"max_players":24,"Bots":0,"server_type":"Dedicated","server_os":"Linux","password":true,"vac":true,"version":"7961495","steam_id":85568392925397960,"keywords":["nocrits","nodmgspread","payload","uncletopia"],"game_id":440,"stv_port":27066,"stv_name":"Uncletopia | Sydney | 6 | Community | STV","players":null},{"server_id":49,"name":"Uncletopia | Warsaw | 1 | One Thousand Uncles","name_short":"waw-1","host":"waw-1.pl.uncletopia.com","port":27015,"enabled":true,"region":"eu","cc":"pl","latitude":52.2297,"longitude":21.017532,"reserved":0,"last_update":"0001-01-01T00:00:00Z","name_a2s":"Uncletopia | Warsaw | 1 | One Thousand Uncles","protocol":17,"map":"pl_barnblitz","folder":"tf","game":"Team Fortress","app_id":440,"player_count":0,"max_players":32,"Bots":0,"server_type":"Dedicated","server_os":"Linux","password":true,"vac":true,"version":"7961495","steam_id":85568392925397850,"keywords":["alltalk","danepve","increased_maxplayers","nocrits","norespawntime","payload","uncletopia"],"game_id":440,"stv_port":0,"stv_name":"","players":null},{"server_id":50,"name":"Uncletopia | Warsaw | 2 | One Thousand Uncles","name_short":"waw-2","host":"waw-1.pl.uncletopia.com","port":27025,"enabled":true,"region":"eu","cc":"pl","latitude":52.2297,"longitude":21.017532,"reserved":0,"last_update":"0001-01-01T00:00:00Z","name_a2s":"Uncletopia | Warsaw | 2 | One Thousand Uncles","protocol":17,"map":"pl_goldrush","folder":"tf","game":"Team Fortress","app_id":440,"player_count":0,"max_players":32,"Bots":0,"server_type":"Dedicated","server_os":"Linux","password":true,"vac":true,"version":"7961495","steam_id":85568392925397851,"keywords":["alltalk","danepve","increased_maxplayers","nocrits","norespawntime","payload","uncletopia"],"game_id":440,"stv_port":0,"stv_name":"","players":null},{"server_id":51,"name":"Uncletopia | Warsaw | 3 | All Maps","name_short":"waw-3","host":"waw-1.pl.uncletopia.com","port":27035,"enabled":true,"region":"eu","cc":"pl","latitude":52.2297,"longitude":21.017532,"reserved":0,"last_update":"0001-01-01T00:00:00Z","name_a2s":"Uncletopia | Warsaw | 3 | All Maps","protocol":17,"map":"plr_pipeline","folder":"tf","game":"Team Fortress","app_id":440,"player_count":0,"max_players":24,"Bots":0,"server_type":"Dedicated","server_os":"Linux","password":true,"vac":true,"version":"7961495","steam_id":85568392925397852,"keywords":["nocrits","nodmgspread","payload","uncletopia"],"game_id":440,"stv_port":27036,"stv_name":"Uncletopia | Warsaw | 3 | All Maps | STV","players":null},{"server_id":52,"name":"Uncletopia | Warsaw | 4 | All Maps","name_short":"waw-4","host":"waw-1.pl.uncletopia.com","port":27045,"enabled":true,"region":"eu","cc":"pl","latitude":52.2297,"longitude":21.017532,"reserved":0,"last_update":"0001-01-01T00:00:00Z","name_a2s":"Uncletopia | Warsaw | 4 | All Maps","protocol":17,"map":"cp_coldfront","folder":"tf","game":"Team Fortress","app_id":440,"player_count":0,"max_players":24,"Bots":0,"server_type":"Dedicated","server_os":"Linux","password":true,"vac":true,"version":"7961495","steam_id":85568392925397853,"keywords":["cp","nocrits","nodmgspread","uncletopia"],"game_id":440,"stv_port":27046,"stv_name":"Uncletopia | Warsaw | 4 | All Maps | STV","players":null},{"server_id":53,"name":"Uncletopia | Warsaw | 5 | Stopwatch","name_short":"waw-5","host":"waw-1.pl.uncletopia.com","port":27055,"enabled":true,"region":"eu","cc":"pl","latitude":52.2297,"longitude":21.017532,"reserved":0,"last_update":"0001-01-01T00:00:00Z","name_a2s":"Uncletopia | Warsaw | 5 | Stopwatch","protocol":17,"map":"workshop/koth_bagel_rc6.ugc2514036946","folder":"tf","game":"Team Fortress","app_id":440,"player_count":0,"max_players":24,"Bots":0,"server_type":"Dedicated","server_os":"Linux","password":true,"vac":true,"version":"7961495","steam_id":85568392925397854,"keywords":["cp","nocrits","nodmgspread","uncletopia"],"game_id":440,"stv_port":27056,"stv_name":"Uncletopia | Warsaw | 5 | Stopwatch | STV","players":null},{"server_id":54,"name":"Uncletopia | Warsaw | 6 | Community","name_short":"waw-6","host":"waw-1.pl.uncletopia.com","port":27065,"enabled":true,"region":"eu","cc":"pl","latitude":52.2297,"longitude":21.017532,"reserved":0,"last_update":"0001-01-01T00:00:00Z","name_a2s":"Uncletopia | Warsaw | 6 | Community","protocol":17,"map":"workshop/pl_badwater_pro_v12.ugc2142942074","folder":"tf","game":"Team Fortress","app_id":440,"player_count":0,"max_players":24,"Bots":0,"server_type":"Dedicated","server_os":"Linux","password":true,"vac":true,"version":"7961495","steam_id":85568392925397856,"keywords":["nocrits","nodmgspread","payload","uncletopia"],"game_id":440,"stv_port":27066,"stv_name":"Uncletopia | Warsaw | 6 | Community | STV","players":null}]}