{"status":true,"message":"","result":[{"server_id":9,"name":"Uncletopia | Atlanta | 1 | All Maps","name_short":"atl-1","host":"atl-1.us.uncletopia.com","port":27015,"enabled":true,"region":"us-east","cc":"us","latitude":33.753746,"longitude":-84.38633,"reserved":0,"last_update":"0001-01-01T00:00:00Z","name_a2s":"Uncletopia | Atlanta | 1 | All Maps","protocol":17,"map":"pl_upward","folder":"tf","game":"Team Fortress","app_id":440,"player_count":24,"max_players":24,"Bots":0,"server_type":"Dedicated","server_os":"Linux","password":true,"vac":true,"version":"7961495","steam_id":85568392924469982,"keywords":["nocrits","nodmgspread","payload","uncletopia"],"game_id":440,"stv_port":27016,"stv_name":"Uncletopia | Atlanta | 1 | All Maps | STV","players":null},{"server_id":104,"name":"Uncletopia | Atlanta | 2 | All Maps","name_short":"atl-2","host":"atl-1.us.uncletopia.com","port":27025,"enabled":true,"region":"us-east","cc":"us","latitude":33.753746,"longitude":-84.38633,"reserved":0,"last_update":"0001-01-01T00:00:00Z","name_a2s":"Uncletopia | Atlanta | 2 | All Maps","protocol":17,"map":"cp_metalworks","folder":"tf","game":"Team Fortress","app_id":440,"player_count":22,"max_players":24,"Bots":0,"server_type":"Dedicated","server_os":"Linux","password":true,"vac":true,"version":"7961495","steam_id":85568392924469983,"keywords":["cp","nocrits","nodmgspread","uncletopia"],"game_id":440,"stv_port":27026,"stv_name":"Uncletopia | Atlanta | 2 | All Maps | STV","players":null},{"server_id":400,"name":"Uncletopia | Atlanta | 3 | Stopwatch","name_short":"atl-3","host":"atl-1.us.uncletopia.com","port":27035,"enabled":true,"region":"us-east","cc":"us","latitude":33.753746,"longitude":-84.38633,"reserved":0,"last_update":"0001-01-01T00:00:00Z","name_a2s":"Uncletopia | Atlanta | 3 | Stopwatch","protocol":17,"map":"koth_clearcut_b15","folder":"tf","game":"Team Fortress","app_id":440,"player_count":2,"max_players":24,"Bots":0,"server_type":"Dedicated","server_os":"Linux","password":true,"vac":true,"version":"7961495","steam_id":85568392924515187,"keywords":["cp","nocrits","nodmgspread","uncletopia"],"game_id":440,"stv_port":27036,"stv_name":"Uncletopia | Atlanta | 3 | Stopwatch | STV","players":null},{"server_id":401,"name":"Uncletopia | Atlanta | 4 | Community","name_short":"atl-4","host":"atl-1.us.uncletopia.com","port":27045,"enabled":true,"region":"us-east","cc":"us","latitude":33.753746,"longitude":-84.38633,"reserved":0,"last_update":"0001-01-01T00:00:00Z","name_a2s":"Uncletopia | Atlanta | 4 | Community","protocol":17,"map":"pl_vigil_rc10","folder":"tf","game":"Team Fortress","app_id":440,"player_count":0,"max_players":24,"Bots":0,"server_type":"Dedicated","server_os":"Linux","password":true,"vac":true,"version":"7961495","steam_id":85568392924515188,"keywords":["nocrits","nodmgspread","payload","uncletopia"],"game_id":440,"stv_port":27046,"stv_name":"Uncletopia | Atlanta | 4 | Community | STV","players":null},{"server_id":2,"name":"Uncletopia | Chicago | 1 | All Maps","name_short":"chi-1","host":"chi-1.us.uncletopia.com","port":27015,"enabled":true,"region":"us-central","cc":"us","latitude":41.881832,"longitude":-87.62318,"reserved":0,"last_update":"0001-01-01T00:00:00Z","name_a2s":"Uncletopia | Chicago | 1 | All Maps","protocol":17,"map":"cp_mercenarypark","folder":"tf","game":"Team Fortress","app_id":440,"player_count":15,"max_players":24,"Bots":0,"server_type":"Dedicated","server_os":"Linux","password":true,"vac":true,"version":"7961495","steam_id":85568392924469984,"keywords":["cp","nocrits","nodmgspread","uncletopia"],"game_id":440,"stv_port":27016,"stv_name":"Uncletopia | Chicago | 1 | All Maps | STV","players":[{"user_id":369,"name":"Snivy","steam_id":76561198135488292,"connected_time":1429000000000,"state":"active","ping":87},{"user_id":385,"name":"Zerg","steam_id":76561198334336702,"connected_time":380000000000,"state":"active","ping":59},{"user_id":373,"name":"UnforeseenCabbages","steam_id":76561198079386608,"connected_time":901000000000,"state":"active","ping":75},{"user_id":386,"name":"Yeowskii","steam_id":76561198161399724,"connected_time":288000000000,"state":"active","ping":86},{"user_id":374,"name":"Juri Han","steam_id":76561198041678517,"connected_time":884000000000,"state":"active","ping":105},{"user_id":379,"name":"Pebz","steam_id":76561198405390169,"connected_time":591000000000,"state":"active","ping":86},{"user_id":376,"name":"Skai","steam_id":76561198048890384,"connected_time":653000000000,"state":"active","ping":144},{"user_id":387,"name":"-natalexei ‚ô•","steam_id":76561198100477765,"connected_time":260000000000,"state":"active","ping":86},{"user_id":378,"name":"Mr_Glitch","steam_id":76561199401322907,"connected_time":619000000000,"state":"active","ping":55},{"user_id":381,"name":"Meiji","steam_id":76561198971753591,"connected_time":543000000000,"state":"active","ping":69},{"user_id":390,"name":"AnnieM","steam_id":76561199435467297,"connected_time":163000000000,"state":"active","ping":84},{"user_id":382,"name":"ZirHeisenberg","steam_id":76561198356927429,"connected_time":505000000000,"state":"active","ping":100},{"user_id":384,"name":"Lavender","steam_id":76561198142770666,"connected_time":429000000000,"state":"active","ping":62},{"user_id":389,"name":"a","steam_id":76561198131245396,"connected_time":206000000000,"state":"active","ping":52},{"user_id":343,"name":"Burny Sanders","steam_id":76561197961879048,"connected_time":3802000000000,"state":"active","ping":71}]},{"server_id":106,"name":"Uncletopia | Chicago | 2 | All Maps","name_short":"chi-2","host":"chi-1.us.uncletopia.com","port":27025,"enabled":true,"region":"us-central","cc":"us","latitude":41.881832,"longitude":-87.62318,"reserved":0,"last_update":"0001-01-01T00:00:00Z","name_a2s":"Uncletopia | Chicago | 2 | All Maps","protocol":17,"map":"pl_pier","folder":"tf","game":"Team Fortress","app_id":440,"player_count":24,"max_players":24,"Bots":0,"server_type":"Dedicated","server_os":"Linux","password":true,"vac":true,"version":"7961495","steam_id":85568392924469985,"keywords":["nocrits","nodmgspread","payload","uncletopia"],"game_id":440,"stv_port":27026,"stv_name":"Uncletopia | Chicago | 2 | All Maps | STV","players":[{"user_id":702,"name":"explosives anonymous","steam_id":76561198141862936,"connected_time":284000000000,"state":"active","ping":85},{"user_id":668,"name":"shnowshner","steam_id":76561198066450438,"connected_time":2999000000000,"state":"active","ping":70},{"user_id":558,"name":"Ace Chromatica","steam_id":76561198042211131,"connected_time":11207000000000,"state":"active","ping":60},{"user_id":661,"name":"Maxini_","steam_id":76561198041077011,"connected_time":4228000000000,"state":"active","ping":61},{"user_id":643,"name":"GuyGoom","steam_id":76561198254522178,"connected_time":5297000000000,"state":"active","ping":52},{"user_id":703,"name":"evil sonic","steam_id":76561198198308331,"connected_time":262000000000,"state":"active","ping":101},{"user_id":704,"name":"runfromtheminges","steam_id":76561198119170947,"connected_time":231000000000,"state":"active","ping":109},{"user_id":697,"name":"Raccoon Wizard","steam_id":76561198072562591,"connected_time":1355000000000,"state":"active","ping":79},{"user_id":691,"name":"Family Guy Funny Moments","steam_id":76561198847752839,"connected_time":1959000000000,"state":"active","ping":104},{"user_id":706,"name":"lytewerk","steam_id":76561198002819791,"connected_time":143000000000,"state":"active","ping":75},{"user_id":707,"name":"Mr_SoulSlasher","steam_id":76561198936267613,"connected_time":130000000000,"state":"active","ping":112},{"user_id":713,"name":"The King","steam_id":76561198117344758,"connected_time":16000000000,"state":"spawning","ping":77},{"user_id":688,"name":"Winter the Witchie","steam_id":76561198151971178,"connected_time":2208000000000,"state":"active","ping":62},{"user_id":665,"name":"Shady Businessman","steam_id":76561198143855968,"connected_time":3667000000000,"state":"active","ping":90},{"user_id":709,"name":"Asanez3","steam_id":76561198037381436,"connected_time":107000000000,"state":"active","ping":79},{"user_id":701,"name":"gulch","steam_id":76561199227946025,"connected_time":315000000000,"state":"active","ping":70},{"user_id":710,"name":"women in suits #transrights","steam_id":76561198103901723,"connected_time":97000000000,"state":"active","ping":76},{"user_id":711,"name":"Hayden Jacobs","steam_id":76561198082200738,"connected_time":77000000000,"state":"active","ping":111},{"user_id":599,"name":"ViserOfOrder","steam_id":76561198137222506,"connected_time":8961000000000,"state":"active","ping":60},{"user_id":712,"name":"EliteSpartan","steam_id":76561198174023582,"connected_time":67000000000,"state":"active","ping":55},{"user_id":569,"name":"MR SKELTAL","steam_id":76561198031089598,"connected_time":10300000000000,"state":"active","ping":69},{"user_id":681,"name":"toes","steam_id":76561198221151676,"connected_time":2934000000000,"state":"active","ping":90},{"user_id":682,"name":"take a hit if i kill you","steam_id":76561198992237905,"connected_time":2932000000000,"state":"active","ping":106},{"user_id":684,"name":"spirit","steam_id":76561198102040731,"connected_time":2265000000000,"state":"active","ping":47}]},{"server_id":402,"name":"Uncletopia | Chicago | 3 | All Maps","name_short":"chi-3","host":"chi-1.us.uncletopia.com","port":27035,"enabled":true,"region":"us-central","cc":"us","latitude":41.881832,"longitude":-87.62318,"reserved":0,"last_update":"0001-01-01T00:00:00Z","name_a2s":"Uncletopia | Chicago | 3 | All Maps","protocol":17,"map":"cp_steel","folder":"tf","game":"Team Fortress","app_id":440,"player_count":24,"max_players":24,"Bots":0,"server_type":"Dedicated","server_os":"Linux","password":true,"vac":true,"version":"7961495","steam_id":85568392924515191,"keywords":["cp","nocrits","nodmgspread","uncletopia"],"game_id":440,"stv_port":27036,"stv_name":"Uncletopia | Chicago | 3 | All Maps | STV","players":[{"user_id":564,"name":"Garbo","steam_id":76561198192120869,"connected_time":1222000000000,"state":"active","ping":56},{"user_id":556,"name":"frank n furter","steam_id":76561198308883028,"connected_time":2298000000000,"state":"active","ping":100},{"user_id":572,"name":"Xsaber","steam_id":76561198285273249,"connected_time":236000000000,"state":"spawning","ping":93},{"user_id":543,"name":"fart shitson","steam_id":76561198986534519,"connected_time":2749000000000,"state":"active","ping":91},{"user_id":560,"name":"aphexjh","steam_id":76561197985854658,"connected_time":1312000000000,"state":"active","ping":63},{"user_id":520,"name":"chiswola","steam_id":76561198046920142,"connected_time":5062000000000,"state":"active","ping":71},{"user_id":563,"name":"frank","steam_id":76561198137777483,"connected_time":1262000000000,"state":"active","ping":61},{"user_id":545,"name":"ExplosiveGamer21","steam_id":76561198132370955,"connected_time":2719000000000,"state":"active","ping":116},{"user_id":497,"name":"big steve","steam_id":76561199037050183,"connected_time":7459000000000,"state":"active","ping":76},{"user_id":546,"name":"Hoovy","steam_id":76561198409907417,"connected_time":2679000000000,"state":"active","ping":110},{"user_id":571,"name":"Salt","steam_id":76561198418001135,"connected_time":301000000000,"state":"active","ping":57},{"user_id":573,"name":"Solid Snake","steam_id":76561198192817530,"connected_time":202000000000,"state":"active","ping":78},{"user_id":548,"name":"Six Piece Chicken McNobody","steam_id":76561198129848222,"connected_time":2653000000000,"state":"active","ping":63},{"user_id":574,"name":"9gon Danmar33","steam_id":76561198056453091,"connected_time":196000000000,"state":"active","ping":45},{"user_id":562,"name":"WCF BBL","steam_id":76561198819564432,"connected_time":1282000000000,"state":"active","ping":58},{"user_id":526,"name":"Anstorner","steam_id":76561198274026015,"connected_time":4107000000000,"state":"active","ping":98},{"user_id":549,"name":"RhythmRev","steam_id":76561198084964666,"connected_time":2602000000000,"state":"active","ping":105},{"user_id":567,"name":"whitepharaohbustdown29","steam_id":76561198165899125,"connected_time":850000000000,"state":"active","ping":66},{"user_id":551,"name":"arsenicCatnip","steam_id":76561198322969864,"connected_time":2535000000000,"state":"active","ping":87},{"user_id":505,"name":"spaghetti","steam_id":76561198069600113,"connected_time":7128000000000,"state":"active","ping":61},{"user_id":575,"name":"kiseek","steam_id":76561198075474088,"connected_time":125000000000,"state":"active","ping":84},{"user_id":554,"name":"Bearegard","steam_id":76561198061926542,"connected_time":2487000000000,"state":"active","ping":57},{"user_id":541,"name":"Swiig1ty","steam_id":76561198163402355,"connected_time":2788000000000,"state":"active","ping":57},{"user_id":555,"name":":3","steam_id":76561198077449460,"connected_time":2426000000000,"state":"active","ping":65}]},{"server_id":403,"name":"Uncletopia | Chicago | 4 | All Maps","name_short":"chi-4","host":"chi-1.us.uncletopia.com","port":27045,"enabled":true,"region":"us-central","cc":"us","latitude":41.881832,"longitude":-87.62318,"reserved":0,"last_update":"0001-01-01T00:00:00Z","name_a2s":"Uncletopia | Chicago | 4 | All Maps","protocol":17,"map":"cp_altitude","folder":"tf","game":"Team Fortress","app_id":440,"player_count":3,"max_players":24,"Bots":0,"server_type":"Dedicated","server_os":"Linux","password":true,"vac":true,"version":"7961495","steam_id":85568392924515193,"keywords":["cp","nocrits","nodmgspread","uncletopia"],"game_id":440,"stv_port":27046,"stv_name":"Uncletopia | Chicago | 4 | All Maps | STV","players":[{"user_id":432,"name":"Chode Mode","steam_id":76561198353840477,"connected_time":1927000000000,"state":"active","ping":45},{"user_id":389,"name":"clue","steam_id":76561198299379768,"connected_time":5815000000000,"state":"active","ping":82},{"user_id":439,"name":"knatspray","steam_id":76561198832507482,"connected_time":1327000000000,"state":"active","ping":109}]},{"server_id":36,"name":"Uncletopia | Chicago | 5 | All Maps","name_short":"chi-5","host":"chi-2.us.uncletopia.com","port":27015,"enabled":true,"region":"us-central","cc":"us","latitude":41.881832,"longitude":-87.62318,"reserved":0,"last_update":"0001-01-01T00:00:00Z","name_a2s":"Uncletopia | Chicago | 5 | All Maps","protocol":17,"map":"pl_upward","folder":"tf","game":"Team Fortress","app_id":440,"player_count":24,"max_players":24,"Bots":0,"server_type":"Dedicated","server_os":"Linux","password":true,"vac":true,"version":"7961495","steam_id":85568392924866362,"keywords":["nocrits","nodmgspread","payload","uncletopia"],"game_id":440,"stv_port":27016,"stv_name":"Uncletopia | Chicago | 5 | All Maps | STV","players":[{"user_id":380,"name":"Mossssssssss","steam_id":76561199122200727,"connected_time":1136000000000,"state":"active","ping":67},{"user_id":370,"name":"PIPUPINE","steam_id":76561198805194554,"connected_time":1883000000000,"state":"active","ping":86},{"user_id":381,"name":"Aqzwdrc","steam_id":76561198318727043,"connected_time":1059000000000,"state":"active","ping":84},{"user_id":337,"name":"‚ô†Noji‚ô†","steam_id":76561198040056175,"connected_time":3416000000000,"state":"active","ping":94},{"user_id":402,"name":"ozij","steam_id":76561198038080028,"connected_time":6000000000,"state":"spawning","ping":152},{"user_id":394,"name":"root beer bong hits","steam_id":76561199159928133,"connected_time":453000000000,"state":"active","ping":73},{"user_id":396,"name":"The Caretaker","steam_id":76561198125241411,"connected_time":436000000000,"state":"active","ping":106},{"user_id":397,"name":"staks","steam_id":76561198059570070,"connected_time":414000000000,"state":"active","ping":44},{"user_id":391,"name":"Rambly Dambly","steam_id":76561198844496567,"connected_time":788000000000,"state":"active","ping":58},{"user_id":367,"name":"vanilla latt√©","steam_id":76561198243990636,"connected_time":2012000000000,"state":"active","ping":63},{"user_id":309,"name":"Piyono","steam_id":76561197962188504,"connected_time":5034000000000,"state":"active","ping":68},{"user_id":395,"name":"beckeon","steam_id":76561198056474975,"connected_time":450000000000,"state":"active","ping":72},{"user_id":321,"name":"thorn648","steam_id":76561198012565777,"connected_time":4252000000000,"state":"active","ping":71},{"user_id":398,"name":"supcupman","steam_id":76561198051513866,"connected_time":407000000000,"state":"active","ping":110},{"user_id":379,"name":"Whatsapp Spy","steam_id":76561198085410969,"connected_time":1181000000000,"state":"active","ping":49},{"user_id":374,"name":"zpalmtree","steam_id":76561198134307620,"connected_time":1731000000000,"state":"active","ping":60},{"user_id":393,"name":"Protato","steam_id":76561198061182563,"connected_time":506000000000,"state":"active","ping":74},{"user_id":401,"name":"rf","steam_id":76561198195359229,"connected_time":368000000000,"state":"active","ping":92},{"user_id":385,"name":"MrBurgerItHere","steam_id":76561198902777035,"connected_time":1001000000000,"state":"active","ping":99},{"user_id":348,"name":"Whyamidoingthisaaaa","steam_id":76561199168837342,"connected_time":3139000000000,"state":"active","ping":74},{"user_id":376,"name":"-chad","steam_id":76561197995556119,"connected_time":1720000000000,"state":"active","ping":105},{"user_id":336,"name":"ÔΩàÔΩâÔΩíÔΩèÔΩáÔΩïÔΩô","steam_id":76561198043902761,"connected_time":3434000000000,"state":"active","ping":120},{"user_id":400,"name":"BreadGod","steam_id":76561198050665205,"connected_time":390000000000,"state":"active","ping":68},{"user_id":286,"name":"Toaster","steam_id":76561198152610412,"connected_time":7850000000000,"state":"active","ping":61}]},{"server_id":37,"name":"Uncletopia | Chicago | 6 | All Maps","name_short":"chi-6","host":"chi-2.us.uncletopia.com","port":27025,"enabled":true,"region":"us-central","cc":"us","latitude":41.881832,"longitude":-87.62318,"reserved":0,"last_update":"0001-01-01T00:00:00Z","name_a2s":"Uncletopia | Chicago | 6 | All Maps","protocol":17,"map":"koth_cascade","folder":"tf","game":"Team Fortress","app_id":440,"player_count":23,"max_players":24,"Bots":0,"server_type":"Dedicated","server_os":"Linux","password":true,"vac":true,"version":"7961495","steam_id":85568392924866363,"keywords":["cp","nocrits","nodmgspread","uncletopia"],"game_id":440,"stv_port":27026,"stv_name":"Uncletopia | Chicago | 6 | All Maps | STV","players":[{"user_id":932,"name":"MedRed‚Ñ¢ #IATAH","steam_id":76561198002962970,"connected_time":3303000000000,"state":"active","ping":104},{"user_id":915,"name":"Kreld","steam_id":76561198047794615,"connected_time":4377000000000,"state":"active","ping":165},{"user_id":967,"name":"Ryoko","steam_id":76561198084725087,"connected_time":805000000000,"state":"active","ping":68},{"user_id":963,"name":"DaFlynHyn","steam_id":76561197998492675,"connected_time":1007000000000,"state":"active","ping":150},{"user_id":973,"name":"Shao ‚õµ","steam_id":76561198158512771,"connected_time":7000000000,"state":"spawning","ping":147},{"user_id":965,"name":"catrinaisahuman","steam_id":76561198281355729,"connected_time":974000000000,"state":"active","ping":74},{"user_id":961,"name":"StudioMania (#SAVETF2)","steam_id":76561198211315795,"connected_time":1613000000000,"state":"active","ping":69},{"user_id":928,"name":"alv√∂ru","steam_id":76561198273488925,"connected_time":3940000000000,"state":"active","ping":78},{"user_id":949,"name":"hideyochest","steam_id":76561198090366059,"connected_time":2762000000000,"state":"active","ping":61},{"user_id":959,"name":"stinker","steam_id":76561198295640486,"connected_time":1948000000000,"state":"active","ping":100},{"user_id":960,"name":"FireQuiz","steam_id":76561198107357249,"connected_time":1718000000000,"state":"active","ping":107},{"user_id":943,"name":"t","steam_id":76561198175988929,"connected_time":2895000000000,"state":"active","ping":64},{"user_id":962,"name":"krimsonxsin","steam_id":76561198379898602,"connected_time":1232000000000,"state":"active","ping":117},{"user_id":948,"name":"Vapor Man","steam_id":76561198210173112,"connected_time":2802000000000,"state":"active","ping":108},{"user_id":970,"name":"Flashtasm","steam_id":76561198026635660,"connected_time":337000000000,"state":"active","ping":67},{"user_id":924,"name":"JustAnotherHuman","steam_id":76561199018122924,"connected_time":4075000000000,"state":"active","ping":90},{"user_id":946,"name":"Wheetoz","steam_id":76561198062043775,"connected_time":2855000000000,"state":"active","ping":73},{"user_id":971,"name":"funny original name","steam_id":76561198921347346,"connected_time":322000000000,"state":"active","ping":64},{"user_id":957,"name":"Happy Chappy w/ a Snappy Serape","steam_id":76561198015619945,"connected_time":2368000000000,"state":"active","ping":75},{"user_id":860,"name":"Fiendish Frog","steam_id":76561198029478821,"connected_time":8526000000000,"state":"active","ping":73},{"user_id":966,"name":"Engideer","steam_id":76561198145733164,"connected_time":971000000000,"state":"active","ping":69},{"user_id":972,"name":"NiteVisions","steam_id":76561198093618206,"connected_time":109000000000,"state":"active","ping":65},{"user_id":912,"name":"Red_Hatkins","steam_id":76561198214004105,"connected_time":4680000000000,"state":"active","ping":92}]},{"server_id":38,"name":"Uncletopia | Chicago | 7 | Stopwatch","name_short":"chi-7","host":"chi-2.us.uncletopia.com","port":27035,"enabled":true,"region":"us-central","cc":"us","latitude":41.881832,"longitude":-87.62318,"reserved":0,"last_update":"0001-01-01T00:00:00Z","name_a2s":"Uncletopia | Chicago | 7 | Stopwatch","protocol":17,"map":"pl_swiftwater_final1","folder":"tf","game":"Team Fortress","app_id":440,"player_count":0,"max_players":24,"Bots":0,"server_type":"Dedicated","server_os":"Linux","password":true,"vac":true,"version":"7961495","steam_id":85568392924866364,"keywords":["nocrits","nodmgspread","payload","uncletopia"],"game_id":440,"stv_port":27036,"stv_name":"Uncletopia | Chicago | 7 | Stopwatch | STV","players":null},{"server_id":39,"name":"Uncletopia | Chicago | 8 | Community","name_short":"chi-8","host":"chi-2.us.uncletopia.com","port":27045,"enabled":true,"region":"us-central","cc":"us","latitude":41.881832,"longitude":-87.62318,"reserved":0,"last_update":"0001-01-01T00:00:00Z","name_a2s":"Uncletopia | Chicago | 8 | Community","protocol":17,"map":"workshop/pl_barnblitz_pro7.ugc582280235","folder":"tf","game":"Team Fortress","app_id":440,"player_count":22,"max_players":24,"Bots":0,"server_type":"Dedicated","server_os":"Linux","password":true,"vac":true,"version":"7961495","steam_id":85568392924866365,"keywords":["nocrits","nodmgspread","payload","uncletopia"],"game_id":440,"stv_port":27046,"stv_name":"Uncletopia | Chicago | 8 | Community | STV","players":[{"user_id":226,"name":"Jesse Bear","steam_id":76561198217075305,"connected_time":3128000000000,"state":"active","ping":79},{"user_id":241,"name":"Ditzy Doo","steam_id":76561198011199060,"connected_time":2099000000000,"state":"active","ping":112},{"user_id":250,"name":"brian eno","steam_id":76561198109901138,"connected_time":1370000000000,"state":"active","ping":75},{"user_id":233,"name":"autism creature","steam_id":76561198385849310,"connected_time":2780000000000,"state":"active","ping":65},{"user_id":252,"name":"Galactamarx","steam_id":76561198028065755,"connected_time":1102000000000,"state":"active","ping":103},{"user_id":249,"name":"moosein","steam_id":76561198354272434,"connected_time":1403000000000,"state":"active","ping":100},{"user_id":215,"name":"Lemonparty","steam_id":76561197974422168,"connected_time":4093000000000,"state":"active","ping":69},{"user_id":227,"name":"junebug","steam_id":76561198126662775,"connected_time":3073000000000,"state":"active","ping":50},{"user_id":228,"name":"Still Alive","steam_id":76561198042523000,"connected_time":3060000000000,"state":"active","ping":94},{"user_id":231,"name":"Thequirka","steam_id":76561198968058652,"connected_time":2821000000000,"state":"active","ping":96},{"user_id":211,"name":"Chagalicious","steam_id":76561198044128240,"connected_time":4812000000000,"state":"active","ping":77},{"user_id":167,"name":"he suckin on my rick til i mort","steam_id":76561198310711692,"connected_time":7736000000000,"state":"active","ping":172},{"user_id":232,"name":"Super Nae Nae Baby 2","steam_id":76561198141802482,"connected_time":2809000000000,"state":"active","ping":70},{"user_id":204,"name":"Chicken","steam_id":76561198855273194,"connected_time":5261000000000,"state":"active","ping":58},{"user_id":244,"name":"Loashes","steam_id":76561198119608299,"connected_time":2025000000000,"state":"active","ping":85},{"user_id":255,"name":"goblin?","steam_id":76561198007192438,"connected_time":573000000000,"state":"active","ping":74},{"user_id":247,"name":"Selment","steam_id":76561198026489601,"connected_time":1910000000000,"state":"active","ping":49},{"user_id":180,"name":"aisu","steam_id":76561198043768507,"connected_time":6422000000000,"state":"active","ping":61},{"user_id":240,"name":"Sleezy","steam_id":76561198839500707,"connected_time":2164000000000,"state":"active","ping":96},{"user_id":214,"name":"CabezaGrande","steam_id":76561197972555502,"connected_time":4165000000000,"state":"active","ping":68},{"user_id":237,"name":"roddy ricch - ballin","steam_id":76561198111290441,"connected_time":2607000000000,"state":"active","ping":58},{"user_id":253,"name":"amnyak","steam_id":76561198165831950,"connected_time":993000000000,"state":"active","ping":74}]},{"server_id":8,"name":"Uncletopia | Dallas | 1 | All Maps","name_short":"dal-1","host":"dal-1.us.uncletopia.com","port":27015,"enabled":true,"region":"us-central","cc":"us","latitude":32.779167,"longitude":-96.80889,"reserved":0,"last_update":"0001-01-01T00:00:00Z","name_a2s":"Uncletopia | Dallas | 1 | All Maps","protocol":17,"map":"pl_upward","folder":"tf","game":"Team Fortress","app_id":440,"player_count":24,"max_players":24,"Bots":0,"server_type":"Dedicated","server_os":"Linux","password":true,"vac":true,"version":"7961495","steam_id":85568392924469986,"keywords":["nocrits","nodmgspread","payload","uncletopia"],"game_id":440,"stv_port":27016,"stv_name":"Uncletopia | Dallas | 1 | All Maps | STV","players":[{"user_id":464,"name":"bogdagod","steam_id":76561198286968297,"connected_time":1481000000000,"state":"active","ping":106},{"user_id":462,"name":"BehindYou","steam_id":76561198987222560,"connected_time":1592000000000,"state":"active","ping":67},{"user_id":471,"name":"SoundKitKiller","steam_id":76561198053535873,"connected_time":271000000000,"state":"active","ping":126},{"user_id":461,"name":"tim","steam_id":76561198075510786,"connected_time":1621000000000,"state":"active","ping":71},{"user_id":456,"name":"NabeAkechii","steam_id":76561198086385861,"connected_time":2451000000000,"state":"active","ping":149},{"user_id":415,"name":"LampMan","steam_id":76561198079857527,"connected_time":6314000000000,"state":"active","ping":59},{"user_id":457,"name":"banana gaming","steam_id":76561198334907218,"connected_time":2082000000000,"state":"active","ping":61},{"user_id":453,"name":"ZILICON","steam_id":76561199044705592,"connected_time":2534000000000,"state":"active","ping":119},{"user_id":414,"name":"Rob","steam_id":76561199187786660,"connected_time":6376000000000,"state":"active","ping":56},{"user_id":468,"name":"bad spy player","steam_id":76561198873699671,"connected_time":564000000000,"state":"active","ping":116},{"user_id":427,"name":"J3X","steam_id":76561198184753858,"connected_time":5960000000000,"state":"active","ping":89},{"user_id":443,"name":"flippercurve","steam_id":76561199238295034,"connected_time":4599000000000,"state":"active","ping":72},{"user_id":460,"name":"Soap","steam_id":76561197994893383,"connected_time":1826000000000,"state":"active","ping":70},{"user_id":410,"name":"Two-Ton Heavy Thing","steam_id":76561198201724274,"connected_time":6665000000000,"state":"active","ping":93},{"user_id":436,"name":"Acuzik","steam_id":76561198045453400,"connected_time":4923000000000,"state":"active","ping":73},{"user_id":428,"name":"Jarnold","steam_id":76561198090434537,"connected_time":5840000000000,"state":"active","ping":58},{"user_id":445,"name":"mbell1199","steam_id":76561198827517736,"connected_time":3731000000000,"state":"active","ping":68},{"user_id":470,"name":"Girthworm Jim","steam_id":76561198007433376,"connected_time":427000000000,"state":"active","ping":102},{"user_id":469,"name":"Len","steam_id":76561199141913673,"connected_time":557000000000,"state":"active","ping":72},{"user_id":446,"name":"Sweet Tooth","steam_id":76561198830158092,"connected_time":2907000000000,"state":"active","ping":88},{"user_id":431,"name":"Gary Busey","steam_id":76561197970096950,"connected_time":5479000000000,"state":"active","ping":44},{"user_id":458,"name":"cringeass nae-nae girl","steam_id":76561198108753857,"connected_time":2071000000000,"state":"active","ping":70},{"user_id":437,"name":"Toskasha|ttv","steam_id":76561198044647017,"connected_time":4900000000000,"state":"active","ping":103},{"user_id":435,"name":"Braingoo Hex","steam_id":76561198083094783,"connected_time":5234000000000,"state":"active","ping":82}]},{"server_id":108,"name":"Uncletopia | Dallas | 2 | All Maps","name_short":"dal-2","host":"dal-1.us.uncletopia.com","port":27025,"enabled":true,"region":"us-central","cc":"us","latitude":32.779167,"longitude":-96.80889,"reserved":0,"last_update":"0001-01-01T00:00:00Z","name_a2s":"Uncletopia | Dallas | 2 | All Maps","protocol":17,"map":"cp_well","folder":"tf","game":"Team Fortress","app_id":440,"player_count":24,"max_players":24,"Bots":0,"server_type":"Dedicated","server_os":"Linux","password":true,"vac":true,"version":"7961495","steam_id":85568392924469988,"keywords":["cp","nocrits","nodmgspread","uncletopia"],"game_id":440,"stv_port":27026,"stv_name":"Uncletopia | Dallas | 2 | All Maps | STV","players":[{"user_id":627,"name":"Biden Blast","steam_id":76561198366729030,"connected_time":3179000000000,"state":"active","ping":74},{"user_id":669,"name":"Spaghettios","steam_id":76561198070323656,"connected_time":213000000000,"state":"active","ping":70},{"user_id":667,"name":"Giddy","steam_id":76561198271951969,"connected_time":288000000000,"state":"active","ping":91},{"user_id":643,"name":"Sean","steam_id":76561199367470003,"connected_time":2084000000000,"state":"active","ping":100},{"user_id":665,"name":"Batso","steam_id":76561198106589452,"connected_time":333000000000,"state":"active","ping":85},{"user_id":646,"name":"tacofever","steam_id":76561198010966507,"connected_time":1998000000000,"state":"active","ping":78},{"user_id":668,"name":"Sgt. Pepper","steam_id":76561198063674627,"connected_time":235000000000,"state":"active","ping":75},{"user_id":651,"name":"loser","steam_id":76561198259380127,"connected_time":1730000000000,"state":"active","ping":77},{"user_id":663,"name":"Kat","steam_id":76561199039256180,"connected_time":442000000000,"state":"active","ping":57},{"user_id":587,"name":"the","steam_id":76561198345810744,"connected_time":5678000000000,"state":"active","ping":75},{"user_id":670,"name":"dave","steam_id":76561198135961731,"connected_time":198000000000,"state":"active","ping":62},{"user_id":671,"name":"turingsghost","steam_id":76561198029318657,"connected_time":86000000000,"state":"active","ping":36},{"user_id":640,"name":"Kng","steam_id":76561198993248203,"connected_time":2247000000000,"state":"active","ping":77},{"user_id":672,"name":"AKA-1NC","steam_id":76561199397330767,"connected_time":25000000000,"state":"active","ping":47},{"user_id":673,"name":"makito","steam_id":76561199025164519,"connected_time":19000000000,"state":"active","ping":104},{"user_id":664,"name":"crunch","steam_id":76561198058209703,"connected_time":423000000000,"state":"active","ping":73},{"user_id":648,"name":"Dirtbike rider","steam_id":76561198030457066,"connected_time":1955000000000,"state":"active","ping":64},{"user_id":655,"name":"Genetic Komodo (He/Him)","steam_id":76561198174806758,"connected_time":1643000000000,"state":"active","ping":45},{"user_id":632,"name":"garlic boi","steam_id":76561198052960274,"connected_time":3088000000000,"state":"active","ping":45},{"user_id":649,"name":"Not Giga Chad","steam_id":76561198059785363,"connected_time":1948000000000,"state":"active","ping":66},{"user_id":674,"name":"soltuno","steam_id":76561198074430565,"connected_time":15000000000,"state":"active","ping":95},{"user_id":573,"name":"Toasterduds","steam_id":76561198163477584,"connected_time":6728000000000,"state":"active","ping":87},{"user_id":659,"name":"Kuyumiester","steam_id":76561198126835302,"connected_time":1114000000000,"state":"active","ping":65},{"user_id":653,"name":"Sly_1087.TTV","steam_id":76561198188900013,"connected_time":1705000000000,"state":"active","ping":114}]},{"server_id":404,"name":"Uncletopia | Dallas | 3 | All Maps","name_short":"dal-3","host":"dal-1.us.uncletopia.com","port":27035,"enabled":true,"region":"us-central","cc":"us","latitude":32.779167,"longitude":-96.80889,"reserved":0,"last_update":"0001-01-01T00:00:00Z","name_a2s":"Uncletopia | Dallas | 3 | All Maps","protocol":17,"map":"koth_lakeside_final","folder":"tf","game":"Team Fortress","app_id":440,"player_count":24,"max_players":24,"Bots":0,"server_type":"Dedicated","server_os":"Linux","password":true,"vac":true,"version":"7961495","steam_id":85568392924515219,"keywords":["cp","nocrits","nodmgspread","uncletopia"],"game_id":440,"stv_port":27036,"stv_name":"Uncletopia | Dallas | 3 | All Maps | STV","players":[{"user_id":269,"name":"KYLE KYLESON","steam_id":76561198021920887,"connected_time":876000000000,"state":"active","ping":60},{"user_id":280,"name":"meta dependent merchant","steam_id":76561197962607364,"connected_time":550000000000,"state":"active","ping":67},{"user_id":277,"name":"mokely","steam_id":76561198076483785,"connected_time":624000000000,"state":"active","ping":44},{"user_id":270,"name":"j03momma","steam_id":76561199254054428,"connected_time":874000000000,"state":"active","ping":114},{"user_id":259,"name":"SoCal Kaizer","steam_id":76561198334361081,"connected_time":1323000000000,"state":"active","ping":102},{"user_id":250,"name":"Captain Underbelly","steam_id":76561198811270935,"connected_time":2398000000000,"state":"active","ping":82},{"user_id":199,"name":"Elder Titan","steam_id":76561198025397370,"connected_time":6803000000000,"state":"active","ping":75},{"user_id":271,"name":"üçíbutaüçí","steam_id":76561198135538212,"connected_time":873000000000,"state":"active","ping":77},{"user_id":272,"name":"PiolaCat","steam_id":76561199100535345,"connected_time":864000000000,"state":"active","ping":109},{"user_id":260,"name":"A Shiny Meat Bicycle","steam_id":76561198358757709,"connected_time":1270000000000,"state":"active","ping":97},{"user_id":278,"name":"Frank Accardi","steam_id":76561198017275707,"connected_time":609000000000,"state":"active","ping":84},{"user_id":273,"name":"Decapitation Station","steam_id":76561198201796098,"connected_time":840000000000,"state":"active","ping":96},{"user_id":274,"name":"dog","steam_id":76561198263873491,"connected_time":766000000000,"state":"active","ping":62},{"user_id":275,"name":"Drilly22","steam_id":76561198068838338,"connected_time":761000000000,"state":"active","ping":66},{"user_id":209,"name":"woooflet","steam_id":76561199208387179,"connected_time":6022000000000,"state":"active","ping":45},{"user_id":276,"name":"Bubtit","steam_id":76561199138751788,"connected_time":753000000000,"state":"active","ping":70},{"user_id":285,"name":"._.","steam_id":76561198300316801,"connected_time":288000000000,"state":"active","ping":80},{"user_id":281,"name":"Selenddron","steam_id":76561198130341338,"connected_time":543000000000,"state":"active","ping":88},{"user_id":265,"name":"Artincendies","steam_id":76561198242373456,"connected_time":1146000000000,"state":"active","ping":62},{"user_id":282,"name":"Jokergamma","steam_id":76561198807984541,"connected_time":511000000000,"state":"active","ping":57},{"user_id":279,"name":"Luggy","steam_id":76561198070559361,"connected_time":584000000000,"state":"active","ping":54},{"user_id":283,"name":"Diplodocus","steam_id":76561198023323121,"connected_time":412000000000,"state":"active","ping":110},{"user_id":236,"name":"Sweatshirt","steam_id":76561198087631219,"connected_time":3382000000000,"state":"active","ping":105},{"user_id":284,"name":"Daksuki","steam_id":76561198084127751,"connected_time":379000000000,"state":"active","ping":76}]},{"server_id":405,"name":"Uncletopia | Dallas | 4 | Community","name_short":"dal-4","host":"dal-1.us.uncletopia.com","port":27045,"enabled":true,"region":"us-central","cc":"us","latitude":32.779167,"longitude":-96.80889,"reserved":0,"last_update":"0001-01-01T00:00:00Z","name_a2s":"Uncletopia | Dallas | 4 | Community","protocol":17,"map":"workshop/cp_mannbase_rc2a.ugc1900737467","folder":"tf","game":"Team Fortress","app_id":440,"player_count":0,"max_players":24,"Bots":0,"server_type":"Dedicated","server_os":"Linux","password":true,"vac":true,"version":"7961495","steam_id":85568392924515220,"keywords":["cp","nocrits","nodmgspread","uncletopia"],"game_id":440,"stv_port":27046,"stv_name":"Uncletopia | Dallas | 4 | Community | STV","players":null},{"server_id":5,"name":"Uncletopia | Frankfurt | 1 | All Maps","name_short":"frk-1","host":"frk-1.de.uncletopia.com","port":27015,"enabled":true,"region":"eu","cc":"de","latitude":50.110924,"longitude":8.682127,"reserved":0,"last_update":"0001-01-01T00:00:00Z","name_a2s":"Uncletopia | Frankfurt | 1 | All Maps","protocol":17,"map":"koth_highpass","folder":"tf","game":"Team Fortress","app_id":440,"player_count":0,"max_players":24,"Bots":0,"server_type":"Dedicated","server_os":"Linux","password":true,"vac":true,"version":"7961495","steam_id":85568392924469989,"keywords":["cp","nocrits","nodmgspread","uncletopia"],"game_id":440,"stv_port":27016,"stv_name":"Uncletopia | Frankfurt | 1 | All Maps | STV","players":null},{"server_id":110,"name":"Uncletopia | Frankfurt | 2 | All Maps","name_short":"frk-2","host":"frk-1.de.uncletopia.com","port":27025,"enabled":true,"region":"eu","cc":"de","latitude":50.110924,"longitude":8.682127,"reserved":0,"last_update":"0001-01-01T00:00:00Z","name_a2s":"Uncletopia | Frankfurt | 2 | All Maps","protocol":17,"map":"cp_dustbowl","folder":"tf","game":"Team Fortress","app_id":440,"player_count":0,"max_players":24,"Bots":0,"server_type":"Dedicated","server_os":"Linux","password":true,"vac":true,"version":"7961495","steam_id":85568392924469990,"keywords":["cp","nocrits","nodmgspread","uncletopia"],"game_id":440,"stv_port":27026,"stv_name":"Uncletopia | Frankfurt | 2 | All Maps | STV","players":null},{"server_id":308,"name":"Uncletopia | Frankfurt | 3 | All Maps","name_short":"frk-3","host":"frk-1.de.uncletopia.com","port":27035,"enabled":true,"region":"eu","cc":"de","latitude":50.110924,"longitude":8.682127,"reserved":0,"last_update":"0001-01-01T00:00:00Z","name_a2s":"Uncletopia | Frankfurt | 3 | All Maps","protocol":17,"map":"pl_barnblitz","folder":"tf","game":"Team Fortress","app_id":440,"player_count":0,"max_players":24,"Bots":0,"server_type":"Dedicated","server_os":"Linux","password":true,"vac":true,"version":"7961495","steam_id":85568392924504274,"keywords":["nocrits","nodmgspread","payload","uncletopia"],"game_id":440,"stv_port":27036,"stv_name":"Uncletopia | Frankfurt | 3 | All Maps | STV","players":null},{"server_id":309,"name":"Uncletopia | Frankfurt | 4 | All Maps","name_short":"frk-4","host":"frk-1.de.uncletopia.com","port":27045,"enabled":true,"region":"eu","cc":"de","latitude":50.110924,"longitude":8.682127,"reserved":0,"last_update":"0001-01-01T00:00:00Z","name_a2s":"Uncletopia | Frankfurt | 4 | All Maps","protocol":17,"map":"koth_highpass","folder":"tf","game":"Team Fortress","app_id":440,"player_count":0,"max_players":24,"Bots":0,"server_type":"Dedicated","server_os":"Linux","password":true,"vac":true,"version":"7961495","steam_id":85568392924504275,"keywords":["cp","nocrits","nodmgspread","uncletopia"],"game_id":440,"stv_port":27046,"stv_name":"Uncletopia | Frankfurt | 4 | All Maps | STV","players":null},{"server_id":310,"name":"Uncletopia | Frankfurt | 5 | All Maps","name_short":"frk-5","host":"frk-1.de.uncletopia.com","port":27055,"enabled":true,"region":"eu","cc":"de","latitude":50.110924,"longitude":8.682127,"reserved":0,"last_update":"0001-01-01T00:00:00Z","name_a2s":"Uncletopia | Frankfurt | 5 | All Maps","protocol":17,"map":"pl_badwater","folder":"tf","game":"Team Fortress","app_id":440,"player_count":0,"max_players":24,"Bots":0,"server_type":"Dedicated","server_os":"Linux","password":true,"vac":true,"version":"7961495","steam_id":85568392924504277,"keywords":["nocrits","nodmgspread","payload","uncletopia"],"game_id":440,"stv_port":27056,"stv_name":"Uncletopia | Frankfurt | 5 | All Maps | STV","players":null},{"server_id":311,"name":"Uncletopia | Frankfurt | 6 | All Maps","name_short":"frk-6","host":"frk-1.de.uncletopia.com","port":27065,"enabled":true,"region":"eu","cc":"de","latitude":50.110924,"longitude":8.682127,"reserved":0,"last_update":"0001-01-01T00:00:00Z","name_a2s":"Uncletopia | Frankfurt | 6 | All Maps","protocol":17,"map":"cp_altitude","folder":"tf","game":"Team Fortress","app_id":440,"player_count":0,"max_players":24,"Bots":0,"server_type":"Dedicated","server_os":"Linux","password":true,"vac":true,"version":"7961495","steam_id":85568392924504278,"keywords":["cp","nocrits","nodmgspread","uncletopia"],"game_id":440,"stv_port":27066,"stv_name":"Uncletopia | Frankfurt | 6 | All Maps | STV","players":null},{"server_id":23,"name":"Uncletopia | Frankfurt | 7 | Stopwatch","name_short":"frk-7","host":"frk-1.de.uncletopia.com","port":27075,"enabled":true,"region":"eu","cc":"de","latitude":50.110924,"longitude":8.682127,"reserved":0,"last_update":"0001-01-01T00:00:00Z","name_a2s":"Uncletopia | Frankfurt | 7 | Stopwatch","protocol":17,"map":"pl_frontier_final","folder":"tf","game":"Team Fortress","app_id":440,"player_count":0,"max_players":24,"Bots":0,"server_type":"Dedicated","server_os":"Linux","password":true,"vac":true,"version":"7961495","steam_id":85568392924742827,"keywords":["nocrits","nodmgspread","payload","uncletopia"],"game_id":440,"stv_port":27076,"stv_name":"Uncletopia | Frankfurt | 7 | Stopwatch | STV","players":null},{"server_id":24,"name":"Uncletopia | Frankfurt | 8 | Community","name_short":"frk-8","host":"frk-1.de.uncletopia.com","port":27085,"enabled":true,"region":"eu","cc":"de","latitude":50.110924,"longitude":8.682127,"reserved":0,"last_update":"0001-01-01T00:00:00Z","name_a2s":"Uncletopia | Frankfurt | 8 | Community","protocol":17,"map":"cp_mountainlab","folder":"tf","game":"Team Fortress","app_id":440,"player_count":0,"max_players":24,"Bots":0,"server_type":"Dedicated","server_os":"Linux","password":true,"vac":true,"version":"7961495","steam_id":85568392924742828,"keywords":["cp","nocrits","nodmgspread","uncletopia"],"game_id":440,"stv_port":27086,"stv_name":"Uncletopia | Frankfurt | 8 | Community | STV","players":null},{"server_id":202,"name":"Uncletopia | Hong Kong | 1 | All Maps","name_short":"hgk-1","host":"hgk-1.hk.uncletopia.com","port":27015,"enabled":true,"region":"asia","cc":"hk","latitude":22.302711,"longitude":114.177216,"reserved":0,"last_update":"0001-01-01T00:00:00Z","name_a2s":"Uncletopia | Hong Kong | 1 | All Maps","protocol":17,"map":"pl_frontier_final","folder":"tf","game":"Team Fortress","app_id":440,"player_count":0,"max_players":24,"Bots":0,"server_type":"Dedicated","server_os":"Linux","password":true,"vac":true,"version":"7961495","steam_id":85568392924494504,"keywords":["nocrits","nodmgspread","payload","uncletopia"],"game_id":440,"stv_port":27016,"stv_name":"Uncletopia | Hong Kong | 1 | All Maps | STV","players":null},{"server_id":1,"name":"Uncletopia | Los Angeles | 1 | All Maps","name_short":"lax-1","host":"lax-1.us.uncletopia.com","port":27015,"enabled":true,"region":"us-west","cc":"us","latitude":33.94279,"longitude":-118.41004,"reserved":0,"last_update":"0001-01-01T00:00:00Z","name_a2s":"Uncletopia | Los Angeles | 1 | All Maps","protocol":17,"map":"pl_upward","folder":"tf","game":"Team Fortress","app_id":440,"player_count":23,"max_players":24,"Bots":0,"server_type":"Dedicated","server_os":"Linux","password":true,"vac":true,"version":"7961495","steam_id":85568392924469991,"keywords":["nocrits","nodmgspread","payload","uncletopia"],"game_id":440,"stv_port":27016,"stv_name":"Uncletopia | Los Angeles | 1 | All Maps | STV","players":[{"user_id":46,"name":"WoodsRunner","steam_id":76561198121812870,"connected_time":3758000000000,"state":"active","ping":97},{"user_id":75,"name":"Schully__","steam_id":76561198041329791,"connected_time":1490000000000,"state":"active","ping":46},{"user_id":90,"name":"WhatAmIDoing","steam_id":76561199060028126,"connected_time":477000000000,"state":"active","ping":65},{"user_id":86,"name":"NFL.com","steam_id":76561198113405376,"connected_time":856000000000,"state":"active","ping":53},{"user_id":84,"name":"4","steam_id":76561198105374054,"connected_time":990000000000,"state":"active","ping":67},{"user_id":80,"name":"Joe","steam_id":76561198290315229,"connected_time":1329000000000,"state":"active","ping":60},{"user_id":73,"name":"Satori Komeiji","steam_id":76561198158211423,"connected_time":1654000000000,"state":"active","ping":44},{"user_id":74,"name":"‚õßAlkahestry","steam_id":76561198109641497,"connected_time":1502000000000,"state":"active","ping":43},{"user_id":99,"name":"SomeName","steam_id":76561198055637632,"connected_time":124000000000,"state":"active","ping":66},{"user_id":63,"name":"D.A.V.I.D","steam_id":76561199443570634,"connected_time":2634000000000,"state":"active","ping":100},{"user_id":100,"name":"horseyduck","steam_id":76561199116180662,"connected_time":62000000000,"state":"active","ping":62},{"user_id":89,"name":"californjoe","steam_id":76561197965047795,"connected_time":499000000000,"state":"active","ping":54},{"user_id":65,"name":"blazen","steam_id":76561198921007863,"connected_time":2426000000000,"state":"active","ping":68},{"user_id":70,"name":"MantisToboggan","steam_id":76561197969447887,"connected_time":1896000000000,"state":"active","ping":99},{"user_id":95,"name":"i need to see your balls","steam_id":76561198168492250,"connected_time":270000000000,"state":"active","ping":49},{"user_id":98,"name":"WabM (top 50 Aimlabs player)","steam_id":76561198073739176,"connected_time":182000000000,"state":"active","ping":88},{"user_id":40,"name":"Pyrotek‚Å¥","steam_id":76561198072747672,"connected_time":3857000000000,"state":"active","ping":45},{"user_id":97,"name":"Windows Vista Home Premium","steam_id":76561198043764863,"connected_time":213000000000,"state":"active","ping":52},{"user_id":88,"name":"chimplicity","steam_id":76561198012097062,"connected_time":580000000000,"state":"active","ping":64},{"user_id":94,"name":"type \"bad med\" to kick","steam_id":76561198076402476,"connected_time":427000000000,"state":"active","ping":66},{"user_id":77,"name":"Whapper","steam_id":76561198044029606,"connected_time":1470000000000,"state":"active","ping":60},{"user_id":72,"name":"bong fellow","steam_id":76561198334044006,"connected_time":1764000000000,"state":"active","ping":42},{"user_id":78,"name":"Firedust19","steam_id":76561198153238631,"connected_time":1458000000000,"state":"active","ping":62}]},{"server_id":112,"name":"Uncletopia | Los Angeles | 2 | All Maps","name_short":"lax-2","host":"lax-1.us.uncletopia.com","port":27025,"enabled":true,"region":"us-west","cc":"us","latitude":33.94279,"longitude":-118.41004,"reserved":0,"last_update":"0001-01-01T00:00:00Z","name_a2s":"Uncletopia | Los Angeles | 2 | All Maps","protocol":17,"map":"cp_dustbowl","folder":"tf","game":"Team Fortress","app_id":440,"player_count":24,"max_players":24,"Bots":0,"server_type":"Dedicated","server_os":"Linux","password":true,"vac":true,"version":"7961495","steam_id":85568392924469992,"keywords":["cp","nocrits","nodmgspread","uncletopia"],"game_id":440,"stv_port":27026,"stv_name":"Uncletopia | Los Angeles | 2 | All Maps | STV","players":[{"user_id":219,"name":"The Pope","steam_id":76561198058047601,"connected_time":465000000000,"state":"active","ping":37},{"user_id":191,"name":"Crazy Hungarian","steam_id":76561198025498172,"connected_time":2597000000000,"state":"active","ping":82},{"user_id":201,"name":"techchase rorschach test","steam_id":76561198408159536,"connected_time":2202000000000,"state":"active","ping":103},{"user_id":186,"name":"GreenApples","steam_id":76561198120559543,"connected_time":3104000000000,"state":"active","ping":59},{"user_id":217,"name":"Ralph Kramden (Slim Charles)","steam_id":76561197981687895,"connected_time":842000000000,"state":"active","ping":62},{"user_id":220,"name":"da-me da-ne","steam_id":76561198186208857,"connected_time":426000000000,"state":"active","ping":49},{"user_id":212,"name":"Dcoyotzi","steam_id":76561199124707627,"connected_time":1569000000000,"state":"active","ping":76},{"user_id":156,"name":"Boxcars","steam_id":76561198120978767,"connected_time":4451000000000,"state":"active","ping":56},{"user_id":213,"name":"HeroOfTime","steam_id":76561199096218001,"connected_time":1123000000000,"state":"active","ping":54},{"user_id":192,"name":"shitass (Reaping and Sowing)","steam_id":76561198210572481,"connected_time":2591000000000,"state":"active","ping":45},{"user_id":206,"name":"Disc0","steam_id":76561198067337267,"connected_time":1699000000000,"state":"active","ping":79},{"user_id":224,"name":"Scoperaider","steam_id":76561199068449848,"connected_time":43000000000,"state":"active","ping":47},{"user_id":208,"name":"RC","steam_id":76561198048127881,"connected_time":1655000000000,"state":"active","ping":45},{"user_id":209,"name":"Human Resources Manager","steam_id":76561198066386411,"connected_time":1646000000000,"state":"active","ping":59},{"user_id":221,"name":"Genius Meme","steam_id":76561198162911254,"connected_time":422000000000,"state":"active","ping":71},{"user_id":67,"name":"SuperSX","steam_id":76561199230865085,"connected_time":9985000000000,"state":"active","ping":89},{"user_id":204,"name":"wawa","steam_id":76561199498563597,"connected_time":1937000000000,"state":"active","ping":111},{"user_id":222,"name":"Keyboardbreaker","steam_id":76561198372836132,"connected_time":418000000000,"state":"active","ping":74},{"user_id":210,"name":"Squash","steam_id":76561198200037217,"connected_time":1643000000000,"state":"active","ping":115},{"user_id":185,"name":"Dullahan","steam_id":76561198119668908,"connected_time":3271000000000,"state":"active","ping":60},{"user_id":173,"name":"TheGhostThatWas","steam_id":76561198055836483,"connected_time":4026000000000,"state":"active","ping":105},{"user_id":211,"name":"Stock Pyro","steam_id":76561198155483586,"connected_time":1629000000000,"state":"active","ping":99},{"user_id":215,"name":"not big soup rice","steam_id":76561199187641532,"connected_time":905000000000,"state":"active","ping":101},{"user_id":199,"name":"FROYO b4nny","steam_id":76561197970669109,"connected_time":2481000000000,"state":"active","ping":55}]},{"server_id":324,"name":"Uncletopia | Los Angeles | 3 | All Maps","name_short":"lax-3","host":"lax-1.us.uncletopia.com","port":27035,"enabled":true,"region":"us-west","cc":"us","latitude":33.94279,"longitude":-118.41004,"reserved":0,"last_update":"0001-01-01T00:00:00Z","name_a2s":"Uncletopia | Los Angeles | 3 | All Maps","protocol":17,"map":"pl_borneo","folder":"tf","game":"Team Fortress","app_id":440,"player_count":0,"max_players":24,"Bots":0,"server_type":"Dedicated","server_os":"Linux","password":true,"vac":true,"version":"7961495","steam_id":85568392924510198,"keywords":["nocrits","nodmgspread","payload","uncletopia"],"game_id":440,"stv_port":27036,"stv_name":"Uncletopia | Los Angeles | 3 | All Maps | STV","players":null},{"server_id":25,"name":"Uncletopia | Los Angeles | 4 | Stopwatch","name_short":"lax-4","host":"lax-1.us.uncletopia.com","port":27045,"enabled":true,"region":"us-west","cc":"us","latitude":33.94279,"longitude":-118.41004,"reserved":0,"last_update":"0001-01-01T00:00:00Z","name_a2s":"Uncletopia | Los Angeles | 4 | Stopwatch","protocol":17,"map":"koth_highpass","folder":"tf","game":"Team Fortress","app_id":440,"player_count":5,"max_players":24,"Bots":0,"server_type":"Dedicated","server_os":"Linux","password":true,"vac":true,"version":"7961495","steam_id":85568392924510199,"keywords":["cp","nocrits","nodmgspread","uncletopia"],"game_id":440,"stv_port":27046,"stv_name":"Uncletopia | Los Angeles | 4 | Stopwatch | STV","players":[{"user_id":7,"name":"Cerberus","steam_id":76561199078766047,"connected_time":4120000000000,"state":"active","ping":70},{"user_id":18,"name":"tum","steam_id":76561198084712019,"connected_time":282000000000,"state":"active","ping":58},{"user_id":21,"name":"mafia is mafia","steam_id":76561198042574722,"connected_time":42000000000,"state":"active","ping":68},{"user_id":10,"name":"NC 2nd place flanker","steam_id":76561199467334502,"connected_time":3238000000000,"state":"active","ping":46},{"user_id":14,"name":"Schnitz","steam_id":76561198265484253,"connected_time":2213000000000,"state":"active","ping":57}]},{"server_id":11,"name":"Uncletopia | London | 1 | All Maps","name_short":"lon-1","host":"lon-1.uk.uncletopia.com","port":27015,"enabled":true,"region":"eu","cc":"gb","latitude":51.509865,"longitude":-0.118092,"reserved":0,"last_update":"0001-01-01T00:00:00Z","name_a2s":"Uncletopia | London | 1 | All Maps","protocol":17,"map":"koth_harvest_final","folder":"tf","game":"Team Fortress","app_id":440,"player_count":0,"max_players":24,"Bots":0,"server_type":"Dedicated","server_os":"Linux","password":true,"vac":true,"version":"7961495","steam_id":85568392924367362,"keywords":["cp","nocrits","nodmgspread","uncletopia"],"game_id":440,"stv_port":27016,"stv_name":"Uncletopia | London | 1 | All Maps | STV","players":null},{"server_id":114,"name":"Uncletopia | London | 2 | All Maps","name_short":"lon-2","host":"lon-1.uk.uncletopia.com","port":27025,"enabled":true,"region":"eu","cc":"gb","latitude":51.509865,"longitude":-0.118092,"reserved":0,"last_update":"0001-01-01T00:00:00Z","name_a2s":"Uncletopia | London | 2 | All Maps","protocol":17,"map":"koth_highpass","folder":"tf","game":"Team Fortress","app_id":440,"player_count":12,"max_players":24,"Bots":0,"server_type":"Dedicated","server_os":"Linux","password":true,"vac":true,"version":"7961495","steam_id":85568392924470941,"keywords":["cp","nocrits","nodmgspread","uncletopia"],"game_id":440,"stv_port":27026,"stv_name":"Uncletopia | London | 2 | All Maps | STV","players":[{"user_id":772,"name":"Speltok","steam_id":76561198084028223,"connected_time":1175000000000,"state":"active","ping":91},{"user_id":773,"name":"TheHero_","steam_id":76561198155262213,"connected_time":1043000000000,"state":"active","ping":161},{"user_id":787,"name":"Fialure5","steam_id":76561199204629124,"connected_time":90000000000,"state":"active","ping":179},{"user_id":775,"name":"jonbob","steam_id":76561197963506620,"connected_time":971000000000,"state":"active","ping":50},{"user_id":769,"name":"Virgil","steam_id":76561198248786778,"connected_time":1322000000000,"state":"active","ping":119},{"user_id":786,"name":"Omeven","steam_id":76561198256387155,"connected_time":287000000000,"state":"active","ping":100},{"user_id":779,"name":"Lord Headass","steam_id":76561198099488447,"connected_time":621000000000,"state":"active","ping":138},{"user_id":780,"name":"bum","steam_id":76561198059483994,"connected_time":592000000000,"state":"active","ping":150},{"user_id":758,"name":"king k rool","steam_id":76561199179040672,"connected_time":3402000000000,"state":"active","ping":54},{"user_id":784,"name":"DoctorPacman","steam_id":76561198228084504,"connected_time":364000000000,"state":"active","ping":47},{"user_id":783,"name":"kaiji_saleh","steam_id":76561199274325425,"connected_time":471000000000,"state":"active","ping":153},{"user_id":785,"name":"Happy Sez","steam_id":76561199272072187,"connected_time":304000000000,"state":"active","ping":185}]},{"server_id":320,"name":"Uncletopia | London | 3 | All Maps","name_short":"lon-3","host":"lon-1.uk.uncletopia.com","port":27035,"enabled":true,"region":"eu","cc":"gb","latitude":51.509865,"longitude":-0.118092,"reserved":0,"last_update":"0001-01-01T00:00:00Z","name_a2s":"Uncletopia | London | 3 | All Maps","protocol":17,"map":"pl_frontier_final","folder":"tf","game":"Team Fortress","app_id":440,"player_count":0,"max_players":24,"Bots":0,"server_type":"Dedicated","server_os":"Linux","password":true,"vac":true,"version":"7961495","steam_id":85568392924510192,"keywords":["nocrits","nodmgspread","payload","uncletopia"],"game_id":440,"stv_port":27036,"stv_name":"Uncletopia | London | 3 | All Maps | STV","players":null},{"server_id":321,"name":"Uncletopia | London | 4 | All Maps","name_short":"lon-4","host":"lon-1.uk.uncletopia.com","port":27045,"enabled":true,"region":"eu","cc":"gb","latitude":51.509865,"longitude":-0.118092,"reserved":0,"last_update":"0001-01-01T00:00:00Z","name_a2s":"Uncletopia | London | 4 | All Maps","protocol":17,"map":"koth_highpass","folder":"tf","game":"Team Fortress","app_id":440,"player_count":0,"max_players":24,"Bots":0,"server_type":"Dedicated","server_os":"Linux","password":true,"vac":true,"version":"7961495","steam_id":85568392924510193,"keywords":["cp","nocrits","nodmgspread","uncletopia"],"game_id":440,"stv_port":27046,"stv_name":"Uncletopia | London | 4 | All Maps | STV","players":null},{"server_id":21,"name":"Uncletopia | London | 5 | All Maps","name_short":"lon-5","host":"lon-1.uk.uncletopia.com","port":27055,"enabled":true,"region":"eu","cc":"gb","latitude":51.509865,"longitude":-0.118092,"reserved":0,"last_update":"0001-01-01T00:00:00Z","name_a2s":"Uncletopia | London | 5 | All Maps","protocol":17,"map":"koth_viaduct","folder":"tf","game":"Team Fortress","app_id":440,"player_count":0,"max_players":24,"Bots":0,"server_type":"Dedicated","server_os":"Linux","password":true,"vac":true,"version":"7961495","steam_id":85568392924742829,"keywords":["cp","nocrits","nodmgspread","uncletopia"],"game_id":440,"stv_port":27056,"stv_name":"Uncletopia | London | 5 | All Maps | STV","players":null},{"server_id":22,"name":"Uncletopia | London | 6 | All Maps","name_short":"lon-6","host":"lon-1.uk.uncletopia.com","port":27065,"enabled":true,"region":"eu","cc":"gb","latitude":51.509865,"longitude":-0.118092,"reserved":0,"last_update":"0001-01-01T00:00:00Z","name_a2s":"Uncletopia | London | 6 | All Maps","protocol":17,"map":"cp_process_final","folder":"tf","game":"Team Fortress","app_id":440,"player_count":0,"max_players":24,"Bots":0,"server_type":"Dedicated","server_os":"Linux","password":true,"vac":true,"version":"7961495","steam_id":85568392924742830,"keywords":["cp","nocrits","nodmgspread","uncletopia"],"game_id":440,"stv_port":27066,"stv_name":"Uncletopia | London | 6 | All Maps | STV","players":null},{"server_id":40,"name":"Uncletopia | London | 7 | Stopwatch","name_short":"lon-7","host":"lon-1.uk.uncletopia.com","port":27075,"enabled":true,"region":"eu","cc":"gb","latitude":51.509865,"longitude":-0.118092,"reserved":0,"last_update":"0001-01-01T00:00:00Z","name_a2s":"Uncletopia | London | 7 | Stopwatch","protocol":17,"map":"pl_upward","folder":"tf","game":"Team Fortress","app_id":440,"player_count":0,"max_players":24,"Bots":0,"server_type":"Dedicated","server_os":"Linux","password":true,"vac":true,"version":"7961495","steam_id":85568392924964314,"keywords":["nocrits","nodmgspread","payload","uncletopia"],"game_id":440,"stv_port":27076,"stv_name":"Uncletopia | London | 7 | Stopwatch | STV","players":null},{"server_id":41,"name":"Uncletopia | London | 8 | Community","name_short":"lon-8","host":"lon-1.uk.uncletopia.com","port":27085,"enabled":true,"region":"eu","cc":"gb","latitude":51.509865,"longitude":-0.118092,"reserved":0,"last_update":"0001-01-01T00:00:00Z","name_a2s":"Uncletopia | London | 8 | Community","protocol":17,"map":"workshop/koth_bagel_rc6.ugc2514036946","folder":"tf","game":"Team Fortress","app_id":440,"player_count":0,"max_players":24,"Bots":0,"server_type":"Dedicated","server_os":"Linux","password":true,"vac":true,"version":"7961495","steam_id":85568392924964315,"keywords":["cp","nocrits","nodmgspread","uncletopia"],"game_id":440,"stv_port":27086,"stv_name":"Uncletopia | London | 8 | Community | STV","players":null},{"server_id":300,"name":"Uncletopia | Montr√©al | 1 | One Thousand Uncles","name_short":"mtl-1","host":"mtl-1.ca.uncletopia.com","port":27015,"enabled":true,"region":"us-east","cc":"ca","latitude":45.50889,"longitude":-73.56167,"reserved":0,"last_update":"0001-01-01T00:00:00Z","name_a2s":"","protocol":0,"map":"","folder":"","game":"","app_id":0,"player_count":0,"max_players":0,"Bots":0,"server_type":"","server_os":"","password":false,"vac":false,"version":"","steam_id":0,"keywords":null,"game_id":0,"stv_port":0,"stv_name":"","players":null},{"server_id":301,"name":"Uncletopia | Montr√©al | 2 | One Thousand Uncles","name_short":"mtl-2","host":"mtl-1.ca.uncletopia.com","port":27025,"enabled":true,"region":"us-east","cc":"ca","latitude":45.50889,"longitude":-73.56167,"reserved":0,"last_update":"0001-01-01T00:00:00Z","name_a2s":"","protocol":0,"map":"","folder":"","game":"","app_id":0,"player_count":0,"max_players":0,"Bots":0,"server_type":"","server_os":"","password":false,"vac":false,"version":"","steam_id":0,"keywords":null,"game_id":0,"stv_port":0,"stv_name":"","players":null},{"server_id":302,"name":"Uncletopia | Montr√©al | 3 | One Thousand Uncles","name_short":"mtl-3","host":"mtl-1.ca.uncletopia.com","port":27035,"enabled":true,"region":"us-east","cc":"ca","latitude":45.50889,"longitude":-73.56167,"reserved":0,"last_update":"0001-01-01T00:00:00Z","name_a2s":"","protocol":0,"map":"","folder":"","game":"","app_id":0,"player_count":2,"max_players":0,"Bots":0,"server_type":"","server_os":"","password":false,"vac":false,"version":"","steam_id":0,"keywords":null,"game_id":0,"stv_port":0,"stv_name":"","players":[{"user_id":393,"name":"St. Michael","steam_id":76561198037611052,"connected_time":4641000000000,"state":"active","ping":74},{"user_id":411,"name":"Soldie","steam_id":76561198118414372,"connected_time":3975000000000,"state":"active","ping":75}]},{"server_id":13,"name":"Uncletopia | New York City | 1 | All Maps","name_short":"nyc-1","host":"nyc-1.us.uncletopia.com","port":27015,"enabled":true,"region":"us-east","cc":"us","latitude":40.73061,"longitude":-73.93524,"reserved":0,"last_update":"0001-01-01T00:00:00Z","name_a2s":"Uncletopia | New York City | 1 | All Maps","protocol":17,"map":"pl_barnblitz","folder":"tf","game":"Team Fortress","app_id":440,"player_count":24,"max_players":24,"Bots":0,"server_type":"Dedicated","server_os":"Linux","password":true,"vac":true,"version":"7961495","steam_id":85568392924469993,"keywords":["nocrits","nodmgspread","payload","uncletopia"],"game_id":440,"stv_port":27016,"stv_name":"Uncletopia | New York City | 1 | All Maps | STV","players":[{"user_id":541,"name":"Gamba","steam_id":76561198069264650,"connected_time":1696000000000,"state":"active","ping":81},{"user_id":502,"name":"Big Bill Haywood","steam_id":76561198142290733,"connected_time":4905000000000,"state":"active","ping":54},{"user_id":537,"name":"Scoob","steam_id":76561198078633301,"connected_time":2213000000000,"state":"active","ping":51},{"user_id":542,"name":"king julian","steam_id":76561198119651530,"connected_time":1667000000000,"state":"active","ping":56},{"user_id":554,"name":"The Professor","steam_id":76561198113760863,"connected_time":335000000000,"state":"active","ping":45},{"user_id":555,"name":"ape","steam_id":76561199193551685,"connected_time":260000000000,"state":"active","ping":48},{"user_id":556,"name":"harry","steam_id":76561198365118514,"connected_time":228000000000,"state":"active","ping":55},{"user_id":543,"name":"Sinta","steam_id":76561198098398841,"connected_time":1664000000000,"state":"active","ping":45},{"user_id":517,"name":"klo.e","steam_id":76561198061808492,"connected_time":3714000000000,"state":"active","ping":56},{"user_id":560,"name":"em0 cha0XD","steam_id":76561198100942212,"connected_time":54000000000,"state":"active","ping":75},{"user_id":547,"name":"Soupy Meal","steam_id":76561199056842761,"connected_time":1467000000000,"state":"active","ping":121},{"user_id":558,"name":"Captian Wobbs","steam_id":76561198142884936,"connected_time":177000000000,"state":"active","ping":99},{"user_id":559,"name":"Xsaber","steam_id":76561198285273249,"connected_time":161000000000,"state":"active","ping":59},{"user_id":561,"name":"THE SHERIFF INDEED","steam_id":76561197972628051,"connected_time":52000000000,"state":"active","ping":65},{"user_id":531,"name":"Curly","steam_id":76561198052659818,"connected_time":2593000000000,"state":"active","ping":88},{"user_id":544,"name":"Echo","steam_id":76561198072092594,"connected_time":1662000000000,"state":"active","ping":72},{"user_id":488,"name":"Meskoozy","steam_id":76561198102394479,"connected_time":6041000000000,"state":"active","ping":87},{"user_id":553,"name":"Glennithy","steam_id":76561198339332079,"connected_time":412000000000,"state":"active","ping":73},{"user_id":552,"name":"a table","steam_id":76561198158461279,"connected_time":602000000000,"state":"active","ping":85},{"user_id":494,"name":"Samrizo el Chorizo","steam_id":76561198009838162,"connected_time":5779000000000,"state":"active","ping":50},{"user_id":550,"name":"Vaude","steam_id":76561198369187511,"connected_time":914000000000,"state":"active","ping":58},{"user_id":532,"name":"TTV Hunter","steam_id":76561198115812405,"connected_time":2571000000000,"state":"active","ping":70},{"user_id":551,"name":"Xavi","steam_id":76561198337783795,"connected_time":699000000000,"state":"active","ping":47},{"user_id":562,"name":"Jousty","steam_id":76561199162677853,"connected_time":49000000000,"state":"active","ping":107}]},{"server_id":14,"name":"Uncletopia | New York City | 2 | All Maps","name_short":"nyc-2","host":"nyc-1.us.uncletopia.com","port":27025,"enabled":true,"region":"us-east","cc":"us","latitude":40.73061,"longitude":-73.93524,"reserved":0,"last_update":"0001-01-01T00:00:00Z","name_a2s":"Uncletopia | New York City | 2 | All Maps","protocol":17,"map":"cp_mountainlab","folder":"tf","game":"Team Fortress","app_id":440,"player_count":14,"max_players":24,"Bots":0,"server_type":"Dedicated","server_os":"Linux","password":true,"vac":true,"version":"7961495","steam_id":85568392924469994,"keywords":["cp","nocrits","nodmgspread","uncletopia"],"game_id":440,"stv_port":27026,"stv_name":"Uncletopia | New York City | 2 | All Maps | STV","players":[{"user_id":331,"name":"YesMargaret","steam_id":76561198127971751,"connected_time":11673000000000,"state":"active","ping":73},{"user_id":418,"name":"A Puppy","steam_id":76561198828184456,"connected_time":4174000000000,"state":"active","ping":46},{"user_id":416,"name":"Servaos","steam_id":76561198113244990,"connected_time":4227000000000,"state":"active","ping":72},{"user_id":448,"name":"Pope John","steam_id":76561199092229681,"connected_time":1012000000000,"state":"active","ping":118},{"user_id":422,"name":"Hellbound","steam_id":76561198319648930,"connected_time":2634000000000,"state":"active","ping":74},{"user_id":423,"name":"Unknownassassin0","steam_id":76561198969985854,"connected_time":2628000000000,"state":"active","ping":72},{"user_id":340,"name":"kmochi","steam_id":76561198023391988,"connected_time":11228000000000,"state":"active","ping":71},{"user_id":452,"name":"Tokyo_Timeshift_","steam_id":76561198048677523,"connected_time":550000000000,"state":"active","ping":67},{"user_id":449,"name":"pipebombrater","steam_id":76561199029030831,"connected_time":1010000000000,"state":"active","ping":64},{"user_id":435,"name":"moeb","steam_id":76561197989281781,"connected_time":1752000000000,"state":"active","ping":146},{"user_id":455,"name":"Dark Souls","steam_id":76561198131174016,"connected_time":465000000000,"state":"active","ping":85},{"user_id":346,"name":"Pokon","steam_id":76561198053113088,"connected_time":10988000000000,"state":"active","ping":59},{"user_id":442,"name":"The Annoying Alchemist","steam_id":76561198215704896,"connected_time":1434000000000,"state":"active","ping":73},{"user_id":447,"name":"Judge Judy and executioner","steam_id":76561198015235881,"connected_time":1372000000000,"state":"active","ping":53}]},{"server_id":15,"name":"Uncletopia | New York City | 3 | Stopwatch","name_short":"nyc-3","host":"nyc-1.us.uncletopia.com","port":27035,"enabled":true,"region":"us-east","cc":"us","latitude":40.73061,"longitude":-73.93524,"reserved":0,"last_update":"0001-01-01T00:00:00Z","name_a2s":"Uncletopia | New York City | 3 | Stopwatch","protocol":17,"map":"pl_swiftwater_final1","folder":"tf","game":"Team Fortress","app_id":440,"player_count":0,"max_players":24,"Bots":0,"server_type":"Dedicated","server_os":"Linux","password":true,"vac":true,"version":"7961495","steam_id":85568392924742820,"keywords":["nocrits","nodmgspread","payload","uncletopia"],"game_id":440,"stv_port":27036,"stv_name":"Uncletopia | New York City | 3 | Stopwatch | STV","players":null},{"server_id":16,"name":"Uncletopia | New York City | 4 | Community","name_short":"nyc-4","host":"nyc-1.us.uncletopia.com","port":27045,"enabled":true,"region":"us-east","cc":"us","latitude":40.73061,"longitude":-73.93524,"reserved":0,"last_update":"0001-01-01T00:00:00Z","name_a2s":"Uncletopia | New York City | 4 | Community","protocol":17,"map":"workshop/koth_ramjam_rc1.ugc459778887","folder":"tf","game":"Team Fortress","app_id":440,"player_count":0,"max_players":24,"Bots":0,"server_type":"Dedicated","server_os":"Linux","password":true,"vac":true,"version":"7961495","steam_id":85568392924742821,"keywords":["cp","nocrits","nodmgspread","uncletopia"],"game_id":440,"stv_port":27046,"stv_name":"Uncletopia | New York City | 4 | Community | STV","players":null},{"server_id":142,"name":"Uncletopia | S√£o Paulo | 1 | All Maps","name_short":"sao-1","host":"sao-1.br.uncletopia.com","port":27015,"enabled":true,"region":"sa","cc":"br","latitude":-23.533773,"longitude":-46.62529,"reserved":0,"last_update":"0001-01-01T00:00:00Z","name_a2s":"Uncletopia | S√£o Paulo | 1 | All Maps","protocol":17,"map":"cp_dustbowl","folder":"tf","game":"Team Fortress","app_id":440,"player_count":0,"max_players":24,"Bots":0,"server_type":"Dedicated","server_os":"Linux","password":true,"vac":true,"version":"7961495","steam_id":85568392924469996,"keywords":["cp","nocrits","nodmgspread","uncletopia"],"game_id":440,"stv_port":27016,"stv_name":"Uncletopia | S√£o Paulo | 1 | All Maps | STV","players":null},{"server_id":143,"name":"Uncletopia | S√£o Paulo | 2 | Community","name_short":"sao-2","host":"sao-2.br.uncletopia.com","port":27015,"enabled":true,"region":"sa","cc":"br","latitude":-23.533773,"longitude":-46.62529,"reserved":0,"last_update":"0001-01-01T00:00:00Z","name_a2s":"Uncletopia | S√£o Paulo | 2 | Community","protocol":17,"map":"workshop/koth_ramjam_rc1.ugc459778887","folder":"tf","game":"Team Fortress","app_id":440,"player_count":0,"max_players":24,"Bots":0,"server_type":"Dedicated","server_os":"Linux","password":true,"vac":true,"version":"7961495","steam_id":85568392924485349,"keywords":["cp","nocrits","nodmgspread","uncletopia"],"game_id":440,"stv_port":27016,"stv_name":"Uncletopia | S√£o Paulo | 2 | Community | STV","players":null},{"server_id":7,"name":"Uncletopia | Seattle | 1 | All Maps","name_short":"sea-1","host":"sea-1.us.uncletopia.com","port":27015,"enabled":true,"region":"us-west","cc":"us","latitude":47.608013,"longitude":-122.33517,"reserved":0,"last_update":"0001-01-01T00:00:00Z","name_a2s":"Uncletopia | Seattle | 1 | All Maps","protocol":17,"map":"pl_pier","folder":"tf","game":"Team Fortress","app_id":440,"player_count":24,"max_players":24,"Bots":0,"server_type":"Dedicated","server_os":"Linux","password":true,"vac":true,"version":"7961495","steam_id":85568392924469997,"keywords":["nocrits","nodmgspread","payload","uncletopia"],"game_id":440,"stv_port":27016,"stv_name":"Uncletopia | Seattle | 1 | All Maps | STV","players":[{"user_id":706,"name":"[TrC] Dackstrus","steam_id":76561197973518509,"connected_time":5377000000000,"state":"active","ping":59},{"user_id":669,"name":"Ayayayayayahuasca","steam_id":76561199002906056,"connected_time":9909000000000,"state":"active","ping":55},{"user_id":752,"name":"hyphy fungi","steam_id":76561198169755734,"connected_time":609000000000,"state":"active","ping":60},{"user_id":742,"name":"KellyKapoor","steam_id":76561198040828123,"connected_time":2060000000000,"state":"active","ping":48},{"user_id":755,"name":"MrYadaization","steam_id":76561198050770818,"connected_time":590000000000,"state":"active","ping":58},{"user_id":709,"name":"[TrC] Nosy","steam_id":76561197978859310,"connected_time":5363000000000,"state":"active","ping":60},{"user_id":743,"name":"diamondskyir","steam_id":76561199223952268,"connected_time":2015000000000,"state":"active","ping":39},{"user_id":756,"name":"Neb","steam_id":76561198883473473,"connected_time":205000000000,"state":"active","ping":46},{"user_id":744,"name":"mohamy_19","steam_id":76561198075833698,"connected_time":2000000000000,"state":"active","ping":90},{"user_id":748,"name":"Skabbety","steam_id":76561198168044257,"connected_time":1646000000000,"state":"active","ping":45},{"user_id":641,"name":"Hindmost","steam_id":76561199081837220,"connected_time":11448000000000,"state":"active","ping":102},{"user_id":710,"name":"NEBULA","steam_id":76561198086878595,"connected_time":5361000000000,"state":"active","ping":74},{"user_id":757,"name":"Conseq","steam_id":76561198335652179,"connected_time":153000000000,"state":"active","ping":49},{"user_id":672,"name":"The King of Piss World","steam_id":76561198082806956,"connected_time":9604000000000,"state":"active","ping":143},{"user_id":753,"name":"MyMonkeyBaby","steam_id":76561198046896670,"connected_time":607000000000,"state":"active","ping":46},{"user_id":726,"name":"Attrition","steam_id":76561197969881916,"connected_time":3621000000000,"state":"active","ping":52},{"user_id":751,"name":"Thanks Ants","steam_id":76561197966221018,"connected_time":1116000000000,"state":"active","ping":43},{"user_id":747,"name":"Specter the Unchained","steam_id":76561198348354629,"connected_time":1754000000000,"state":"active","ping":77},{"user_id":754,"name":"gorlab","steam_id":76561198025089694,"connected_time":607000000000,"state":"active","ping":69},{"user_id":719,"name":"Sniff","steam_id":76561198010270922,"connected_time":4269000000000,"state":"active","ping":59},{"user_id":733,"name":"rat gets the cheese","steam_id":76561198031234032,"connected_time":3124000000000,"state":"active","ping":101},{"user_id":689,"name":"soup","steam_id":76561198043209046,"connected_time":7883000000000,"state":"active","ping":70},{"user_id":728,"name":"CasemanTheBlondeBear","steam_id":76561198144862404,"connected_time":3322000000000,"state":"active","ping":57},{"user_id":759,"name":"firulais","steam_id":76561198860460013,"connected_time":40000000000,"state":"active","ping":78}]},{"server_id":119,"name":"Uncletopia | Seattle | 2 | All Maps","name_short":"sea-2","host":"sea-1.us.uncletopia.com","port":27025,"enabled":true,"region":"us-west","cc":"us","latitude":47.608013,"longitude":-122.33517,"reserved":0,"last_update":"0001-01-01T00:00:00Z","name_a2s":"Uncletopia | Seattle | 2 | All Maps","protocol":17,"map":"cp_steel","folder":"tf","game":"Team Fortress","app_id":440,"player_count":24,"max_players":24,"Bots":0,"server_type":"Dedicated","server_os":"Linux","password":true,"vac":true,"version":"7961495","steam_id":85568392924469998,"keywords":["cp","nocrits","nodmgspread","uncletopia"],"game_id":440,"stv_port":27026,"stv_name":"Uncletopia | Seattle | 2 | All Maps | STV","players":[{"user_id":378,"name":"The Super Mario Bros. Movie","steam_id":76561198871692156,"connected_time":3665000000000,"state":"active","ping":89},{"user_id":400,"name":"BLANK3T [They/He femboy on THC]","steam_id":76561198028875624,"connected_time":2261000000000,"state":"active","ping":59},{"user_id":423,"name":"Milkers","steam_id":76561198051255970,"connected_time":190000000000,"state":"active","ping":48},{"user_id":419,"name":"WillowWisp","steam_id":76561198049104842,"connected_time":747000000000,"state":"active","ping":45},{"user_id":396,"name":"Spicy Chicken","steam_id":76561198074209737,"connected_time":2858000000000,"state":"active","ping":95},{"user_id":290,"name":"a familiar cat","steam_id":76561198080046542,"connected_time":8871000000000,"state":"active","ping":49},{"user_id":387,"name":"Pre Pissed Pants","steam_id":76561198042143837,"connected_time":3236000000000,"state":"active","ping":68},{"user_id":409,"name":"Jovo","steam_id":76561197993265970,"connected_time":1900000000000,"state":"active","ping":43},{"user_id":427,"name":"M1ko","steam_id":76561199091191812,"connected_time":119000000000,"state":"active","ping":71},{"user_id":404,"name":"Defeat","steam_id":76561198065203818,"connected_time":2187000000000,"state":"active","ping":32},{"user_id":424,"name":"vulture pupy","steam_id":76561198061963965,"connected_time":145000000000,"state":"active","ping":60},{"user_id":428,"name":"Emmy Kat","steam_id":76561198185115417,"connected_time":81000000000,"state":"active","ping":67},{"user_id":429,"name":"Geesemans","steam_id":76561199478892816,"connected_time":13000000000,"state":"spawning","ping":83},{"user_id":394,"name":"dodecadron","steam_id":76561198027397222,"connected_time":3021000000000,"state":"active","ping":59},{"user_id":425,"name":"postman","steam_id":76561198453203619,"connected_time":126000000000,"state":"active","ping":67},{"user_id":426,"name":"SkobeBeef","steam_id":76561198078638948,"connected_time":125000000000,"state":"active","ping":59},{"user_id":421,"name":"geekin and tweakin","steam_id":76561198095480838,"connected_time":513000000000,"state":"active","ping":54},{"user_id":399,"name":"Kayak","steam_id":76561198370429263,"connected_time":2389000000000,"state":"active","ping":147},{"user_id":414,"name":"Keamy","steam_id":76561199471434875,"connected_time":1752000000000,"state":"active","ping":45},{"user_id":259,"name":"ilun","steam_id":76561198042913843,"connected_time":11874000000000,"state":"active","ping":58},{"user_id":415,"name":"Phytophis","steam_id":76561198039123895,"connected_time":1740000000000,"state":"active","ping":47},{"user_id":50,"name":"Nom Skirrett","steam_id":76561198014600788,"connected_time":26067000000000,"state":"active","ping":73},{"user_id":416,"name":"¬´D·µÉ ≥·µè.,,.T·µâ·µê·µñ¬ª","steam_id":76561198018185884,"connected_time":1739000000000,"state":"active","ping":42},{"user_id":398,"name":"DroidFreak36","steam_id":76561198028681032,"connected_time":2445000000000,"state":"active","ping":93}]},{"server_id":406,"name":"Uncletopia | Seattle | 3 | Stopwatch","name_short":"sea-3","host":"sea-1.us.uncletopia.com","port":27035,"enabled":true,"region":"us-west","cc":"us","latitude":47.608013,"longitude":-122.33517,"reserved":0,"last_update":"0001-01-01T00:00:00Z","name_a2s":"Uncletopia | Seattle | 3 | Stopwatch","protocol":17,"map":"workshop/koth_clearcut_b15.ugc2107050255","folder":"tf","game":"Team Fortress","app_id":440,"player_count":0,"max_players":24,"Bots":0,"server_type":"Dedicated","server_os":"Linux","password":true,"vac":true,"version":"7961495","steam_id":85568392924515217,"keywords":["cp","nocrits","nodmgspread","uncletopia"],"game_id":440,"stv_port":27036,"stv_name":"Uncletopia | Seattle | 3 | Stopwatch | STV","players":null},{"server_id":17,"name":"Uncletopia | San Francisco | 1 | All Maps","name_short":"sfo-1","host":"sfo-1.us.uncletopia.com","port":27015,"enabled":true,"region":"us-west","cc":"us","latitude":37.77397,"longitude":-122.4313,"reserved":0,"last_update":"0001-01-01T00:00:00Z","name_a2s":"Uncletopia | San Francisco | 1 | All Maps","protocol":17,"map":"cp_sunshine","folder":"tf","game":"Team Fortress","app_id":440,"player_count":23,"max_players":24,"Bots":0,"server_type":"Dedicated","server_os":"Linux","password":true,"vac":true,"version":"7961495","steam_id":85568392924469999,"keywords":["cp","nocrits","nodmgspread","uncletopia"],"game_id":440,"stv_port":27016,"stv_name":"Uncletopia | San Francisco | 1 | All Maps | STV","players":[{"user_id":315,"name":"NASA PEEPO","steam_id":76561198024982267,"connected_time":1231000000000,"state":"active","ping":55},{"user_id":336,"name":"Mocha Josie","steam_id":76561198066452726,"connected_time":440000000000,"state":"active","ping":72},{"user_id":328,"name":"gugcat","steam_id":76561198129822860,"connected_time":843000000000,"state":"active","ping":55},{"user_id":331,"name":"Dr.Pig","steam_id":76561198069496754,"connected_time":757000000000,"state":"active","ping":110},{"user_id":329,"name":"PainInTheRuss","steam_id":76561197977960543,"connected_time":839000000000,"state":"active","ping":45},{"user_id":286,"name":"panda","steam_id":76561198025214612,"connected_time":3596000000000,"state":"active","ping":74},{"user_id":299,"name":"wile","steam_id":76561198125261443,"connected_time":1721000000000,"state":"active","ping":81},{"user_id":339,"name":"‚Ä∫ We Are You.j2","steam_id":76561197995242200,"connected_time":132000000000,"state":"active","ping":56},{"user_id":332,"name":"Mob Boss Baby","steam_id":76561199127590316,"connected_time":732000000000,"state":"active","ping":74},{"user_id":319,"name":"Imitation Caucasian","steam_id":76561198320536166,"connected_time":1071000000000,"state":"active","ping":70},{"user_id":322,"name":"squilith","steam_id":76561198134923092,"connected_time":871000000000,"state":"active","ping":53},{"user_id":326,"name":"Quaalude","steam_id":76561198100177449,"connected_time":855000000000,"state":"active","ping":75},{"user_id":338,"name":"011sra","steam_id":76561199489542125,"connected_time":297000000000,"state":"active","ping":74},{"user_id":334,"name":"Pnobio","steam_id":76561197998863667,"connected_time":677000000000,"state":"active","ping":93},{"user_id":321,"name":"Brando","steam_id":76561198078306678,"connected_time":881000000000,"state":"active","ping":77},{"user_id":293,"name":"Petrivus","steam_id":76561198202152453,"connected_time":2943000000000,"state":"active","ping":70},{"user_id":265,"name":"Spaghettiguy6","steam_id":76561198261692989,"connected_time":4872000000000,"state":"active","ping":59},{"user_id":307,"name":"Antzen","steam_id":76561198041343470,"connected_time":1586000000000,"state":"active","ping":48},{"user_id":316,"name":"CorsaireCruiser","steam_id":76561199471511497,"connected_time":1186000000000,"state":"active","ping":69},{"user_id":323,"name":"[BBC] myr","steam_id":76561198200786939,"connected_time":869000000000,"state":"active","ping":65},{"user_id":317,"name":"mentos14","steam_id":76561198097993629,"connected_time":1182000000000,"state":"active","ping":65},{"user_id":310,"name":"for the king","steam_id":76561197973488858,"connected_time":1576000000000,"state":"active","ping":91},{"user_id":313,"name":"Anthid","steam_id":76561198074493797,"connected_time":1452000000000,"state":"active","ping":66}]},{"server_id":18,"name":"Uncletopia | San Francisco | 2 | All Maps","name_short":"sfo-2","host":"sfo-1.us.uncletopia.com","port":27025,"enabled":true,"region":"us-west","cc":"us","latitude":37.77397,"longitude":-122.4313,"reserved":0,"last_update":"0001-01-01T00:00:00Z","name_a2s":"Uncletopia | San Francisco | 2 | All Maps","protocol":17,"map":"pl_upward","folder":"tf","game":"Team Fortress","app_id":440,"player_count":24,"max_players":24,"Bots":0,"server_type":"Dedicated","server_os":"Linux","password":true,"vac":true,"version":"7961495","steam_id":85568392924470000,"keywords":["nocrits","nodmgspread","payload","uncletopia"],"game_id":440,"stv_port":27026,"stv_name":"Uncletopia | San Francisco | 2 | All Maps | STV","players":[{"user_id":266,"name":"t3h PeNgU1N oF d00m","steam_id":76561198049258493,"connected_time":264000000000,"state":"active","ping":76},{"user_id":240,"name":"Cookies","steam_id":76561199099061813,"connected_time":1577000000000,"state":"active","ping":69},{"user_id":264,"name":"HungryHippo","steam_id":76561198047615363,"connected_time":372000000000,"state":"active","ping":54},{"user_id":256,"name":"glue sniffer","steam_id":76561198109770996,"connected_time":984000000000,"state":"active","ping":67},{"user_id":246,"name":"Saber","steam_id":76561199030547855,"connected_time":1223000000000,"state":"active","ping":64},{"user_id":247,"name":"Super Saiyan Bear","steam_id":76561198063118280,"connected_time":1197000000000,"state":"active","ping":69},{"user_id":268,"name":"joly","steam_id":76561198999997811,"connected_time":83000000000,"state":"active","ping":65},{"user_id":207,"name":":skull:","steam_id":76561199122005388,"connected_time":4390000000000,"state":"active","ping":54},{"user_id":250,"name":"Konnor","steam_id":76561199136300254,"connected_time":1109000000000,"state":"active","ping":50},{"user_id":239,"name":"enhanced with disney's FastPlay","steam_id":76561198164134387,"connected_time":1830000000000,"state":"active","ping":80},{"user_id":265,"name":"Tesman James","steam_id":76561199093793428,"connected_time":355000000000,"state":"active","ping":110},{"user_id":219,"name":"(1):skull:","steam_id":76561198208996573,"connected_time":3636000000000,"state":"active","ping":73},{"user_id":234,"name":"mwee machine","steam_id":76561198047126327,"connected_time":2249000000000,"state":"active","ping":75},{"user_id":209,"name":"GarbbCan","steam_id":76561198927509821,"connected_time":4128000000000,"state":"active","ping":85},{"user_id":230,"name":"T√ºCold","steam_id":76561198111278197,"connected_time":2807000000000,"state":"active","ping":55},{"user_id":188,"name":"Choctoling","steam_id":76561198351622498,"connected_time":5758000000000,"state":"active","ping":45},{"user_id":257,"name":"SK","steam_id":76561198133360797,"connected_time":961000000000,"state":"active","ping":67},{"user_id":259,"name":"Triple Lizard","steam_id":76561198188459654,"connected_time":663000000000,"state":"active","ping":105},{"user_id":260,"name":"bengineer","steam_id":76561198171912174,"connected_time":616000000000,"state":"active","ping":71},{"user_id":263,"name":"Nova Academy of Salmon Action","steam_id":76561198021842526,"connected_time":381000000000,"state":"active","ping":57},{"user_id":252,"name":"Andrew Tate's Third Nipple","steam_id":76561198066142119,"connected_time":1097000000000,"state":"active","ping":65},{"user_id":258,"name":"Max","steam_id":76561198151903288,"connected_time":836000000000,"state":"active","ping":75},{"user_id":206,"name":"hypergressive","steam_id":76561198065860750,"connected_time":4537000000000,"state":"active","ping":52},{"user_id":225,"name":"alien","steam_id":76561198007464245,"connected_time":3560000000000,"state":"active","ping":105}]},{"server_id":19,"name":"Uncletopia | San Francisco | 3 | Stopwatch","name_short":"sfo-3","host":"sfo-1.us.uncletopia.com","port":27035,"enabled":true,"region":"us-west","cc":"us","latitude":37.77397,"longitude":-122.4313,"reserved":0,"last_update":"0001-01-01T00:00:00Z","name_a2s":"Uncletopia | San Francisco | 3 | Stopwatch","protocol":17,"map":"workshop/koth_ramjam_rc1.ugc459778887","folder":"tf","game":"Team Fortress","app_id":440,"player_count":0,"max_players":24,"Bots":0,"server_type":"Dedicated","server_os":"Linux","password":true,"vac":true,"version":"7961495","steam_id":85568392924742824,"keywords":["cp","nocrits","nodmgspread","uncletopia"],"game_id":440,"stv_port":27036,"stv_name":"Uncletopia | San Francisco | 3 | Stopwatch | STV","players":null},{"server_id":20,"name":"Uncletopia | San Francisco | 4 | Community","name_short":"sfo-4","host":"sfo-1.us.uncletopia.com","port":27045,"enabled":true,"region":"us-west","cc":"us","latitude":37.77397,"longitude":-122.4313,"reserved":0,"last_update":"0001-01-01T00:00:00Z","name_a2s":"Uncletopia | San Francisco | 4 | Community","protocol":17,"map":"workshop/koth_product_final.ugc454272353","folder":"tf","game":"Team Fortress","app_id":440,"player_count":1,"max_players":24,"Bots":0,"server_type":"Dedicated","server_os":"Linux","password":true,"vac":true,"version":"7961495","steam_id":85568392924742826,"keywords":["cp","nocrits","nodmgspread","uncletopia"],"game_id":440,"stv_port":27046,"stv_name":"Uncletopia | San Francisco | 4 | Community | STV","players":[{"user_id":18,"name":"moronkey","steam_id":76561199009904316,"connected_time":102000000000,"state":"active","ping":58}]},{"server_id":141,"name":"Uncletopia | Sydney | 1 | All Maps","name_short":"syd-1","host":"syd-1.au.uncletopia.com","port":27015,"enabled":true,"region":"au","cc":"au","latitude":-33.865143,"longitude":151.2099,"reserved":0,"last_update":"0001-01-01T00:00:00Z","name_a2s":"Uncletopia | Sydney | 1 | All Maps","protocol":17,"map":"koth_viaduct","folder":"tf","game":"Team Fortress","app_id":440,"player_count":0,"max_players":24,"Bots":0,"server_type":"Dedicated","server_os":"Linux","password":true,"vac":true,"version":"7961495","steam_id":85568392924470001,"keywords":["cp","nocrits","nodmgspread","uncletopia"],"game_id":440,"stv_port":27016,"stv_name":"Uncletopia | Sydney | 1 | All Maps | STV","players":null},{"server_id":123,"name":"Uncletopia | Sydney | 2 | All Maps","name_short":"syd-2","host":"syd-1.au.uncletopia.com","port":27025,"enabled":true,"region":"au","cc":"au","latitude":-33.865143,"longitude":151.2099,"reserved":0,"last_update":"0001-01-01T00:00:00Z","name_a2s":"Uncletopia | Sydney | 2 | All Maps","protocol":17,"map":"koth_lakeside_final","folder":"tf","game":"Team Fortress","app_id":440,"player_count":1,"max_players":24,"Bots":0,"server_type":"Dedicated","server_os":"Linux","password":true,"vac":true,"version":"7961495","steam_id":85568392924470002,"keywords":["cp","nocrits","nodmgspread","uncletopia"],"game_id":440,"stv_port":27026,"stv_name":"Uncletopia | Sydney | 2 | All Maps | STV","players":[{"user_id":3,"name":"Mikey","steam_id":76561198438203131,"connected_time":622000000000,"state":"active","ping":54}]},{"server_id":395,"name":"Uncletopia | Sydney | 3 | All Maps","name_short":"syd-3","host":"syd-1.au.uncletopia.com","port":27035,"enabled":true,"region":"au","cc":"au","latitude":-33.865143,"longitude":151.2099,"reserved":0,"last_update":"0001-01-01T00:00:00Z","name_a2s":"Uncletopia | Sydney | 3 | All Maps","protocol":17,"map":"pl_frontier_final","folder":"tf","game":"Team Fortress","app_id":440,"player_count":0,"max_players":24,"Bots":0,"server_type":"Dedicated","server_os":"Linux","password":true,"vac":true,"version":"7961495","steam_id":85568392925194467,"keywords":["nocrits","nodmgspread","payload","uncletopia"],"game_id":440,"stv_port":27036,"stv_name":"Uncletopia | Sydney | 3 | All Maps | STV","players":null},{"server_id":396,"name":"Uncletopia | Sydney | 4 | All Maps","name_short":"syd-4","host":"syd-1.au.uncletopia.com","port":27045,"enabled":true,"region":"au","cc":"au","latitude":-33.865143,"longitude":151.2099,"reserved":0,"last_update":"0001-01-01T00:00:00Z","name_a2s":"Uncletopia | Sydney | 4 | All Maps","protocol":17,"map":"cp_process_final","folder":"tf","game":"Team Fortress","app_id":440,"player_count":0,"max_players":24,"Bots":0,"server_type":"Dedicated","server_os":"Linux","password":true,"vac":true,"version":"7961495","steam_id":85568392925397958,"keywords":["cp","nocrits","nodmgspread","uncletopia"],"game_id":440,"stv_port":27046,"stv_name":"Uncletopia | Sydney | 4 | All Maps | STV","players":null},{"server_id":58,"name":"Uncletopia | Sydney | 5 | Stopwatch","name_short":"syd-5","host":"syd-1.au.uncletopia.com","port":27055,"enabled":true,"region":"au","cc":"au","latitude":-33.865143,"longitude":151.2099,"reserved":0,"last_update":"0001-01-01T00:00:00Z","name_a2s":"Uncletopia | Sydney | 5 | Stopwatch","protocol":17,"map":"pl_frontier_final","folder":"tf","game":"Team Fortress","app_id":440,"player_count":0,"max_players":24,"Bots":0,"server_type":"Dedicated","server_os":"Linux","password":true,"vac":true,"version":"7961495","steam_id":85568392925397959,"keywords":["nocrits","nodmgspread","payload","uncletopia"],"game_id":440,"stv_port":27056,"stv_name":"Uncletopia | Sydney | 5 | Stopwatch | STV","players":null},{"server_id":59,"name":"Uncletopia | Sydney | 6 | Community","name_short":"syd-6","host":"syd-1.au.uncletopia.com","port":27065,"enabled":true,"region":"au","cc":"au","latitude":-33.865143,"longitude":151.2099,"reserved":0,"last_update":"0001-01-01T00:00:00Z","name_a2s":"Uncletopia | Sydney | 6 | Community","protocol":17,"map":"workshop/cp_sulfur_rc2.ugc619869471","folder":"tf","game":"Team Fortress","app_id":440,"player_count":0,"max_players":24,"Bots":0,"server_type":"Dedicated","server_os":"Linux","password":true,"vac":true,"version":"7961495","steam_id":85568392925397960,"keywords":["cp","nocrits","nodmgspread","uncletopia"],"game_id":440,"stv_port":27066,"stv_name":"Uncletopia | Sydney | 6 | Community | STV","players":null},{"server_id":49,"name":"Uncletopia | Warsaw | 1 | One Thousand Uncles","name_short":"waw-1","host":"waw-1.pl.uncletopia.com","port":27015,"enabled":true,"region":"eu","cc":"pl","latitude":52.2297,"longitude":21.017532,"reserved":0,"last_update":"0001-01-01T00:00:00Z","name_a2s":"Uncletopia | Warsaw | 1 | One Thousand Uncles","protocol":17,"map":"koth_highpass","folder":"tf","game":"Team Fortress","app_id":440,"player_count":0,"max_players":32,"Bots":0,"server_type":"Dedicated","server_os":"Linux","password":true,"vac":true,"version":"7961495","steam_id":85568392925397850,"keywords":["alltalk","cp","danepve","increased_maxplayers","nocrits","norespawntime","uncletopia"],"game_id":440,"stv_port":0,"stv_name":"","players":null},{"server_id":50,"name":"Uncletopia | Warsaw | 2 | One Thousand Uncles","name_short":"waw-2","host":"waw-1.pl.uncletopia.com","port":27025,"enabled":true,"region":"eu","cc":"pl","latitude":52.2297,"longitude":21.017532,"reserved":0,"last_update":"0001-01-01T00:00:00Z","name_a2s":"Uncletopia | Warsaw | 2 | One Thousand Uncles","protocol":17,"map":"pl_goldrush","folder":"tf","game":"Team Fortress","app_id":440,"player_count":0,"max_players":32,"Bots":0,"server_type":"Dedicated","server_os":"Linux","password":true,"vac":true,"version":"7961495","steam_id":85568392925397851,"keywords":["alltalk","danepve","increased_maxplayers","nocrits","norespawntime","payload","uncletopia"],"game_id":440,"stv_port":0,"stv_name":"","players":null},{"server_id":51,"name":"Uncletopia | Warsaw | 3 | All Maps","name_short":"waw-3","host":"waw-1.pl.uncletopia.com","port":27035,"enabled":true,"region":"eu","cc":"pl","latitude":52.2297,"longitude":21.017532,"reserved":0,"last_update":"0001-01-01T00:00:00Z","name_a2s":"Uncletopia | Warsaw | 3 | All Maps","protocol":17,"map":"plr_pipeline","folder":"tf","game":"Team Fortress","app_id":440,"player_count":0,"max_players":24,"Bots":0,"server_type":"Dedicated","server_os":"Linux","password":true,"vac":true,"version":"7961495","steam_id":85568392925397852,"keywords":["nocrits","nodmgspread","payload","uncletopia"],"game_id":440,"stv_port":27036,"stv_name":"Uncletopia | Warsaw | 3 | All Maps | STV","players":null},{"server_id":52,"name":"Uncletopia | Warsaw | 4 | All Maps","name_short":"waw-4","host":"waw-1.pl.uncletopia.com","port":27045,"enabled":true,"region":"eu","cc":"pl","latitude":52.2297,"longitude":21.017532,"reserved":0,"last_update":"0001-01-01T00:00:00Z","name_a2s":"Uncletopia | Warsaw | 4 | All Maps","protocol":17,"map":"cp_coldfront","folder":"tf","game":"Team Fortress","app_id":440,"player_count":0,"max_players":24,"Bots":0,"server_type":"Dedicated","server_os":"Linux","password":true,"vac":true,"version":"7961495","steam_id":85568392925397853,"keywords":["cp","nocrits","nodmgspread","uncletopia"],"game_id":440,"stv_port":27046,"stv_name":"Uncletopia | Warsaw | 4 | All Maps | STV","players":null},{"server_id":53,"name":"Uncletopia | Warsaw | 5 | Stopwatch","name_short":"waw-5","host":"waw-1.pl.uncletopia.com","port":27055,"enabled":true,"region":"eu","cc":"pl","latitude":52.2297,"longitude":21.017532,"reserved":0,"last_update":"0001-01-01T00:00:00Z","name_a2s":"Uncletopia | Warsaw | 5 | Stopwatch","protocol":17,"map":"workshop/koth_bagel_rc6.ugc2514036946","folder":"tf","game":"Team Fortress","app_id":440,"player_count":0,"max_players":24,"Bots":0,"server_type":"Dedicated","server_os":"Linux","password":true,"vac":true,"version":"7961495","steam_id":85568392925397854,"keywords":["cp","nocrits","nodmgspread","uncletopia"],"game_id":440,"stv_port":27056,"stv_name":"Uncletopia | Warsaw | 5 | Stopwatch | STV","players":null},{"server_id":54,"name":"Uncletopia | Warsaw | 6 | Community","name_short":"waw-6","host":"waw-1.pl.uncletopia.com","port":27065,"enabled":true,"region":"eu","cc":"pl","latitude":52.2297,"longitude":21.017532,"reserved":0,"last_update":"0001-01-01T00:00:00Z","name_a2s":"Uncletopia | Warsaw | 6 | Community","protocol":17,"map":"workshop/pl_badwater_pro_v12.ugc2142942074","folder":"tf","game":"Team Fortress","app_id":440,"player_count":0,"max_players":24,"Bots":0,"server_type":"Dedicated","server_os":"Linux","password":true,"vac":true,"version":"7961495","steam_id":85568392925397856,"keywords":["nocrits","nodmgspread","payload","uncletopia"],"game_id":440,"stv_port":27066,"stv_name":"Uncletopia | Warsaw | 6 | Community | STV","players":null}]}