{"status":true,"message":"","result":[{"server_id":9,"name":"Uncletopia | Atlanta | 1 | All Maps","name_short":"atl-1","host":"atl-1.us.uncletopia.com","port":27015,"enabled":true,"region":"us-east","cc":"us","latitude":33.753746,"longitude":-84.38633,"reserved":0,"last_update":"0001-01-01T00:00:00Z","name_a2s":"Uncletopia | Atlanta | 1 | All Maps","protocol":17,"map":"pl_frontier_final","folder":"tf","game":"Team Fortress","app_id":440,"player_count":24,"max_players":24,"Bots":0,"server_type":"Dedicated","server_os":"Linux","password":true,"vac":true,"version":"7757534","steam_id":85568392924469982,"keywords":["nocrits","nodmgspread","payload","uncletopia"],"game_id":440,"stv_port":27016,"stv_name":"Uncletopia | Atlanta | 1 | All Maps | STV","players":[{"user_id":420,"name":"‚ú™ Hank","steam_id":76561198149253873,"connected_time":544000000000,"state":"active","ping":82},{"user_id":358,"name":"uhooter","steam_id":76561198007829078,"connected_time":6800000000000,"state":"active","ping":72},{"user_id":412,"name":"FemboyNate","steam_id":76561198146636410,"connected_time":1236000000000,"state":"active","ping":63},{"user_id":413,"name":"shaderoses","steam_id":76561198070800500,"connected_time":1183000000000,"state":"active","ping":71},{"user_id":385,"name":"ATL1 | Lancer Fan Club","steam_id":76561198355495948,"connected_time":3590000000000,"state":"active","ping":77},{"user_id":383,"name":"cola","steam_id":76561198374390458,"connected_time":4186000000000,"state":"active","ping":53},{"user_id":386,"name":"Spoof","steam_id":76561198283928331,"connected_time":3049000000000,"state":"active","ping":56},{"user_id":417,"name":"Patisserie","steam_id":76561198239169752,"connected_time":983000000000,"state":"active","ping":57},{"user_id":415,"name":"ash","steam_id":76561198127890645,"connected_time":1091000000000,"state":"active","ping":68},{"user_id":414,"name":"fragr","steam_id":76561198120440587,"connected_time":1104000000000,"state":"active","ping":50},{"user_id":398,"name":"Michael Scarn","steam_id":76561198035740143,"connected_time":2541000000000,"state":"active","ping":65},{"user_id":389,"name":"Im High","steam_id":76561198049954886,"connected_time":2769000000000,"state":"active","ping":69},{"user_id":421,"name":"Grind My Gears Gaming!","steam_id":76561198088708478,"connected_time":384000000000,"state":"active","ping":105},{"user_id":226,"name":"SomeScuffedKid","steam_id":76561198086113234,"connected_time":17276000000000,"state":"active","ping":86},{"user_id":416,"name":"Save your wifi","steam_id":76561198286147372,"connected_time":1060000000000,"state":"active","ping":58},{"user_id":409,"name":"Lepo","steam_id":76561198383509659,"connected_time":1378000000000,"state":"active","ping":84},{"user_id":404,"name":"yomokha","steam_id":76561198063175935,"connected_time":1704000000000,"state":"active","ping":60},{"user_id":418,"name":"Queen Frau the Round","steam_id":76561197999942134,"connected_time":981000000000,"state":"active","ping":63},{"user_id":411,"name":"DFR Le4n!!!","steam_id":76561198045522596,"connected_time":1308000000000,"state":"active","ping":66},{"user_id":400,"name":"Kapreesi","steam_id":76561198163361200,"connected_time":2304000000000,"state":"active","ping":86},{"user_id":399,"name":"Saber","steam_id":76561198012624420,"connected_time":2497000000000,"state":"active","ping":119},{"user_id":405,"name":"Karma","steam_id":76561198030565234,"connected_time":1660000000000,"state":"active","ping":71},{"user_id":419,"name":"Okter","steam_id":76561198035908873,"connected_time":966000000000,"state":"active","ping":90},{"user_id":408,"name":"Mage","steam_id":76561198285026879,"connected_time":1417000000000,"state":"active","ping":81}]},{"server_id":400,"name":"Uncletopia | Atlanta | 3 | Stopwatch Beta","name_short":"atl-3","host":"atl-1.us.uncletopia.com","port":27035,"enabled":true,"region":"us-east","cc":"us","latitude":33.753746,"longitude":-84.38633,"reserved":0,"last_update":"0001-01-01T00:00:00Z","name_a2s":"Uncletopia | Atlanta | 3 | Stopwatch Beta","protocol":17,"map":"workshop/koth_ramjam_rc1.ugc459778887","folder":"tf","game":"Team Fortress","app_id":440,"player_count":0,"max_players":24,"Bots":0,"server_type":"Dedicated","server_os":"Linux","password":true,"vac":true,"version":"7757534","steam_id":85568392924515187,"keywords":["cp","nocrits","nodmgspread","uncletopia"],"game_id":440,"stv_port":27036,"stv_name":"Uncletopia | Atlanta | 3 | Stopwatch Beta | STV","players":null},{"server_id":401,"name":"Uncletopia | Atlanta | 4 | No Payload","name_short":"atl-4","host":"atl-1.us.uncletopia.com","port":27045,"enabled":true,"region":"us-east","cc":"us","latitude":33.753746,"longitude":-84.38633,"reserved":0,"last_update":"0001-01-01T00:00:00Z","name_a2s":"Uncletopia | Atlanta | 4 | No Payload","protocol":17,"map":"pl_pier","folder":"tf","game":"Team Fortress","app_id":440,"player_count":0,"max_players":24,"Bots":0,"server_type":"Dedicated","server_os":"Linux","password":true,"vac":true,"version":"7723704","steam_id":85568392924515188,"keywords":["nocrits","nodmgspread","payload","uncletopia"],"game_id":440,"stv_port":27046,"stv_name":"Uncletopia | Atlanta | 4 | No Payload | STV","players":null},{"server_id":2,"name":"Uncletopia | Chicago | 1 | All Maps","name_short":"chi-1","host":"chi-1.us.uncletopia.com","port":27015,"enabled":true,"region":"us-central","cc":"us","latitude":41.881832,"longitude":-87.62318,"reserved":0,"last_update":"0001-01-01T00:00:00Z","name_a2s":"Uncletopia | Chicago | 1 | All Maps","protocol":17,"map":"pl_frontier_final","folder":"tf","game":"Team Fortress","app_id":440,"player_count":24,"max_players":24,"Bots":0,"server_type":"Dedicated","server_os":"Linux","password":true,"vac":true,"version":"7757534","steam_id":85568392924469984,"keywords":["nocrits","nodmgspread","payload","uncletopia"],"game_id":440,"stv_port":27016,"stv_name":"Uncletopia | Chicago | 1 | All Maps | STV","players":[{"user_id":594,"name":"Tim Piskles","steam_id":76561198991175279,"connected_time":298000000000,"state":"active","ping":89},{"user_id":578,"name":"ZofoJackson","steam_id":76561197998366861,"connected_time":1344000000000,"state":"active","ping":58},{"user_id":449,"name":"Horrizan","steam_id":76561197965028480,"connected_time":11412000000000,"state":"active","ping":101},{"user_id":576,"name":"Chrysalis","steam_id":76561198028576126,"connected_time":1483000000000,"state":"active","ping":71},{"user_id":565,"name":"vdub63","steam_id":76561198093443689,"connected_time":1974000000000,"state":"active","ping":61},{"user_id":487,"name":"B45Guy","steam_id":76561198117290531,"connected_time":9192000000000,"state":"active","ping":64},{"user_id":556,"name":"Sarbanes-Oxley","steam_id":76561197975898479,"connected_time":2616000000000,"state":"active","ping":75},{"user_id":588,"name":"MyWaifuNow","steam_id":76561198135273510,"connected_time":923000000000,"state":"active","ping":77},{"user_id":566,"name":"pathulhu","steam_id":76561198323941614,"connected_time":1974000000000,"state":"active","ping":70},{"user_id":563,"name":"loco503","steam_id":76561198827495121,"connected_time":2016000000000,"state":"active","ping":111},{"user_id":548,"name":"stakehater11","steam_id":76561198079501615,"connected_time":3555000000000,"state":"active","ping":68},{"user_id":584,"name":"JHorse","steam_id":76561198106418032,"connected_time":1074000000000,"state":"active","ping":99},{"user_id":480,"name":"R0","steam_id":76561198136861017,"connected_time":9316000000000,"state":"active","ping":56},{"user_id":593,"name":"legendary Trapper","steam_id":76561198299289062,"connected_time":444000000000,"state":"active","ping":48},{"user_id":549,"name":"CPUnit","steam_id":76561198162881878,"connected_time":3539000000000,"state":"active","ping":74},{"user_id":520,"name":"Candy Sparkles","steam_id":76561198126871264,"connected_time":6400000000000,"state":"active","ping":86},{"user_id":589,"name":"Reversed","steam_id":76561198136433466,"connected_time":899000000000,"state":"active","ping":73},{"user_id":580,"name":"lamadre07","steam_id":76561198067337453,"connected_time":1289000000000,"state":"active","ping":107},{"user_id":560,"name":"daxter4hire","steam_id":76561198250722116,"connected_time":2279000000000,"state":"active","ping":69},{"user_id":587,"name":"The HitMan","steam_id":76561198063576180,"connected_time":935000000000,"state":"active","ping":72},{"user_id":590,"name":"ice cream (ÂÜ∞Ê∑áÊ∑ã)","steam_id":76561198976530881,"connected_time":884000000000,"state":"active","ping":94},{"user_id":577,"name":"sweaterfan","steam_id":76561199389567214,"connected_time":1478000000000,"state":"active","ping":69},{"user_id":591,"name":"mu","steam_id":76561197997530228,"connected_time":862000000000,"state":"active","ping":108},{"user_id":592,"name":"Mothership","steam_id":76561198044029501,"connected_time":857000000000,"state":"active","ping":151}]},{"server_id":106,"name":"Uncletopia | Chicago | 2 | All Maps","name_short":"chi-2","host":"chi-1.us.uncletopia.com","port":27025,"enabled":true,"region":"us-central","cc":"us","latitude":41.881832,"longitude":-87.62318,"reserved":0,"last_update":"0001-01-01T00:00:00Z","name_a2s":"Uncletopia | Chicago | 2 | All Maps","protocol":17,"map":"pl_barnblitz","folder":"tf","game":"Team Fortress","app_id":440,"player_count":23,"max_players":24,"Bots":0,"server_type":"Dedicated","server_os":"Linux","password":true,"vac":true,"version":"7757534","steam_id":85568392924469985,"keywords":["nocrits","nodmgspread","payload","uncletopia"],"game_id":440,"stv_port":27026,"stv_name":"Uncletopia | Chicago | 2 | All Maps | STV","players":[{"user_id":589,"name":"‡∂ûsus","steam_id":76561198027779564,"connected_time":9659000000000,"state":"active","ping":59},{"user_id":694,"name":"CrazyDiamond","steam_id":76561198849406790,"connected_time":923000000000,"state":"active","ping":101},{"user_id":602,"name":"trappy","steam_id":76561198402801140,"connected_time":8155000000000,"state":"active","ping":62},{"user_id":644,"name":"Bearegard","steam_id":76561198061926542,"connected_time":4337000000000,"state":"active","ping":63},{"user_id":670,"name":"MagikCactus","steam_id":76561198035678261,"connected_time":1803000000000,"state":"active","ping":107},{"user_id":703,"name":"Soft\u0026Wett","steam_id":76561198322698349,"connected_time":657000000000,"state":"active","ping":94},{"user_id":671,"name":"Shamaury","steam_id":76561198073773862,"connected_time":1798000000000,"state":"active","ping":61},{"user_id":581,"name":"daemon","steam_id":76561198001541433,"connected_time":9977000000000,"state":"active","ping":58},{"user_id":706,"name":"Q Whang","steam_id":76561198122479810,"connected_time":404000000000,"state":"active","ping":55},{"user_id":697,"name":"Big Penis","steam_id":76561198374874765,"connected_time":837000000000,"state":"active","ping":57},{"user_id":668,"name":"McGangBang","steam_id":76561198862379865,"connected_time":2230000000000,"state":"active","ping":59},{"user_id":698,"name":"Apo","steam_id":76561198410918017,"connected_time":830000000000,"state":"active","ping":74},{"user_id":685,"name":"mr detective","steam_id":76561198079892116,"connected_time":1360000000000,"state":"active","ping":48},{"user_id":705,"name":"S","steam_id":76561198050136796,"connected_time":427000000000,"state":"active","ping":93},{"user_id":686,"name":"Kiphus","steam_id":76561198025289407,"connected_time":1356000000000,"state":"active","ping":69},{"user_id":700,"name":"stall","steam_id":76561199152861652,"connected_time":779000000000,"state":"active","ping":77},{"user_id":701,"name":"rlty","steam_id":76561198009395055,"connected_time":765000000000,"state":"active","ping":70},{"user_id":664,"name":"jorjor wells","steam_id":76561199073429082,"connected_time":3342000000000,"state":"active","ping":64},{"user_id":682,"name":"DS8U","steam_id":76561198151554321,"connected_time":1589000000000,"state":"active","ping":57},{"user_id":629,"name":"Vladikr1","steam_id":76561198401495362,"connected_time":6415000000000,"state":"active","ping":60},{"user_id":688,"name":"|ƒ∂iƒªƒÉ| ‚Ä¢“âDelicate Cheese","steam_id":76561198049481939,"connected_time":1145000000000,"state":"active","ping":94},{"user_id":702,"name":"BurnN8or101","steam_id":76561198132668224,"connected_time":746000000000,"state":"active","ping":80},{"user_id":641,"name":"Chrisscar","steam_id":76561198086298130,"connected_time":4896000000000,"state":"active","ping":106}]},{"server_id":402,"name":"Uncletopia | Chicago | 3 | All Maps","name_short":"chi-3","host":"chi-1.us.uncletopia.com","port":27035,"enabled":true,"region":"us-central","cc":"us","latitude":41.881832,"longitude":-87.62318,"reserved":0,"last_update":"0001-01-01T00:00:00Z","name_a2s":"Uncletopia | Chicago | 3 | All Maps","protocol":17,"map":"pl_snowycoast","folder":"tf","game":"Team Fortress","app_id":440,"player_count":24,"max_players":24,"Bots":0,"server_type":"Dedicated","server_os":"Linux","password":true,"vac":true,"version":"7757534","steam_id":85568392924515191,"keywords":["nocrits","nodmgspread","payload","uncletopia"],"game_id":440,"stv_port":27036,"stv_name":"Uncletopia | Chicago | 3 | All Maps | STV","players":[{"user_id":489,"name":"Truffles","steam_id":76561198095868800,"connected_time":2319000000000,"state":"active","ping":83},{"user_id":476,"name":"debin","steam_id":76561198070711217,"connected_time":3142000000000,"state":"active","ping":58},{"user_id":502,"name":"paChewychomp","steam_id":76561198068738250,"connected_time":711000000000,"state":"active","ping":112},{"user_id":492,"name":"The Goose","steam_id":76561199006093549,"connected_time":2259000000000,"state":"active","ping":77},{"user_id":401,"name":"M249 | Spectre","steam_id":76561198118334485,"connected_time":8494000000000,"state":"active","ping":77},{"user_id":456,"name":"Scrack","steam_id":76561198010484665,"connected_time":3897000000000,"state":"active","ping":59},{"user_id":487,"name":"Grand","steam_id":76561198290143399,"connected_time":2348000000000,"state":"active","ping":68},{"user_id":512,"name":"df389187","steam_id":76561199375443817,"connected_time":123000000000,"state":"active","ping":194},{"user_id":488,"name":"SKIN IS WHERE THE FLAVOR IS","steam_id":76561198115842661,"connected_time":2346000000000,"state":"active","ping":73},{"user_id":498,"name":"Soup0fTheDay","steam_id":76561199039857744,"connected_time":2034000000000,"state":"active","ping":52},{"user_id":496,"name":"üéÑAndreaJinglingüéÑ","steam_id":76561198198658783,"connected_time":2212000000000,"state":"active","ping":117},{"user_id":503,"name":"Yuhh","steam_id":76561199112894955,"connected_time":650000000000,"state":"active","ping":74},{"user_id":507,"name":"Jagger","steam_id":76561198087410575,"connected_time":446000000000,"state":"active","ping":48},{"user_id":454,"name":"Big Al","steam_id":76561199468060032,"connected_time":3956000000000,"state":"active","ping":74},{"user_id":478,"name":"Banana King","steam_id":76561198077784214,"connected_time":3104000000000,"state":"active","ping":87},{"user_id":494,"name":"flora","steam_id":76561197994492154,"connected_time":2244000000000,"state":"active","ping":170},{"user_id":505,"name":"MaurbaaYTTV","steam_id":76561198396244334,"connected_time":582000000000,"state":"active","ping":77},{"user_id":508,"name":"Red Physical","steam_id":76561198151864382,"connected_time":440000000000,"state":"active","ping":95},{"user_id":509,"name":"huh","steam_id":76561198272057200,"connected_time":395000000000,"state":"active","ping":102},{"user_id":510,"name":"BuddyMocha","steam_id":76561198054654515,"connected_time":296000000000,"state":"active","ping":49},{"user_id":483,"name":"BloodAngelMutant","steam_id":76561199006378093,"connected_time":2799000000000,"state":"active","ping":95},{"user_id":490,"name":"Ye ( I Love Caulk ) West","steam_id":76561198068830312,"connected_time":2319000000000,"state":"active","ping":54},{"user_id":511,"name":"Alley_YAMBO","steam_id":76561198055651850,"connected_time":282000000000,"state":"active","ping":95},{"user_id":491,"name":"A Normal Zed","steam_id":76561198376026672,"connected_time":2288000000000,"state":"active","ping":74}]},{"server_id":403,"name":"Uncletopia | Chicago | 4 | All Maps","name_short":"chi-4","host":"chi-1.us.uncletopia.com","port":27045,"enabled":true,"region":"us-central","cc":"us","latitude":41.881832,"longitude":-87.62318,"reserved":0,"last_update":"0001-01-01T00:00:00Z","name_a2s":"Uncletopia | Chicago | 4 | All Maps","protocol":17,"map":"koth_cascade","folder":"tf","game":"Team Fortress","app_id":440,"player_count":21,"max_players":24,"Bots":0,"server_type":"Dedicated","server_os":"Linux","password":true,"vac":true,"version":"7757534","steam_id":85568392924515193,"keywords":["cp","nocrits","nodmgspread","uncletopia"],"game_id":440,"stv_port":27046,"stv_name":"Uncletopia | Chicago | 4 | All Maps | STV","players":[{"user_id":223,"name":"Nodin","steam_id":76561198135757376,"connected_time":4397000000000,"state":"active","ping":54},{"user_id":269,"name":"LW | [wrd]HaloLagann","steam_id":76561198047561568,"connected_time":2187000000000,"state":"active","ping":74},{"user_id":280,"name":"Baka!‚ë®‚ë®‚ë®‚ë®","steam_id":76561198152948254,"connected_time":1308000000000,"state":"active","ping":61},{"user_id":226,"name":"Tyr","steam_id":76561198015381712,"connected_time":4373000000000,"state":"active","ping":70},{"user_id":225,"name":"Dscalino02","steam_id":76561199115571161,"connected_time":4386000000000,"state":"active","ping":47},{"user_id":271,"name":"Beepers","steam_id":76561198078780252,"connected_time":1863000000000,"state":"active","ping":60},{"user_id":289,"name":"Crazy Hungarian","steam_id":76561198025498172,"connected_time":153000000000,"state":"active","ping":91},{"user_id":275,"name":"Dewm","steam_id":76561198042099452,"connected_time":1489000000000,"state":"active","ping":69},{"user_id":274,"name":"Scared Duck","steam_id":76561198081348409,"connected_time":1490000000000,"state":"active","ping":61},{"user_id":285,"name":"goyard","steam_id":76561198097140699,"connected_time":579000000000,"state":"active","ping":85},{"user_id":272,"name":"puppi wuppi","steam_id":76561198086012330,"connected_time":1856000000000,"state":"active","ping":83},{"user_id":290,"name":"Beyond Trash","steam_id":76561198835198281,"connected_time":2000000000,"state":"spawning","ping":33},{"user_id":239,"name":"Blackh3lm","steam_id":76561198261376985,"connected_time":3611000000000,"state":"active","ping":117},{"user_id":288,"name":"Wug","steam_id":76561198084112264,"connected_time":342000000000,"state":"active","ping":78},{"user_id":283,"name":"ape (real)","steam_id":76561198379444671,"connected_time":1262000000000,"state":"active","ping":68},{"user_id":284,"name":"Men's Hair Club","steam_id":76561198172305162,"connected_time":1221000000000,"state":"active","ping":53},{"user_id":247,"name":"TheBigEtrain","steam_id":76561198151893593,"connected_time":3269000000000,"state":"active","ping":89},{"user_id":260,"name":"Bringer of Gibbs","steam_id":76561198035700041,"connected_time":2776000000000,"state":"active","ping":107},{"user_id":250,"name":"Melthanazad","steam_id":76561198194670463,"connected_time":3238000000000,"state":"active","ping":90},{"user_id":268,"name":"WitheringLeo","steam_id":76561198046722918,"connected_time":2220000000000,"state":"active","ping":76},{"user_id":253,"name":"HotCoco","steam_id":76561198212382635,"connected_time":3186000000000,"state":"active","ping":73}]},{"server_id":36,"name":"Uncletopia | Chicago | 5 | All Maps","name_short":"chi-5","host":"chi-2.us.uncletopia.com","port":27015,"enabled":true,"region":"us-central","cc":"us","latitude":41.881832,"longitude":-87.62318,"reserved":0,"last_update":"0001-01-01T00:00:00Z","name_a2s":"Uncletopia | Chicago | 5 | All Maps","protocol":17,"map":"pl_barnblitz","folder":"tf","game":"Team Fortress","app_id":440,"player_count":16,"max_players":24,"Bots":0,"server_type":"Dedicated","server_os":"Linux","password":true,"vac":true,"version":"7757534","steam_id":85568392924866362,"keywords":["nocrits","nodmgspread","payload","uncletopia"],"game_id":440,"stv_port":27016,"stv_name":"Uncletopia | Chicago | 5 | All Maps | STV","players":[{"user_id":684,"name":"Banes","steam_id":76561198083485876,"connected_time":1986000000000,"state":"active","ping":81},{"user_id":697,"name":"*****setget","steam_id":76561198118824188,"connected_time":503000000000,"state":"active","ping":118},{"user_id":687,"name":"SiltyStar85","steam_id":76561198309175923,"connected_time":1719000000000,"state":"active","ping":96},{"user_id":696,"name":"yomommasabitch","steam_id":76561198323217150,"connected_time":542000000000,"state":"active","ping":60},{"user_id":688,"name":"Amoxicilina","steam_id":76561198168486429,"connected_time":1683000000000,"state":"active","ping":117},{"user_id":672,"name":"DA GIBUS SPY","steam_id":76561198080771881,"connected_time":2225000000000,"state":"active","ping":70},{"user_id":698,"name":"Mara Roo","steam_id":76561198279341789,"connected_time":373000000000,"state":"active","ping":84},{"user_id":660,"name":"Chicken but","steam_id":76561198257872736,"connected_time":2694000000000,"state":"active","ping":60},{"user_id":699,"name":"troll","steam_id":76561199154079112,"connected_time":256000000000,"state":"active","ping":63},{"user_id":700,"name":"zivanara \u003c3","steam_id":76561198405381843,"connected_time":97000000000,"state":"active","ping":120},{"user_id":667,"name":"Holistic Ballistics","steam_id":76561198079509455,"connected_time":2442000000000,"state":"active","ping":66},{"user_id":701,"name":"Vinesauce","steam_id":76561199122124688,"connected_time":3000000000,"state":"spawning","ping":77},{"user_id":643,"name":"Kanye is my Biggest Fan","steam_id":76561198162363747,"connected_time":3817000000000,"state":"active","ping":68},{"user_id":676,"name":"Mr_Mayhem22","steam_id":76561198224068024,"connected_time":2200000000000,"state":"active","ping":83},{"user_id":681,"name":"Michaelpc1","steam_id":76561198088365519,"connected_time":2115000000000,"state":"active","ping":70},{"user_id":691,"name":"Hell's Reindeer","steam_id":76561198065310364,"connected_time":1677000000000,"state":"active","ping":50}]},{"server_id":37,"name":"Uncletopia | Chicago | 6 | All Maps","name_short":"chi-6","host":"chi-2.us.uncletopia.com","port":27025,"enabled":true,"region":"us-central","cc":"us","latitude":41.881832,"longitude":-87.62318,"reserved":0,"last_update":"0001-01-01T00:00:00Z","name_a2s":"Uncletopia | Chicago | 6 | All Maps","protocol":17,"map":"pl_borneo","folder":"tf","game":"Team Fortress","app_id":440,"player_count":24,"max_players":24,"Bots":0,"server_type":"Dedicated","server_os":"Linux","password":true,"vac":true,"version":"7757534","steam_id":85568392924866363,"keywords":["nocrits","nodmgspread","payload","uncletopia"],"game_id":440,"stv_port":27026,"stv_name":"Uncletopia | Chicago | 6 | All Maps | STV","players":[{"user_id":662,"name":"gyozaking","steam_id":76561197972312696,"connected_time":710000000000,"state":"active","ping":32},{"user_id":640,"name":"Dark_Zombie","steam_id":76561198262352990,"connected_time":1972000000000,"state":"active","ping":42},{"user_id":639,"name":"xd Clover","steam_id":76561198038905361,"connected_time":2275000000000,"state":"active","ping":57},{"user_id":664,"name":"Gary","steam_id":76561198133309753,"connected_time":557000000000,"state":"active","ping":64},{"user_id":648,"name":"c64guy","steam_id":76561198023022744,"connected_time":1624000000000,"state":"active","ping":70},{"user_id":649,"name":"timestew","steam_id":76561198367583372,"connected_time":1517000000000,"state":"active","ping":77},{"user_id":548,"name":"Rasputia","steam_id":76561198132051047,"connected_time":8209000000000,"state":"active","ping":105},{"user_id":642,"name":"Puke Skyfucker","steam_id":76561198012846213,"connected_time":1858000000000,"state":"active","ping":68},{"user_id":580,"name":"Mikey","steam_id":76561199027332418,"connected_time":6673000000000,"state":"active","ping":94},{"user_id":658,"name":"Potassium_","steam_id":76561199085021046,"connected_time":1008000000000,"state":"active","ping":72},{"user_id":637,"name":"IggyYT","steam_id":76561198317980567,"connected_time":2457000000000,"state":"active","ping":67},{"user_id":644,"name":"TokyoJade","steam_id":76561198136297393,"connected_time":1825000000000,"state":"active","ping":215},{"user_id":665,"name":"nabroleon","steam_id":76561198038080028,"connected_time":445000000000,"state":"active","ping":89},{"user_id":667,"name":"bunnyly enough","steam_id":76561198094119347,"connected_time":302000000000,"state":"active","ping":60},{"user_id":661,"name":"Amogous Supreme","steam_id":76561198025476774,"connected_time":884000000000,"state":"active","ping":101},{"user_id":650,"name":"YASAI JUICE","steam_id":76561198131971992,"connected_time":1387000000000,"state":"active","ping":43},{"user_id":633,"name":"Adrian the penguin","steam_id":76561199124202151,"connected_time":2725000000000,"state":"active","ping":63},{"user_id":668,"name":"TheReeno","steam_id":76561198013048505,"connected_time":244000000000,"state":"active","ping":97},{"user_id":666,"name":"nell","steam_id":76561198136225723,"connected_time":360000000000,"state":"active","ping":70},{"user_id":631,"name":"kametro4","steam_id":76561198835430429,"connected_time":3587000000000,"state":"active","ping":75},{"user_id":653,"name":"A Terrible Shot","steam_id":76561198045523833,"connected_time":1354000000000,"state":"active","ping":104},{"user_id":669,"name":"All 24 Pok√©mon movies at once","steam_id":76561198164738311,"connected_time":137000000000,"state":"active","ping":55},{"user_id":663,"name":"Lich","steam_id":76561198067527381,"connected_time":705000000000,"state":"active","ping":53},{"user_id":632,"name":"DiscoTraveler","steam_id":76561199240168088,"connected_time":3460000000000,"state":"active","ping":62}]},{"server_id":38,"name":"Uncletopia | Chicago | 7 | Stopwatch Beta","name_short":"chi-7","host":"chi-2.us.uncletopia.com","port":27035,"enabled":true,"region":"us-central","cc":"us","latitude":41.881832,"longitude":-87.62318,"reserved":0,"last_update":"0001-01-01T00:00:00Z","name_a2s":"Uncletopia | Chicago | 7 | Stopwatch Beta","protocol":17,"map":"workshop/pl_summercoast_rc8e.ugc1761528829","folder":"tf","game":"Team Fortress","app_id":440,"player_count":0,"max_players":24,"Bots":0,"server_type":"Dedicated","server_os":"Linux","password":true,"vac":true,"version":"7757534","steam_id":85568392924866364,"keywords":["nocrits","nodmgspread","payload","uncletopia"],"game_id":440,"stv_port":27036,"stv_name":"Uncletopia | Chicago | 7 | Stopwatch Beta | STV","players":null},{"server_id":39,"name":"Uncletopia | Chicago | 8 | Community","name_short":"chi-8","host":"chi-2.us.uncletopia.com","port":27045,"enabled":true,"region":"us-central","cc":"us","latitude":41.881832,"longitude":-87.62318,"reserved":0,"last_update":"0001-01-01T00:00:00Z","name_a2s":"Uncletopia | Chicago | 8 | Community","protocol":17,"map":"workshop/koth_slaughter_rc1.ugc1712845210","folder":"tf","game":"Team Fortress","app_id":440,"player_count":0,"max_players":24,"Bots":0,"server_type":"Dedicated","server_os":"Linux","password":true,"vac":true,"version":"7757534","steam_id":85568392924866365,"keywords":["cp","nocrits","nodmgspread","uncletopia"],"game_id":440,"stv_port":27046,"stv_name":"Uncletopia | Chicago | 8 | Community | STV","players":null},{"server_id":8,"name":"Uncletopia | Dallas | 1 | All Maps","name_short":"dal-1","host":"dal-1.us.uncletopia.com","port":27015,"enabled":true,"region":"us-central","cc":"us","latitude":32.779167,"longitude":-96.80889,"reserved":0,"last_update":"0001-01-01T00:00:00Z","name_a2s":"Uncletopia | Dallas | 1 | All Maps","protocol":17,"map":"ctf_2fort","folder":"tf","game":"Team Fortress","app_id":440,"player_count":23,"max_players":24,"Bots":0,"server_type":"Dedicated","server_os":"Linux","password":true,"vac":true,"version":"7757534","steam_id":85568392924469986,"keywords":["ctf","nocrits","nodmgspread","uncletopia"],"game_id":440,"stv_port":27016,"stv_name":"Uncletopia | Dallas | 1 | All Maps | STV","players":[{"user_id":717,"name":"SPOOKY HOTDOG","steam_id":76561197964599698,"connected_time":914000000000,"state":"active","ping":42},{"user_id":732,"name":"‚ú©BONGO‚ú©","steam_id":76561198018040930,"connected_time":1000000000,"state":"spawning","ping":27},{"user_id":722,"name":"Nebulon-B_Frigate_FTW","steam_id":76561198040955960,"connected_time":608000000000,"state":"active","ping":134},{"user_id":719,"name":"skaj","steam_id":76561198082278586,"connected_time":745000000000,"state":"active","ping":67},{"user_id":703,"name":"Fletcher","steam_id":76561198317846538,"connected_time":2091000000000,"state":"active","ping":77},{"user_id":697,"name":"POWER","steam_id":76561199103174090,"connected_time":2162000000000,"state":"active","ping":65},{"user_id":720,"name":"Superplay64","steam_id":76561198172471162,"connected_time":716000000000,"state":"active","ping":85},{"user_id":698,"name":"Nnyllazxz","steam_id":76561198247797436,"connected_time":2160000000000,"state":"active","ping":98},{"user_id":712,"name":"Hooray!","steam_id":76561198136487957,"connected_time":1827000000000,"state":"active","ping":61},{"user_id":705,"name":"taylor swift","steam_id":76561198151135298,"connected_time":2059000000000,"state":"active","ping":73},{"user_id":711,"name":"Marc Antony","steam_id":76561198011366517,"connected_time":1870000000000,"state":"active","ping":75},{"user_id":681,"name":"GLG MUTT","steam_id":76561198147785541,"connected_time":4430000000000,"state":"active","ping":56},{"user_id":725,"name":"An00bis","steam_id":76561198044084508,"connected_time":240000000000,"state":"active","ping":60},{"user_id":710,"name":"cup","steam_id":76561198121245586,"connected_time":1902000000000,"state":"active","ping":86},{"user_id":727,"name":"Ko - „Åì - ÏΩî","steam_id":76561198035726982,"connected_time":217000000000,"state":"active","ping":64},{"user_id":682,"name":"GLG.Liz","steam_id":76561198021957956,"connected_time":4365000000000,"state":"active","ping":45},{"user_id":715,"name":"Use More Gun (UMG)","steam_id":76561198137734808,"connected_time":1034000000000,"state":"active","ping":69},{"user_id":708,"name":"asphyxiation","steam_id":76561198151071386,"connected_time":2036000000000,"state":"active","ping":100},{"user_id":728,"name":"Û†Ä°Û†Ä°","steam_id":76561198202704364,"connected_time":158000000000,"state":"active","ping":76},{"user_id":507,"name":"Bullwinkle J. Moose","steam_id":76561198075977196,"connected_time":17074000000000,"state":"active","ping":57},{"user_id":729,"name":"StrangeSaus","steam_id":76561198147790758,"connected_time":153000000000,"state":"active","ping":98},{"user_id":694,"name":"Nani?","steam_id":76561198130982692,"connected_time":3066000000000,"state":"active","ping":65},{"user_id":731,"name":"i am clinically insane","steam_id":76561199013323529,"connected_time":21000000000,"state":"active","ping":86}]},{"server_id":108,"name":"Uncletopia | Dallas | 2 | All Maps","name_short":"dal-2","host":"dal-1.us.uncletopia.com","port":27025,"enabled":true,"region":"us-central","cc":"us","latitude":32.779167,"longitude":-96.80889,"reserved":0,"last_update":"0001-01-01T00:00:00Z","name_a2s":"Uncletopia | Dallas | 2 | All Maps","protocol":17,"map":"koth_cascade","folder":"tf","game":"Team Fortress","app_id":440,"player_count":1,"max_players":24,"Bots":0,"server_type":"Dedicated","server_os":"Linux","password":true,"vac":true,"version":"7757534","steam_id":85568392924469988,"keywords":["cp","nocrits","nodmgspread","uncletopia"],"game_id":440,"stv_port":27026,"stv_name":"Uncletopia | Dallas | 2 | All Maps | STV","players":[{"user_id":603,"name":"reymundo","steam_id":76561197989412830,"connected_time":168000000000,"state":"active","ping":87}]},{"server_id":5,"name":"Uncletopia | Frankfurt | 1 | All Maps","name_short":"frk-1","host":"frk-1.de.uncletopia.com","port":27015,"enabled":true,"region":"eu","cc":"de","latitude":50.110924,"longitude":8.682127,"reserved":0,"last_update":"0001-01-01T00:00:00Z","name_a2s":"Uncletopia | Frankfurt | 1 | All Maps","protocol":17,"map":"pl_pier","folder":"tf","game":"Team Fortress","app_id":440,"player_count":0,"max_players":24,"Bots":0,"server_type":"Dedicated","server_os":"Linux","password":true,"vac":true,"version":"7757534","steam_id":85568392924469989,"keywords":["nocrits","nodmgspread","payload","uncletopia"],"game_id":440,"stv_port":27016,"stv_name":"Uncletopia | Frankfurt | 1 | All Maps | STV","players":null},{"server_id":110,"name":"Uncletopia | Frankfurt | 2 | All Maps","name_short":"frk-2","host":"frk-1.de.uncletopia.com","port":27025,"enabled":true,"region":"eu","cc":"de","latitude":50.110924,"longitude":8.682127,"reserved":0,"last_update":"0001-01-01T00:00:00Z","name_a2s":"Uncletopia | Frankfurt | 2 | All Maps","protocol":17,"map":"cp_altitude","folder":"tf","game":"Team Fortress","app_id":440,"player_count":0,"max_players":24,"Bots":0,"server_type":"Dedicated","server_os":"Linux","password":true,"vac":true,"version":"7757534","steam_id":85568392924469990,"keywords":["cp","nocrits","nodmgspread","uncletopia"],"game_id":440,"stv_port":27026,"stv_name":"Uncletopia | Frankfurt | 2 | All Maps | STV","players":null},{"server_id":308,"name":"Uncletopia | Frankfurt | 3 | All Maps","name_short":"frk-3","host":"frk-1.de.uncletopia.com","port":27035,"enabled":true,"region":"eu","cc":"de","latitude":50.110924,"longitude":8.682127,"reserved":0,"last_update":"0001-01-01T00:00:00Z","name_a2s":"Uncletopia | Frankfurt | 3 | All Maps","protocol":17,"map":"pl_barnblitz","folder":"tf","game":"Team Fortress","app_id":440,"player_count":0,"max_players":24,"Bots":0,"server_type":"Dedicated","server_os":"Linux","password":true,"vac":true,"version":"7757534","steam_id":85568392924504274,"keywords":["nocrits","nodmgspread","payload","uncletopia"],"game_id":440,"stv_port":27036,"stv_name":"Uncletopia | Frankfurt | 3 | All Maps | STV","players":null},{"server_id":309,"name":"Uncletopia | Frankfurt | 4 | All Maps","name_short":"frk-4","host":"frk-1.de.uncletopia.com","port":27045,"enabled":true,"region":"eu","cc":"de","latitude":50.110924,"longitude":8.682127,"reserved":0,"last_update":"0001-01-01T00:00:00Z","name_a2s":"Uncletopia | Frankfurt | 4 | All Maps","protocol":17,"map":"pl_snowycoast","folder":"tf","game":"Team Fortress","app_id":440,"player_count":0,"max_players":24,"Bots":0,"server_type":"Dedicated","server_os":"Linux","password":true,"vac":true,"version":"7757534","steam_id":85568392924504275,"keywords":["nocrits","nodmgspread","payload","uncletopia"],"game_id":440,"stv_port":27046,"stv_name":"Uncletopia | Frankfurt | 4 | All Maps | STV","players":null},{"server_id":310,"name":"Uncletopia | Frankfurt | 5 | All Maps","name_short":"frk-5","host":"frk-1.de.uncletopia.com","port":27055,"enabled":true,"region":"eu","cc":"de","latitude":50.110924,"longitude":8.682127,"reserved":0,"last_update":"0001-01-01T00:00:00Z","name_a2s":"Uncletopia | Frankfurt | 5 | All Maps","protocol":17,"map":"cp_altitude","folder":"tf","game":"Team Fortress","app_id":440,"player_count":0,"max_players":24,"Bots":0,"server_type":"Dedicated","server_os":"Linux","password":true,"vac":true,"version":"7757534","steam_id":85568392924504277,"keywords":["cp","nocrits","nodmgspread","uncletopia"],"game_id":440,"stv_port":27056,"stv_name":"Uncletopia | Frankfurt | 5 | All Maps | STV","players":null},{"server_id":311,"name":"Uncletopia | Frankfurt | 6 | All Maps","name_short":"frk-6","host":"frk-1.de.uncletopia.com","port":27065,"enabled":true,"region":"eu","cc":"de","latitude":50.110924,"longitude":8.682127,"reserved":0,"last_update":"0001-01-01T00:00:00Z","name_a2s":"Uncletopia | Frankfurt | 6 | All Maps","protocol":17,"map":"koth_highpass","folder":"tf","game":"Team Fortress","app_id":440,"player_count":0,"max_players":24,"Bots":0,"server_type":"Dedicated","server_os":"Linux","password":true,"vac":true,"version":"7757534","steam_id":85568392924504278,"keywords":["cp","nocrits","nodmgspread","uncletopia"],"game_id":440,"stv_port":27066,"stv_name":"Uncletopia | Frankfurt | 6 | All Maps | STV","players":null},{"server_id":23,"name":"Uncletopia | Frankfurt | 7 | Stopwatch Beta","name_short":"frk-7","host":"frk-1.de.uncletopia.com","port":27075,"enabled":true,"region":"eu","cc":"de","latitude":50.110924,"longitude":8.682127,"reserved":0,"last_update":"0001-01-01T00:00:00Z","name_a2s":"Uncletopia | Frankfurt | 7 | Stopwatch Beta","protocol":17,"map":"pl_borneo","folder":"tf","game":"Team Fortress","app_id":440,"player_count":0,"max_players":24,"Bots":0,"server_type":"Dedicated","server_os":"Linux","password":true,"vac":true,"version":"7757534","steam_id":85568392924742827,"keywords":["nocrits","nodmgspread","payload","uncletopia"],"game_id":440,"stv_port":27076,"stv_name":"Uncletopia | Frankfurt | 7 | Stopwatch Beta | STV","players":null},{"server_id":24,"name":"Uncletopia | Frankfurt | 8 | Community","name_short":"frk-8","host":"frk-1.de.uncletopia.com","port":27085,"enabled":true,"region":"eu","cc":"de","latitude":50.110924,"longitude":8.682127,"reserved":0,"last_update":"0001-01-01T00:00:00Z","name_a2s":"Uncletopia | Frankfurt | 8 | Community","protocol":17,"map":"koth_cascade","folder":"tf","game":"Team Fortress","app_id":440,"player_count":0,"max_players":24,"Bots":0,"server_type":"Dedicated","server_os":"Linux","password":true,"vac":true,"version":"7757534","steam_id":85568392924742828,"keywords":["cp","nocrits","nodmgspread","uncletopia"],"game_id":440,"stv_port":27086,"stv_name":"Uncletopia | Frankfurt | 8 | Community | STV","players":null},{"server_id":202,"name":"Uncletopia | Hong Kong | 1 | All Maps","name_short":"hgk-1","host":"hgk-1.hk.uncletopia.com","port":27015,"enabled":true,"region":"asia","cc":"hk","latitude":22.302711,"longitude":114.177216,"reserved":0,"last_update":"0001-01-01T00:00:00Z","name_a2s":"Uncletopia | Hong Kong | 1 | All Maps","protocol":17,"map":"pl_pier","folder":"tf","game":"Team Fortress","app_id":440,"player_count":3,"max_players":24,"Bots":0,"server_type":"Dedicated","server_os":"Linux","password":true,"vac":true,"version":"7757534","steam_id":85568392924494504,"keywords":["nocrits","nodmgspread","payload","uncletopia"],"game_id":440,"stv_port":27016,"stv_name":"Uncletopia | Hong Kong | 1 | All Maps | STV","players":[{"user_id":20,"name":"DC","steam_id":76561198837122605,"connected_time":672000000000,"state":"active","ping":63},{"user_id":18,"name":"Engineer Gaming","steam_id":76561199171715520,"connected_time":1012000000000,"state":"active","ping":40},{"user_id":19,"name":"truth\u003c3","steam_id":76561199446240749,"connected_time":964000000000,"state":"active","ping":90}]},{"server_id":1,"name":"Uncletopia | Los Angeles | 1 | All Maps","name_short":"lax-1","host":"lax-1.us.uncletopia.com","port":27015,"enabled":true,"region":"us-west","cc":"us","latitude":33.94279,"longitude":-118.41004,"reserved":0,"last_update":"0001-01-01T00:00:00Z","name_a2s":"Uncletopia | Los Angeles | 1 | All Maps","protocol":17,"map":"pl_barnblitz","folder":"tf","game":"Team Fortress","app_id":440,"player_count":24,"max_players":24,"Bots":0,"server_type":"Dedicated","server_os":"Linux","password":true,"vac":true,"version":"7757534","steam_id":85568392924469991,"keywords":["nocrits","nodmgspread","payload","uncletopia"],"game_id":440,"stv_port":27016,"stv_name":"Uncletopia | Los Angeles | 1 | All Maps | STV","players":[{"user_id":409,"name":"Kopenich","steam_id":76561198066205245,"connected_time":12373000000000,"state":"active","ping":50},{"user_id":526,"name":"Master-e","steam_id":76561198173044685,"connected_time":1835000000000,"state":"active","ping":126},{"user_id":534,"name":"Camden","steam_id":76561198060172263,"connected_time":400000000000,"state":"active","ping":56},{"user_id":531,"name":"Spazzls","steam_id":76561198075224361,"connected_time":1308000000000,"state":"active","ping":112},{"user_id":480,"name":"Esue Ijae","steam_id":76561199268519057,"connected_time":5184000000000,"state":"active","ping":55},{"user_id":535,"name":"Team Fortress Forever","steam_id":76561199192132061,"connected_time":215000000000,"state":"active","ping":60},{"user_id":475,"name":"Tako","steam_id":76561199264073138,"connected_time":5359000000000,"state":"active","ping":37},{"user_id":533,"name":"Monty","steam_id":76561198079461650,"connected_time":419000000000,"state":"active","ping":56},{"user_id":537,"name":"FTN | Shakaman","steam_id":76561198039829758,"connected_time":36000000000,"state":"active","ping":105},{"user_id":463,"name":"Kovac","steam_id":76561198318126190,"connected_time":7057000000000,"state":"active","ping":153},{"user_id":511,"name":"sun sugar","steam_id":76561198385085005,"connected_time":2303000000000,"state":"active","ping":62},{"user_id":502,"name":"Mr. Blubber","steam_id":76561198338906916,"connected_time":3582000000000,"state":"active","ping":46},{"user_id":525,"name":"ndvr","steam_id":76561199379200102,"connected_time":1854000000000,"state":"active","ping":112},{"user_id":504,"name":"Karl Gerat2015","steam_id":76561199061625972,"connected_time":2946000000000,"state":"active","ping":67},{"user_id":513,"name":"Grungus","steam_id":76561198047700230,"connected_time":2248000000000,"state":"active","ping":59},{"user_id":523,"name":"MisterT","steam_id":76561198079868873,"connected_time":1949000000000,"state":"active","ping":53},{"user_id":495,"name":"HAT-WEARING‚Ñ¢ Maggot Gamer Cat","steam_id":76561197973992705,"connected_time":4145000000000,"state":"active","ping":62},{"user_id":499,"name":"icanseeyou2","steam_id":76561199072741874,"connected_time":4042000000000,"state":"active","ping":69},{"user_id":536,"name":"Legend27","steam_id":76561198067011064,"connected_time":176000000000,"state":"active","ping":56},{"user_id":530,"name":"Yu Plush","steam_id":76561198800891125,"connected_time":1325000000000,"state":"active","ping":82},{"user_id":532,"name":"cuppo","steam_id":76561198022008901,"connected_time":1303000000000,"state":"active","ping":69},{"user_id":520,"name":"Tohubohu","steam_id":76561198077838448,"connected_time":2001000000000,"state":"active","ping":57},{"user_id":527,"name":"c49aa4","steam_id":76561199099537250,"connected_time":1389000000000,"state":"active","ping":46},{"user_id":521,"name":"ChefMike","steam_id":76561198414034069,"connected_time":1990000000000,"state":"active","ping":115}]},{"server_id":112,"name":"Uncletopia | Los Angeles | 2 | All Maps","name_short":"lax-2","host":"lax-1.us.uncletopia.com","port":27025,"enabled":true,"region":"us-west","cc":"us","latitude":33.94279,"longitude":-118.41004,"reserved":0,"last_update":"0001-01-01T00:00:00Z","name_a2s":"Uncletopia | Los Angeles | 2 | All Maps","protocol":17,"map":"koth_cascade","folder":"tf","game":"Team Fortress","app_id":440,"player_count":0,"max_players":24,"Bots":0,"server_type":"Dedicated","server_os":"Linux","password":true,"vac":true,"version":"7757534","steam_id":85568392924469992,"keywords":["cp","nocrits","nodmgspread","uncletopia"],"game_id":440,"stv_port":27026,"stv_name":"Uncletopia | Los Angeles | 2 | All Maps | STV","players":null},{"server_id":324,"name":"Uncletopia | Los Angeles | 3 | All Maps","name_short":"lax-3","host":"lax-1.us.uncletopia.com","port":27035,"enabled":true,"region":"us-west","cc":"us","latitude":33.94279,"longitude":-118.41004,"reserved":0,"last_update":"0001-01-01T00:00:00Z","name_a2s":"Uncletopia | Los Angeles | 3 | All Maps","protocol":17,"map":"koth_highpass","folder":"tf","game":"Team Fortress","app_id":440,"player_count":0,"max_players":24,"Bots":0,"server_type":"Dedicated","server_os":"Linux","password":true,"vac":true,"version":"7757534","steam_id":85568392924510198,"keywords":["cp","nocrits","nodmgspread","uncletopia"],"game_id":440,"stv_port":27036,"stv_name":"Uncletopia | Los Angeles | 3 | All Maps | STV","players":null},{"server_id":25,"name":"Uncletopia | Los Angeles | 4 | Stopwatch Beta","name_short":"lax-4","host":"lax-1.us.uncletopia.com","port":27045,"enabled":true,"region":"us-west","cc":"us","latitude":33.94279,"longitude":-118.41004,"reserved":0,"last_update":"0001-01-01T00:00:00Z","name_a2s":"Uncletopia | Los Angeles | 4 | Stopwatch Beta","protocol":17,"map":"koth_viaduct","folder":"tf","game":"Team Fortress","app_id":440,"player_count":0,"max_players":24,"Bots":0,"server_type":"Dedicated","server_os":"Linux","password":true,"vac":true,"version":"7757534","steam_id":85568392924510199,"keywords":["cp","nocrits","nodmgspread","uncletopia"],"game_id":440,"stv_port":27046,"stv_name":"Uncletopia | Los Angeles | 4 | Stopwatch Beta | STV","players":null},{"server_id":11,"name":"Uncletopia | London | 1 | All Maps","name_short":"lon-1","host":"lon-1.uk.uncletopia.com","port":27015,"enabled":true,"region":"eu","cc":"gb","latitude":51.509865,"longitude":-0.118092,"reserved":0,"last_update":"0001-01-01T00:00:00Z","name_a2s":"Uncletopia | London | 1 | All Maps","protocol":17,"map":"pl_frontier_final","folder":"tf","game":"Team Fortress","app_id":440,"player_count":3,"max_players":24,"Bots":0,"server_type":"Dedicated","server_os":"Linux","password":true,"vac":true,"version":"7757534","steam_id":85568392924367362,"keywords":["nocrits","nodmgspread","payload","uncletopia"],"game_id":440,"stv_port":27016,"stv_name":"Uncletopia | London | 1 | All Maps | STV","players":[{"user_id":1125,"name":"proximqq","steam_id":76561199274997302,"connected_time":604000000000,"state":"active","ping":86},{"user_id":1127,"name":"YUTSUNE","steam_id":76561199090676454,"connected_time":585000000000,"state":"active","ping":381},{"user_id":1103,"name":"Dark|TBE","steam_id":76561199093438455,"connected_time":3460000000000,"state":"active","ping":55}]},{"server_id":114,"name":"Uncletopia | London | 2 | All Maps","name_short":"lon-2","host":"lon-1.uk.uncletopia.com","port":27025,"enabled":true,"region":"eu","cc":"gb","latitude":51.509865,"longitude":-0.118092,"reserved":0,"last_update":"0001-01-01T00:00:00Z","name_a2s":"Uncletopia | London | 2 | All Maps","protocol":17,"map":"pl_badwater","folder":"tf","game":"Team Fortress","app_id":440,"player_count":22,"max_players":24,"Bots":0,"server_type":"Dedicated","server_os":"Linux","password":true,"vac":true,"version":"7757534","steam_id":85568392924470941,"keywords":["nocrits","nodmgspread","payload","uncletopia"],"game_id":440,"stv_port":27026,"stv_name":"Uncletopia | London | 2 | All Maps | STV","players":[{"user_id":1035,"name":"EdSuedi","steam_id":76561199387956486,"connected_time":2821000000000,"state":"active","ping":60},{"user_id":1016,"name":"engie?","steam_id":76561198331852832,"connected_time":4798000000000,"state":"active","ping":76},{"user_id":1025,"name":"Zach","steam_id":76561198454281725,"connected_time":3452000000000,"state":"active","ping":114},{"user_id":1045,"name":"ÀπFate's¬∑MarionetteÀº","steam_id":76561198034197381,"connected_time":1782000000000,"state":"active","ping":52},{"user_id":1053,"name":"minn","steam_id":76561198099101232,"connected_time":1146000000000,"state":"active","ping":54},{"user_id":1059,"name":"Johnny Cockroach","steam_id":76561198049648277,"connected_time":590000000000,"state":"active","ping":100},{"user_id":1012,"name":"Pahlberg","steam_id":76561198208547929,"connected_time":5464000000000,"state":"active","ping":86},{"user_id":1065,"name":"itsgearfear","steam_id":76561198801849281,"connected_time":393000000000,"state":"active","ping":161},{"user_id":1061,"name":"Polyzonial","steam_id":76561198072679667,"connected_time":531000000000,"state":"active","ping":42},{"user_id":1044,"name":"kbbq","steam_id":76561198346638308,"connected_time":1881000000000,"state":"active","ping":48},{"user_id":1023,"name":"Hleno","steam_id":76561198060442619,"connected_time":3568000000000,"state":"active","ping":55},{"user_id":1024,"name":"Mc Pleasure Sausage","steam_id":76561198061717046,"connected_time":3555000000000,"state":"active","ping":70},{"user_id":1027,"name":"depressed cows","steam_id":76561198358722215,"connected_time":3341000000000,"state":"active","ping":45},{"user_id":1028,"name":"Jarl SwagDog","steam_id":76561198097553711,"connected_time":3253000000000,"state":"active","ping":118},{"user_id":1046,"name":"RIFT","steam_id":76561198991622379,"connected_time":1561000000000,"state":"active","ping":40},{"user_id":1062,"name":"jonbob","steam_id":76561197963506620,"connected_time":510000000000,"state":"active","ping":54},{"user_id":1052,"name":"barni","steam_id":76561198170420173,"connected_time":1250000000000,"state":"active","ping":92},{"user_id":1063,"name":"Guya","steam_id":76561198046427257,"connected_time":432000000000,"state":"active","ping":45},{"user_id":1064,"name":"Vevo","steam_id":76561198316753540,"connected_time":418000000000,"state":"active","ping":131},{"user_id":1038,"name":"Avrage Snuss Enjoyer","steam_id":76561198213875625,"connected_time":2473000000000,"state":"active","ping":69},{"user_id":1066,"name":"‚úßQUAD DAMAGE‚úß","steam_id":76561198078932735,"connected_time":378000000000,"state":"active","ping":75},{"user_id":1067,"name":".....","steam_id":76561198065009070,"connected_time":373000000000,"state":"active","ping":77}]},{"server_id":320,"name":"Uncletopia | London | 3 | All Maps","name_short":"lon-3","host":"lon-1.uk.uncletopia.com","port":27035,"enabled":true,"region":"eu","cc":"gb","latitude":51.509865,"longitude":-0.118092,"reserved":0,"last_update":"0001-01-01T00:00:00Z","name_a2s":"Uncletopia | London | 3 | All Maps","protocol":17,"map":"koth_cascade","folder":"tf","game":"Team Fortress","app_id":440,"player_count":0,"max_players":24,"Bots":0,"server_type":"Dedicated","server_os":"Linux","password":true,"vac":true,"version":"7757534","steam_id":85568392924510192,"keywords":["cp","nocrits","nodmgspread","uncletopia"],"game_id":440,"stv_port":27036,"stv_name":"Uncletopia | London | 3 | All Maps | STV","players":null},{"server_id":321,"name":"Uncletopia | London | 4 | All Maps","name_short":"lon-4","host":"lon-1.uk.uncletopia.com","port":27045,"enabled":true,"region":"eu","cc":"gb","latitude":51.509865,"longitude":-0.118092,"reserved":0,"last_update":"0001-01-01T00:00:00Z","name_a2s":"Uncletopia | London | 4 | All Maps","protocol":17,"map":"koth_badlands","folder":"tf","game":"Team Fortress","app_id":440,"player_count":0,"max_players":24,"Bots":0,"server_type":"Dedicated","server_os":"Linux","password":true,"vac":true,"version":"7757534","steam_id":85568392924510193,"keywords":["cp","nocrits","nodmgspread","uncletopia"],"game_id":440,"stv_port":27046,"stv_name":"Uncletopia | London | 4 | All Maps | STV","players":null},{"server_id":21,"name":"Uncletopia | London | 5 | All Maps","name_short":"lon-5","host":"lon-1.uk.uncletopia.com","port":27055,"enabled":true,"region":"eu","cc":"gb","latitude":51.509865,"longitude":-0.118092,"reserved":0,"last_update":"0001-01-01T00:00:00Z","name_a2s":"Uncletopia | London | 5 | All Maps","protocol":17,"map":"koth_king","folder":"tf","game":"Team Fortress","app_id":440,"player_count":0,"max_players":24,"Bots":0,"server_type":"Dedicated","server_os":"Linux","password":true,"vac":true,"version":"7757534","steam_id":85568392924742829,"keywords":["cp","nocrits","nodmgspread","uncletopia"],"game_id":440,"stv_port":27056,"stv_name":"Uncletopia | London | 5 | All Maps | STV","players":null},{"server_id":22,"name":"Uncletopia | London | 6 | All Maps","name_short":"lon-6","host":"lon-1.uk.uncletopia.com","port":27065,"enabled":true,"region":"eu","cc":"gb","latitude":51.509865,"longitude":-0.118092,"reserved":0,"last_update":"0001-01-01T00:00:00Z","name_a2s":"Uncletopia | London | 6 | All Maps","protocol":17,"map":"koth_lakeside_final","folder":"tf","game":"Team Fortress","app_id":440,"player_count":0,"max_players":24,"Bots":0,"server_type":"Dedicated","server_os":"Linux","password":true,"vac":true,"version":"7757534","steam_id":85568392924742830,"keywords":["cp","nocrits","nodmgspread","uncletopia"],"game_id":440,"stv_port":27066,"stv_name":"Uncletopia | London | 6 | All Maps | STV","players":null},{"server_id":40,"name":"Uncletopia | London | 7 | No Payload","name_short":"lon-7","host":"lon-1.uk.uncletopia.com","port":27075,"enabled":true,"region":"eu","cc":"gb","latitude":51.509865,"longitude":-0.118092,"reserved":0,"last_update":"0001-01-01T00:00:00Z","name_a2s":"Uncletopia | London | 7 | No Payload","protocol":17,"map":"koth_harvest_final","folder":"tf","game":"Team Fortress","app_id":440,"player_count":0,"max_players":24,"Bots":0,"server_type":"Dedicated","server_os":"Linux","password":true,"vac":true,"version":"7757534","steam_id":85568392924964314,"keywords":["cp","nocrits","nodmgspread","uncletopia"],"game_id":440,"stv_port":27076,"stv_name":"Uncletopia | London | 7 | No Payload | STV","players":null},{"server_id":41,"name":"Uncletopia | London | 8 | Community","name_short":"lon-8","host":"lon-1.uk.uncletopia.com","port":27085,"enabled":true,"region":"eu","cc":"gb","latitude":51.509865,"longitude":-0.118092,"reserved":0,"last_update":"0001-01-01T00:00:00Z","name_a2s":"Uncletopia | London | 8 | Community","protocol":17,"map":"workshop/koth_ramjam_rc1.ugc459778887","folder":"tf","game":"Team Fortress","app_id":440,"player_count":0,"max_players":24,"Bots":0,"server_type":"Dedicated","server_os":"Linux","password":true,"vac":true,"version":"7757534","steam_id":85568392924964315,"keywords":["cp","nocrits","nodmgspread","uncletopia"],"game_id":440,"stv_port":27086,"stv_name":"Uncletopia | London | 8 | Community | STV","players":null},{"server_id":300,"name":"Uncletopia | Montr√©al | 1 | All Maps","name_short":"mtl-1","host":"mtl-1.ca.uncletopia.com","port":27015,"enabled":true,"region":"us-east","cc":"ca","latitude":45.50889,"longitude":-73.56167,"reserved":0,"last_update":"0001-01-01T00:00:00Z","name_a2s":"Uncletopia | Montr√©al | 1 | All Maps","protocol":17,"map":"koth_viaduct","folder":"tf","game":"Team Fortress","app_id":440,"player_count":0,"max_players":24,"Bots":0,"server_type":"Dedicated","server_os":"Linux","password":true,"vac":true,"version":"7757534","steam_id":85568392924500087,"keywords":["cp","nocrits","nodmgspread","uncletopia"],"game_id":440,"stv_port":27016,"stv_name":"Uncletopia | Montr√©al | 1 | All Maps | STV","players":null},{"server_id":301,"name":"Uncletopia | Montr√©al | 2 | All Maps","name_short":"mtl-2","host":"mtl-1.ca.uncletopia.com","port":27025,"enabled":true,"region":"us-east","cc":"ca","latitude":45.50889,"longitude":-73.56167,"reserved":0,"last_update":"0001-01-01T00:00:00Z","name_a2s":"Uncletopia | Montr√©al | 2 | All Maps","protocol":17,"map":"koth_highpass","folder":"tf","game":"Team Fortress","app_id":440,"player_count":0,"max_players":24,"Bots":0,"server_type":"Dedicated","server_os":"Linux","password":true,"vac":true,"version":"7757534","steam_id":85568392924500088,"keywords":["cp","nocrits","nodmgspread","uncletopia"],"game_id":440,"stv_port":27026,"stv_name":"Uncletopia | Montr√©al | 2 | All Maps | STV","players":null},{"server_id":302,"name":"Uncletopia | Montr√©al | 3 | All Maps","name_short":"mtl-3","host":"mtl-1.ca.uncletopia.com","port":27035,"enabled":true,"region":"us-east","cc":"ca","latitude":45.50889,"longitude":-73.56167,"reserved":0,"last_update":"0001-01-01T00:00:00Z","name_a2s":"Uncletopia | Montr√©al | 3 | All Maps","protocol":17,"map":"cp_dustbowl","folder":"tf","game":"Team Fortress","app_id":440,"player_count":0,"max_players":24,"Bots":0,"server_type":"Dedicated","server_os":"Linux","password":true,"vac":true,"version":"7757534","steam_id":85568392924500089,"keywords":["cp","nocrits","nodmgspread","uncletopia"],"game_id":440,"stv_port":27036,"stv_name":"Uncletopia | Montr√©al | 3 | All Maps | STV","players":null},{"server_id":303,"name":"Uncletopia | Montr√©al | 4 | No Payload","name_short":"mtl-4","host":"mtl-1.ca.uncletopia.com","port":27045,"enabled":true,"region":"us-east","cc":"ca","latitude":45.50889,"longitude":-73.56167,"reserved":0,"last_update":"0001-01-01T00:00:00Z","name_a2s":"Uncletopia | Montr√©al | 4 | No Payload","protocol":17,"map":"koth_lakeside_final","folder":"tf","game":"Team Fortress","app_id":440,"player_count":0,"max_players":24,"Bots":0,"server_type":"Dedicated","server_os":"Linux","password":true,"vac":true,"version":"7757534","steam_id":85568392924500090,"keywords":["cp","nocrits","nodmgspread","uncletopia"],"game_id":440,"stv_port":27046,"stv_name":"Uncletopia | Montr√©al | 4 | No Payload | STV","players":null},{"server_id":13,"name":"Uncletopia | New York City | 1 | All Maps","name_short":"nyc-1","host":"nyc-1.us.uncletopia.com","port":27015,"enabled":true,"region":"us-east","cc":"us","latitude":40.73061,"longitude":-73.93524,"reserved":0,"last_update":"0001-01-01T00:00:00Z","name_a2s":"Uncletopia | New York City | 1 | All Maps","protocol":17,"map":"cp_sunshine","folder":"tf","game":"Team Fortress","app_id":440,"player_count":0,"max_players":24,"Bots":0,"server_type":"Dedicated","server_os":"Linux","password":true,"vac":true,"version":"7757534","steam_id":85568392924469993,"keywords":["cp","nocrits","nodmgspread","uncletopia"],"game_id":440,"stv_port":27016,"stv_name":"Uncletopia | New York City | 1 | All Maps | STV","players":null},{"server_id":14,"name":"Uncletopia | New York City | 2 | All Maps","name_short":"nyc-2","host":"nyc-1.us.uncletopia.com","port":27025,"enabled":true,"region":"us-east","cc":"us","latitude":40.73061,"longitude":-73.93524,"reserved":0,"last_update":"0001-01-01T00:00:00Z","name_a2s":"Uncletopia | New York City | 2 | All Maps","protocol":17,"map":"pl_snowycoast","folder":"tf","game":"Team Fortress","app_id":440,"player_count":20,"max_players":24,"Bots":0,"server_type":"Dedicated","server_os":"Linux","password":true,"vac":true,"version":"7757534","steam_id":85568392924469994,"keywords":["nocrits","nodmgspread","payload","uncletopia"],"game_id":440,"stv_port":27026,"stv_name":"Uncletopia | New York City | 2 | All Maps | STV","players":[{"user_id":907,"name":"Gachalover","steam_id":76561199231552074,"connected_time":241000000000,"state":"active","ping":109},{"user_id":893,"name":"Sugartits","steam_id":76561198017627394,"connected_time":889000000000,"state":"active","ping":155},{"user_id":894,"name":"cornshot","steam_id":76561198043496387,"connected_time":878000000000,"state":"active","ping":112},{"user_id":908,"name":"blindcinema_","steam_id":76561198026908105,"connected_time":110000000000,"state":"active","ping":139},{"user_id":896,"name":"ansoonii","steam_id":76561198092494136,"connected_time":836000000000,"state":"active","ping":76},{"user_id":897,"name":"Appa","steam_id":76561198110449520,"connected_time":833000000000,"state":"active","ping":79},{"user_id":891,"name":"Moofins","steam_id":76561198050291949,"connected_time":1200000000000,"state":"active","ping":68},{"user_id":903,"name":"Team Fortress 2","steam_id":76561198045746493,"connected_time":531000000000,"state":"active","ping":69},{"user_id":855,"name":"weedcat","steam_id":76561198346054736,"connected_time":6074000000000,"state":"active","ping":70},{"user_id":883,"name":"Canned Bottled Water","steam_id":76561198044362988,"connected_time":2827000000000,"state":"active","ping":70},{"user_id":889,"name":"Ace","steam_id":76561199202306398,"connected_time":1798000000000,"state":"active","ping":125},{"user_id":833,"name":"HumFreY","steam_id":76561198076639682,"connected_time":7761000000000,"state":"active","ping":58},{"user_id":904,"name":"vyx","steam_id":76561198037205391,"connected_time":503000000000,"state":"active","ping":62},{"user_id":836,"name":"piss king","steam_id":76561198046650995,"connected_time":7058000000000,"state":"active","ping":102},{"user_id":898,"name":"[Metal Fingers - Myrtle Leaf]","steam_id":76561198294013916,"connected_time":804000000000,"state":"active","ping":47},{"user_id":909,"name":"hierodule","steam_id":76561198023229665,"connected_time":49000000000,"state":"active","ping":60},{"user_id":899,"name":"Big G","steam_id":76561198067496197,"connected_time":791000000000,"state":"active","ping":45},{"user_id":864,"name":"flappyflap2","steam_id":76561198285048973,"connected_time":5139000000000,"state":"active","ping":49},{"user_id":876,"name":"Chemo","steam_id":76561197961308370,"connected_time":3723000000000,"state":"active","ping":52},{"user_id":905,"name":"Shipmunk","steam_id":76561198063062670,"connected_time":493000000000,"state":"active","ping":45}]},{"server_id":15,"name":"Uncletopia | New York City | 3 | Stopwatch Beta","name_short":"nyc-3","host":"nyc-1.us.uncletopia.com","port":27035,"enabled":true,"region":"us-east","cc":"us","latitude":40.73061,"longitude":-73.93524,"reserved":0,"last_update":"0001-01-01T00:00:00Z","name_a2s":"Uncletopia | New York City | 3 | Stopwatch Beta","protocol":17,"map":"workshop/pl_barnblitz_pro7.ugc582280235","folder":"tf","game":"Team Fortress","app_id":440,"player_count":0,"max_players":24,"Bots":0,"server_type":"Dedicated","server_os":"Linux","password":true,"vac":true,"version":"7757534","steam_id":85568392924742820,"keywords":["nocrits","nodmgspread","payload","uncletopia"],"game_id":440,"stv_port":27036,"stv_name":"Uncletopia | New York City | 3 | Stopwatch Beta | STV","players":null},{"server_id":16,"name":"Uncletopia | New York City | 4 | Community","name_short":"nyc-4","host":"nyc-1.us.uncletopia.com","port":27045,"enabled":true,"region":"us-east","cc":"us","latitude":40.73061,"longitude":-73.93524,"reserved":0,"last_update":"0001-01-01T00:00:00Z","name_a2s":"Uncletopia | New York City | 4 | Community","protocol":17,"map":"workshop/koth_slaughter_rc1.ugc1712845210","folder":"tf","game":"Team Fortress","app_id":440,"player_count":0,"max_players":24,"Bots":0,"server_type":"Dedicated","server_os":"Linux","password":true,"vac":true,"version":"7757534","steam_id":85568392924742821,"keywords":["cp","nocrits","nodmgspread","uncletopia"],"game_id":440,"stv_port":27046,"stv_name":"Uncletopia | New York City | 4 | Community | STV","players":null},{"server_id":142,"name":"Uncletopia | S√£o Paulo | 1 | All Maps","name_short":"sao-1","host":"sao-1.br.uncletopia.com","port":27015,"enabled":true,"region":"sa","cc":"br","latitude":-23.533773,"longitude":-46.62529,"reserved":0,"last_update":"0001-01-01T00:00:00Z","name_a2s":"Uncletopia | S√£o Paulo | 1 | All Maps","protocol":17,"map":"koth_lakeside_final","folder":"tf","game":"Team Fortress","app_id":440,"player_count":0,"max_players":24,"Bots":0,"server_type":"Dedicated","server_os":"Linux","password":true,"vac":true,"version":"7757534","steam_id":85568392924469996,"keywords":["cp","nocrits","nodmgspread","uncletopia"],"game_id":440,"stv_port":27016,"stv_name":"Uncletopia | S√£o Paulo | 1 | All Maps | STV","players":null},{"server_id":143,"name":"Uncletopia | S√£o Paulo | 2 | All Maps","name_short":"sao-2","host":"sao-2.br.uncletopia.com","port":27015,"enabled":true,"region":"sa","cc":"br","latitude":-23.533773,"longitude":-46.62529,"reserved":0,"last_update":"0001-01-01T00:00:00Z","name_a2s":"Uncletopia | S√£o Paulo | 2 | All Maps","protocol":17,"map":"cp_dustbowl","folder":"tf","game":"Team Fortress","app_id":440,"player_count":0,"max_players":24,"Bots":0,"server_type":"Dedicated","server_os":"Linux","password":true,"vac":true,"version":"7757534","steam_id":85568392924485349,"keywords":["cp","nocrits","nodmgspread","uncletopia"],"game_id":440,"stv_port":27016,"stv_name":"Uncletopia | S√£o Paulo | 2 | All Maps | STV","players":null},{"server_id":7,"name":"Uncletopia | Seattle | 1 | All Maps","name_short":"sea-1","host":"sea-1.us.uncletopia.com","port":27015,"enabled":true,"region":"us-west","cc":"us","latitude":47.608013,"longitude":-122.33517,"reserved":0,"last_update":"0001-01-01T00:00:00Z","name_a2s":"Uncletopia | Seattle | 1 | All Maps","protocol":17,"map":"pl_pier","folder":"tf","game":"Team Fortress","app_id":440,"player_count":24,"max_players":24,"Bots":0,"server_type":"Dedicated","server_os":"Linux","password":true,"vac":true,"version":"7757534","steam_id":85568392924469997,"keywords":["nocrits","nodmgspread","payload","uncletopia"],"game_id":440,"stv_port":27016,"stv_name":"Uncletopia | Seattle | 1 | All Maps | STV","players":[{"user_id":636,"name":"ed","steam_id":76561198080475712,"connected_time":3289000000000,"state":"active","ping":66},{"user_id":625,"name":"Ayayahuasca","steam_id":76561199002906056,"connected_time":5109000000000,"state":"active","ping":56},{"user_id":657,"name":"gorlab","steam_id":76561198025089694,"connected_time":123000000000,"state":"active","ping":61},{"user_id":558,"name":"Aardappel","steam_id":76561198030894676,"connected_time":11023000000000,"state":"active","ping":71},{"user_id":616,"name":"jungus","steam_id":76561198129862008,"connected_time":6205000000000,"state":"active","ping":74},{"user_id":661,"name":"The King of Piss World","steam_id":76561198082806956,"connected_time":45000000000,"state":"active","ping":404},{"user_id":628,"name":"trapper wit som swag+i lurk too","steam_id":76561198885055475,"connected_time":4770000000000,"state":"active","ping":62},{"user_id":590,"name":"Sniff","steam_id":76561198010270922,"connected_time":8683000000000,"state":"active","ping":47},{"user_id":656,"name":"moronkey","steam_id":76561199009904316,"connected_time":133000000000,"state":"active","ping":83},{"user_id":565,"name":"Arsonist Goose","steam_id":76561198147441830,"connected_time":10355000000000,"state":"active","ping":75},{"user_id":653,"name":"Common","steam_id":76561198041083863,"connected_time":280000000000,"state":"active","ping":57},{"user_id":599,"name":"Cassandra (She/her)","steam_id":76561198094123940,"connected_time":7821000000000,"state":"active","ping":126},{"user_id":612,"name":"Mignyanne :3","steam_id":76561198048754056,"connected_time":7059000000000,"state":"active","ping":71},{"user_id":620,"name":"Username","steam_id":76561198855586261,"connected_time":5752000000000,"state":"active","ping":61},{"user_id":659,"name":"KingTinkerer","steam_id":76561198226856548,"connected_time":119000000000,"state":"active","ping":83},{"user_id":589,"name":"Sweets","steam_id":76561198998446307,"connected_time":8720000000000,"state":"active","ping":64},{"user_id":640,"name":"„ÉΩ(¬∞œâ¬∞ )Ôæâ","steam_id":76561198010855541,"connected_time":3169000000000,"state":"active","ping":46},{"user_id":651,"name":"Elias","steam_id":76561198031295139,"connected_time":359000000000,"state":"active","ping":45},{"user_id":643,"name":"Flowey","steam_id":76561198442304406,"connected_time":2124000000000,"state":"active","ping":61},{"user_id":660,"name":"terri joe","steam_id":76561198017030029,"connected_time":119000000000,"state":"active","ping":68},{"user_id":553,"name":"JERMA BUT CRYING AND TRANS","steam_id":76561198210734407,"connected_time":11765000000000,"state":"active","ping":120},{"user_id":646,"name":"Klone","steam_id":76561198854485605,"connected_time":1480000000000,"state":"active","ping":76},{"user_id":632,"name":"Empyrean","steam_id":76561198116398716,"connected_time":3653000000000,"state":"active","ping":93},{"user_id":655,"name":"Jade","steam_id":76561198151596927,"connected_time":280000000000,"state":"active","ping":118}]},{"server_id":119,"name":"Uncletopia | Seattle | 2 | All Maps","name_short":"sea-2","host":"sea-1.us.uncletopia.com","port":27025,"enabled":true,"region":"us-west","cc":"us","latitude":47.608013,"longitude":-122.33517,"reserved":0,"last_update":"0001-01-01T00:00:00Z","name_a2s":"Uncletopia | Seattle | 2 | All Maps","protocol":17,"map":"pl_snowycoast","folder":"tf","game":"Team Fortress","app_id":440,"player_count":24,"max_players":24,"Bots":0,"server_type":"Dedicated","server_os":"Linux","password":true,"vac":true,"version":"7757534","steam_id":85568392924469998,"keywords":["nocrits","nodmgspread","payload","uncletopia"],"game_id":440,"stv_port":27026,"stv_name":"Uncletopia | Seattle | 2 | All Maps | STV","players":[{"user_id":523,"name":"LWebb","steam_id":76561199162936929,"connected_time":1459000000000,"state":"active","ping":109},{"user_id":533,"name":"Mike Hawk","steam_id":76561198045053326,"connected_time":998000000000,"state":"active","ping":74},{"user_id":479,"name":"TurboRaspberry","steam_id":76561199215360629,"connected_time":5450000000000,"state":"active","ping":52},{"user_id":531,"name":"goldhed","steam_id":76561198051751133,"connected_time":1215000000000,"state":"active","ping":54},{"user_id":494,"name":"hosewater","steam_id":76561198023383126,"connected_time":4408000000000,"state":"active","ping":52},{"user_id":399,"name":"Dank Hill","steam_id":76561198081194839,"connected_time":10617000000000,"state":"active","ping":71},{"user_id":512,"name":"Bowl of Soup","steam_id":76561198114255273,"connected_time":3060000000000,"state":"active","ping":65},{"user_id":508,"name":"pizzaguy4","steam_id":76561198058821622,"connected_time":3462000000000,"state":"active","ping":91},{"user_id":496,"name":"snub","steam_id":76561198312106312,"connected_time":4116000000000,"state":"active","ping":62},{"user_id":513,"name":"BEASTxGODx420","steam_id":76561198184814466,"connected_time":3054000000000,"state":"active","ping":45},{"user_id":516,"name":"The Arm","steam_id":76561197983066285,"connected_time":2857000000000,"state":"active","ping":78},{"user_id":527,"name":"Dog","steam_id":76561197979056451,"connected_time":1367000000000,"state":"active","ping":49},{"user_id":524,"name":"Hedgee","steam_id":76561199027359473,"connected_time":1458000000000,"state":"active","ping":92},{"user_id":500,"name":"SvicidalBug","steam_id":76561198221390504,"connected_time":4012000000000,"state":"active","ping":72},{"user_id":514,"name":"mmmBoyo","steam_id":76561198821360261,"connected_time":3013000000000,"state":"active","ping":55},{"user_id":535,"name":"Lonestar827","steam_id":76561198035533639,"connected_time":528000000000,"state":"active","ping":59},{"user_id":511,"name":"Uta","steam_id":76561198271964253,"connected_time":3086000000000,"state":"active","ping":72},{"user_id":517,"name":"Yukihana","steam_id":76561198348354629,"connected_time":2798000000000,"state":"active","ping":65},{"user_id":532,"name":"Tomato Soup","steam_id":76561198051834684,"connected_time":1144000000000,"state":"active","ping":61},{"user_id":530,"name":"fukfuk the friendly dinosaur","steam_id":76561198111878431,"connected_time":1284000000000,"state":"active","ping":71},{"user_id":521,"name":"Sam","steam_id":76561198146472900,"connected_time":2129000000000,"state":"active","ping":66},{"user_id":506,"name":"Nobuunga","steam_id":76561198100614981,"connected_time":3528000000000,"state":"active","ping":56},{"user_id":507,"name":"InfernoFlower64","steam_id":76561198181097391,"connected_time":3521000000000,"state":"active","ping":99},{"user_id":537,"name":"surrealist neophyte","steam_id":76561198325306660,"connected_time":115000000000,"state":"active","ping":113}]},{"server_id":406,"name":"Uncletopia | Seattle | 3 | Stopwatch Beta","name_short":"sea-3","host":"sea-1.us.uncletopia.com","port":27035,"enabled":true,"region":"us-west","cc":"us","latitude":47.608013,"longitude":-122.33517,"reserved":0,"last_update":"0001-01-01T00:00:00Z","name_a2s":"Uncletopia | Seattle | 3 | Stopwatch Beta","protocol":17,"map":"pl_swiftwater_final1","folder":"tf","game":"Team Fortress","app_id":440,"player_count":0,"max_players":24,"Bots":0,"server_type":"Dedicated","server_os":"Linux","password":true,"vac":true,"version":"7757534","steam_id":85568392924515217,"keywords":["nocrits","nodmgspread","payload","uncletopia"],"game_id":440,"stv_port":27036,"stv_name":"Uncletopia | Seattle | 3 | Stopwatch Beta | STV","players":null},{"server_id":17,"name":"Uncletopia | San Francisco | 1 | All Maps","name_short":"sfo-1","host":"sfo-1.us.uncletopia.com","port":27015,"enabled":true,"region":"us-west","cc":"us","latitude":37.77397,"longitude":-122.4313,"reserved":0,"last_update":"0001-01-01T00:00:00Z","name_a2s":"Uncletopia | San Francisco | 1 | All Maps","protocol":17,"map":"pl_barnblitz","folder":"tf","game":"Team Fortress","app_id":440,"player_count":23,"max_players":24,"Bots":0,"server_type":"Dedicated","server_os":"Linux","password":true,"vac":true,"version":"7757534","steam_id":85568392924469999,"keywords":["nocrits","nodmgspread","payload","uncletopia"],"game_id":440,"stv_port":27016,"stv_name":"Uncletopia | San Francisco | 1 | All Maps | STV","players":[{"user_id":244,"name":"IntravenusDeMilo","steam_id":76561197970629020,"connected_time":2994000000000,"state":"active","ping":60},{"user_id":280,"name":"WeAreTheSpirits","steam_id":76561198191555728,"connected_time":244000000000,"state":"active","ping":45},{"user_id":260,"name":"dgmonkee","steam_id":76561198308592006,"connected_time":1258000000000,"state":"active","ping":65},{"user_id":281,"name":"Birdie","steam_id":76561198067186116,"connected_time":229000000000,"state":"active","ping":60},{"user_id":270,"name":"Big tiddy goth medic gf","steam_id":76561198836316052,"connected_time":843000000000,"state":"active","ping":70},{"user_id":252,"name":"Pluto","steam_id":76561198012630802,"connected_time":2491000000000,"state":"active","ping":58},{"user_id":287,"name":"CC-4477","steam_id":76561198192632011,"connected_time":54000000000,"state":"active","ping":54},{"user_id":262,"name":"The Axeman","steam_id":76561199061316781,"connected_time":1188000000000,"state":"active","ping":88},{"user_id":258,"name":"2008 Toyota Corolla","steam_id":76561199014681829,"connected_time":1514000000000,"state":"active","ping":56},{"user_id":269,"name":"Alberto2104","steam_id":76561198094968873,"connected_time":900000000000,"state":"active","ping":67},{"user_id":263,"name":"Pafos","steam_id":76561198017274820,"connected_time":1171000000000,"state":"active","ping":63},{"user_id":282,"name":"CrackedSanity","steam_id":76561198279841251,"connected_time":227000000000,"state":"active","ping":60},{"user_id":264,"name":"FELXIUFEL","steam_id":76561198352095947,"connected_time":1138000000000,"state":"active","ping":89},{"user_id":271,"name":"dunnydunjo","steam_id":76561198069605283,"connected_time":835000000000,"state":"active","ping":61},{"user_id":272,"name":"MrMangoHands","steam_id":76561198030975524,"connected_time":834000000000,"state":"active","ping":72},{"user_id":276,"name":"Agent86","steam_id":76561198046794593,"connected_time":750000000000,"state":"active","ping":114},{"user_id":274,"name":"Soda","steam_id":76561198108363656,"connected_time":814000000000,"state":"active","ping":74},{"user_id":231,"name":"TomTheF00l","steam_id":76561198829932650,"connected_time":3937000000000,"state":"active","ping":91},{"user_id":278,"name":"Loogus","steam_id":76561198811561721,"connected_time":547000000000,"state":"active","ping":65},{"user_id":283,"name":"North","steam_id":76561199173696836,"connected_time":222000000000,"state":"active","ping":85},{"user_id":239,"name":"blatgotyahat","steam_id":76561198186630357,"connected_time":3281000000000,"state":"active","ping":60},{"user_id":284,"name":"Wrangler Reliant Subhuman","steam_id":76561198046526036,"connected_time":211000000000,"state":"active","ping":60},{"user_id":234,"name":"remilia","steam_id":76561198069180543,"connected_time":3841000000000,"state":"active","ping":45}]},{"server_id":18,"name":"Uncletopia | San Francisco | 2 | All Maps","name_short":"sfo-2","host":"sfo-1.us.uncletopia.com","port":27025,"enabled":true,"region":"us-west","cc":"us","latitude":37.77397,"longitude":-122.4313,"reserved":0,"last_update":"0001-01-01T00:00:00Z","name_a2s":"Uncletopia | San Francisco | 2 | All Maps","protocol":17,"map":"pl_badwater","folder":"tf","game":"Team Fortress","app_id":440,"player_count":24,"max_players":24,"Bots":0,"server_type":"Dedicated","server_os":"Linux","password":true,"vac":true,"version":"7757534","steam_id":85568392924470000,"keywords":["nocrits","nodmgspread","payload","uncletopia"],"game_id":440,"stv_port":27026,"stv_name":"Uncletopia | San Francisco | 2 | All Maps | STV","players":[{"user_id":98,"name":"Alset","steam_id":76561197993820174,"connected_time":480000000000,"state":"active","ping":96},{"user_id":61,"name":"Laxoloni","steam_id":76561199197045700,"connected_time":2462000000000,"state":"active","ping":65},{"user_id":90,"name":"Maid 'n' China","steam_id":76561198423392976,"connected_time":1350000000000,"state":"active","ping":49},{"user_id":52,"name":"SilverMango","steam_id":76561198091243252,"connected_time":3676000000000,"state":"active","ping":66},{"user_id":62,"name":"jbggs","steam_id":76561198011204750,"connected_time":2404000000000,"state":"active","ping":102},{"user_id":63,"name":"Deacon","steam_id":76561197998532724,"connected_time":2350000000000,"state":"active","ping":70},{"user_id":54,"name":"The Announcer's Feet","steam_id":76561199443456893,"connected_time":3376000000000,"state":"active","ping":91},{"user_id":91,"name":"Minerkid2004","steam_id":76561198044262827,"connected_time":1148000000000,"state":"active","ping":46},{"user_id":25,"name":"Shoggoth","steam_id":76561198117892299,"connected_time":5022000000000,"state":"active","ping":82},{"user_id":96,"name":"U of SC Office of Financial Aid","steam_id":76561198182294378,"connected_time":561000000000,"state":"active","ping":64},{"user_id":101,"name":"Professor Cuthbert Calculus","steam_id":76561198003257461,"connected_time":225000000000,"state":"active","ping":75},{"user_id":89,"name":"Sadodere Grimace","steam_id":76561198008332028,"connected_time":1428000000000,"state":"active","ping":68},{"user_id":83,"name":"supcupman","steam_id":76561198051513866,"connected_time":1530000000000,"state":"active","ping":56},{"user_id":71,"name":"Testicular Torsion","steam_id":76561197968179862,"connected_time":2116000000000,"state":"active","ping":101},{"user_id":84,"name":"BreadGod","steam_id":76561198050665205,"connected_time":1505000000000,"state":"active","ping":46},{"user_id":100,"name":"legalize anabolic steroids","steam_id":76561198342480009,"connected_time":269000000000,"state":"active","ping":56},{"user_id":70,"name":"Dullahan","steam_id":76561198119668908,"connected_time":2162000000000,"state":"active","ping":46},{"user_id":95,"name":"Moneybags'","steam_id":76561198146759413,"connected_time":586000000000,"state":"active","ping":71},{"user_id":49,"name":"moe","steam_id":76561198929586245,"connected_time":4196000000000,"state":"active","ping":61},{"user_id":45,"name":"GreenApples","steam_id":76561198120559543,"connected_time":4357000000000,"state":"active","ping":48},{"user_id":99,"name":"zuna","steam_id":76561199038981515,"connected_time":338000000000,"state":"active","ping":60},{"user_id":103,"name":"Professor Sex","steam_id":76561198396414319,"connected_time":12000000000,"state":"spawning","ping":94},{"user_id":88,"name":"Octis","steam_id":76561198118322999,"connected_time":1445000000000,"state":"active","ping":79},{"user_id":97,"name":"Anderswo","steam_id":76561198253224241,"connected_time":549000000000,"state":"active","ping":74}]},{"server_id":19,"name":"Uncletopia | San Francisco | 3 | Stopwatch Beta","name_short":"sfo-3","host":"sfo-1.us.uncletopia.com","port":27035,"enabled":true,"region":"us-west","cc":"us","latitude":37.77397,"longitude":-122.4313,"reserved":0,"last_update":"0001-01-01T00:00:00Z","name_a2s":"Uncletopia | San Francisco | 3 | Stopwatch Beta","protocol":17,"map":"workshop/koth_clearcut_b15.ugc2107050255","folder":"tf","game":"Team Fortress","app_id":440,"player_count":1,"max_players":24,"Bots":0,"server_type":"Dedicated","server_os":"Linux","password":true,"vac":true,"version":"7757534","steam_id":85568392924742824,"keywords":["cp","nocrits","nodmgspread","uncletopia"],"game_id":440,"stv_port":27036,"stv_name":"Uncletopia | San Francisco | 3 | Stopwatch Beta | STV","players":[{"user_id":261,"name":"girr","steam_id":76561198995114110,"connected_time":3531000000000,"state":"active","ping":69}]},{"server_id":20,"name":"Uncletopia | San Francisco | 4 | Community","name_short":"sfo-4","host":"sfo-1.us.uncletopia.com","port":27045,"enabled":true,"region":"us-west","cc":"us","latitude":37.77397,"longitude":-122.4313,"reserved":0,"last_update":"0001-01-01T00:00:00Z","name_a2s":"Uncletopia | San Francisco | 4 | Community","protocol":17,"map":"workshop/koth_ashville_final.ugc2130459942","folder":"tf","game":"Team Fortress","app_id":440,"player_count":16,"max_players":24,"Bots":0,"server_type":"Dedicated","server_os":"Linux","password":true,"vac":true,"version":"7757534","steam_id":85568392924742826,"keywords":["cp","nocrits","nodmgspread","uncletopia"],"game_id":440,"stv_port":27046,"stv_name":"Uncletopia | San Francisco | 4 | Community | STV","players":[{"user_id":9,"name":"Windows1800s","steam_id":76561198145093014,"connected_time":3457000000000,"state":"active","ping":50},{"user_id":10,"name":"S@ndvich","steam_id":76561198179706757,"connected_time":3448000000000,"state":"active","ping":64},{"user_id":11,"name":"Syndicayte","steam_id":76561198809159075,"connected_time":3433000000000,"state":"active","ping":55},{"user_id":12,"name":"Andreshatesmondays","steam_id":76561198889349797,"connected_time":3398000000000,"state":"active","ping":70},{"user_id":13,"name":"Spayor214","steam_id":76561199038610006,"connected_time":3393000000000,"state":"active","ping":71},{"user_id":58,"name":"Doinnoid","steam_id":76561198262276139,"connected_time":11000000000,"state":"spawning","ping":157},{"user_id":15,"name":"Milk","steam_id":76561198280146264,"connected_time":3362000000000,"state":"active","ping":58},{"user_id":43,"name":"KingSteve42","steam_id":76561198409455888,"connected_time":1430000000000,"state":"active","ping":101},{"user_id":18,"name":"Measured Moth","steam_id":76561198043220089,"connected_time":3171000000000,"state":"active","ping":57},{"user_id":53,"name":"Scythe","steam_id":76561198375431704,"connected_time":645000000000,"state":"active","ping":83},{"user_id":48,"name":"Bonniefan712","steam_id":76561199289809788,"connected_time":695000000000,"state":"active","ping":68},{"user_id":49,"name":"kdfchse","steam_id":76561198200890901,"connected_time":688000000000,"state":"active","ping":64},{"user_id":56,"name":"LENNIALL","steam_id":76561197991333210,"connected_time":220000000000,"state":"active","ping":56},{"user_id":24,"name":"Cheeki-Breekinator","steam_id":76561198040120806,"connected_time":2695000000000,"state":"active","ping":59},{"user_id":55,"name":"Pyro","steam_id":76561198381128960,"connected_time":600000000000,"state":"active","ping":84},{"user_id":39,"name":"Cute Gatito","steam_id":76561198351147780,"connected_time":1806000000000,"state":"active","ping":57}]},{"server_id":141,"name":"Uncletopia | Sydney | 1 | All Maps","name_short":"syd-1","host":"syd-1.au.uncletopia.com","port":27015,"enabled":true,"region":"au","cc":"au","latitude":-33.865143,"longitude":151.2099,"reserved":0,"last_update":"0001-01-01T00:00:00Z","name_a2s":"Uncletopia | Sydney | 1 | All Maps","protocol":17,"map":"pl_upward","folder":"tf","game":"Team Fortress","app_id":440,"player_count":23,"max_players":24,"Bots":0,"server_type":"Dedicated","server_os":"Linux","password":true,"vac":true,"version":"7757534","steam_id":85568392924470001,"keywords":["nocrits","nodmgspread","payload","uncletopia"],"game_id":440,"stv_port":27016,"stv_name":"Uncletopia | Sydney | 1 | All Maps | STV","players":[{"user_id":240,"name":"Jazbae","steam_id":76561198350910486,"connected_time":5652000000000,"state":"active","ping":69},{"user_id":229,"name":"shirt without the r","steam_id":76561199071810220,"connected_time":6072000000000,"state":"active","ping":88},{"user_id":310,"name":"Owlenstein‚Ñ¢","steam_id":76561198093983826,"connected_time":38000000000,"state":"active","ping":119},{"user_id":307,"name":"BOT Gary","steam_id":76561198376950841,"connected_time":101000000000,"state":"active","ping":56},{"user_id":284,"name":"Thrilled","steam_id":76561198146607797,"connected_time":2968000000000,"state":"active","ping":58},{"user_id":296,"name":"Moist","steam_id":76561198110566656,"connected_time":1567000000000,"state":"active","ping":54},{"user_id":301,"name":"Erl","steam_id":76561198041082043,"connected_time":1083000000000,"state":"active","ping":102},{"user_id":305,"name":"AzureFox","steam_id":76561198108179408,"connected_time":324000000000,"state":"active","ping":98},{"user_id":256,"name":"KnowZero","steam_id":76561198095752015,"connected_time":4678000000000,"state":"active","ping":60},{"user_id":287,"name":"J_dub","steam_id":76561198079513685,"connected_time":2746000000000,"state":"active","ping":71},{"user_id":308,"name":"anoxylitol","steam_id":76561198282322351,"connected_time":78000000000,"state":"active","ping":45},{"user_id":306,"name":"drunkspy22","steam_id":76561198042198744,"connected_time":115000000000,"state":"active","ping":45},{"user_id":222,"name":"pants money","steam_id":76561198066256359,"connected_time":6270000000000,"state":"active","ping":56},{"user_id":309,"name":"samm","steam_id":76561198190525662,"connected_time":68000000000,"state":"active","ping":60},{"user_id":302,"name":"Jambi","steam_id":76561198310550094,"connected_time":1064000000000,"state":"active","ping":53},{"user_id":269,"name":"snooty123","steam_id":76561199055258276,"connected_time":4173000000000,"state":"active","ping":53},{"user_id":303,"name":"DKC","steam_id":76561198313578155,"connected_time":1019000000000,"state":"active","ping":44},{"user_id":244,"name":"Dingy","steam_id":76561198157009320,"connected_time":5455000000000,"state":"active","ping":62},{"user_id":304,"name":"Fuzz","steam_id":76561198063077180,"connected_time":503000000000,"state":"active","ping":49},{"user_id":291,"name":"Lincoln2603","steam_id":76561198170236666,"connected_time":2247000000000,"state":"active","ping":50},{"user_id":286,"name":"Jerry be packin","steam_id":76561199229962568,"connected_time":2775000000000,"state":"active","ping":69},{"user_id":293,"name":"cimpact","steam_id":76561198452258917,"connected_time":2168000000000,"state":"active","ping":100},{"user_id":295,"name":"Lancer","steam_id":76561198122813810,"connected_time":1797000000000,"state":"active","ping":91}]},{"server_id":123,"name":"Uncletopia | Sydney | 2 | All Maps","name_short":"syd-2","host":"syd-1.au.uncletopia.com","port":27025,"enabled":true,"region":"au","cc":"au","latitude":-33.865143,"longitude":151.2099,"reserved":0,"last_update":"0001-01-01T00:00:00Z","name_a2s":"Uncletopia | Sydney | 2 | All Maps","protocol":17,"map":"cp_snakewater_final1","folder":"tf","game":"Team Fortress","app_id":440,"player_count":0,"max_players":24,"Bots":0,"server_type":"Dedicated","server_os":"Linux","password":true,"vac":true,"version":"7757534","steam_id":85568392924470002,"keywords":["cp","nocrits","nodmgspread","uncletopia"],"game_id":440,"stv_port":27026,"stv_name":"Uncletopia | Sydney | 2 | All Maps | STV","players":null},{"server_id":395,"name":"Uncletopia | Sydney | 3 | All Maps","name_short":"syd-3","host":"syd-1.au.uncletopia.com","port":27035,"enabled":true,"region":"au","cc":"au","latitude":-33.865143,"longitude":151.2099,"reserved":0,"last_update":"0001-01-01T00:00:00Z","name_a2s":"Uncletopia | Sydney | 3 | All Maps","protocol":17,"map":"pl_pier","folder":"tf","game":"Team Fortress","app_id":440,"player_count":0,"max_players":24,"Bots":0,"server_type":"Dedicated","server_os":"Linux","password":true,"vac":true,"version":"7757534","steam_id":85568392925194467,"keywords":["nocrits","nodmgspread","payload","uncletopia"],"game_id":440,"stv_port":27036,"stv_name":"Uncletopia | Sydney | 3 | All Maps | STV","players":null},{"server_id":396,"name":"Uncletopia | Sydney | 4 | All Maps","name_short":"syd-4","host":"syd-1.au.uncletopia.com","port":27045,"enabled":true,"region":"au","cc":"au","latitude":-33.865143,"longitude":151.2099,"reserved":0,"last_update":"0001-01-01T00:00:00Z","name_a2s":"Uncletopia | Sydney | 4 | All Maps","protocol":17,"map":"cp_snakewater_final1","folder":"tf","game":"Team Fortress","app_id":440,"player_count":0,"max_players":24,"Bots":0,"server_type":"Dedicated","server_os":"Linux","password":true,"vac":true,"version":"7757534","steam_id":85568392925397958,"keywords":["cp","nocrits","nodmgspread","uncletopia"],"game_id":440,"stv_port":27046,"stv_name":"Uncletopia | Sydney | 4 | All Maps | STV","players":null},{"server_id":58,"name":"Uncletopia | Sydney | 5 | Stopwatch Beta","name_short":"syd-5","host":"syd-1.au.uncletopia.com","port":27055,"enabled":true,"region":"au","cc":"au","latitude":-33.865143,"longitude":151.2099,"reserved":0,"last_update":"0001-01-01T00:00:00Z","name_a2s":"Uncletopia | Sydney | 5 | Stopwatch Beta","protocol":17,"map":"pl_barnblitz","folder":"tf","game":"Team Fortress","app_id":440,"player_count":0,"max_players":24,"Bots":0,"server_type":"Dedicated","server_os":"Linux","password":true,"vac":true,"version":"7757534","steam_id":85568392925397959,"keywords":["nocrits","nodmgspread","payload","uncletopia"],"game_id":440,"stv_port":27056,"stv_name":"Uncletopia | Sydney | 5 | Stopwatch Beta | STV","players":null},{"server_id":59,"name":"Uncletopia | Sydney | 6 | Community","name_short":"syd-6","host":"syd-1.au.uncletopia.com","port":27065,"enabled":true,"region":"au","cc":"au","latitude":-33.865143,"longitude":151.2099,"reserved":0,"last_update":"0001-01-01T00:00:00Z","name_a2s":"Uncletopia | Sydney | 6 | Community","protocol":17,"map":"workshop/pl_vigil_rc9.ugc1266210012","folder":"tf","game":"Team Fortress","app_id":440,"player_count":0,"max_players":24,"Bots":0,"server_type":"Dedicated","server_os":"Linux","password":true,"vac":true,"version":"7757534","steam_id":85568392925397960,"keywords":["nocrits","nodmgspread","payload","uncletopia"],"game_id":440,"stv_port":27066,"stv_name":"Uncletopia | Sydney | 6 | Community | STV","players":null},{"server_id":49,"name":"Uncletopia | Warsaw | 1 | All Maps","name_short":"waw-1","host":"waw-1.pl.uncletopia.com","port":27015,"enabled":true,"region":"eu","cc":"pl","latitude":52.2297,"longitude":21.017532,"reserved":0,"last_update":"0001-01-01T00:00:00Z","name_a2s":"","protocol":0,"map":"","folder":"","game":"","app_id":0,"player_count":0,"max_players":0,"Bots":0,"server_type":"","server_os":"","password":false,"vac":false,"version":"","steam_id":0,"keywords":null,"game_id":0,"stv_port":0,"stv_name":"","players":null},{"server_id":50,"name":"Uncletopia | Warsaw | 2 | All Maps","name_short":"waw-2","host":"waw-1.pl.uncletopia.com","port":27025,"enabled":true,"region":"eu","cc":"pl","latitude":52.2297,"longitude":21.017532,"reserved":0,"last_update":"0001-01-01T00:00:00Z","name_a2s":"Uncletopia | Warsaw | 2 | All Maps","protocol":17,"map":"cp_snakewater_final1","folder":"tf","game":"Team Fortress","app_id":440,"player_count":0,"max_players":24,"Bots":0,"server_type":"Dedicated","server_os":"Linux","password":true,"vac":true,"version":"7757534","steam_id":85568392925397851,"keywords":["cp","nocrits","nodmgspread","uncletopia"],"game_id":440,"stv_port":27026,"stv_name":"Uncletopia | Warsaw | 2 | All Maps | STV","players":null},{"server_id":51,"name":"Uncletopia | Warsaw | 3 | All Maps","name_short":"waw-3","host":"waw-1.pl.uncletopia.com","port":27035,"enabled":true,"region":"eu","cc":"pl","latitude":52.2297,"longitude":21.017532,"reserved":0,"last_update":"0001-01-01T00:00:00Z","name_a2s":"Uncletopia | Warsaw | 3 | All Maps","protocol":17,"map":"cp_sunshine","folder":"tf","game":"Team Fortress","app_id":440,"player_count":0,"max_players":24,"Bots":0,"server_type":"Dedicated","server_os":"Linux","password":true,"vac":true,"version":"7757534","steam_id":85568392925397852,"keywords":["cp","nocrits","nodmgspread","uncletopia"],"game_id":440,"stv_port":27036,"stv_name":"Uncletopia | Warsaw | 3 | All Maps | STV","players":null},{"server_id":52,"name":"Uncletopia | Warsaw | 4 | All Maps","name_short":"waw-4","host":"waw-1.pl.uncletopia.com","port":27045,"enabled":true,"region":"eu","cc":"pl","latitude":52.2297,"longitude":21.017532,"reserved":0,"last_update":"0001-01-01T00:00:00Z","name_a2s":"Uncletopia | Warsaw | 4 | All Maps","protocol":17,"map":"pl_borneo","folder":"tf","game":"Team Fortress","app_id":440,"player_count":0,"max_players":24,"Bots":0,"server_type":"Dedicated","server_os":"Linux","password":true,"vac":true,"version":"7757534","steam_id":85568392925397853,"keywords":["nocrits","nodmgspread","payload","uncletopia"],"game_id":440,"stv_port":27046,"stv_name":"Uncletopia | Warsaw | 4 | All Maps | STV","players":null},{"server_id":53,"name":"Uncletopia | Warsaw | 5 | Stopwatch Beta","name_short":"waw-5","host":"waw-1.pl.uncletopia.com","port":27055,"enabled":true,"region":"eu","cc":"pl","latitude":52.2297,"longitude":21.017532,"reserved":0,"last_update":"0001-01-01T00:00:00Z","name_a2s":"Uncletopia | Warsaw | 5 | Stopwatch Beta","protocol":17,"map":"pl_upward","folder":"tf","game":"Team Fortress","app_id":440,"player_count":0,"max_players":24,"Bots":0,"server_type":"Dedicated","server_os":"Linux","password":true,"vac":true,"version":"7757534","steam_id":85568392925397854,"keywords":["nocrits","nodmgspread","payload","uncletopia"],"game_id":440,"stv_port":27056,"stv_name":"Uncletopia | Warsaw | 5 | Stopwatch Beta | STV","players":null},{"server_id":54,"name":"Uncletopia | Warsaw | 6 | Community","name_short":"waw-6","host":"waw-1.pl.uncletopia.com","port":27065,"enabled":true,"region":"eu","cc":"pl","latitude":52.2297,"longitude":21.017532,"reserved":0,"last_update":"0001-01-01T00:00:00Z","name_a2s":"Uncletopia | Warsaw | 6 | Community","protocol":17,"map":"pl_barnblitz","folder":"tf","game":"Team Fortress","app_id":440,"player_count":0,"max_players":24,"Bots":0,"server_type":"Dedicated","server_os":"Linux","password":true,"vac":true,"version":"7757534","steam_id":85568392925397856,"keywords":["nocrits","nodmgspread","payload","uncletopia"],"game_id":440,"stv_port":27066,"stv_name":"Uncletopia | Warsaw | 6 | Community | STV","players":null}]}