{"status":true,"message":"","result":[{"server_id":9,"name":"Uncletopia | Atlanta | 1 | All Maps","name_short":"atl-1","host":"atl-1.us.uncletopia.com","port":27015,"enabled":true,"region":"us-east","cc":"us","latitude":33.753746,"longitude":-84.38633,"reserved":0,"last_update":"0001-01-01T00:00:00Z","name_a2s":"Uncletopia | Atlanta | 1 | All Maps","protocol":17,"map":"pl_pier","folder":"tf","game":"Team Fortress","app_id":440,"player_count":24,"max_players":24,"Bots":0,"server_type":"Dedicated","server_os":"Linux","password":true,"vac":true,"version":"7757534","steam_id":85568392924469982,"keywords":["nocrits","nodmgspread","payload","uncletopia"],"game_id":440,"stv_port":27016,"stv_name":"Uncletopia | Atlanta | 1 | All Maps | STV","players":[{"user_id":507,"name":"ATL1 | on my hunting trip","steam_id":76561198315341646,"connected_time":7232000000000,"state":"active","ping":72},{"user_id":580,"name":"the beforeman","steam_id":76561198138109149,"connected_time":1342000000000,"state":"active","ping":78},{"user_id":524,"name":"eish","steam_id":76561198089463603,"connected_time":4834000000000,"state":"active","ping":118},{"user_id":588,"name":"Cielchi","steam_id":76561198020696265,"connected_time":852000000000,"state":"active","ping":80},{"user_id":589,"name":"Fargo","steam_id":76561198044703931,"connected_time":449000000000,"state":"active","ping":78},{"user_id":551,"name":"Lynx181","steam_id":76561198090949585,"connected_time":3001000000000,"state":"active","ping":64},{"user_id":552,"name":"esc frame","steam_id":76561198044856349,"connected_time":2412000000000,"state":"active","ping":71},{"user_id":590,"name":"non binary milk","steam_id":76561198155434598,"connected_time":427000000000,"state":"active","ping":62},{"user_id":508,"name":"lil hog","steam_id":76561199230929836,"connected_time":7222000000000,"state":"active","ping":76},{"user_id":553,"name":"Scrux","steam_id":76561198129763115,"connected_time":2405000000000,"state":"active","ping":114},{"user_id":581,"name":"mechiimi ★","steam_id":76561198321627268,"connected_time":1322000000000,"state":"active","ping":141},{"user_id":591,"name":"girl smell","steam_id":76561198118962168,"connected_time":422000000000,"state":"active","ping":103},{"user_id":477,"name":"xFactr","steam_id":76561198129007422,"connected_time":9154000000000,"state":"active","ping":59},{"user_id":592,"name":"YellowShade","steam_id":76561198200828527,"connected_time":327000000000,"state":"active","ping":78},{"user_id":584,"name":"shroomie","steam_id":76561199112434308,"connected_time":1116000000000,"state":"active","ping":104},{"user_id":593,"name":"Saikyo","steam_id":76561198212461467,"connected_time":193000000000,"state":"active","ping":80},{"user_id":466,"name":"BIG HOG","steam_id":76561198079923652,"connected_time":9865000000000,"state":"active","ping":68},{"user_id":596,"name":"nnobi","steam_id":76561198878729277,"connected_time":179000000000,"state":"active","ping":62},{"user_id":594,"name":"Kennyboy149","steam_id":76561198048024644,"connected_time":186000000000,"state":"active","ping":105},{"user_id":585,"name":"shaderoses","steam_id":76561198070800500,"connected_time":1078000000000,"state":"active","ping":67},{"user_id":564,"name":"Nathaniel","steam_id":76561198151317895,"connected_time":2143000000000,"state":"active","ping":64},{"user_id":597,"name":"The Horselords and Animal Gods","steam_id":76561197975094050,"connected_time":48000000000,"state":"active","ping":108},{"user_id":598,"name":"picK","steam_id":76561197983908169,"connected_time":8000000000,"state":"spawning","ping":72},{"user_id":567,"name":"Queen Ishtar","steam_id":76561198035614233,"connected_time":1763000000000,"state":"active","ping":102}]},{"server_id":104,"name":"Uncletopia | Atlanta | 2 | All Maps","name_short":"atl-2","host":"atl-1.us.uncletopia.com","port":27025,"enabled":true,"region":"us-east","cc":"us","latitude":33.753746,"longitude":-84.38633,"reserved":0,"last_update":"0001-01-01T00:00:00Z","name_a2s":"Uncletopia | Atlanta | 2 | All Maps","protocol":17,"map":"cp_5gorge","folder":"tf","game":"Team Fortress","app_id":440,"player_count":24,"max_players":24,"Bots":0,"server_type":"Dedicated","server_os":"Linux","password":true,"vac":true,"version":"7757534","steam_id":85568392924469983,"keywords":["cp","nocrits","nodmgspread","uncletopia"],"game_id":440,"stv_port":27026,"stv_name":"Uncletopia | Atlanta | 2 | All Maps | STV","players":[{"user_id":369,"name":"EGirl Night","steam_id":76561198029116877,"connected_time":1000000000000,"state":"active","ping":74},{"user_id":370,"name":"RaixaR","steam_id":76561198025289430,"connected_time":981000000000,"state":"active","ping":79},{"user_id":361,"name":"kitsu ♥","steam_id":76561198091741658,"connected_time":1337000000000,"state":"active","ping":85},{"user_id":333,"name":"shoe","steam_id":76561198070615198,"connected_time":3644000000000,"state":"active","ping":48},{"user_id":376,"name":"Chuck Finley","steam_id":76561198027411284,"connected_time":320000000000,"state":"active","ping":78},{"user_id":374,"name":"UnkownGamerLOL","steam_id":76561198225902368,"connected_time":569000000000,"state":"active","ping":101},{"user_id":371,"name":"LtK","steam_id":76561197993180943,"connected_time":949000000000,"state":"active","ping":59},{"user_id":339,"name":"The Deders","steam_id":76561198002639950,"connected_time":3427000000000,"state":"active","ping":82},{"user_id":372,"name":"Jimjohn","steam_id":76561198018654088,"connected_time":899000000000,"state":"active","ping":99},{"user_id":320,"name":"Dr. Strangelove","steam_id":76561198014593467,"connected_time":4187000000000,"state":"active","ping":39},{"user_id":340,"name":"ovenfresh01","steam_id":76561199086062124,"connected_time":3418000000000,"state":"active","ping":88},{"user_id":341,"name":"Ryuujin","steam_id":76561198000897946,"connected_time":3416000000000,"state":"active","ping":119},{"user_id":362,"name":"illbitful","steam_id":76561198950257623,"connected_time":1320000000000,"state":"active","ping":48},{"user_id":375,"name":"POGTRONAS","steam_id":76561198061214216,"connected_time":480000000000,"state":"active","ping":123},{"user_id":351,"name":"alitas con papas","steam_id":76561198216192731,"connected_time":2744000000000,"state":"active","ping":48},{"user_id":378,"name":"Nichin","steam_id":76561198050492741,"connected_time":81000000000,"state":"active","ping":101},{"user_id":346,"name":"Bobbycoolpop","steam_id":76561198186392674,"connected_time":3255000000000,"state":"active","ping":93},{"user_id":313,"name":"kametro4","steam_id":76561198835430429,"connected_time":4499000000000,"state":"active","ping":101},{"user_id":379,"name":"CF-TF2","steam_id":76561198145893044,"connected_time":73000000000,"state":"active","ping":87},{"user_id":347,"name":"EliminateSingleFamilyZoning","steam_id":76561198276653985,"connected_time":3169000000000,"state":"active","ping":74},{"user_id":291,"name":"Soul_Intern","steam_id":76561198310238109,"connected_time":6119000000000,"state":"active","ping":91},{"user_id":368,"name":"TTV/ArcticFlesh","steam_id":76561198099678868,"connected_time":1095000000000,"state":"active","ping":51},{"user_id":352,"name":"bugzzy","steam_id":76561198363566256,"connected_time":2727000000000,"state":"active","ping":58},{"user_id":357,"name":"Jaundy The Fool","steam_id":76561198105645979,"connected_time":1884000000000,"state":"active","ping":129}]},{"server_id":400,"name":"Uncletopia | Atlanta | 3 | Community","name_short":"atl-3","host":"atl-1.us.uncletopia.com","port":27035,"enabled":true,"region":"us-east","cc":"us","latitude":33.753746,"longitude":-84.38633,"reserved":0,"last_update":"0001-01-01T00:00:00Z","name_a2s":"Uncletopia | Atlanta | 3 | Community","protocol":17,"map":"workshop/pl_cashworks_final1.ugc2904065412","folder":"tf","game":"Team Fortress","app_id":440,"player_count":0,"max_players":24,"Bots":0,"server_type":"Dedicated","server_os":"Linux","password":true,"vac":true,"version":"7757534","steam_id":85568392924515187,"keywords":["nocrits","nodmgspread","payload","uncletopia"],"game_id":440,"stv_port":27036,"stv_name":"Uncletopia | Atlanta | 3 | Community | STV","players":null},{"server_id":401,"name":"Uncletopia | Atlanta | 4 | No Payload","name_short":"atl-4","host":"atl-1.us.uncletopia.com","port":27045,"enabled":true,"region":"us-east","cc":"us","latitude":33.753746,"longitude":-84.38633,"reserved":0,"last_update":"0001-01-01T00:00:00Z","name_a2s":"","protocol":0,"map":"","folder":"","game":"","app_id":0,"player_count":0,"max_players":0,"Bots":0,"server_type":"","server_os":"","password":false,"vac":false,"version":"","steam_id":0,"keywords":null,"game_id":0,"stv_port":0,"stv_name":"","players":null},{"server_id":2,"name":"Uncletopia | Chicago | 1 | All Maps","name_short":"chi-1","host":"chi-1.us.uncletopia.com","port":27015,"enabled":true,"region":"us-central","cc":"us","latitude":41.881832,"longitude":-87.62318,"reserved":0,"last_update":"0001-01-01T00:00:00Z","name_a2s":"Uncletopia | Chicago | 1 | All Maps","protocol":17,"map":"pl_pier","folder":"tf","game":"Team Fortress","app_id":440,"player_count":22,"max_players":24,"Bots":0,"server_type":"Dedicated","server_os":"Linux","password":true,"vac":true,"version":"7757534","steam_id":85568392924469984,"keywords":["nocrits","nodmgspread","payload","uncletopia"],"game_id":440,"stv_port":27016,"stv_name":"Uncletopia | Chicago | 1 | All Maps | STV","players":[{"user_id":855,"name":"smugdoug","steam_id":76561198021381678,"connected_time":1928000000000,"state":"active","ping":63},{"user_id":886,"name":"frog","steam_id":76561199015813445,"connected_time":418000000000,"state":"active","ping":86},{"user_id":825,"name":"dash23™","steam_id":76561198314951185,"connected_time":5319000000000,"state":"active","ping":104},{"user_id":858,"name":"Voraxic","steam_id":76561198148266239,"connected_time":1871000000000,"state":"active","ping":33},{"user_id":877,"name":"PineappleSalesman","steam_id":76561198881039861,"connected_time":1036000000000,"state":"active","ping":45},{"user_id":887,"name":"Sec Innamon","steam_id":76561198355262923,"connected_time":387000000000,"state":"active","ping":163},{"user_id":894,"name":"seductive smell of oreos","steam_id":76561198032791567,"connected_time":62000000000,"state":"active","ping":90},{"user_id":888,"name":"doctor large","steam_id":76561199195836752,"connected_time":383000000000,"state":"active","ping":63},{"user_id":880,"name":"shanghai","steam_id":76561197997961542,"connected_time":727000000000,"state":"active","ping":62},{"user_id":863,"name":"banana man","steam_id":76561198024767001,"connected_time":1706000000000,"state":"active","ping":89},{"user_id":889,"name":"Team Fartpiss Poo","steam_id":76561199163591880,"connected_time":348000000000,"state":"active","ping":105},{"user_id":864,"name":"MrDarkc","steam_id":76561199233053848,"connected_time":1661000000000,"state":"active","ping":89},{"user_id":840,"name":"Female Gamer","steam_id":76561199366482682,"connected_time":3654000000000,"state":"active","ping":105},{"user_id":883,"name":"TacoKaiju","steam_id":76561198374190188,"connected_time":500000000000,"state":"active","ping":97},{"user_id":890,"name":"majormace64","steam_id":76561198045078098,"connected_time":346000000000,"state":"active","ping":91},{"user_id":891,"name":"Yoinky Shploinky","steam_id":76561198331980757,"connected_time":337000000000,"state":"active","ping":75},{"user_id":867,"name":"420 Shrek It","steam_id":76561198399854981,"connected_time":1543000000000,"state":"active","ping":113},{"user_id":893,"name":"Kasimir","steam_id":76561198013840333,"connected_time":221000000000,"state":"active","ping":86},{"user_id":869,"name":"Twail","steam_id":76561198083019871,"connected_time":1507000000000,"state":"active","ping":69},{"user_id":882,"name":"TheDieeg","steam_id":76561199443116996,"connected_time":699000000000,"state":"active","ping":93},{"user_id":848,"name":"Kritzburgh","steam_id":76561198149466938,"connected_time":2824000000000,"state":"active","ping":64},{"user_id":873,"name":"-HsG- DesolatedRow","steam_id":76561198041156679,"connected_time":1431000000000,"state":"active","ping":105}]},{"server_id":106,"name":"Uncletopia | Chicago | 2 | All Maps","name_short":"chi-2","host":"chi-1.us.uncletopia.com","port":27025,"enabled":true,"region":"us-central","cc":"us","latitude":41.881832,"longitude":-87.62318,"reserved":0,"last_update":"0001-01-01T00:00:00Z","name_a2s":"Uncletopia | Chicago | 2 | All Maps","protocol":17,"map":"pl_upward","folder":"tf","game":"Team Fortress","app_id":440,"player_count":24,"max_players":24,"Bots":0,"server_type":"Dedicated","server_os":"Linux","password":true,"vac":true,"version":"7757534","steam_id":85568392924469985,"keywords":["nocrits","nodmgspread","payload","uncletopia"],"game_id":440,"stv_port":27026,"stv_name":"Uncletopia | Chicago | 2 | All Maps | STV","players":[{"user_id":806,"name":"Sam Gaming","steam_id":76561198870902116,"connected_time":1770000000000,"state":"active","ping":55},{"user_id":784,"name":"daemon","steam_id":76561198001541433,"connected_time":2767000000000,"state":"active","ping":46},{"user_id":820,"name":"Maj","steam_id":76561198154203415,"connected_time":467000000000,"state":"active","ping":72},{"user_id":821,"name":"Pho","steam_id":76561198306515742,"connected_time":466000000000,"state":"active","ping":101},{"user_id":797,"name":"severe peanut allergy","steam_id":76561198128363064,"connected_time":2180000000000,"state":"active","ping":59},{"user_id":822,"name":"*****setget","steam_id":76561198118824188,"connected_time":451000000000,"state":"active","ping":113},{"user_id":710,"name":"kivee","steam_id":76561198838223023,"connected_time":9848000000000,"state":"active","ping":52},{"user_id":813,"name":"BLACKout","steam_id":76561198002194086,"connected_time":1013000000000,"state":"active","ping":105},{"user_id":818,"name":"Provocator","steam_id":76561197961830410,"connected_time":673000000000,"state":"active","ping":76},{"user_id":801,"name":"RedneckPhoenix","steam_id":76561198172922366,"connected_time":2034000000000,"state":"active","ping":46},{"user_id":809,"name":"Thequirka","steam_id":76561198968058652,"connected_time":1439000000000,"state":"active","ping":96},{"user_id":823,"name":"BrickSturdy53","steam_id":76561198169930529,"connected_time":436000000000,"state":"active","ping":73},{"user_id":817,"name":"sairen","steam_id":76561198046895439,"connected_time":906000000000,"state":"active","ping":54},{"user_id":824,"name":"rice white","steam_id":76561198320732910,"connected_time":396000000000,"state":"active","ping":75},{"user_id":828,"name":"25 or 6 to 4","steam_id":76561198156761672,"connected_time":106000000000,"state":"active","ping":72},{"user_id":825,"name":"Bosnian Knight","steam_id":76561198158027614,"connected_time":394000000000,"state":"active","ping":63},{"user_id":794,"name":"broon","steam_id":76561198104908870,"connected_time":2410000000000,"state":"active","ping":76},{"user_id":772,"name":"Gumthrax™","steam_id":76561198047286282,"connected_time":3581000000000,"state":"active","ping":51},{"user_id":785,"name":"C papi","steam_id":76561198027779564,"connected_time":2756000000000,"state":"active","ping":55},{"user_id":829,"name":"redhunter","steam_id":76561199385065567,"connected_time":12000000000,"state":"spawning","ping":403},{"user_id":786,"name":"AaaAAAHhhHh","steam_id":76561198253134732,"connected_time":2750000000000,"state":"active","ping":106},{"user_id":826,"name":"A Shiny Meat Bicycle","steam_id":76561198358757709,"connected_time":393000000000,"state":"active","ping":96},{"user_id":788,"name":"mobe","steam_id":76561198121633820,"connected_time":2733000000000,"state":"active","ping":109},{"user_id":811,"name":"Stargazer","steam_id":76561198075490415,"connected_time":1262000000000,"state":"active","ping":69}]},{"server_id":402,"name":"Uncletopia | Chicago | 3 | All Maps","name_short":"chi-3","host":"chi-1.us.uncletopia.com","port":27035,"enabled":true,"region":"us-central","cc":"us","latitude":41.881832,"longitude":-87.62318,"reserved":0,"last_update":"0001-01-01T00:00:00Z","name_a2s":"Uncletopia | Chicago | 3 | All Maps","protocol":17,"map":"pl_upward","folder":"tf","game":"Team Fortress","app_id":440,"player_count":0,"max_players":24,"Bots":0,"server_type":"Dedicated","server_os":"Linux","password":true,"vac":true,"version":"7757534","steam_id":85568392924515191,"keywords":["nocrits","nodmgspread","payload","uncletopia"],"game_id":440,"stv_port":27036,"stv_name":"Uncletopia | Chicago | 3 | All Maps | STV","players":null},{"server_id":403,"name":"Uncletopia | Chicago | 4 | All Maps","name_short":"chi-4","host":"chi-1.us.uncletopia.com","port":27045,"enabled":true,"region":"us-central","cc":"us","latitude":41.881832,"longitude":-87.62318,"reserved":0,"last_update":"0001-01-01T00:00:00Z","name_a2s":"Uncletopia | Chicago | 4 | All Maps","protocol":17,"map":"cp_sunshine","folder":"tf","game":"Team Fortress","app_id":440,"player_count":15,"max_players":24,"Bots":0,"server_type":"Dedicated","server_os":"Linux","password":true,"vac":true,"version":"7757534","steam_id":85568392924515193,"keywords":["cp","nocrits","nodmgspread","uncletopia"],"game_id":440,"stv_port":27046,"stv_name":"Uncletopia | Chicago | 4 | All Maps | STV","players":[{"user_id":839,"name":"meowp #handsfree","steam_id":76561198328824242,"connected_time":106000000000,"state":"active","ping":148},{"user_id":813,"name":"GPG peni","steam_id":76561198056158882,"connected_time":1794000000000,"state":"active","ping":75},{"user_id":824,"name":"GOD EMPEROR","steam_id":76561198089852954,"connected_time":864000000000,"state":"active","ping":75},{"user_id":838,"name":"Spy","steam_id":76561198089986447,"connected_time":391000000000,"state":"active","ping":62},{"user_id":811,"name":"connie kins","steam_id":76561198074701151,"connected_time":1969000000000,"state":"active","ping":100},{"user_id":841,"name":"Rock Kickass","steam_id":76561198450510841,"connected_time":62000000000,"state":"active","ping":117},{"user_id":832,"name":"lucil3 on Bandcamp","steam_id":76561198149063013,"connected_time":520000000000,"state":"active","ping":60},{"user_id":828,"name":"nyxia- .*:･ﾟ✧","steam_id":76561198174415170,"connected_time":651000000000,"state":"active","ping":57},{"user_id":842,"name":"roadrunner","steam_id":76561198237140468,"connected_time":25000000000,"state":"active","ping":90},{"user_id":829,"name":"TÖZI","steam_id":76561198045268695,"connected_time":637000000000,"state":"active","ping":58},{"user_id":794,"name":"Switch","steam_id":76561197982035284,"connected_time":3617000000000,"state":"active","ping":88},{"user_id":806,"name":"Ghost","steam_id":76561198110914180,"connected_time":2488000000000,"state":"active","ping":184},{"user_id":833,"name":"ItsSmushie","steam_id":76561198183600129,"connected_time":514000000000,"state":"active","ping":100},{"user_id":822,"name":"Gilbert","steam_id":76561198124545020,"connected_time":1215000000000,"state":"active","ping":98},{"user_id":834,"name":"Militant Pacifist","steam_id":76561198290691432,"connected_time":510000000000,"state":"active","ping":80}]},{"server_id":36,"name":"Uncletopia | Chicago | 5 | All Maps","name_short":"chi-5","host":"chi-2.us.uncletopia.com","port":27015,"enabled":true,"region":"us-central","cc":"us","latitude":41.881832,"longitude":-87.62318,"reserved":0,"last_update":"0001-01-01T00:00:00Z","name_a2s":"Uncletopia | Chicago | 5 | All Maps","protocol":17,"map":"koth_highpass","folder":"tf","game":"Team Fortress","app_id":440,"player_count":0,"max_players":24,"Bots":0,"server_type":"Dedicated","server_os":"Linux","password":true,"vac":true,"version":"7757534","steam_id":85568392924866362,"keywords":["cp","nocrits","nodmgspread","uncletopia"],"game_id":440,"stv_port":27016,"stv_name":"Uncletopia | Chicago | 5 | All Maps | STV","players":null},{"server_id":37,"name":"Uncletopia | Chicago | 6 | All Maps","name_short":"chi-6","host":"chi-2.us.uncletopia.com","port":27025,"enabled":true,"region":"us-central","cc":"us","latitude":41.881832,"longitude":-87.62318,"reserved":0,"last_update":"0001-01-01T00:00:00Z","name_a2s":"Uncletopia | Chicago | 6 | All Maps","protocol":17,"map":"cp_process_final","folder":"tf","game":"Team Fortress","app_id":440,"player_count":0,"max_players":24,"Bots":0,"server_type":"Dedicated","server_os":"Linux","password":true,"vac":true,"version":"7757534","steam_id":85568392924866363,"keywords":["cp","nocrits","nodmgspread","uncletopia"],"game_id":440,"stv_port":27026,"stv_name":"Uncletopia | Chicago | 6 | All Maps | STV","players":null},{"server_id":38,"name":"Uncletopia | Chicago | 7 | Stopwatch Beta","name_short":"chi-7","host":"chi-2.us.uncletopia.com","port":27035,"enabled":true,"region":"us-central","cc":"us","latitude":41.881832,"longitude":-87.62318,"reserved":0,"last_update":"0001-01-01T00:00:00Z","name_a2s":"Uncletopia | Chicago | 7 | Stopwatch Beta","protocol":17,"map":"koth_viaduct","folder":"tf","game":"Team Fortress","app_id":440,"player_count":0,"max_players":24,"Bots":0,"server_type":"Dedicated","server_os":"Linux","password":true,"vac":true,"version":"7757534","steam_id":85568392924866364,"keywords":["cp","nocrits","nodmgspread","uncletopia"],"game_id":440,"stv_port":27036,"stv_name":"Uncletopia | Chicago | 7 | Stopwatch Beta | STV","players":null},{"server_id":39,"name":"Uncletopia | Chicago | 8 | Community","name_short":"chi-8","host":"chi-2.us.uncletopia.com","port":27045,"enabled":true,"region":"us-central","cc":"us","latitude":41.881832,"longitude":-87.62318,"reserved":0,"last_update":"0001-01-01T00:00:00Z","name_a2s":"Uncletopia | Chicago | 8 | Community","protocol":17,"map":"workshop/cp_caldera_rc2.ugc2834196889","folder":"tf","game":"Team Fortress","app_id":440,"player_count":0,"max_players":24,"Bots":0,"server_type":"Dedicated","server_os":"Linux","password":true,"vac":true,"version":"7757534","steam_id":85568392924866365,"keywords":["cp","nocrits","nodmgspread","uncletopia"],"game_id":440,"stv_port":27046,"stv_name":"Uncletopia | Chicago | 8 | Community | STV","players":null},{"server_id":8,"name":"Uncletopia | Dallas | 1 | All Maps","name_short":"dal-1","host":"dal-1.us.uncletopia.com","port":27015,"enabled":true,"region":"us-central","cc":"us","latitude":32.779167,"longitude":-96.80889,"reserved":0,"last_update":"0001-01-01T00:00:00Z","name_a2s":"Uncletopia | Dallas | 1 | All Maps","protocol":17,"map":"pl_borneo","folder":"tf","game":"Team Fortress","app_id":440,"player_count":24,"max_players":24,"Bots":0,"server_type":"Dedicated","server_os":"Linux","password":true,"vac":true,"version":"7757534","steam_id":85568392924469986,"keywords":["nocrits","nodmgspread","payload","uncletopia"],"game_id":440,"stv_port":27016,"stv_name":"Uncletopia | Dallas | 1 | All Maps | STV","players":[{"user_id":600,"name":"Pan Pan","steam_id":76561198107214838,"connected_time":1618000000000,"state":"active","ping":45},{"user_id":601,"name":"Hunter Biden's laptop","steam_id":76561199475829930,"connected_time":1616000000000,"state":"active","ping":61},{"user_id":599,"name":"Magnus1738","steam_id":76561198330283667,"connected_time":1725000000000,"state":"active","ping":96},{"user_id":580,"name":"Ñ","steam_id":76561198079416360,"connected_time":3127000000000,"state":"active","ping":44},{"user_id":578,"name":"0","steam_id":76561197961095970,"connected_time":3224000000000,"state":"active","ping":90},{"user_id":525,"name":"Knower","steam_id":76561198036213722,"connected_time":7670000000000,"state":"active","ping":72},{"user_id":602,"name":"Aeri","steam_id":76561197996522919,"connected_time":1557000000000,"state":"active","ping":99},{"user_id":596,"name":"QUEASYWHALE","steam_id":76561199107482851,"connected_time":2371000000000,"state":"active","ping":116},{"user_id":613,"name":"FluttyPutty","steam_id":76561198218446556,"connected_time":1123000000000,"state":"active","ping":68},{"user_id":573,"name":"0r161n4lj0k3","steam_id":76561198127328235,"connected_time":3836000000000,"state":"active","ping":107},{"user_id":585,"name":"snak","steam_id":76561199131462397,"connected_time":2941000000000,"state":"active","ping":95},{"user_id":586,"name":"Dylancyclone","steam_id":76561198000959790,"connected_time":2917000000000,"state":"active","ping":69},{"user_id":587,"name":"GeekyFox3","steam_id":76561198267733290,"connected_time":2910000000000,"state":"active","ping":90},{"user_id":548,"name":"ribbonborn","steam_id":76561198001195423,"connected_time":5902000000000,"state":"active","ping":60},{"user_id":614,"name":"Tommy Pickles (Very Cool)","steam_id":76561198391261463,"connected_time":1009000000000,"state":"active","ping":88},{"user_id":589,"name":"freegibz","steam_id":76561198132192461,"connected_time":2815000000000,"state":"active","ping":66},{"user_id":604,"name":"zapato","steam_id":76561198142278437,"connected_time":1476000000000,"state":"active","ping":100},{"user_id":610,"name":"Zelumie","steam_id":76561198147335801,"connected_time":1280000000000,"state":"active","ping":77},{"user_id":615,"name":"kite man","steam_id":76561198156336213,"connected_time":254000000000,"state":"active","ping":90},{"user_id":594,"name":"Jojo","steam_id":76561198166713255,"connected_time":2459000000000,"state":"active","ping":80},{"user_id":608,"name":"Sinjustin","steam_id":76561198275952982,"connected_time":1397000000000,"state":"active","ping":115},{"user_id":609,"name":"Prof. Eggnog","steam_id":76561198193389166,"connected_time":1378000000000,"state":"active","ping":102},{"user_id":612,"name":"Krumping to Save America","steam_id":76561198010708247,"connected_time":1202000000000,"state":"active","ping":103},{"user_id":572,"name":"Yo Mama's Phat Nuts","steam_id":76561199080135821,"connected_time":3853000000000,"state":"active","ping":77}]},{"server_id":108,"name":"Uncletopia | Dallas | 2 | All Maps","name_short":"dal-2","host":"dal-1.us.uncletopia.com","port":27025,"enabled":true,"region":"us-central","cc":"us","latitude":32.779167,"longitude":-96.80889,"reserved":0,"last_update":"0001-01-01T00:00:00Z","name_a2s":"Uncletopia | Dallas | 2 | All Maps","protocol":17,"map":"pl_borneo","folder":"tf","game":"Team Fortress","app_id":440,"player_count":10,"max_players":24,"Bots":0,"server_type":"Dedicated","server_os":"Linux","password":true,"vac":true,"version":"7757534","steam_id":85568392924469988,"keywords":["nocrits","nodmgspread","payload","uncletopia"],"game_id":440,"stv_port":27026,"stv_name":"Uncletopia | Dallas | 2 | All Maps | STV","players":[{"user_id":302,"name":"codyodie1234","steam_id":76561198065195288,"connected_time":213000000000,"state":"active","ping":45},{"user_id":303,"name":"lost in the sauce","steam_id":76561198216714833,"connected_time":202000000000,"state":"active","ping":48},{"user_id":304,"name":"WMario","steam_id":76561198017061554,"connected_time":196000000000,"state":"active","ping":75},{"user_id":305,"name":"Draconic","steam_id":76561199094904886,"connected_time":182000000000,"state":"active","ping":125},{"user_id":306,"name":"Dragopuff","steam_id":76561198211892593,"connected_time":147000000000,"state":"active","ping":54},{"user_id":161,"name":"tree","steam_id":76561198116885731,"connected_time":11891000000000,"state":"active","ping":65},{"user_id":270,"name":"Etomb","steam_id":76561198210017208,"connected_time":4836000000000,"state":"active","ping":66},{"user_id":173,"name":"Coenot","steam_id":76561198052566996,"connected_time":11289000000000,"state":"active","ping":67},{"user_id":292,"name":"Cocksneed Fartin","steam_id":76561198126675787,"connected_time":2530000000000,"state":"active","ping":56},{"user_id":296,"name":"Joe Grumbo","steam_id":76561198048485190,"connected_time":2307000000000,"state":"active","ping":89}]},{"server_id":5,"name":"Uncletopia | Frankfurt | 1 | All Maps","name_short":"frk-1","host":"frk-1.de.uncletopia.com","port":27015,"enabled":true,"region":"eu","cc":"de","latitude":50.110924,"longitude":8.682127,"reserved":0,"last_update":"0001-01-01T00:00:00Z","name_a2s":"Uncletopia | Frankfurt | 1 | All Maps","protocol":17,"map":"pl_badwater","folder":"tf","game":"Team Fortress","app_id":440,"player_count":0,"max_players":24,"Bots":0,"server_type":"Dedicated","server_os":"Linux","password":true,"vac":true,"version":"7757534","steam_id":85568392924469989,"keywords":["nocrits","nodmgspread","payload","uncletopia"],"game_id":440,"stv_port":27016,"stv_name":"Uncletopia | Frankfurt | 1 | All Maps | STV","players":null},{"server_id":110,"name":"Uncletopia | Frankfurt | 2 | All Maps","name_short":"frk-2","host":"frk-1.de.uncletopia.com","port":27025,"enabled":true,"region":"eu","cc":"de","latitude":50.110924,"longitude":8.682127,"reserved":0,"last_update":"0001-01-01T00:00:00Z","name_a2s":"Uncletopia | Frankfurt | 2 | All Maps","protocol":17,"map":"koth_lakeside_final","folder":"tf","game":"Team Fortress","app_id":440,"player_count":0,"max_players":24,"Bots":0,"server_type":"Dedicated","server_os":"Linux","password":true,"vac":true,"version":"7757534","steam_id":85568392924469990,"keywords":["cp","nocrits","nodmgspread","uncletopia"],"game_id":440,"stv_port":27026,"stv_name":"Uncletopia | Frankfurt | 2 | All Maps | STV","players":null},{"server_id":308,"name":"Uncletopia | Frankfurt | 3 | All Maps","name_short":"frk-3","host":"frk-1.de.uncletopia.com","port":27035,"enabled":true,"region":"eu","cc":"de","latitude":50.110924,"longitude":8.682127,"reserved":0,"last_update":"0001-01-01T00:00:00Z","name_a2s":"Uncletopia | Frankfurt | 3 | All Maps","protocol":17,"map":"koth_cascade","folder":"tf","game":"Team Fortress","app_id":440,"player_count":0,"max_players":24,"Bots":0,"server_type":"Dedicated","server_os":"Linux","password":true,"vac":true,"version":"7757534","steam_id":85568392924504274,"keywords":["cp","nocrits","nodmgspread","uncletopia"],"game_id":440,"stv_port":27036,"stv_name":"Uncletopia | Frankfurt | 3 | All Maps | STV","players":null},{"server_id":309,"name":"Uncletopia | Frankfurt | 4 | All Maps","name_short":"frk-4","host":"frk-1.de.uncletopia.com","port":27045,"enabled":true,"region":"eu","cc":"de","latitude":50.110924,"longitude":8.682127,"reserved":0,"last_update":"0001-01-01T00:00:00Z","name_a2s":"Uncletopia | Frankfurt | 4 | All Maps","protocol":17,"map":"pl_pier","folder":"tf","game":"Team Fortress","app_id":440,"player_count":0,"max_players":24,"Bots":0,"server_type":"Dedicated","server_os":"Linux","password":true,"vac":true,"version":"7757534","steam_id":85568392924504275,"keywords":["nocrits","nodmgspread","payload","uncletopia"],"game_id":440,"stv_port":27046,"stv_name":"Uncletopia | Frankfurt | 4 | All Maps | STV","players":null},{"server_id":310,"name":"Uncletopia | Frankfurt | 5 | All Maps","name_short":"frk-5","host":"frk-1.de.uncletopia.com","port":27055,"enabled":true,"region":"eu","cc":"de","latitude":50.110924,"longitude":8.682127,"reserved":0,"last_update":"0001-01-01T00:00:00Z","name_a2s":"Uncletopia | Frankfurt | 5 | All Maps","protocol":17,"map":"cp_altitude","folder":"tf","game":"Team Fortress","app_id":440,"player_count":0,"max_players":24,"Bots":0,"server_type":"Dedicated","server_os":"Linux","password":true,"vac":true,"version":"7757534","steam_id":85568392924504277,"keywords":["cp","nocrits","nodmgspread","uncletopia"],"game_id":440,"stv_port":27056,"stv_name":"Uncletopia | Frankfurt | 5 | All Maps | STV","players":null},{"server_id":311,"name":"Uncletopia | Frankfurt | 6 | All Maps","name_short":"frk-6","host":"frk-1.de.uncletopia.com","port":27065,"enabled":true,"region":"eu","cc":"de","latitude":50.110924,"longitude":8.682127,"reserved":0,"last_update":"0001-01-01T00:00:00Z","name_a2s":"Uncletopia | Frankfurt | 6 | All Maps","protocol":17,"map":"pl_barnblitz","folder":"tf","game":"Team Fortress","app_id":440,"player_count":1,"max_players":24,"Bots":0,"server_type":"Dedicated","server_os":"Linux","password":true,"vac":true,"version":"7757534","steam_id":85568392924504278,"keywords":["nocrits","nodmgspread","payload","uncletopia"],"game_id":440,"stv_port":27066,"stv_name":"Uncletopia | Frankfurt | 6 | All Maps | STV","players":[{"user_id":3,"name":"Dr.090","steam_id":76561198201215334,"connected_time":43000000000,"state":"active","ping":93}]},{"server_id":23,"name":"Uncletopia | Frankfurt | 7 | Stopwatch Beta","name_short":"frk-7","host":"frk-1.de.uncletopia.com","port":27075,"enabled":true,"region":"eu","cc":"de","latitude":50.110924,"longitude":8.682127,"reserved":0,"last_update":"0001-01-01T00:00:00Z","name_a2s":"Uncletopia | Frankfurt | 7 | Stopwatch Beta","protocol":17,"map":"pl_borneo","folder":"tf","game":"Team Fortress","app_id":440,"player_count":0,"max_players":24,"Bots":0,"server_type":"Dedicated","server_os":"Linux","password":true,"vac":true,"version":"7757534","steam_id":85568392924742827,"keywords":["nocrits","nodmgspread","payload","uncletopia"],"game_id":440,"stv_port":27076,"stv_name":"Uncletopia | Frankfurt | 7 | Stopwatch Beta | STV","players":null},{"server_id":24,"name":"Uncletopia | Frankfurt | 8 | Community","name_short":"frk-8","host":"frk-1.de.uncletopia.com","port":27085,"enabled":true,"region":"eu","cc":"de","latitude":50.110924,"longitude":8.682127,"reserved":0,"last_update":"0001-01-01T00:00:00Z","name_a2s":"Uncletopia | Frankfurt | 8 | Community","protocol":17,"map":"koth_viaduct","folder":"tf","game":"Team Fortress","app_id":440,"player_count":0,"max_players":24,"Bots":0,"server_type":"Dedicated","server_os":"Linux","password":true,"vac":true,"version":"7757534","steam_id":85568392924742828,"keywords":["cp","nocrits","nodmgspread","uncletopia"],"game_id":440,"stv_port":27086,"stv_name":"Uncletopia | Frankfurt | 8 | Community | STV","players":null},{"server_id":202,"name":"Uncletopia | Hong Kong | 1 | All Maps","name_short":"hgk-1","host":"hgk-1.hk.uncletopia.com","port":27015,"enabled":true,"region":"asia","cc":"hk","latitude":22.302711,"longitude":114.177216,"reserved":0,"last_update":"0001-01-01T00:00:00Z","name_a2s":"Uncletopia | Hong Kong | 1 | All Maps","protocol":17,"map":"cp_snakewater_final1","folder":"tf","game":"Team Fortress","app_id":440,"player_count":0,"max_players":24,"Bots":0,"server_type":"Dedicated","server_os":"Linux","password":true,"vac":true,"version":"7757534","steam_id":85568392924494504,"keywords":["cp","nocrits","nodmgspread","uncletopia"],"game_id":440,"stv_port":27016,"stv_name":"Uncletopia | Hong Kong | 1 | All Maps | STV","players":null},{"server_id":1,"name":"Uncletopia | Los Angeles | 1 | All Maps","name_short":"lax-1","host":"lax-1.us.uncletopia.com","port":27015,"enabled":true,"region":"us-west","cc":"us","latitude":33.94279,"longitude":-118.41004,"reserved":0,"last_update":"0001-01-01T00:00:00Z","name_a2s":"Uncletopia | Los Angeles | 1 | All Maps","protocol":17,"map":"pl_badwater","folder":"tf","game":"Team Fortress","app_id":440,"player_count":13,"max_players":24,"Bots":0,"server_type":"Dedicated","server_os":"Linux","password":true,"vac":true,"version":"7757534","steam_id":85568392924469991,"keywords":["nocrits","nodmgspread","payload","uncletopia"],"game_id":440,"stv_port":27016,"stv_name":"Uncletopia | Los Angeles | 1 | All Maps | STV","players":[{"user_id":409,"name":"ZoomxZe@goblinzone.com","steam_id":76561198209644868,"connected_time":766000000000,"state":"active","ping":83},{"user_id":397,"name":"Dr_Minty","steam_id":76561199043644449,"connected_time":1454000000000,"state":"active","ping":46},{"user_id":400,"name":"Arthur","steam_id":76561198075996414,"connected_time":1287000000000,"state":"active","ping":69},{"user_id":401,"name":"Lord Krit","steam_id":76561198014819670,"connected_time":1284000000000,"state":"active","ping":79},{"user_id":403,"name":"Fuzzycoco","steam_id":76561198154714679,"connected_time":1207000000000,"state":"active","ping":77},{"user_id":374,"name":"mewtek","steam_id":76561198138599995,"connected_time":2812000000000,"state":"active","ping":55},{"user_id":394,"name":"cardboardwarrior1","steam_id":76561199145044693,"connected_time":1626000000000,"state":"active","ping":153},{"user_id":351,"name":"[Gamer] Sword","steam_id":76561198044637483,"connected_time":4410000000000,"state":"active","ping":137},{"user_id":375,"name":"RiverMoot","steam_id":76561198081530179,"connected_time":2786000000000,"state":"active","ping":120},{"user_id":376,"name":"Animan Studios Customer Service","steam_id":76561198119609795,"connected_time":2774000000000,"state":"active","ping":46},{"user_id":411,"name":"natedoggbruh","steam_id":76561198305029481,"connected_time":122000000000,"state":"active","ping":45},{"user_id":370,"name":"Amogous Supreme","steam_id":76561198025476774,"connected_time":3528000000000,"state":"active","ping":56},{"user_id":407,"name":"jaiden@goblinzone.com","steam_id":76561198059437813,"connected_time":972000000000,"state":"active","ping":60}]},{"server_id":112,"name":"Uncletopia | Los Angeles | 2 | All Maps","name_short":"lax-2","host":"lax-1.us.uncletopia.com","port":27025,"enabled":true,"region":"us-west","cc":"us","latitude":33.94279,"longitude":-118.41004,"reserved":0,"last_update":"0001-01-01T00:00:00Z","name_a2s":"Uncletopia | Los Angeles | 2 | All Maps","protocol":17,"map":"koth_highpass","folder":"tf","game":"Team Fortress","app_id":440,"player_count":0,"max_players":24,"Bots":0,"server_type":"Dedicated","server_os":"Linux","password":true,"vac":true,"version":"7757534","steam_id":85568392924469992,"keywords":["cp","nocrits","nodmgspread","uncletopia"],"game_id":440,"stv_port":27026,"stv_name":"Uncletopia | Los Angeles | 2 | All Maps | STV","players":null},{"server_id":324,"name":"Uncletopia | Los Angeles | 3 | All Maps","name_short":"lax-3","host":"lax-1.us.uncletopia.com","port":27035,"enabled":true,"region":"us-west","cc":"us","latitude":33.94279,"longitude":-118.41004,"reserved":0,"last_update":"0001-01-01T00:00:00Z","name_a2s":"Uncletopia | Los Angeles | 3 | All Maps","protocol":17,"map":"cp_dustbowl","folder":"tf","game":"Team Fortress","app_id":440,"player_count":2,"max_players":24,"Bots":0,"server_type":"Dedicated","server_os":"Linux","password":true,"vac":true,"version":"7757534","steam_id":85568392924510198,"keywords":["cp","nocrits","nodmgspread","uncletopia"],"game_id":440,"stv_port":27036,"stv_name":"Uncletopia | Los Angeles | 3 | All Maps | STV","players":[{"user_id":194,"name":"Jared McKano #savetf2","steam_id":76561198971269146,"connected_time":649000000000,"state":"active","ping":50},{"user_id":193,"name":"zircon","steam_id":76561198396082531,"connected_time":760000000000,"state":"active","ping":188}]},{"server_id":25,"name":"Uncletopia | Los Angeles | 4 | Stopwatch Beta","name_short":"lax-4","host":"lax-1.us.uncletopia.com","port":27045,"enabled":true,"region":"us-west","cc":"us","latitude":33.94279,"longitude":-118.41004,"reserved":0,"last_update":"0001-01-01T00:00:00Z","name_a2s":"Uncletopia | Los Angeles | 4 | Stopwatch Beta","protocol":17,"map":"workshop/pl_barnblitz_pro7.ugc582280235","folder":"tf","game":"Team Fortress","app_id":440,"player_count":0,"max_players":24,"Bots":0,"server_type":"Dedicated","server_os":"Linux","password":true,"vac":true,"version":"7757534","steam_id":85568392924510199,"keywords":["nocrits","nodmgspread","payload","uncletopia"],"game_id":440,"stv_port":27046,"stv_name":"Uncletopia | Los Angeles | 4 | Stopwatch Beta | STV","players":null},{"server_id":11,"name":"Uncletopia | London | 1 | All Maps","name_short":"lon-1","host":"lon-1.uk.uncletopia.com","port":27015,"enabled":true,"region":"eu","cc":"gb","latitude":51.509865,"longitude":-0.118092,"reserved":0,"last_update":"0001-01-01T00:00:00Z","name_a2s":"Uncletopia | London | 1 | All Maps","protocol":17,"map":"cp_altitude","folder":"tf","game":"Team Fortress","app_id":440,"player_count":0,"max_players":24,"Bots":0,"server_type":"Dedicated","server_os":"Linux","password":true,"vac":true,"version":"7757534","steam_id":85568392924367362,"keywords":["cp","nocrits","nodmgspread","uncletopia"],"game_id":440,"stv_port":27016,"stv_name":"Uncletopia | London | 1 | All Maps | STV","players":null},{"server_id":114,"name":"Uncletopia | London | 2 | All Maps","name_short":"lon-2","host":"lon-1.uk.uncletopia.com","port":27025,"enabled":true,"region":"eu","cc":"gb","latitude":51.509865,"longitude":-0.118092,"reserved":0,"last_update":"0001-01-01T00:00:00Z","name_a2s":"Uncletopia | London | 2 | All Maps","protocol":17,"map":"pl_pier","folder":"tf","game":"Team Fortress","app_id":440,"player_count":0,"max_players":24,"Bots":0,"server_type":"Dedicated","server_os":"Linux","password":true,"vac":true,"version":"7757534","steam_id":85568392924470941,"keywords":["nocrits","nodmgspread","payload","uncletopia"],"game_id":440,"stv_port":27026,"stv_name":"Uncletopia | London | 2 | All Maps | STV","players":null},{"server_id":320,"name":"Uncletopia | London | 3 | All Maps","name_short":"lon-3","host":"lon-1.uk.uncletopia.com","port":27035,"enabled":true,"region":"eu","cc":"gb","latitude":51.509865,"longitude":-0.118092,"reserved":0,"last_update":"0001-01-01T00:00:00Z","name_a2s":"Uncletopia | London | 3 | All Maps","protocol":17,"map":"pl_swiftwater_final1","folder":"tf","game":"Team Fortress","app_id":440,"player_count":0,"max_players":24,"Bots":0,"server_type":"Dedicated","server_os":"Linux","password":true,"vac":true,"version":"7757534","steam_id":85568392924510192,"keywords":["nocrits","nodmgspread","payload","uncletopia"],"game_id":440,"stv_port":27036,"stv_name":"Uncletopia | London | 3 | All Maps | STV","players":null},{"server_id":321,"name":"Uncletopia | London | 4 | All Maps","name_short":"lon-4","host":"lon-1.uk.uncletopia.com","port":27045,"enabled":true,"region":"eu","cc":"gb","latitude":51.509865,"longitude":-0.118092,"reserved":0,"last_update":"0001-01-01T00:00:00Z","name_a2s":"Uncletopia | London | 4 | All Maps","protocol":17,"map":"pl_barnblitz","folder":"tf","game":"Team Fortress","app_id":440,"player_count":0,"max_players":24,"Bots":0,"server_type":"Dedicated","server_os":"Linux","password":true,"vac":true,"version":"7757534","steam_id":85568392924510193,"keywords":["nocrits","nodmgspread","payload","uncletopia"],"game_id":440,"stv_port":27046,"stv_name":"Uncletopia | London | 4 | All Maps | STV","players":null},{"server_id":21,"name":"Uncletopia | London | 5 | All Maps","name_short":"lon-5","host":"lon-1.uk.uncletopia.com","port":27055,"enabled":true,"region":"eu","cc":"gb","latitude":51.509865,"longitude":-0.118092,"reserved":0,"last_update":"0001-01-01T00:00:00Z","name_a2s":"Uncletopia | London | 5 | All Maps","protocol":17,"map":"pl_pier","folder":"tf","game":"Team Fortress","app_id":440,"player_count":0,"max_players":24,"Bots":0,"server_type":"Dedicated","server_os":"Linux","password":true,"vac":true,"version":"7757534","steam_id":85568392924742829,"keywords":["nocrits","nodmgspread","payload","uncletopia"],"game_id":440,"stv_port":27056,"stv_name":"Uncletopia | London | 5 | All Maps | STV","players":null},{"server_id":22,"name":"Uncletopia | London | 6 | All Maps","name_short":"lon-6","host":"lon-1.uk.uncletopia.com","port":27065,"enabled":true,"region":"eu","cc":"gb","latitude":51.509865,"longitude":-0.118092,"reserved":0,"last_update":"0001-01-01T00:00:00Z","name_a2s":"Uncletopia | London | 6 | All Maps","protocol":17,"map":"koth_highpass","folder":"tf","game":"Team Fortress","app_id":440,"player_count":0,"max_players":24,"Bots":0,"server_type":"Dedicated","server_os":"Linux","password":true,"vac":true,"version":"7757534","steam_id":85568392924742830,"keywords":["cp","nocrits","nodmgspread","uncletopia"],"game_id":440,"stv_port":27066,"stv_name":"Uncletopia | London | 6 | All Maps | STV","players":null},{"server_id":40,"name":"Uncletopia | London | 7 | No Payload","name_short":"lon-7","host":"lon-1.uk.uncletopia.com","port":27075,"enabled":true,"region":"eu","cc":"gb","latitude":51.509865,"longitude":-0.118092,"reserved":0,"last_update":"0001-01-01T00:00:00Z","name_a2s":"Uncletopia | London | 7 | No Payload","protocol":17,"map":"koth_highpass","folder":"tf","game":"Team Fortress","app_id":440,"player_count":0,"max_players":24,"Bots":0,"server_type":"Dedicated","server_os":"Linux","password":true,"vac":true,"version":"7757534","steam_id":85568392924964314,"keywords":["cp","nocrits","nodmgspread","uncletopia"],"game_id":440,"stv_port":27076,"stv_name":"Uncletopia | London | 7 | No Payload | STV","players":null},{"server_id":41,"name":"Uncletopia | London | 8 | Community","name_short":"lon-8","host":"lon-1.uk.uncletopia.com","port":27085,"enabled":true,"region":"eu","cc":"gb","latitude":51.509865,"longitude":-0.118092,"reserved":0,"last_update":"0001-01-01T00:00:00Z","name_a2s":"Uncletopia | London | 8 | Community","protocol":17,"map":"cp_altitude","folder":"tf","game":"Team Fortress","app_id":440,"player_count":0,"max_players":24,"Bots":0,"server_type":"Dedicated","server_os":"Linux","password":true,"vac":true,"version":"7757534","steam_id":85568392924964315,"keywords":["cp","nocrits","nodmgspread","uncletopia"],"game_id":440,"stv_port":27086,"stv_name":"Uncletopia | London | 8 | Community | STV","players":null},{"server_id":300,"name":"Uncletopia | Montréal | 1 | All Maps","name_short":"mtl-1","host":"mtl-1.ca.uncletopia.com","port":27015,"enabled":true,"region":"us-east","cc":"ca","latitude":45.50889,"longitude":-73.56167,"reserved":0,"last_update":"0001-01-01T00:00:00Z","name_a2s":"Uncletopia | Montréal | 1 | All Maps","protocol":17,"map":"koth_lakeside_final","folder":"tf","game":"Team Fortress","app_id":440,"player_count":0,"max_players":24,"Bots":0,"server_type":"Dedicated","server_os":"Linux","password":true,"vac":true,"version":"7757534","steam_id":85568392924500087,"keywords":["cp","nocrits","nodmgspread","uncletopia"],"game_id":440,"stv_port":27016,"stv_name":"Uncletopia | Montréal | 1 | All Maps | STV","players":null},{"server_id":301,"name":"Uncletopia | Montréal | 2 | All Maps","name_short":"mtl-2","host":"mtl-1.ca.uncletopia.com","port":27025,"enabled":true,"region":"us-east","cc":"ca","latitude":45.50889,"longitude":-73.56167,"reserved":0,"last_update":"0001-01-01T00:00:00Z","name_a2s":"Uncletopia | Montréal | 2 | All Maps","protocol":17,"map":"pl_frontier_final","folder":"tf","game":"Team Fortress","app_id":440,"player_count":0,"max_players":24,"Bots":0,"server_type":"Dedicated","server_os":"Linux","password":true,"vac":true,"version":"7757534","steam_id":85568392924500088,"keywords":["nocrits","nodmgspread","payload","uncletopia"],"game_id":440,"stv_port":27026,"stv_name":"Uncletopia | Montréal | 2 | All Maps | STV","players":null},{"server_id":302,"name":"Uncletopia | Montréal | 3 | All Maps","name_short":"mtl-3","host":"mtl-1.ca.uncletopia.com","port":27035,"enabled":true,"region":"us-east","cc":"ca","latitude":45.50889,"longitude":-73.56167,"reserved":0,"last_update":"0001-01-01T00:00:00Z","name_a2s":"Uncletopia | Montréal | 3 | All Maps","protocol":17,"map":"koth_highpass","folder":"tf","game":"Team Fortress","app_id":440,"player_count":0,"max_players":24,"Bots":0,"server_type":"Dedicated","server_os":"Linux","password":true,"vac":true,"version":"7757534","steam_id":85568392924500089,"keywords":["cp","nocrits","nodmgspread","uncletopia"],"game_id":440,"stv_port":27036,"stv_name":"Uncletopia | Montréal | 3 | All Maps | STV","players":null},{"server_id":303,"name":"Uncletopia | Montréal | 4 | No Payload","name_short":"mtl-4","host":"mtl-1.ca.uncletopia.com","port":27045,"enabled":true,"region":"us-east","cc":"ca","latitude":45.50889,"longitude":-73.56167,"reserved":0,"last_update":"0001-01-01T00:00:00Z","name_a2s":"Uncletopia | Montréal | 4 | No Payload","protocol":17,"map":"plr_nightfall_final","folder":"tf","game":"Team Fortress","app_id":440,"player_count":0,"max_players":24,"Bots":0,"server_type":"Dedicated","server_os":"Linux","password":true,"vac":true,"version":"7757534","steam_id":85568392924500090,"keywords":["nocrits","nodmgspread","payload","uncletopia"],"game_id":440,"stv_port":27046,"stv_name":"Uncletopia | Montréal | 4 | No Payload | STV","players":null},{"server_id":13,"name":"Uncletopia | New York City | 1 | All Maps","name_short":"nyc-1","host":"nyc-1.us.uncletopia.com","port":27015,"enabled":true,"region":"us-east","cc":"us","latitude":40.73061,"longitude":-73.93524,"reserved":0,"last_update":"0001-01-01T00:00:00Z","name_a2s":"Uncletopia | New York City | 1 | All Maps","protocol":17,"map":"koth_highpass","folder":"tf","game":"Team Fortress","app_id":440,"player_count":0,"max_players":24,"Bots":0,"server_type":"Dedicated","server_os":"Linux","password":true,"vac":true,"version":"7757534","steam_id":85568392924469993,"keywords":["cp","nocrits","nodmgspread","uncletopia"],"game_id":440,"stv_port":27016,"stv_name":"Uncletopia | New York City | 1 | All Maps | STV","players":null},{"server_id":14,"name":"Uncletopia | New York City | 2 | All Maps","name_short":"nyc-2","host":"nyc-1.us.uncletopia.com","port":27025,"enabled":true,"region":"us-east","cc":"us","latitude":40.73061,"longitude":-73.93524,"reserved":0,"last_update":"0001-01-01T00:00:00Z","name_a2s":"Uncletopia | New York City | 2 | All Maps","protocol":17,"map":"cp_dustbowl","folder":"tf","game":"Team Fortress","app_id":440,"player_count":0,"max_players":24,"Bots":0,"server_type":"Dedicated","server_os":"Linux","password":true,"vac":true,"version":"7757534","steam_id":85568392924469994,"keywords":["cp","nocrits","nodmgspread","uncletopia"],"game_id":440,"stv_port":27026,"stv_name":"Uncletopia | New York City | 2 | All Maps | STV","players":null},{"server_id":15,"name":"Uncletopia | New York City | 3 | Stopwatch Beta","name_short":"nyc-3","host":"nyc-1.us.uncletopia.com","port":27035,"enabled":true,"region":"us-east","cc":"us","latitude":40.73061,"longitude":-73.93524,"reserved":0,"last_update":"0001-01-01T00:00:00Z","name_a2s":"Uncletopia | New York City | 3 | Stopwatch Beta","protocol":17,"map":"pl_borneo","folder":"tf","game":"Team Fortress","app_id":440,"player_count":0,"max_players":24,"Bots":0,"server_type":"Dedicated","server_os":"Linux","password":true,"vac":true,"version":"7757534","steam_id":85568392924742820,"keywords":["nocrits","nodmgspread","payload","uncletopia"],"game_id":440,"stv_port":27036,"stv_name":"Uncletopia | New York City | 3 | Stopwatch Beta | STV","players":null},{"server_id":16,"name":"Uncletopia | New York City | 4 | Community","name_short":"nyc-4","host":"nyc-1.us.uncletopia.com","port":27045,"enabled":true,"region":"us-east","cc":"us","latitude":40.73061,"longitude":-73.93524,"reserved":0,"last_update":"0001-01-01T00:00:00Z","name_a2s":"Uncletopia | New York City | 4 | Community","protocol":17,"map":"workshop/cp_glacier_rc6.ugc2905735376","folder":"tf","game":"Team Fortress","app_id":440,"player_count":0,"max_players":24,"Bots":0,"server_type":"Dedicated","server_os":"Linux","password":true,"vac":true,"version":"7757534","steam_id":85568392924742821,"keywords":["cp","nocrits","nodmgspread","uncletopia"],"game_id":440,"stv_port":27046,"stv_name":"Uncletopia | New York City | 4 | Community | STV","players":null},{"server_id":142,"name":"Uncletopia | São Paulo | 1 | All Maps","name_short":"sao-1","host":"sao-1.br.uncletopia.com","port":27015,"enabled":true,"region":"sa","cc":"br","latitude":-23.533773,"longitude":-46.62529,"reserved":0,"last_update":"0001-01-01T00:00:00Z","name_a2s":"Uncletopia | São Paulo | 1 | All Maps","protocol":17,"map":"koth_viaduct","folder":"tf","game":"Team Fortress","app_id":440,"player_count":0,"max_players":24,"Bots":0,"server_type":"Dedicated","server_os":"Linux","password":true,"vac":true,"version":"7757534","steam_id":85568392924469996,"keywords":["cp","nocrits","nodmgspread","uncletopia"],"game_id":440,"stv_port":27016,"stv_name":"Uncletopia | São Paulo | 1 | All Maps | STV","players":null},{"server_id":143,"name":"Uncletopia | São Paulo | 2 | All Maps","name_short":"sao-2","host":"sao-2.br.uncletopia.com","port":27015,"enabled":true,"region":"sa","cc":"br","latitude":-23.533773,"longitude":-46.62529,"reserved":0,"last_update":"0001-01-01T00:00:00Z","name_a2s":"Uncletopia | São Paulo | 2 | All Maps","protocol":17,"map":"cp_sunshine","folder":"tf","game":"Team Fortress","app_id":440,"player_count":0,"max_players":24,"Bots":0,"server_type":"Dedicated","server_os":"Linux","password":true,"vac":true,"version":"7757534","steam_id":85568392924485349,"keywords":["cp","nocrits","nodmgspread","uncletopia"],"game_id":440,"stv_port":27016,"stv_name":"Uncletopia | São Paulo | 2 | All Maps | STV","players":null},{"server_id":7,"name":"Uncletopia | Seattle | 1 | All Maps","name_short":"sea-1","host":"sea-1.us.uncletopia.com","port":27015,"enabled":true,"region":"us-west","cc":"us","latitude":47.608013,"longitude":-122.33517,"reserved":0,"last_update":"0001-01-01T00:00:00Z","name_a2s":"Uncletopia | Seattle | 1 | All Maps","protocol":17,"map":"pl_pier","folder":"tf","game":"Team Fortress","app_id":440,"player_count":23,"max_players":24,"Bots":0,"server_type":"Dedicated","server_os":"Linux","password":true,"vac":true,"version":"7757534","steam_id":85568392924469997,"keywords":["nocrits","nodmgspread","payload","uncletopia"],"game_id":440,"stv_port":27016,"stv_name":"Uncletopia | Seattle | 1 | All Maps | STV","players":[{"user_id":653,"name":"seats","steam_id":76561197998756039,"connected_time":1887000000000,"state":"active","ping":74},{"user_id":591,"name":"fungi","steam_id":76561198169755734,"connected_time":8490000000000,"state":"active","ping":60},{"user_id":636,"name":"pyrotechnic","steam_id":76561198043558709,"connected_time":3539000000000,"state":"active","ping":46},{"user_id":648,"name":"Path To Victory","steam_id":76561198026958898,"connected_time":1926000000000,"state":"active","ping":100},{"user_id":645,"name":"rorywashere /ᐠ - ˕ -マ Ⳋ","steam_id":76561198065825165,"connected_time":2090000000000,"state":"active","ping":158},{"user_id":669,"name":"ts","steam_id":76561198119826352,"connected_time":493000000000,"state":"active","ping":90},{"user_id":663,"name":"hart","steam_id":76561198046073848,"connected_time":760000000000,"state":"active","ping":47},{"user_id":638,"name":"exephur","steam_id":76561198135763234,"connected_time":3150000000000,"state":"active","ping":68},{"user_id":670,"name":"yachabosha imalaka... ah ah ah","steam_id":76561198971743530,"connected_time":384000000000,"state":"active","ping":83},{"user_id":664,"name":"resh","steam_id":76561198239598834,"connected_time":608000000000,"state":"active","ping":142},{"user_id":646,"name":"p9 delight","steam_id":76561197980280272,"connected_time":1940000000000,"state":"active","ping":48},{"user_id":671,"name":"Aprayne","steam_id":76561198131015474,"connected_time":334000000000,"state":"active","ping":76},{"user_id":672,"name":"Mayxaroni","steam_id":76561198170642041,"connected_time":296000000000,"state":"active","ping":80},{"user_id":630,"name":"squash","steam_id":76561198150281353,"connected_time":3850000000000,"state":"active","ping":57},{"user_id":676,"name":"hotdog every meal","steam_id":76561198392514273,"connected_time":109000000000,"state":"active","ping":47},{"user_id":674,"name":"Lord Lipschitz","steam_id":76561198078386761,"connected_time":254000000000,"state":"active","ping":36},{"user_id":644,"name":"kritz me","steam_id":76561198439899407,"connected_time":2215000000000,"state":"active","ping":47},{"user_id":660,"name":"skogg yenseii","steam_id":76561198304265800,"connected_time":1295000000000,"state":"active","ping":85},{"user_id":677,"name":"SuaveFrenchman","steam_id":76561198043762683,"connected_time":92000000000,"state":"active","ping":60},{"user_id":657,"name":"gorlab","steam_id":76561198025089694,"connected_time":1752000000000,"state":"active","ping":63},{"user_id":678,"name":"PenguinSpycamOutsideZeta'sIgloo","steam_id":76561198055882807,"connected_time":42000000000,"state":"active","ping":54},{"user_id":656,"name":"Guest","steam_id":76561198241004916,"connected_time":1868000000000,"state":"active","ping":61},{"user_id":629,"name":"amagicowl","steam_id":76561199060487814,"connected_time":3861000000000,"state":"active","ping":55}]},{"server_id":119,"name":"Uncletopia | Seattle | 2 | All Maps","name_short":"sea-2","host":"sea-1.us.uncletopia.com","port":27025,"enabled":true,"region":"us-west","cc":"us","latitude":47.608013,"longitude":-122.33517,"reserved":0,"last_update":"0001-01-01T00:00:00Z","name_a2s":"Uncletopia | Seattle | 2 | All Maps","protocol":17,"map":"koth_viaduct","folder":"tf","game":"Team Fortress","app_id":440,"player_count":21,"max_players":24,"Bots":0,"server_type":"Dedicated","server_os":"Linux","password":true,"vac":true,"version":"7757534","steam_id":85568392924469998,"keywords":["cp","nocrits","nodmgspread","uncletopia"],"game_id":440,"stv_port":27026,"stv_name":"Uncletopia | Seattle | 2 | All Maps | STV","players":[{"user_id":474,"name":"WazL","steam_id":76561198065113895,"connected_time":2158000000000,"state":"active","ping":44},{"user_id":510,"name":"2STAR","steam_id":76561198126709382,"connected_time":300000000000,"state":"active","ping":39},{"user_id":513,"name":"J Jonah Jameson","steam_id":76561199088818698,"connected_time":181000000000,"state":"active","ping":57},{"user_id":493,"name":"Demopirate Virus","steam_id":76561198050159379,"connected_time":1075000000000,"state":"active","ping":122},{"user_id":516,"name":"MickMeat","steam_id":76561198119898001,"connected_time":45000000000,"state":"active","ping":90},{"user_id":512,"name":"Kaluka","steam_id":76561198036861445,"connected_time":221000000000,"state":"active","ping":127},{"user_id":517,"name":"raper","steam_id":76561198285819311,"connected_time":42000000000,"state":"active","ping":64},{"user_id":441,"name":"goldhed","steam_id":76561198051751133,"connected_time":4955000000000,"state":"active","ping":51},{"user_id":494,"name":"Mr. DemoBone Virus","steam_id":76561198044127250,"connected_time":1069000000000,"state":"active","ping":124},{"user_id":504,"name":"erth:)","steam_id":76561198148439635,"connected_time":733000000000,"state":"active","ping":48},{"user_id":496,"name":"Seriously Bruh","steam_id":76561198070408485,"connected_time":951000000000,"state":"active","ping":49},{"user_id":514,"name":"MyMonkeyBaby","steam_id":76561198046896670,"connected_time":153000000000,"state":"active","ping":58},{"user_id":486,"name":"big ol' buford","steam_id":76561198290675957,"connected_time":1791000000000,"state":"active","ping":90},{"user_id":484,"name":"Adobe Premiere","steam_id":76561198411025724,"connected_time":1892000000000,"state":"active","ping":79},{"user_id":490,"name":"Clagger","steam_id":76561198066701092,"connected_time":1438000000000,"state":"active","ping":54},{"user_id":506,"name":"Big Jon","steam_id":76561198402285099,"connected_time":703000000000,"state":"active","ping":78},{"user_id":439,"name":"2 Point Tom","steam_id":76561198087617008,"connected_time":5262000000000,"state":"active","ping":56},{"user_id":460,"name":"Korbi.","steam_id":76561198355711373,"connected_time":3307000000000,"state":"active","ping":70},{"user_id":468,"name":"Villchip","steam_id":76561198198599982,"connected_time":2752000000000,"state":"active","ping":51},{"user_id":508,"name":"Auggy","steam_id":76561198041816037,"connected_time":632000000000,"state":"active","ping":73},{"user_id":421,"name":"mub","steam_id":76561197961943948,"connected_time":6226000000000,"state":"active","ping":45}]},{"server_id":406,"name":"Uncletopia | Seattle | 3 | Stopwatch Beta","name_short":"sea-3","host":"sea-1.us.uncletopia.com","port":27035,"enabled":true,"region":"us-west","cc":"us","latitude":47.608013,"longitude":-122.33517,"reserved":0,"last_update":"0001-01-01T00:00:00Z","name_a2s":"Uncletopia | Seattle | 3 | Stopwatch Beta","protocol":17,"map":"workshop/pl_barnblitz_pro7.ugc582280235","folder":"tf","game":"Team Fortress","app_id":440,"player_count":0,"max_players":24,"Bots":0,"server_type":"Dedicated","server_os":"Linux","password":true,"vac":true,"version":"7757534","steam_id":85568392924515217,"keywords":["nocrits","nodmgspread","payload","uncletopia"],"game_id":440,"stv_port":27036,"stv_name":"Uncletopia | Seattle | 3 | Stopwatch Beta | STV","players":null},{"server_id":17,"name":"Uncletopia | San Francisco | 1 | All Maps","name_short":"sfo-1","host":"sfo-1.us.uncletopia.com","port":27015,"enabled":true,"region":"us-west","cc":"us","latitude":37.77397,"longitude":-122.4313,"reserved":0,"last_update":"0001-01-01T00:00:00Z","name_a2s":"Uncletopia | San Francisco | 1 | All Maps","protocol":17,"map":"plr_bananabay","folder":"tf","game":"Team Fortress","app_id":440,"player_count":24,"max_players":24,"Bots":0,"server_type":"Dedicated","server_os":"Linux","password":true,"vac":true,"version":"7757534","steam_id":85568392924469999,"keywords":["nocrits","nodmgspread","payload","uncletopia"],"game_id":440,"stv_port":27016,"stv_name":"Uncletopia | San Francisco | 1 | All Maps | STV","players":[{"user_id":884,"name":"ComputerFritz","steam_id":76561198368730970,"connected_time":1941000000000,"state":"active","ping":50},{"user_id":859,"name":"RedBrickLime","steam_id":76561198012101381,"connected_time":3514000000000,"state":"active","ping":57},{"user_id":861,"name":"grugposter","steam_id":76561198035805348,"connected_time":3493000000000,"state":"active","ping":45},{"user_id":864,"name":"Based Jvnko Fan","steam_id":76561198355290984,"connected_time":3200000000000,"state":"active","ping":74},{"user_id":896,"name":"Juice-tan","steam_id":76561198180730678,"connected_time":702000000000,"state":"active","ping":56},{"user_id":893,"name":"gamer_hater","steam_id":76561198973306314,"connected_time":1500000000000,"state":"active","ping":54},{"user_id":841,"name":"Mak","steam_id":76561198089197922,"connected_time":5420000000000,"state":"active","ping":74},{"user_id":891,"name":"BIG GULP","steam_id":76561198106429468,"connected_time":1752000000000,"state":"active","ping":64},{"user_id":848,"name":"Stinkin' Up The Waiting Room","steam_id":76561198011675372,"connected_time":4360000000000,"state":"active","ping":74},{"user_id":867,"name":"Livi","steam_id":76561198080211750,"connected_time":3182000000000,"state":"active","ping":68},{"user_id":887,"name":"Bubster3020 tera.gg","steam_id":76561198405350609,"connected_time":1915000000000,"state":"active","ping":61},{"user_id":898,"name":"ydanay","steam_id":76561198088375486,"connected_time":550000000000,"state":"active","ping":39},{"user_id":857,"name":"Elazul","steam_id":76561198065951343,"connected_time":3566000000000,"state":"active","ping":76},{"user_id":895,"name":"Timmy Thick","steam_id":76561198031018737,"connected_time":939000000000,"state":"active","ping":56},{"user_id":881,"name":"the verminator","steam_id":76561198828246148,"connected_time":2189000000000,"state":"active","ping":103},{"user_id":894,"name":"Samantha","steam_id":76561198127578307,"connected_time":1095000000000,"state":"active","ping":77},{"user_id":842,"name":"Antzen","steam_id":76561198041343470,"connected_time":5346000000000,"state":"active","ping":52},{"user_id":888,"name":"Cave Dweller","steam_id":76561198374825685,"connected_time":1876000000000,"state":"active","ping":57},{"user_id":876,"name":"Marcus Annius Verus","steam_id":76561198036850392,"connected_time":2991000000000,"state":"active","ping":111},{"user_id":883,"name":"Captain Drinky","steam_id":76561198980412770,"connected_time":2080000000000,"state":"active","ping":56},{"user_id":902,"name":"Jazz2T","steam_id":76561198154418867,"connected_time":385000000000,"state":"active","ping":138},{"user_id":903,"name":"This game sucks","steam_id":76561198042007578,"connected_time":198000000000,"state":"active","ping":66},{"user_id":837,"name":"Blare","steam_id":76561198023669032,"connected_time":5600000000000,"state":"active","ping":53},{"user_id":856,"name":"Schnitz","steam_id":76561198265484253,"connected_time":3698000000000,"state":"active","ping":62}]},{"server_id":18,"name":"Uncletopia | San Francisco | 2 | All Maps","name_short":"sfo-2","host":"sfo-1.us.uncletopia.com","port":27025,"enabled":true,"region":"us-west","cc":"us","latitude":37.77397,"longitude":-122.4313,"reserved":0,"last_update":"0001-01-01T00:00:00Z","name_a2s":"Uncletopia | San Francisco | 2 | All Maps","protocol":17,"map":"koth_lakeside_final","folder":"tf","game":"Team Fortress","app_id":440,"player_count":0,"max_players":24,"Bots":0,"server_type":"Dedicated","server_os":"Linux","password":true,"vac":true,"version":"7757534","steam_id":85568392924470000,"keywords":["cp","nocrits","nodmgspread","uncletopia"],"game_id":440,"stv_port":27026,"stv_name":"Uncletopia | San Francisco | 2 | All Maps | STV","players":null},{"server_id":19,"name":"Uncletopia | San Francisco | 3 | Stopwatch Beta","name_short":"sfo-3","host":"sfo-1.us.uncletopia.com","port":27035,"enabled":true,"region":"us-west","cc":"us","latitude":37.77397,"longitude":-122.4313,"reserved":0,"last_update":"0001-01-01T00:00:00Z","name_a2s":"Uncletopia | San Francisco | 3 | Stopwatch Beta","protocol":17,"map":"workshop/koth_product_final.ugc454272353","folder":"tf","game":"Team Fortress","app_id":440,"player_count":0,"max_players":24,"Bots":0,"server_type":"Dedicated","server_os":"Linux","password":true,"vac":true,"version":"7757534","steam_id":85568392924742824,"keywords":["cp","nocrits","nodmgspread","uncletopia"],"game_id":440,"stv_port":27036,"stv_name":"Uncletopia | San Francisco | 3 | Stopwatch Beta | STV","players":null},{"server_id":20,"name":"Uncletopia | San Francisco | 4 | Community","name_short":"sfo-4","host":"sfo-1.us.uncletopia.com","port":27045,"enabled":true,"region":"us-west","cc":"us","latitude":37.77397,"longitude":-122.4313,"reserved":0,"last_update":"0001-01-01T00:00:00Z","name_a2s":"Uncletopia | San Francisco | 4 | Community","protocol":17,"map":"workshop/koth_bagel_rc6.ugc2514036946","folder":"tf","game":"Team Fortress","app_id":440,"player_count":0,"max_players":24,"Bots":0,"server_type":"Dedicated","server_os":"Linux","password":true,"vac":true,"version":"7757534","steam_id":85568392924742826,"keywords":["cp","nocrits","nodmgspread","uncletopia"],"game_id":440,"stv_port":27046,"stv_name":"Uncletopia | San Francisco | 4 | Community | STV","players":null},{"server_id":141,"name":"Uncletopia | Sydney | 1 | All Maps","name_short":"syd-1","host":"syd-1.au.uncletopia.com","port":27015,"enabled":true,"region":"au","cc":"au","latitude":-33.865143,"longitude":151.2099,"reserved":0,"last_update":"0001-01-01T00:00:00Z","name_a2s":"Uncletopia | Sydney | 1 | All Maps","protocol":17,"map":"pl_snowycoast","folder":"tf","game":"Team Fortress","app_id":440,"player_count":24,"max_players":24,"Bots":0,"server_type":"Dedicated","server_os":"Linux","password":true,"vac":true,"version":"7757534","steam_id":85568392924470001,"keywords":["nocrits","nodmgspread","payload","uncletopia"],"game_id":440,"stv_port":27016,"stv_name":"Uncletopia | Sydney | 1 | All Maps | STV","players":[{"user_id":283,"name":"Nyk","steam_id":76561198125000580,"connected_time":2807000000000,"state":"active","ping":44},{"user_id":239,"name":"Ralph Wiggum","steam_id":76561198243808014,"connected_time":6060000000000,"state":"active","ping":59},{"user_id":241,"name":"FIX","steam_id":76561197995157189,"connected_time":6040000000000,"state":"active","ping":41},{"user_id":311,"name":"Sparky","steam_id":76561198117687688,"connected_time":156000000000,"state":"active","ping":74},{"user_id":285,"name":"Mase","steam_id":76561198797093795,"connected_time":2654000000000,"state":"active","ping":46},{"user_id":291,"name":"Pompadouraus","steam_id":76561198327530525,"connected_time":1848000000000,"state":"active","ping":75},{"user_id":307,"name":"KiwiJiwi","steam_id":76561198262081410,"connected_time":932000000000,"state":"active","ping":68},{"user_id":306,"name":"soupy","steam_id":76561198073734936,"connected_time":979000000000,"state":"active","ping":87},{"user_id":218,"name":"MaV","steam_id":76561198045682020,"connected_time":7718000000000,"state":"active","ping":66},{"user_id":251,"name":"Dr. Hoppity","steam_id":76561197999715646,"connected_time":4329000000000,"state":"active","ping":58},{"user_id":298,"name":"MindlessTie","steam_id":76561198107844324,"connected_time":1212000000000,"state":"active","ping":61},{"user_id":309,"name":"Frog Wellingtons","steam_id":76561198090088613,"connected_time":707000000000,"state":"active","ping":96},{"user_id":312,"name":"Whomobile","steam_id":76561198005831324,"connected_time":140000000000,"state":"active","ping":89},{"user_id":303,"name":"FyreFeat","steam_id":76561198068428930,"connected_time":1156000000000,"state":"active","ping":54},{"user_id":295,"name":"alqwnq","steam_id":76561198133867907,"connected_time":1238000000000,"state":"active","ping":64},{"user_id":248,"name":"BamBoozled","steam_id":76561199065491364,"connected_time":4992000000000,"state":"active","ping":65},{"user_id":302,"name":"Humboldt","steam_id":76561198064930358,"connected_time":1190000000000,"state":"active","ping":68},{"user_id":299,"name":"Cup","steam_id":76561198038485845,"connected_time":1207000000000,"state":"active","ping":31},{"user_id":300,"name":"namesnull","steam_id":76561199075421954,"connected_time":1207000000000,"state":"active","ping":68},{"user_id":313,"name":"Sneevil Gladiator (Level 2)","steam_id":76561198301282416,"connected_time":139000000000,"state":"active","ping":57},{"user_id":236,"name":"Livid","steam_id":76561198060024585,"connected_time":6091000000000,"state":"active","ping":42},{"user_id":288,"name":"4-Star Yelp Review","steam_id":76561197995258180,"connected_time":2152000000000,"state":"active","ping":51},{"user_id":301,"name":"lemur","steam_id":76561198278239170,"connected_time":1203000000000,"state":"active","ping":90},{"user_id":308,"name":"Mr Luxury Yacht","steam_id":76561198047586836,"connected_time":910000000000,"state":"active","ping":82}]},{"server_id":123,"name":"Uncletopia | Sydney | 2 | All Maps","name_short":"syd-2","host":"syd-1.au.uncletopia.com","port":27025,"enabled":true,"region":"au","cc":"au","latitude":-33.865143,"longitude":151.2099,"reserved":0,"last_update":"0001-01-01T00:00:00Z","name_a2s":"Uncletopia | Sydney | 2 | All Maps","protocol":17,"map":"koth_highpass","folder":"tf","game":"Team Fortress","app_id":440,"player_count":4,"max_players":24,"Bots":0,"server_type":"Dedicated","server_os":"Linux","password":true,"vac":true,"version":"7757534","steam_id":85568392924470002,"keywords":["cp","nocrits","nodmgspread","uncletopia"],"game_id":440,"stv_port":27026,"stv_name":"Uncletopia | Sydney | 2 | All Maps | STV","players":[{"user_id":15,"name":"Mikey","steam_id":76561198438203131,"connected_time":826000000000,"state":"active","ping":59},{"user_id":16,"name":"I have no ass and i must shit","steam_id":76561199028542666,"connected_time":688000000000,"state":"active","ping":38},{"user_id":18,"name":"Ironical","steam_id":76561198184873390,"connected_time":618000000000,"state":"active","ping":45},{"user_id":19,"name":"bonaparte napoleon","steam_id":76561199021649596,"connected_time":466000000000,"state":"active","ping":86}]},{"server_id":395,"name":"Uncletopia | Sydney | 3 | All Maps","name_short":"syd-3","host":"syd-1.au.uncletopia.com","port":27035,"enabled":true,"region":"au","cc":"au","latitude":-33.865143,"longitude":151.2099,"reserved":0,"last_update":"0001-01-01T00:00:00Z","name_a2s":"Uncletopia | Sydney | 3 | All Maps","protocol":17,"map":"cp_altitude","folder":"tf","game":"Team Fortress","app_id":440,"player_count":0,"max_players":24,"Bots":0,"server_type":"Dedicated","server_os":"Linux","password":true,"vac":true,"version":"7757534","steam_id":85568392925194467,"keywords":["cp","nocrits","nodmgspread","uncletopia"],"game_id":440,"stv_port":27036,"stv_name":"Uncletopia | Sydney | 3 | All Maps | STV","players":null},{"server_id":396,"name":"Uncletopia | Sydney | 4 | All Maps","name_short":"syd-4","host":"syd-1.au.uncletopia.com","port":27045,"enabled":true,"region":"au","cc":"au","latitude":-33.865143,"longitude":151.2099,"reserved":0,"last_update":"0001-01-01T00:00:00Z","name_a2s":"Uncletopia | Sydney | 4 | All Maps","protocol":17,"map":"koth_highpass","folder":"tf","game":"Team Fortress","app_id":440,"player_count":0,"max_players":24,"Bots":0,"server_type":"Dedicated","server_os":"Linux","password":true,"vac":true,"version":"7757534","steam_id":85568392925397958,"keywords":["cp","nocrits","nodmgspread","uncletopia"],"game_id":440,"stv_port":27046,"stv_name":"Uncletopia | Sydney | 4 | All Maps | STV","players":null},{"server_id":58,"name":"Uncletopia | Sydney | 5 | Stopwatch Beta","name_short":"syd-5","host":"syd-1.au.uncletopia.com","port":27055,"enabled":true,"region":"au","cc":"au","latitude":-33.865143,"longitude":151.2099,"reserved":0,"last_update":"0001-01-01T00:00:00Z","name_a2s":"Uncletopia | Sydney | 5 | Stopwatch Beta","protocol":17,"map":"koth_highpass","folder":"tf","game":"Team Fortress","app_id":440,"player_count":0,"max_players":24,"Bots":0,"server_type":"Dedicated","server_os":"Linux","password":true,"vac":true,"version":"7757534","steam_id":85568392925397959,"keywords":["cp","nocrits","nodmgspread","uncletopia"],"game_id":440,"stv_port":27056,"stv_name":"Uncletopia | Sydney | 5 | Stopwatch Beta | STV","players":null},{"server_id":59,"name":"Uncletopia | Sydney | 6 | Community","name_short":"syd-6","host":"syd-1.au.uncletopia.com","port":27065,"enabled":true,"region":"au","cc":"au","latitude":-33.865143,"longitude":151.2099,"reserved":0,"last_update":"0001-01-01T00:00:00Z","name_a2s":"Uncletopia | Sydney | 6 | Community","protocol":17,"map":"pl_badwater","folder":"tf","game":"Team Fortress","app_id":440,"player_count":0,"max_players":24,"Bots":0,"server_type":"Dedicated","server_os":"Linux","password":true,"vac":true,"version":"7757534","steam_id":85568392925397960,"keywords":["nocrits","nodmgspread","payload","uncletopia"],"game_id":440,"stv_port":27066,"stv_name":"Uncletopia | Sydney | 6 | Community | STV","players":null},{"server_id":49,"name":"Uncletopia | Warsaw | 1 | All Maps","name_short":"waw-1","host":"waw-1.pl.uncletopia.com","port":27015,"enabled":true,"region":"eu","cc":"pl","latitude":52.2297,"longitude":21.017532,"reserved":0,"last_update":"0001-01-01T00:00:00Z","name_a2s":"","protocol":0,"map":"","folder":"","game":"","app_id":0,"player_count":0,"max_players":0,"Bots":0,"server_type":"","server_os":"","password":false,"vac":false,"version":"","steam_id":0,"keywords":null,"game_id":0,"stv_port":0,"stv_name":"","players":null},{"server_id":50,"name":"Uncletopia | Warsaw | 2 | All Maps","name_short":"waw-2","host":"waw-1.pl.uncletopia.com","port":27025,"enabled":true,"region":"eu","cc":"pl","latitude":52.2297,"longitude":21.017532,"reserved":0,"last_update":"0001-01-01T00:00:00Z","name_a2s":"Uncletopia | Warsaw | 2 | All Maps","protocol":17,"map":"pl_upward","folder":"tf","game":"Team Fortress","app_id":440,"player_count":0,"max_players":24,"Bots":0,"server_type":"Dedicated","server_os":"Linux","password":true,"vac":true,"version":"7757534","steam_id":85568392925397851,"keywords":["nocrits","nodmgspread","payload","uncletopia"],"game_id":440,"stv_port":27026,"stv_name":"Uncletopia | Warsaw | 2 | All Maps | STV","players":null},{"server_id":51,"name":"Uncletopia | Warsaw | 3 | All Maps","name_short":"waw-3","host":"waw-1.pl.uncletopia.com","port":27035,"enabled":true,"region":"eu","cc":"pl","latitude":52.2297,"longitude":21.017532,"reserved":0,"last_update":"0001-01-01T00:00:00Z","name_a2s":"Uncletopia | Warsaw | 3 | All Maps","protocol":17,"map":"pl_barnblitz","folder":"tf","game":"Team Fortress","app_id":440,"player_count":0,"max_players":24,"Bots":0,"server_type":"Dedicated","server_os":"Linux","password":true,"vac":true,"version":"7757534","steam_id":85568392925397852,"keywords":["nocrits","nodmgspread","payload","uncletopia"],"game_id":440,"stv_port":27036,"stv_name":"Uncletopia | Warsaw | 3 | All Maps | STV","players":null},{"server_id":52,"name":"Uncletopia | Warsaw | 4 | All Maps","name_short":"waw-4","host":"waw-1.pl.uncletopia.com","port":27045,"enabled":true,"region":"eu","cc":"pl","latitude":52.2297,"longitude":21.017532,"reserved":0,"last_update":"0001-01-01T00:00:00Z","name_a2s":"Uncletopia | Warsaw | 4 | All Maps","protocol":17,"map":"cp_altitude","folder":"tf","game":"Team Fortress","app_id":440,"player_count":0,"max_players":24,"Bots":0,"server_type":"Dedicated","server_os":"Linux","password":true,"vac":true,"version":"7757534","steam_id":85568392925397853,"keywords":["cp","nocrits","nodmgspread","uncletopia"],"game_id":440,"stv_port":27046,"stv_name":"Uncletopia | Warsaw | 4 | All Maps | STV","players":null},{"server_id":53,"name":"Uncletopia | Warsaw | 5 | Stopwatch Beta","name_short":"waw-5","host":"waw-1.pl.uncletopia.com","port":27055,"enabled":true,"region":"eu","cc":"pl","latitude":52.2297,"longitude":21.017532,"reserved":0,"last_update":"0001-01-01T00:00:00Z","name_a2s":"Uncletopia | Warsaw | 5 | Stopwatch Beta","protocol":17,"map":"pl_pier","folder":"tf","game":"Team Fortress","app_id":440,"player_count":0,"max_players":24,"Bots":0,"server_type":"Dedicated","server_os":"Linux","password":true,"vac":true,"version":"7757534","steam_id":85568392925397854,"keywords":["nocrits","nodmgspread","payload","uncletopia"],"game_id":440,"stv_port":27056,"stv_name":"Uncletopia | Warsaw | 5 | Stopwatch Beta | STV","players":null},{"server_id":54,"name":"Uncletopia | Warsaw | 6 | Community","name_short":"waw-6","host":"waw-1.pl.uncletopia.com","port":27065,"enabled":true,"region":"eu","cc":"pl","latitude":52.2297,"longitude":21.017532,"reserved":0,"last_update":"0001-01-01T00:00:00Z","name_a2s":"Uncletopia | Warsaw | 6 | Community","protocol":17,"map":"koth_highpass","folder":"tf","game":"Team Fortress","app_id":440,"player_count":0,"max_players":24,"Bots":0,"server_type":"Dedicated","server_os":"Linux","password":true,"vac":true,"version":"7757534","steam_id":85568392925397856,"keywords":["cp","nocrits","nodmgspread","uncletopia"],"game_id":440,"stv_port":27066,"stv_name":"Uncletopia | Warsaw | 6 | Community | STV","players":null}]}