{"status":true,"message":"","result":[{"server_id":9,"name":"Uncletopia | Atlanta | 1 | All Maps","name_short":"atl-1","host":"atl-1.us.uncletopia.com","port":27015,"enabled":true,"region":"us-east","cc":"us","latitude":33.753746,"longitude":-84.38633,"reserved":0,"last_update":"0001-01-01T00:00:00Z","name_a2s":"Uncletopia | Atlanta | 1 | All Maps","protocol":17,"map":"cp_vanguard","folder":"tf","game":"Team Fortress","app_id":440,"player_count":24,"max_players":24,"Bots":0,"server_type":"Dedicated","server_os":"Linux","password":true,"vac":true,"version":"7695204","steam_id":85568392924469982,"keywords":["cp","nocrits","nodmgspread","uncletopia"],"game_id":440,"stv_port":27016,"stv_name":"Uncletopia | Atlanta | 1 | All Maps | STV","players":[{"user_id":55,"name":"Nintenjoe","steam_id":76561198821530178,"connected_time":6689000000000,"state":"active","ping":73},{"user_id":140,"name":"Lolxdloldx","steam_id":76561198136887125,"connected_time":1221000000000,"state":"active","ping":103},{"user_id":96,"name":"summerlis","steam_id":76561198165324438,"connected_time":3815000000000,"state":"active","ping":103},{"user_id":17,"name":"cs_crackhouse","steam_id":76561198339171507,"connected_time":8878000000000,"state":"active","ping":61},{"user_id":141,"name":"Rancho Pipaxo","steam_id":76561198096306325,"connected_time":799000000000,"state":"active","ping":94},{"user_id":10,"name":"Abbashea","steam_id":76561199182136969,"connected_time":10226000000000,"state":"active","ping":113},{"user_id":142,"name":"Zillers","steam_id":76561198095248744,"connected_time":765000000000,"state":"active","ping":68},{"user_id":107,"name":"MasterAmongRust","steam_id":76561198010160233,"connected_time":3033000000000,"state":"active","ping":81},{"user_id":122,"name":"trobin120","steam_id":76561199122420273,"connected_time":2180000000000,"state":"active","ping":62},{"user_id":143,"name":"Peter Griffin","steam_id":76561198119784475,"connected_time":718000000000,"state":"active","ping":106},{"user_id":144,"name":"Bashirider","steam_id":76561198260522253,"connected_time":717000000000,"state":"active","ping":64},{"user_id":145,"name":"Dr. RAAAAAAAGE","steam_id":76561198048272321,"connected_time":417000000000,"state":"active","ping":73},{"user_id":111,"name":"Fudgely","steam_id":76561198039425862,"connected_time":2718000000000,"state":"active","ping":64},{"user_id":117,"name":"Winter the Witchie","steam_id":76561198151971178,"connected_time":2337000000000,"state":"active","ping":67},{"user_id":124,"name":"Rockgraham101","steam_id":76561198171740458,"connected_time":2117000000000,"state":"active","ping":50},{"user_id":146,"name":"Totouri","steam_id":76561198004229789,"connected_time":410000000000,"state":"active","ping":75},{"user_id":126,"name":"Ether","steam_id":76561198054806528,"connected_time":2109000000000,"state":"active","ping":67},{"user_id":147,"name":"Eboness","steam_id":76561198026806990,"connected_time":407000000000,"state":"active","ping":62},{"user_id":151,"name":"DMM","steam_id":76561198065426171,"connected_time":192000000000,"state":"active","ping":66},{"user_id":148,"name":"Communist Killing Candy Cactus\ufffd","steam_id":76561198074980635,"connected_time":396000000000,"state":"active","ping":118},{"user_id":139,"name":"James","steam_id":76561198081313916,"connected_time":1350000000000,"state":"active","ping":56},{"user_id":150,"name":"BEN FRANKLYN KNOWS MY NAME","steam_id":76561199007029763,"connected_time":358000000000,"state":"active","ping":68},{"user_id":73,"name":"donti","steam_id":76561197977223197,"connected_time":5129000000000,"state":"active","ping":64},{"user_id":133,"name":"Pumbloom","steam_id":76561198024481281,"connected_time":1855000000000,"state":"active","ping":50}]},{"server_id":400,"name":"Uncletopia | Atlanta | 3 | All Maps","name_short":"atl-3","host":"atl-1.us.uncletopia.com","port":27035,"enabled":true,"region":"us-east","cc":"us","latitude":33.753746,"longitude":-84.38633,"reserved":0,"last_update":"0001-01-01T00:00:00Z","name_a2s":"Uncletopia | Atlanta | 3 | All Maps","protocol":17,"map":"cp_fastlane","folder":"tf","game":"Team Fortress","app_id":440,"player_count":0,"max_players":24,"Bots":0,"server_type":"Dedicated","server_os":"Linux","password":true,"vac":true,"version":"7695204","steam_id":85568392924515187,"keywords":["cp","nocrits","nodmgspread","uncletopia"],"game_id":440,"stv_port":27036,"stv_name":"Uncletopia | Atlanta | 3 | All Maps | STV","players":null},{"server_id":401,"name":"Uncletopia | Atlanta | 4 | No Payload","name_short":"atl-4","host":"atl-1.us.uncletopia.com","port":27045,"enabled":true,"region":"us-east","cc":"us","latitude":33.753746,"longitude":-84.38633,"reserved":0,"last_update":"0001-01-01T00:00:00Z","name_a2s":"Uncletopia | Atlanta | 4 | No Payload","protocol":17,"map":"pl_frontier_final","folder":"tf","game":"Team Fortress","app_id":440,"player_count":0,"max_players":24,"Bots":0,"server_type":"Dedicated","server_os":"Linux","password":true,"vac":true,"version":"7695204","steam_id":85568392924515188,"keywords":["nocrits","nodmgspread","payload","uncletopia"],"game_id":440,"stv_port":0,"stv_name":"","players":null},{"server_id":2,"name":"Uncletopia | Chicago | 1 | All Maps","name_short":"chi-1","host":"chi-1.us.uncletopia.com","port":27015,"enabled":true,"region":"us-central","cc":"us","latitude":41.881832,"longitude":-87.62318,"reserved":0,"last_update":"0001-01-01T00:00:00Z","name_a2s":"Uncletopia | Chicago | 1 | All Maps","protocol":17,"map":"cp_gravelpit","folder":"tf","game":"Team Fortress","app_id":440,"player_count":24,"max_players":24,"Bots":0,"server_type":"Dedicated","server_os":"Linux","password":true,"vac":true,"version":"7695204","steam_id":85568392924469984,"keywords":["cp","nocrits","nodmgspread","uncletopia"],"game_id":440,"stv_port":27016,"stv_name":"Uncletopia | Chicago | 1 | All Maps | STV","players":[{"user_id":15,"name":"beta central","steam_id":76561198301876831,"connected_time":4304000000000,"state":"active","ping":59},{"user_id":16,"name":"Gunkzilla","steam_id":76561198068228415,"connected_time":4277000000000,"state":"active","ping":59},{"user_id":43,"name":"Lady Duckland","steam_id":76561198077092840,"connected_time":2197000000000,"state":"active","ping":57},{"user_id":18,"name":"Chode Mode","steam_id":76561198353840477,"connected_time":3689000000000,"state":"active","ping":53},{"user_id":66,"name":"Gabinator32","steam_id":76561198872467183,"connected_time":491000000000,"state":"active","ping":47},{"user_id":20,"name":"Wolverine466","steam_id":76561198417522516,"connected_time":3563000000000,"state":"active","ping":43},{"user_id":67,"name":"The Animated Gamer","steam_id":76561198120639995,"connected_time":50000000000,"state":"spawning","ping":182},{"user_id":61,"name":"Your Girlfriend's Husband","steam_id":76561198426986425,"connected_time":696000000000,"state":"active","ping":162},{"user_id":64,"name":"Lawnmower","steam_id":76561198186680197,"connected_time":578000000000,"state":"active","ping":99},{"user_id":58,"name":"DefectiveWarhead","steam_id":76561198067746049,"connected_time":965000000000,"state":"active","ping":109},{"user_id":63,"name":"Riske","steam_id":76561198115840568,"connected_time":597000000000,"state":"active","ping":71},{"user_id":54,"name":"NoShen","steam_id":76561198147434663,"connected_time":1846000000000,"state":"active","ping":63},{"user_id":30,"name":"Elpipiribao","steam_id":76561198825371499,"connected_time":3023000000000,"state":"active","ping":126},{"user_id":40,"name":"Elena Manetta","steam_id":76561197998344054,"connected_time":2378000000000,"state":"active","ping":59},{"user_id":65,"name":"Jackie_Lope","steam_id":76561198048297412,"connected_time":508000000000,"state":"active","ping":48},{"user_id":62,"name":"SomeFunGai","steam_id":76561198083021042,"connected_time":653000000000,"state":"active","ping":60},{"user_id":39,"name":"Goofball","steam_id":76561198074189084,"connected_time":2406000000000,"state":"active","ping":59},{"user_id":50,"name":"⚡Mr.Muff ლ๊","steam_id":76561198217103553,"connected_time":2097000000000,"state":"active","ping":63},{"user_id":46,"name":"hotbox","steam_id":76561198184076165,"connected_time":2145000000000,"state":"active","ping":150},{"user_id":59,"name":"just another furry","steam_id":76561198262852705,"connected_time":735000000000,"state":"active","ping":83},{"user_id":47,"name":"09robcraft2","steam_id":76561199073189184,"connected_time":2142000000000,"state":"active","ping":85},{"user_id":48,"name":"SwooWoop","steam_id":76561199244312225,"connected_time":2142000000000,"state":"active","ping":99},{"user_id":56,"name":"Veirū Viseris","steam_id":76561197989857176,"connected_time":1334000000000,"state":"active","ping":163}]},{"server_id":106,"name":"Uncletopia | Chicago | 2 | All Maps","name_short":"chi-2","host":"chi-1.us.uncletopia.com","port":27025,"enabled":true,"region":"us-central","cc":"us","latitude":41.881832,"longitude":-87.62318,"reserved":0,"last_update":"0001-01-01T00:00:00Z","name_a2s":"Uncletopia | Chicago | 2 | All Maps","protocol":17,"map":"cp_well","folder":"tf","game":"Team Fortress","app_id":440,"player_count":1,"max_players":24,"Bots":0,"server_type":"Dedicated","server_os":"Linux","password":true,"vac":true,"version":"7695204","steam_id":85568392924469985,"keywords":["cp","nocrits","nodmgspread","uncletopia"],"game_id":440,"stv_port":27026,"stv_name":"Uncletopia | Chicago | 2 | All Maps | STV","players":[{"user_id":7,"name":"stop","steam_id":76561198268686419,"connected_time":844000000000,"state":"active","ping":45}]},{"server_id":402,"name":"Uncletopia | Chicago | 3 | All Maps","name_short":"chi-3","host":"chi-1.us.uncletopia.com","port":27035,"enabled":true,"region":"us-central","cc":"us","latitude":41.881832,"longitude":-87.62318,"reserved":0,"last_update":"0001-01-01T00:00:00Z","name_a2s":"Uncletopia | Chicago | 3 | All Maps","protocol":17,"map":"cp_snakewater_final1","folder":"tf","game":"Team Fortress","app_id":440,"player_count":0,"max_players":24,"Bots":0,"server_type":"Dedicated","server_os":"Linux","password":true,"vac":true,"version":"7695204","steam_id":85568392924515191,"keywords":["cp","nocrits","nodmgspread","uncletopia"],"game_id":440,"stv_port":0,"stv_name":"","players":null},{"server_id":403,"name":"Uncletopia | Chicago | 4 | All Maps","name_short":"chi-4","host":"chi-1.us.uncletopia.com","port":27045,"enabled":true,"region":"us-central","cc":"us","latitude":41.881832,"longitude":-87.62318,"reserved":0,"last_update":"0001-01-01T00:00:00Z","name_a2s":"Uncletopia | Chicago | 4 | All Maps","protocol":17,"map":"cp_granary","folder":"tf","game":"Team Fortress","app_id":440,"player_count":0,"max_players":24,"Bots":0,"server_type":"Dedicated","server_os":"Linux","password":true,"vac":true,"version":"7695204","steam_id":85568392924515193,"keywords":["cp","nocrits","nodmgspread","uncletopia"],"game_id":440,"stv_port":27046,"stv_name":"Uncletopia | Chicago | 4 | All Maps | STV","players":null},{"server_id":36,"name":"Uncletopia | Chicago | 5 | All Maps","name_short":"chi-5","host":"chi-2.us.uncletopia.com","port":27015,"enabled":true,"region":"us-central","cc":"us","latitude":41.881832,"longitude":-87.62318,"reserved":0,"last_update":"0001-01-01T00:00:00Z","name_a2s":"Uncletopia | Chicago | 5 | All Maps","protocol":17,"map":"pl_upward","folder":"tf","game":"Team Fortress","app_id":440,"player_count":0,"max_players":24,"Bots":0,"server_type":"Dedicated","server_os":"Linux","password":true,"vac":true,"version":"7695204","steam_id":85568392924866362,"keywords":["nocrits","nodmgspread","payload","uncletopia"],"game_id":440,"stv_port":0,"stv_name":"","players":null},{"server_id":37,"name":"Uncletopia | Chicago | 6 | All Maps","name_short":"chi-6","host":"chi-2.us.uncletopia.com","port":27025,"enabled":true,"region":"us-central","cc":"us","latitude":41.881832,"longitude":-87.62318,"reserved":0,"last_update":"0001-01-01T00:00:00Z","name_a2s":"Uncletopia | Chicago | 6 | All Maps","protocol":17,"map":"koth_highpass","folder":"tf","game":"Team Fortress","app_id":440,"player_count":0,"max_players":24,"Bots":0,"server_type":"Dedicated","server_os":"Linux","password":true,"vac":true,"version":"7695204","steam_id":85568392924866363,"keywords":["cp","nocrits","nodmgspread","uncletopia"],"game_id":440,"stv_port":0,"stv_name":"","players":null},{"server_id":38,"name":"Uncletopia | Chicago | 7 | No Payload","name_short":"chi-7","host":"chi-2.us.uncletopia.com","port":27035,"enabled":true,"region":"us-central","cc":"us","latitude":41.881832,"longitude":-87.62318,"reserved":0,"last_update":"0001-01-01T00:00:00Z","name_a2s":"Uncletopia | Chicago | 7 | No Payload","protocol":17,"map":"koth_viaduct","folder":"tf","game":"Team Fortress","app_id":440,"player_count":0,"max_players":24,"Bots":0,"server_type":"Dedicated","server_os":"Linux","password":true,"vac":true,"version":"7695204","steam_id":85568392924866364,"keywords":["cp","nocrits","nodmgspread","uncletopia"],"game_id":440,"stv_port":0,"stv_name":"","players":null},{"server_id":39,"name":"Uncletopia | Chicago | 8 | Community","name_short":"chi-8","host":"chi-2.us.uncletopia.com","port":27045,"enabled":true,"region":"us-central","cc":"us","latitude":41.881832,"longitude":-87.62318,"reserved":0,"last_update":"0001-01-01T00:00:00Z","name_a2s":"Uncletopia | Chicago | 8 | Community","protocol":17,"map":"cp_sunshine","folder":"tf","game":"Team Fortress","app_id":440,"player_count":0,"max_players":24,"Bots":0,"server_type":"Dedicated","server_os":"Linux","password":true,"vac":true,"version":"7695204","steam_id":85568392924866365,"keywords":["cp","nocrits","nodmgspread","uncletopia"],"game_id":440,"stv_port":0,"stv_name":"","players":null},{"server_id":8,"name":"Uncletopia | Dallas | 1 | All Maps","name_short":"dal-1","host":"dal-1.us.uncletopia.com","port":27015,"enabled":true,"region":"us-central","cc":"us","latitude":32.779167,"longitude":-96.80889,"reserved":0,"last_update":"0001-01-01T00:00:00Z","name_a2s":"Uncletopia | Dallas | 1 | All Maps","protocol":17,"map":"cp_standin_final","folder":"tf","game":"Team Fortress","app_id":440,"player_count":0,"max_players":24,"Bots":0,"server_type":"Dedicated","server_os":"Linux","password":true,"vac":true,"version":"7695204","steam_id":85568392924469986,"keywords":["cp","nocrits","nodmgspread","uncletopia"],"game_id":440,"stv_port":27016,"stv_name":"Uncletopia | Dallas | 1 | All Maps | STV","players":null},{"server_id":108,"name":"Uncletopia | Dallas | 2 | All Maps","name_short":"dal-2","host":"dal-1.us.uncletopia.com","port":27025,"enabled":true,"region":"us-central","cc":"us","latitude":32.779167,"longitude":-96.80889,"reserved":0,"last_update":"0001-01-01T00:00:00Z","name_a2s":"Uncletopia | Dallas | 2 | All Maps","protocol":17,"map":"koth_harvest_final","folder":"tf","game":"Team Fortress","app_id":440,"player_count":0,"max_players":24,"Bots":0,"server_type":"Dedicated","server_os":"Linux","password":true,"vac":true,"version":"7695204","steam_id":85568392924469988,"keywords":["cp","nocrits","nodmgspread","uncletopia"],"game_id":440,"stv_port":27026,"stv_name":"Uncletopia | Dallas | 2 | All Maps | STV","players":null},{"server_id":5,"name":"Uncletopia | Frankfurt | 1 | All Maps","name_short":"frk-1","host":"frk-1.de.uncletopia.com","port":27015,"enabled":true,"region":"eu","cc":"de","latitude":50.110924,"longitude":8.682127,"reserved":0,"last_update":"0001-01-01T00:00:00Z","name_a2s":"Uncletopia | Frankfurt | 1 | All Maps","protocol":17,"map":"ctf_sawmill","folder":"tf","game":"Team Fortress","app_id":440,"player_count":24,"max_players":24,"Bots":0,"server_type":"Dedicated","server_os":"Linux","password":true,"vac":true,"version":"7695204","steam_id":85568392924469989,"keywords":["ctf","nocrits","nodmgspread","uncletopia"],"game_id":440,"stv_port":27016,"stv_name":"Uncletopia | Frankfurt | 1 | All Maps | STV","players":[{"user_id":474,"name":"RAMA","steam_id":76561198040423618,"connected_time":1043000000000,"state":"active","ping":77},{"user_id":461,"name":".apo","steam_id":76561198003042239,"connected_time":1611000000000,"state":"active","ping":58},{"user_id":484,"name":"ToniGAM3S","steam_id":76561198128605351,"connected_time":262000000000,"state":"active","ping":60},{"user_id":489,"name":"The Imperial","steam_id":76561198374118102,"connected_time":202000000000,"state":"active","ping":57},{"user_id":490,"name":"Michał","steam_id":76561198320346362,"connected_time":199000000000,"state":"active","ping":61},{"user_id":449,"name":"roar","steam_id":76561198032516058,"connected_time":2420000000000,"state":"active","ping":57},{"user_id":457,"name":"DarkFloy | Bomboclat Player","steam_id":76561198070650206,"connected_time":1995000000000,"state":"active","ping":71},{"user_id":491,"name":"SomePrussian","steam_id":76561198152001501,"connected_time":194000000000,"state":"active","ping":68},{"user_id":456,"name":"Sodemo","steam_id":76561198074987146,"connected_time":2004000000000,"state":"active","ping":55},{"user_id":422,"name":"Carry Krypl","steam_id":76561198136938121,"connected_time":3144000000000,"state":"active","ping":49},{"user_id":494,"name":"krutoi384927cc","steam_id":76561199407871806,"connected_time":63000000000,"state":"active","ping":61},{"user_id":478,"name":"penis","steam_id":76561198412197820,"connected_time":796000000000,"state":"active","ping":78},{"user_id":475,"name":"HMSShipHappens","steam_id":76561198966829969,"connected_time":984000000000,"state":"active","ping":85},{"user_id":492,"name":"from the shadows","steam_id":76561198322217890,"connected_time":138000000000,"state":"active","ping":54},{"user_id":481,"name":"Lukas","steam_id":76561198009118452,"connected_time":556000000000,"state":"active","ping":49},{"user_id":493,"name":".jar.","steam_id":76561198042545701,"connected_time":81000000000,"state":"active","ping":68},{"user_id":418,"name":"Salabombo","steam_id":76561198127765356,"connected_time":3433000000000,"state":"active","ping":99},{"user_id":472,"name":"7blak ♿","steam_id":76561198078928120,"connected_time":1154000000000,"state":"active","ping":78},{"user_id":477,"name":"Rambi","steam_id":76561199058078505,"connected_time":897000000000,"state":"active","ping":189},{"user_id":464,"name":"Harpenden, Harpenden, Harpenden","steam_id":76561198118138546,"connected_time":1502000000000,"state":"active","ping":55},{"user_id":450,"name":"ProfessorCrack","steam_id":76561199035475627,"connected_time":2373000000000,"state":"active","ping":79},{"user_id":482,"name":"Who else but Quagmire?","steam_id":76561198358275344,"connected_time":446000000000,"state":"active","ping":57},{"user_id":479,"name":"Oddos","steam_id":76561198032029823,"connected_time":680000000000,"state":"active","ping":69},{"user_id":488,"name":"Willy","steam_id":76561199240618325,"connected_time":236000000000,"state":"active","ping":155}]},{"server_id":110,"name":"Uncletopia | Frankfurt | 2 | All Maps","name_short":"frk-2","host":"frk-1.de.uncletopia.com","port":27025,"enabled":true,"region":"eu","cc":"de","latitude":50.110924,"longitude":8.682127,"reserved":0,"last_update":"0001-01-01T00:00:00Z","name_a2s":"Uncletopia | Frankfurt | 2 | All Maps","protocol":17,"map":"plr_pipeline","folder":"tf","game":"Team Fortress","app_id":440,"player_count":24,"max_players":24,"Bots":0,"server_type":"Dedicated","server_os":"Linux","password":true,"vac":true,"version":"7695204","steam_id":85568392924469990,"keywords":["nocrits","nodmgspread","payload","uncletopia"],"game_id":440,"stv_port":27026,"stv_name":"Uncletopia | Frankfurt | 2 | All Maps | STV","players":[{"user_id":173,"name":"Hokardjo","steam_id":76561198044093076,"connected_time":378000000000,"state":"active","ping":55},{"user_id":170,"name":"disposablesuperbread","steam_id":76561199074703607,"connected_time":742000000000,"state":"active","ping":67},{"user_id":167,"name":"jorj3821","steam_id":76561198844794367,"connected_time":1159000000000,"state":"active","ping":62},{"user_id":161,"name":"[x_x]","steam_id":76561198067445084,"connected_time":1772000000000,"state":"active","ping":89},{"user_id":169,"name":"Bell","steam_id":76561199413517335,"connected_time":892000000000,"state":"active","ping":131},{"user_id":157,"name":"Chocofrolik","steam_id":76561198454779847,"connected_time":2085000000000,"state":"active","ping":65},{"user_id":174,"name":"moon","steam_id":76561199212557251,"connected_time":290000000000,"state":"active","ping":127},{"user_id":134,"name":"Bochan","steam_id":76561198229071660,"connected_time":3700000000000,"state":"active","ping":80},{"user_id":162,"name":"Synthetic Synth","steam_id":76561198441348646,"connected_time":1636000000000,"state":"active","ping":78},{"user_id":163,"name":"Proto","steam_id":76561197996013378,"connected_time":1623000000000,"state":"active","ping":50},{"user_id":57,"name":"Señior El Pedro Alvarez ツ","steam_id":76561198150112350,"connected_time":10102000000000,"state":"active","ping":96},{"user_id":166,"name":":)","steam_id":76561199169459145,"connected_time":1441000000000,"state":"active","ping":105},{"user_id":128,"name":"casual zyzz praiser","steam_id":76561198022382969,"connected_time":3975000000000,"state":"active","ping":75},{"user_id":156,"name":"ɘƚɒ⅃ɘƚɒ⅃ /./ =)(= \\.\\","steam_id":76561198053339372,"connected_time":2243000000000,"state":"active","ping":55},{"user_id":158,"name":"garbage hybridknight","steam_id":76561198361819054,"connected_time":2019000000000,"state":"active","ping":104},{"user_id":154,"name":"denji741games","steam_id":76561198067499762,"connected_time":2296000000000,"state":"active","ping":89},{"user_id":94,"name":"Milca_11","steam_id":76561198848650365,"connected_time":6859000000000,"state":"active","ping":85},{"user_id":168,"name":"mental","steam_id":76561198235959132,"connected_time":1073000000000,"state":"active","ping":67},{"user_id":159,"name":"boldno","steam_id":76561198127094314,"connected_time":2001000000000,"state":"active","ping":62},{"user_id":160,"name":"one popcorn","steam_id":76561198175469410,"connected_time":1871000000000,"state":"active","ping":74},{"user_id":132,"name":"DreamMamker","steam_id":76561198381800498,"connected_time":3849000000000,"state":"active","ping":124},{"user_id":150,"name":"mimi","steam_id":76561198060648946,"connected_time":2395000000000,"state":"active","ping":59},{"user_id":50,"name":"siema","steam_id":76561198531978435,"connected_time":10386000000000,"state":"active","ping":68},{"user_id":165,"name":"!raven","steam_id":76561198320336543,"connected_time":1566000000000,"state":"active","ping":92}]},{"server_id":308,"name":"Uncletopia | Frankfurt | 3 | All Maps","name_short":"frk-3","host":"frk-1.de.uncletopia.com","port":27035,"enabled":true,"region":"eu","cc":"de","latitude":50.110924,"longitude":8.682127,"reserved":0,"last_update":"0001-01-01T00:00:00Z","name_a2s":"Uncletopia | Frankfurt | 3 | All Maps","protocol":17,"map":"ctf_2fort","folder":"tf","game":"Team Fortress","app_id":440,"player_count":19,"max_players":24,"Bots":0,"server_type":"Dedicated","server_os":"Linux","password":true,"vac":true,"version":"7695204","steam_id":85568392924504274,"keywords":["ctf","nocrits","nodmgspread","uncletopia"],"game_id":440,"stv_port":27036,"stv_name":"Uncletopia | Frankfurt | 3 | All Maps | STV","players":[{"user_id":87,"name":"LazyBane","steam_id":76561198032359132,"connected_time":1285000000000,"state":"active","ping":51},{"user_id":95,"name":"r06u3","steam_id":76561198254099253,"connected_time":967000000000,"state":"active","ping":183},{"user_id":98,"name":"Canis[Magnus]Pectus","steam_id":76561198363775072,"connected_time":888000000000,"state":"active","ping":111},{"user_id":54,"name":"sperma gyerek","steam_id":76561198742407927,"connected_time":3277000000000,"state":"active","ping":73},{"user_id":115,"name":"walküre_","steam_id":76561199245051414,"connected_time":74000000000,"state":"active","ping":111},{"user_id":13,"name":"Garden Freeman","steam_id":76561199073314677,"connected_time":5324000000000,"state":"active","ping":62},{"user_id":114,"name":"csnipery","steam_id":76561199435280050,"connected_time":103000000000,"state":"active","ping":61},{"user_id":110,"name":"peams","steam_id":76561198343328308,"connected_time":263000000000,"state":"active","ping":55},{"user_id":113,"name":"Semik","steam_id":76561199088506542,"connected_time":138000000000,"state":"active","ping":46},{"user_id":101,"name":"arak","steam_id":76561199232442508,"connected_time":565000000000,"state":"active","ping":65},{"user_id":104,"name":"666sammy","steam_id":76561198016607625,"connected_time":456000000000,"state":"active","ping":85},{"user_id":103,"name":"the worst polish person","steam_id":76561199433578516,"connected_time":498000000000,"state":"active","ping":84},{"user_id":102,"name":"dwi","steam_id":76561198032014667,"connected_time":553000000000,"state":"active","ping":52},{"user_id":112,"name":"Dark Presence","steam_id":76561198315948912,"connected_time":187000000000,"state":"active","ping":194},{"user_id":92,"name":"Sheerluck Holmes","steam_id":76561198051161936,"connected_time":1145000000000,"state":"active","ping":58},{"user_id":116,"name":"king5","steam_id":76561198043705267,"connected_time":54000000000,"state":"active","ping":168},{"user_id":117,"name":"dbsoyal","steam_id":76561198385990635,"connected_time":0,"state":"spawning","ping":34},{"user_id":100,"name":"Jessica","steam_id":76561198342993279,"connected_time":882000000000,"state":"active","ping":109},{"user_id":94,"name":"Welder","steam_id":76561198355300561,"connected_time":1136000000000,"state":"active","ping":68}]},{"server_id":309,"name":"Uncletopia | Frankfurt | 4 | All Maps","name_short":"frk-4","host":"frk-1.de.uncletopia.com","port":27045,"enabled":true,"region":"eu","cc":"de","latitude":50.110924,"longitude":8.682127,"reserved":0,"last_update":"0001-01-01T00:00:00Z","name_a2s":"Uncletopia | Frankfurt | 4 | All Maps","protocol":17,"map":"ctf_doublecross","folder":"tf","game":"Team Fortress","app_id":440,"player_count":24,"max_players":24,"Bots":0,"server_type":"Dedicated","server_os":"Linux","password":true,"vac":true,"version":"7695204","steam_id":85568392924504275,"keywords":["ctf","nocrits","nodmgspread","uncletopia"],"game_id":440,"stv_port":27046,"stv_name":"Uncletopia | Frankfurt | 4 | All Maps | STV","players":[{"user_id":274,"name":"El Gato Volador","steam_id":76561198021296882,"connected_time":436000000000,"state":"active","ping":60},{"user_id":278,"name":"F1-M","steam_id":76561198198409875,"connected_time":135000000000,"state":"active","ping":124},{"user_id":275,"name":"Hies","steam_id":76561198246324242,"connected_time":433000000000,"state":"active","ping":104},{"user_id":260,"name":"Kahvi","steam_id":76561198723244199,"connected_time":920000000000,"state":"active","ping":90},{"user_id":279,"name":"RubenFisher","steam_id":76561199236976484,"connected_time":89000000000,"state":"active","ping":57},{"user_id":216,"name":"Bajas","steam_id":76561198179339326,"connected_time":4823000000000,"state":"active","ping":74},{"user_id":252,"name":"Hasamnas","steam_id":76561199125038537,"connected_time":1841000000000,"state":"active","ping":67},{"user_id":271,"name":"X45Y","steam_id":76561198112534025,"connected_time":529000000000,"state":"active","ping":45},{"user_id":191,"name":"Mi Manchi","steam_id":76561198171573129,"connected_time":6870000000000,"state":"active","ping":60},{"user_id":280,"name":"MoltioN","steam_id":76561198092747292,"connected_time":2000000000,"state":"spawning","ping":106},{"user_id":265,"name":"highwayman","steam_id":76561199230709660,"connected_time":810000000000,"state":"active","ping":45},{"user_id":250,"name":"profeshional cactus","steam_id":76561198837919828,"connected_time":1985000000000,"state":"active","ping":107},{"user_id":243,"name":"Rarky","steam_id":76561198054398642,"connected_time":3176000000000,"state":"active","ping":45},{"user_id":266,"name":"JeanCorben","steam_id":76561197965133561,"connected_time":789000000000,"state":"active","ping":45},{"user_id":222,"name":"ZANNABLUKE","steam_id":76561198013534336,"connected_time":4551000000000,"state":"active","ping":51},{"user_id":232,"name":"squib","steam_id":76561198049170360,"connected_time":4051000000000,"state":"active","ping":50},{"user_id":267,"name":"killer chiken","steam_id":76561198847191826,"connected_time":770000000000,"state":"active","ping":74},{"user_id":245,"name":"Jon","steam_id":76561198148858397,"connected_time":3056000000000,"state":"active","ping":60},{"user_id":276,"name":"angel","steam_id":76561198121408313,"connected_time":404000000000,"state":"active","ping":73},{"user_id":273,"name":"Pyrolander","steam_id":76561198050785450,"connected_time":460000000000,"state":"active","ping":54},{"user_id":259,"name":"xavier_xylophone_2001","steam_id":76561198076494034,"connected_time":972000000000,"state":"active","ping":56},{"user_id":277,"name":"Fevol","steam_id":76561198047802034,"connected_time":237000000000,"state":"active","ping":62},{"user_id":242,"name":"Grim the lemon","steam_id":76561199083433988,"connected_time":3258000000000,"state":"active","ping":64},{"user_id":253,"name":"Tweek.","steam_id":76561198030958701,"connected_time":1778000000000,"state":"active","ping":76}]},{"server_id":310,"name":"Uncletopia | Frankfurt | 5 | All Maps","name_short":"frk-5","host":"frk-1.de.uncletopia.com","port":27055,"enabled":true,"region":"eu","cc":"de","latitude":50.110924,"longitude":8.682127,"reserved":0,"last_update":"0001-01-01T00:00:00Z","name_a2s":"Uncletopia | Frankfurt | 5 | All Maps","protocol":17,"map":"koth_lakeside_final","folder":"tf","game":"Team Fortress","app_id":440,"player_count":0,"max_players":24,"Bots":0,"server_type":"Dedicated","server_os":"Linux","password":true,"vac":true,"version":"7695204","steam_id":85568392924504277,"keywords":["cp","nocrits","nodmgspread","uncletopia"],"game_id":440,"stv_port":0,"stv_name":"","players":null},{"server_id":311,"name":"Uncletopia | Frankfurt | 6 | All Maps","name_short":"frk-6","host":"frk-1.de.uncletopia.com","port":27065,"enabled":true,"region":"eu","cc":"de","latitude":50.110924,"longitude":8.682127,"reserved":0,"last_update":"0001-01-01T00:00:00Z","name_a2s":"Uncletopia | Frankfurt | 6 | All Maps","protocol":17,"map":"cp_mountainlab","folder":"tf","game":"Team Fortress","app_id":440,"player_count":24,"max_players":24,"Bots":0,"server_type":"Dedicated","server_os":"Linux","password":true,"vac":true,"version":"7695204","steam_id":85568392924504278,"keywords":["cp","nocrits","nodmgspread","uncletopia"],"game_id":440,"stv_port":27066,"stv_name":"Uncletopia | Frankfurt | 6 | All Maps | STV","players":[{"user_id":531,"name":"Edla","steam_id":76561198062815315,"connected_time":1472000000000,"state":"active","ping":104},{"user_id":528,"name":"Ponto-Cho","steam_id":76561198859709451,"connected_time":1667000000000,"state":"active","ping":41},{"user_id":539,"name":"Leibeigener","steam_id":76561199275478305,"connected_time":714000000000,"state":"active","ping":37},{"user_id":454,"name":"shaunrq","steam_id":76561199136585297,"connected_time":5347000000000,"state":"active","ping":58},{"user_id":537,"name":"Rezzarezz","steam_id":76561198092020043,"connected_time":902000000000,"state":"active","ping":60},{"user_id":365,"name":"night.s","steam_id":76561198326287823,"connected_time":10634000000000,"state":"active","ping":73},{"user_id":540,"name":"Queer","steam_id":76561198407559512,"connected_time":664000000000,"state":"active","ping":57},{"user_id":486,"name":"--","steam_id":76561199065917088,"connected_time":3858000000000,"state":"active","ping":65},{"user_id":507,"name":"_sXimik","steam_id":76561198018236969,"connected_time":2821000000000,"state":"active","ping":62},{"user_id":518,"name":"chief","steam_id":76561197995856532,"connected_time":2484000000000,"state":"active","ping":53},{"user_id":538,"name":"Gonubax","steam_id":76561198192843133,"connected_time":842000000000,"state":"active","ping":61},{"user_id":542,"name":"xXdoge gaming 42069Xx","steam_id":76561198372971096,"connected_time":496000000000,"state":"active","ping":70},{"user_id":544,"name":"Mr.Schnittlauch","steam_id":76561198295868113,"connected_time":174000000000,"state":"active","ping":65},{"user_id":495,"name":"Joff-tchoff-tchoffo-tchoffo-tch","steam_id":76561198044167743,"connected_time":3708000000000,"state":"active","ping":133},{"user_id":533,"name":"Listerine Larry","steam_id":76561198093229786,"connected_time":1129000000000,"state":"active","ping":66},{"user_id":545,"name":"Raldow","steam_id":76561198021389301,"connected_time":139000000000,"state":"active","ping":66},{"user_id":517,"name":"Thisisthecat","steam_id":76561198403314907,"connected_time":2504000000000,"state":"active","ping":53},{"user_id":526,"name":"default enjoyer","steam_id":76561198097789669,"connected_time":1776000000000,"state":"active","ping":63},{"user_id":525,"name":"twitch/auratf2","steam_id":76561197988085026,"connected_time":1870000000000,"state":"active","ping":76},{"user_id":505,"name":"SvbK","steam_id":76561198201478866,"connected_time":2947000000000,"state":"active","ping":82},{"user_id":543,"name":"KeNNy L.O.L","steam_id":76561198041918418,"connected_time":388000000000,"state":"active","ping":106},{"user_id":541,"name":"Lucan","steam_id":76561198219195135,"connected_time":641000000000,"state":"active","ping":59},{"user_id":483,"name":"giclure :;","steam_id":76561197986362828,"connected_time":4000000000000,"state":"active","ping":45},{"user_id":519,"name":"pizza time","steam_id":76561199015899793,"connected_time":2420000000000,"state":"active","ping":56}]},{"server_id":23,"name":"Uncletopia | Frankfurt | 7 | No Payload","name_short":"frk-7","host":"frk-1.de.uncletopia.com","port":27075,"enabled":true,"region":"eu","cc":"de","latitude":50.110924,"longitude":8.682127,"reserved":0,"last_update":"0001-01-01T00:00:00Z","name_a2s":"Uncletopia | Frankfurt | 7 | No Payload","protocol":17,"map":"koth_suijin","folder":"tf","game":"Team Fortress","app_id":440,"player_count":4,"max_players":24,"Bots":0,"server_type":"Dedicated","server_os":"Linux","password":true,"vac":true,"version":"7695204","steam_id":85568392924742827,"keywords":["cp","nocrits","nodmgspread","uncletopia"],"game_id":440,"stv_port":27076,"stv_name":"Uncletopia | Frankfurt | 7 | No Payload | STV","players":[{"user_id":27,"name":"TheApo_Crusader","steam_id":76561199017592627,"connected_time":392000000000,"state":"active","ping":79},{"user_id":28,"name":"viziborju","steam_id":76561199145340529,"connected_time":96000000000,"state":"active","ping":75},{"user_id":22,"name":"Frank","steam_id":76561198086672774,"connected_time":1484000000000,"state":"active","ping":54},{"user_id":29,"name":"just a cat","steam_id":76561198328023740,"connected_time":92000000000,"state":"active","ping":45}]},{"server_id":24,"name":"Uncletopia | Frankfurt | 8 | Community","name_short":"frk-8","host":"frk-1.de.uncletopia.com","port":27085,"enabled":true,"region":"eu","cc":"de","latitude":50.110924,"longitude":8.682127,"reserved":0,"last_update":"0001-01-01T00:00:00Z","name_a2s":"Uncletopia | Frankfurt | 8 | Community","protocol":17,"map":"workshop/cp_overgrown_rc7b.ugc503939302","folder":"tf","game":"Team Fortress","app_id":440,"player_count":1,"max_players":24,"Bots":0,"server_type":"Dedicated","server_os":"Linux","password":true,"vac":true,"version":"7695204","steam_id":85568392924742828,"keywords":["cp","nocrits","nodmgspread","uncletopia"],"game_id":440,"stv_port":27086,"stv_name":"Uncletopia | Frankfurt | 8 | Community | STV","players":[{"user_id":235,"name":"full power heart attack","steam_id":76561199196568965,"connected_time":139000000000,"state":"active","ping":94}]},{"server_id":202,"name":"Uncletopia | Hong Kong | 1 | All Maps","name_short":"hgk-1","host":"hgk-1.hk.uncletopia.com","port":27015,"enabled":true,"region":"asia","cc":"hk","latitude":22.302711,"longitude":114.177216,"reserved":0,"last_update":"0001-01-01T00:00:00Z","name_a2s":"Uncletopia | Hong Kong | 1 | All Maps","protocol":17,"map":"cp_dustbowl","folder":"tf","game":"Team Fortress","app_id":440,"player_count":0,"max_players":24,"Bots":0,"server_type":"Dedicated","server_os":"Linux","password":true,"vac":true,"version":"7695204","steam_id":85568392924494504,"keywords":["cp","nocrits","nodmgspread","uncletopia"],"game_id":440,"stv_port":27016,"stv_name":"Uncletopia | Hong Kong | 1 | All Maps | STV","players":null},{"server_id":1,"name":"Uncletopia | Los Angeles | 1 | All Maps","name_short":"lax-1","host":"lax-1.us.uncletopia.com","port":27015,"enabled":true,"region":"us-west","cc":"us","latitude":33.94279,"longitude":-118.41004,"reserved":0,"last_update":"0001-01-01T00:00:00Z","name_a2s":"Uncletopia | Los Angeles | 1 | All Maps","protocol":17,"map":"koth_cascade","folder":"tf","game":"Team Fortress","app_id":440,"player_count":0,"max_players":24,"Bots":0,"server_type":"Dedicated","server_os":"Linux","password":true,"vac":true,"version":"7695204","steam_id":85568392924469991,"keywords":["cp","nocrits","nodmgspread","uncletopia"],"game_id":440,"stv_port":0,"stv_name":"","players":null},{"server_id":112,"name":"Uncletopia | Los Angeles | 2 | All Maps","name_short":"lax-2","host":"lax-1.us.uncletopia.com","port":27025,"enabled":true,"region":"us-west","cc":"us","latitude":33.94279,"longitude":-118.41004,"reserved":0,"last_update":"0001-01-01T00:00:00Z","name_a2s":"Uncletopia | Los Angeles | 2 | All Maps","protocol":17,"map":"pl_borneo","folder":"tf","game":"Team Fortress","app_id":440,"player_count":0,"max_players":24,"Bots":0,"server_type":"Dedicated","server_os":"Linux","password":true,"vac":true,"version":"7695204","steam_id":85568392924469992,"keywords":["nocrits","nodmgspread","payload","uncletopia"],"game_id":440,"stv_port":0,"stv_name":"","players":null},{"server_id":324,"name":"Uncletopia | Los Angeles | 3 | All Maps","name_short":"lax-3","host":"lax-1.us.uncletopia.com","port":27035,"enabled":true,"region":"us-west","cc":"us","latitude":33.94279,"longitude":-118.41004,"reserved":0,"last_update":"0001-01-01T00:00:00Z","name_a2s":"Uncletopia | Los Angeles | 3 | All Maps","protocol":17,"map":"koth_cascade","folder":"tf","game":"Team Fortress","app_id":440,"player_count":0,"max_players":24,"Bots":0,"server_type":"Dedicated","server_os":"Linux","password":true,"vac":true,"version":"7695204","steam_id":85568392924510198,"keywords":["cp","nocrits","nodmgspread","uncletopia"],"game_id":440,"stv_port":0,"stv_name":"","players":null},{"server_id":25,"name":"Uncletopia | Los Angeles | 4 | No Payload","name_short":"lax-4","host":"lax-1.us.uncletopia.com","port":27045,"enabled":true,"region":"us-west","cc":"us","latitude":33.94279,"longitude":-118.41004,"reserved":0,"last_update":"0001-01-01T00:00:00Z","name_a2s":"Uncletopia | Los Angeles | 4 | No Payload","protocol":17,"map":"cp_dustbowl","folder":"tf","game":"Team Fortress","app_id":440,"player_count":0,"max_players":24,"Bots":0,"server_type":"Dedicated","server_os":"Linux","password":true,"vac":true,"version":"7695204","steam_id":85568392924510199,"keywords":["cp","nocrits","nodmgspread","uncletopia"],"game_id":440,"stv_port":0,"stv_name":"","players":null},{"server_id":11,"name":"Uncletopia | London | 1 | All Maps","name_short":"lon-1","host":"lon-1.uk.uncletopia.com","port":27015,"enabled":true,"region":"eu","cc":"gb","latitude":51.509865,"longitude":-0.118092,"reserved":0,"last_update":"0001-01-01T00:00:00Z","name_a2s":"Uncletopia | London | 1 | All Maps","protocol":17,"map":"pl_enclosure_final","folder":"tf","game":"Team Fortress","app_id":440,"player_count":24,"max_players":24,"Bots":0,"server_type":"Dedicated","server_os":"Linux","password":true,"vac":true,"version":"7695204","steam_id":85568392924367362,"keywords":["nocrits","nodmgspread","payload","uncletopia"],"game_id":440,"stv_port":27016,"stv_name":"Uncletopia | London | 1 | All Maps | STV","players":[{"user_id":311,"name":"After8","steam_id":76561198090750865,"connected_time":2566000000000,"state":"active","ping":65},{"user_id":345,"name":"chrissy","steam_id":76561198096547662,"connected_time":83000000000,"state":"active","ping":48},{"user_id":343,"name":"cEmmy in my  ඞ era","steam_id":76561198066298422,"connected_time":307000000000,"state":"active","ping":78},{"user_id":340,"name":"hud_saytext_time 0","steam_id":76561198010327228,"connected_time":385000000000,"state":"active","ping":67},{"user_id":341,"name":"dan","steam_id":76561198044500973,"connected_time":375000000000,"state":"active","ping":58},{"user_id":223,"name":"whimsmas.","steam_id":76561198878171763,"connected_time":11553000000000,"state":"active","ping":48},{"user_id":313,"name":"RedFragment","steam_id":76561198147492385,"connected_time":2549000000000,"state":"active","ping":44},{"user_id":344,"name":"alko_bone","steam_id":76561198557773514,"connected_time":287000000000,"state":"active","ping":120},{"user_id":323,"name":"adamΔ","steam_id":76561199007826093,"connected_time":2031000000000,"state":"active","ping":74},{"user_id":331,"name":"Pachakamakk","steam_id":76561197989010401,"connected_time":1070000000000,"state":"active","ping":49},{"user_id":332,"name":"Ejeb","steam_id":76561198257334233,"connected_time":1018000000000,"state":"active","ping":31},{"user_id":328,"name":"lavender jones","steam_id":76561198073975078,"connected_time":1483000000000,"state":"active","ping":147},{"user_id":330,"name":"Z","steam_id":76561198086661151,"connected_time":1299000000000,"state":"active","ping":58},{"user_id":326,"name":"r0la","steam_id":76561198128315340,"connected_time":1691000000000,"state":"active","ping":76},{"user_id":324,"name":"DavosVrosis","steam_id":76561198957453004,"connected_time":2012000000000,"state":"active","ping":153},{"user_id":319,"name":"bananasAreViolet","steam_id":76561198303930049,"connected_time":2233000000000,"state":"active","ping":75},{"user_id":333,"name":"____","steam_id":76561198336746645,"connected_time":1010000000000,"state":"active","ping":58},{"user_id":304,"name":"Aaron","steam_id":76561197990046953,"connected_time":3686000000000,"state":"active","ping":59},{"user_id":309,"name":"syndenz","steam_id":76561198176063813,"connected_time":2640000000000,"state":"active","ping":70},{"user_id":276,"name":"juJu","steam_id":76561198049343793,"connected_time":5318000000000,"state":"active","ping":62},{"user_id":234,"name":"charlotte","steam_id":76561198075129898,"connected_time":10788000000000,"state":"active","ping":40},{"user_id":338,"name":"lvl. 50 honkler","steam_id":76561198061688660,"connected_time":408000000000,"state":"active","ping":112},{"user_id":335,"name":"tralalaOuiOui","steam_id":76561197963471507,"connected_time":986000000000,"state":"active","ping":52},{"user_id":339,"name":"LITERALLY KITTIN","steam_id":76561198065438030,"connected_time":407000000000,"state":"active","ping":107}]},{"server_id":114,"name":"Uncletopia | London | 2 | All Maps","name_short":"lon-2","host":"lon-1.uk.uncletopia.com","port":27025,"enabled":true,"region":"eu","cc":"gb","latitude":51.509865,"longitude":-0.118092,"reserved":0,"last_update":"0001-01-01T00:00:00Z","name_a2s":"Uncletopia | London | 2 | All Maps","protocol":17,"map":"cp_fastlane","folder":"tf","game":"Team Fortress","app_id":440,"player_count":23,"max_players":24,"Bots":0,"server_type":"Dedicated","server_os":"Linux","password":true,"vac":true,"version":"7695204","steam_id":85568392924470941,"keywords":["cp","nocrits","nodmgspread","uncletopia"],"game_id":440,"stv_port":27026,"stv_name":"Uncletopia | London | 2 | All Maps | STV","players":[{"user_id":63,"name":"Shelly1052","steam_id":76561199043551053,"connected_time":360000000000,"state":"active","ping":46},{"user_id":70,"name":"jerry (:","steam_id":76561198205668108,"connected_time":162000000000,"state":"active","ping":61},{"user_id":58,"name":"Dunboi","steam_id":76561198120949216,"connected_time":799000000000,"state":"active","ping":112},{"user_id":19,"name":"63756d","steam_id":76561198808699024,"connected_time":2594000000000,"state":"active","ping":66},{"user_id":32,"name":"little ceasers smosh enthusiast","steam_id":76561199179040672,"connected_time":1870000000000,"state":"active","ping":67},{"user_id":25,"name":"TSx* Osa__PL","steam_id":76561198027016799,"connected_time":2051000000000,"state":"active","ping":77},{"user_id":26,"name":"TSx* Naxer","steam_id":76561198011986779,"connected_time":2021000000000,"state":"active","ping":76},{"user_id":52,"name":"business spy","steam_id":76561198215876044,"connected_time":1233000000000,"state":"active","ping":99},{"user_id":36,"name":"not clickbait","steam_id":76561198951275407,"connected_time":1566000000000,"state":"active","ping":81},{"user_id":29,"name":"BoPoe","steam_id":76561198093333882,"connected_time":1928000000000,"state":"active","ping":103},{"user_id":41,"name":"jamie","steam_id":76561198071147542,"connected_time":1459000000000,"state":"active","ping":48},{"user_id":67,"name":"install gentoo","steam_id":76561198185257982,"connected_time":314000000000,"state":"active","ping":62},{"user_id":72,"name":"Hnreeee","steam_id":76561198332936466,"connected_time":14000000000,"state":"spawning","ping":55},{"user_id":71,"name":"Economic crisis","steam_id":76561198063562843,"connected_time":69000000000,"state":"active","ping":64},{"user_id":40,"name":"Untermenshh","steam_id":76561198284636705,"connected_time":1493000000000,"state":"active","ping":99},{"user_id":53,"name":"bulleyom","steam_id":76561199011928076,"connected_time":1115000000000,"state":"active","ping":65},{"user_id":45,"name":"Smilez","steam_id":76561197999353870,"connected_time":1421000000000,"state":"active","ping":44},{"user_id":46,"name":"TTV/pablo_ricco","steam_id":76561198279839318,"connected_time":1412000000000,"state":"active","ping":86},{"user_id":47,"name":"DunDUNDAN","steam_id":76561198041700091,"connected_time":1395000000000,"state":"active","ping":57},{"user_id":60,"name":"TomsProject","steam_id":76561199097186658,"connected_time":645000000000,"state":"active","ping":69},{"user_id":49,"name":"a Sin","steam_id":76561198114382011,"connected_time":1339000000000,"state":"active","ping":104},{"user_id":50,"name":"VibeCheck","steam_id":76561198425961218,"connected_time":1323000000000,"state":"active","ping":98},{"user_id":55,"name":"Gnarville","steam_id":76561198006373329,"connected_time":1057000000000,"state":"active","ping":46}]},{"server_id":320,"name":"Uncletopia | London | 3 | All Maps","name_short":"lon-3","host":"lon-1.uk.uncletopia.com","port":27035,"enabled":true,"region":"eu","cc":"gb","latitude":51.509865,"longitude":-0.118092,"reserved":0,"last_update":"0001-01-01T00:00:00Z","name_a2s":"Uncletopia | London | 3 | All Maps","protocol":17,"map":"cp_foundry","folder":"tf","game":"Team Fortress","app_id":440,"player_count":24,"max_players":24,"Bots":0,"server_type":"Dedicated","server_os":"Linux","password":true,"vac":true,"version":"7695204","steam_id":85568392924510192,"keywords":["cp","nocrits","nodmgspread","uncletopia"],"game_id":440,"stv_port":27036,"stv_name":"Uncletopia | London | 3 | All Maps | STV","players":[{"user_id":7,"name":"Missing_data","steam_id":76561199199194882,"connected_time":4548000000000,"state":"active","ping":130},{"user_id":8,"name":"IceFlower","steam_id":76561198207832149,"connected_time":4536000000000,"state":"active","ping":69},{"user_id":45,"name":"slap nuts?","steam_id":76561198045715914,"connected_time":2737000000000,"state":"active","ping":79},{"user_id":62,"name":"shenanigan","steam_id":76561198043452925,"connected_time":1535000000000,"state":"active","ping":77},{"user_id":63,"name":"noob_with_source","steam_id":76561198870362103,"connected_time":1270000000000,"state":"active","ping":56},{"user_id":74,"name":"ciliorkun18","steam_id":76561198228942500,"connected_time":846000000000,"state":"active","ping":95},{"user_id":19,"name":"holykyckling","steam_id":76561198040661615,"connected_time":3299000000000,"state":"active","ping":79},{"user_id":17,"name":"saml","steam_id":76561198040716257,"connected_time":3331000000000,"state":"active","ping":65},{"user_id":18,"name":"Lujigi","steam_id":76561199178949908,"connected_time":3318000000000,"state":"active","ping":70},{"user_id":73,"name":"R!not","steam_id":76561197986328786,"connected_time":886000000000,"state":"active","ping":50},{"user_id":75,"name":"zvekan","steam_id":76561198381101196,"connected_time":506000000000,"state":"active","ping":61},{"user_id":60,"name":"generic alias","steam_id":76561198271607226,"connected_time":1569000000000,"state":"active","ping":84},{"user_id":56,"name":"Big Gamer (real)","steam_id":76561198160114532,"connected_time":1766000000000,"state":"active","ping":60},{"user_id":66,"name":"Lernix","steam_id":76561198382328645,"connected_time":1049000000000,"state":"active","ping":64},{"user_id":79,"name":"magnus","steam_id":76561198045570936,"connected_time":273000000000,"state":"active","ping":79},{"user_id":72,"name":"Keelan","steam_id":76561198013665543,"connected_time":888000000000,"state":"active","ping":61},{"user_id":69,"name":"Mr.Twinkls","steam_id":76561197980803560,"connected_time":940000000000,"state":"active","ping":95},{"user_id":71,"name":"Someone","steam_id":76561199030195879,"connected_time":908000000000,"state":"active","ping":46},{"user_id":47,"name":"icemaz","steam_id":76561197986854771,"connected_time":2721000000000,"state":"active","ping":47},{"user_id":70,"name":"Nobaddy","steam_id":76561198037871007,"connected_time":927000000000,"state":"active","ping":75},{"user_id":76,"name":"russell","steam_id":76561198879773477,"connected_time":490000000000,"state":"active","ping":50},{"user_id":52,"name":"One armed fiddle enthusiast","steam_id":76561198045847051,"connected_time":2373000000000,"state":"active","ping":60},{"user_id":77,"name":"Koli","steam_id":76561197992428783,"connected_time":448000000000,"state":"active","ping":59},{"user_id":64,"name":"Lil Top","steam_id":76561198168740408,"connected_time":1268000000000,"state":"active","ping":44}]},{"server_id":321,"name":"Uncletopia | London | 4 | All Maps","name_short":"lon-4","host":"lon-1.uk.uncletopia.com","port":27045,"enabled":true,"region":"eu","cc":"gb","latitude":51.509865,"longitude":-0.118092,"reserved":0,"last_update":"0001-01-01T00:00:00Z","name_a2s":"Uncletopia | London | 4 | All Maps","protocol":17,"map":"koth_cascade","folder":"tf","game":"Team Fortress","app_id":440,"player_count":0,"max_players":24,"Bots":0,"server_type":"Dedicated","server_os":"Linux","password":true,"vac":true,"version":"7695204","steam_id":85568392924510193,"keywords":["cp","nocrits","nodmgspread","uncletopia"],"game_id":440,"stv_port":0,"stv_name":"","players":null},{"server_id":21,"name":"Uncletopia | London | 5 | All Maps","name_short":"lon-5","host":"lon-1.uk.uncletopia.com","port":27055,"enabled":true,"region":"eu","cc":"gb","latitude":51.509865,"longitude":-0.118092,"reserved":0,"last_update":"0001-01-01T00:00:00Z","name_a2s":"Uncletopia | London | 5 | All Maps","protocol":17,"map":"koth_highpass","folder":"tf","game":"Team Fortress","app_id":440,"player_count":0,"max_players":24,"Bots":0,"server_type":"Dedicated","server_os":"Linux","password":true,"vac":true,"version":"7695204","steam_id":85568392924742829,"keywords":["cp","nocrits","nodmgspread","uncletopia"],"game_id":440,"stv_port":27056,"stv_name":"Uncletopia | London | 5 | All Maps | STV","players":null},{"server_id":22,"name":"Uncletopia | London | 6 | All Maps","name_short":"lon-6","host":"lon-1.uk.uncletopia.com","port":27065,"enabled":true,"region":"eu","cc":"gb","latitude":51.509865,"longitude":-0.118092,"reserved":0,"last_update":"0001-01-01T00:00:00Z","name_a2s":"Uncletopia | London | 6 | All Maps","protocol":17,"map":"koth_king","folder":"tf","game":"Team Fortress","app_id":440,"player_count":0,"max_players":24,"Bots":0,"server_type":"Dedicated","server_os":"Linux","password":true,"vac":true,"version":"7695204","steam_id":85568392924742830,"keywords":["cp","nocrits","nodmgspread","uncletopia"],"game_id":440,"stv_port":27066,"stv_name":"Uncletopia | London | 6 | All Maps | STV","players":null},{"server_id":40,"name":"Uncletopia | London | 7 | No Payload","name_short":"lon-7","host":"lon-1.uk.uncletopia.com","port":27075,"enabled":true,"region":"eu","cc":"gb","latitude":51.509865,"longitude":-0.118092,"reserved":0,"last_update":"0001-01-01T00:00:00Z","name_a2s":"Uncletopia | London | 7 | No Payload","protocol":17,"map":"koth_highpass","folder":"tf","game":"Team Fortress","app_id":440,"player_count":24,"max_players":24,"Bots":0,"server_type":"Dedicated","server_os":"Linux","password":true,"vac":true,"version":"7695204","steam_id":85568392924964314,"keywords":["cp","nocrits","nodmgspread","uncletopia"],"game_id":440,"stv_port":27076,"stv_name":"Uncletopia | London | 7 | No Payload | STV","players":[{"user_id":357,"name":"Imhotep","steam_id":76561198017542607,"connected_time":348000000000,"state":"active","ping":50},{"user_id":358,"name":"you're gonna make me act up","steam_id":76561198022115830,"connected_time":310000000000,"state":"active","ping":76},{"user_id":338,"name":"Lyell","steam_id":76561198350329389,"connected_time":2154000000000,"state":"active","ping":73},{"user_id":320,"name":"Raeews","steam_id":76561198254646517,"connected_time":3116000000000,"state":"active","ping":45},{"user_id":306,"name":"Vox313","steam_id":76561198929454741,"connected_time":3507000000000,"state":"active","ping":53},{"user_id":362,"name":"so much painz","steam_id":76561198240320806,"connected_time":240000000000,"state":"active","ping":74},{"user_id":316,"name":"Only my weapon understand me","steam_id":76561198799097492,"connected_time":3370000000000,"state":"active","ping":45},{"user_id":344,"name":"that one dude","steam_id":76561199160678219,"connected_time":1635000000000,"state":"active","ping":167},{"user_id":351,"name":"Křest in the chest","steam_id":76561198981766281,"connected_time":1028000000000,"state":"active","ping":129},{"user_id":329,"name":"Prince Smexy","steam_id":76561198063157957,"connected_time":2635000000000,"state":"active","ping":65},{"user_id":333,"name":"Jafoul","steam_id":76561199383437138,"connected_time":2409000000000,"state":"active","ping":124},{"user_id":335,"name":"pojky863","steam_id":76561199068262570,"connected_time":2191000000000,"state":"active","ping":68},{"user_id":341,"name":"Sanctified","steam_id":76561198057092208,"connected_time":1975000000000,"state":"active","ping":73},{"user_id":360,"name":"Rodia","steam_id":76561197968293161,"connected_time":266000000000,"state":"active","ping":71},{"user_id":356,"name":"Drommar","steam_id":76561199219654706,"connected_time":743000000000,"state":"active","ping":71},{"user_id":289,"name":"That One Degenerate","steam_id":76561198377603752,"connected_time":4116000000000,"state":"active","ping":83},{"user_id":349,"name":"coachnetworkoperared514","steam_id":76561198236015392,"connected_time":1477000000000,"state":"active","ping":127},{"user_id":346,"name":"Учиха Саске","steam_id":76561199336468235,"connected_time":1607000000000,"state":"active","ping":148},{"user_id":353,"name":"massa","steam_id":76561198439516039,"connected_time":1021000000000,"state":"active","ping":61},{"user_id":361,"name":"DropShot","steam_id":76561198042476724,"connected_time":257000000000,"state":"active","ping":90},{"user_id":348,"name":"fector","steam_id":76561199204249586,"connected_time":1580000000000,"state":"active","ping":127},{"user_id":363,"name":"Accident","steam_id":76561198115160396,"connected_time":217000000000,"state":"active","ping":84},{"user_id":364,"name":"albus 47","steam_id":76561198058192493,"connected_time":29000000000,"state":"active","ping":136},{"user_id":355,"name":"Lods of Emone","steam_id":76561198188642265,"connected_time":833000000000,"state":"active","ping":46}]},{"server_id":41,"name":"Uncletopia | London | 8 | Community","name_short":"lon-8","host":"lon-1.uk.uncletopia.com","port":27085,"enabled":true,"region":"eu","cc":"gb","latitude":51.509865,"longitude":-0.118092,"reserved":0,"last_update":"0001-01-01T00:00:00Z","name_a2s":"Uncletopia | London | 8 | Community","protocol":17,"map":"cp_process_final","folder":"tf","game":"Team Fortress","app_id":440,"player_count":0,"max_players":24,"Bots":0,"server_type":"Dedicated","server_os":"Linux","password":true,"vac":true,"version":"7695204","steam_id":85568392924964315,"keywords":["cp","nocrits","nodmgspread","uncletopia"],"game_id":440,"stv_port":0,"stv_name":"","players":null},{"server_id":300,"name":"Uncletopia | Montréal | 1 | All Maps","name_short":"mtl-1","host":"mtl-1.ca.uncletopia.com","port":27015,"enabled":true,"region":"us-east","cc":"ca","latitude":45.50889,"longitude":-73.56167,"reserved":0,"last_update":"0001-01-01T00:00:00Z","name_a2s":"Uncletopia | Montréal | 1 | All Maps","protocol":17,"map":"pd_snowville_event","folder":"tf","game":"Team Fortress","app_id":440,"player_count":0,"max_players":24,"Bots":0,"server_type":"Dedicated","server_os":"Linux","password":true,"vac":true,"version":"7695204","steam_id":85568392924500087,"keywords":["misc","nocrits","nodmgspread","pd","uncletopia"],"game_id":440,"stv_port":27016,"stv_name":"Uncletopia | Montréal | 1 | All Maps | STV","players":null},{"server_id":301,"name":"Uncletopia | Montréal | 2 | All Maps","name_short":"mtl-2","host":"mtl-1.ca.uncletopia.com","port":27025,"enabled":true,"region":"us-east","cc":"ca","latitude":45.50889,"longitude":-73.56167,"reserved":0,"last_update":"0001-01-01T00:00:00Z","name_a2s":"Uncletopia | Montréal | 2 | All Maps","protocol":17,"map":"cp_altitude","folder":"tf","game":"Team Fortress","app_id":440,"player_count":0,"max_players":24,"Bots":0,"server_type":"Dedicated","server_os":"Linux","password":true,"vac":true,"version":"7695204","steam_id":85568392924500088,"keywords":["cp","nocrits","nodmgspread","uncletopia"],"game_id":440,"stv_port":0,"stv_name":"","players":null},{"server_id":302,"name":"Uncletopia | Montréal | 3 | All Maps","name_short":"mtl-3","host":"mtl-1.ca.uncletopia.com","port":27035,"enabled":true,"region":"us-east","cc":"ca","latitude":45.50889,"longitude":-73.56167,"reserved":0,"last_update":"0001-01-01T00:00:00Z","name_a2s":"Uncletopia | Montréal | 3 | All Maps","protocol":17,"map":"cp_sunshine","folder":"tf","game":"Team Fortress","app_id":440,"player_count":0,"max_players":24,"Bots":0,"server_type":"Dedicated","server_os":"Linux","password":true,"vac":true,"version":"7695204","steam_id":85568392924500089,"keywords":["cp","nocrits","nodmgspread","uncletopia"],"game_id":440,"stv_port":0,"stv_name":"","players":null},{"server_id":303,"name":"Uncletopia | Montréal | 4 | No Payload","name_short":"mtl-4","host":"mtl-1.ca.uncletopia.com","port":27045,"enabled":true,"region":"us-east","cc":"ca","latitude":45.50889,"longitude":-73.56167,"reserved":0,"last_update":"0001-01-01T00:00:00Z","name_a2s":"Uncletopia | Montréal | 4 | No Payload","protocol":17,"map":"pl_swiftwater_final1","folder":"tf","game":"Team Fortress","app_id":440,"player_count":0,"max_players":24,"Bots":0,"server_type":"Dedicated","server_os":"Linux","password":true,"vac":true,"version":"7695204","steam_id":85568392924500090,"keywords":["nocrits","nodmgspread","payload","uncletopia"],"game_id":440,"stv_port":0,"stv_name":"","players":null},{"server_id":13,"name":"Uncletopia | New York City | 1 | All Maps","name_short":"nyc-1","host":"nyc-1.us.uncletopia.com","port":27015,"enabled":true,"region":"us-east","cc":"us","latitude":40.73061,"longitude":-73.93524,"reserved":0,"last_update":"0001-01-01T00:00:00Z","name_a2s":"Uncletopia | New York City | 1 | All Maps","protocol":17,"map":"cp_yukon_final","folder":"tf","game":"Team Fortress","app_id":440,"player_count":5,"max_players":24,"Bots":0,"server_type":"Dedicated","server_os":"Linux","password":true,"vac":true,"version":"7695204","steam_id":85568392924469993,"keywords":["cp","nocrits","nodmgspread","uncletopia"],"game_id":440,"stv_port":27016,"stv_name":"Uncletopia | New York City | 1 | All Maps | STV","players":[{"user_id":75,"name":"Cyborgnn","steam_id":76561198283586887,"connected_time":387000000000,"state":"active","ping":76},{"user_id":76,"name":"FROYO crazy dave ?! pvz?","steam_id":76561197979090955,"connected_time":322000000000,"state":"active","ping":75},{"user_id":81,"name":"hammond the blithering idiot","steam_id":76561199263384620,"connected_time":14000000000,"state":"spawning","ping":87},{"user_id":79,"name":"BassmanCalibre","steam_id":76561198083440914,"connected_time":166000000000,"state":"active","ping":88},{"user_id":25,"name":"Muckman","steam_id":76561198000437384,"connected_time":3681000000000,"state":"active","ping":60}]},{"server_id":14,"name":"Uncletopia | New York City | 2 | All Maps","name_short":"nyc-2","host":"nyc-1.us.uncletopia.com","port":27025,"enabled":true,"region":"us-east","cc":"us","latitude":40.73061,"longitude":-73.93524,"reserved":0,"last_update":"0001-01-01T00:00:00Z","name_a2s":"Uncletopia | New York City | 2 | All Maps","protocol":17,"map":"pl_barnblitz","folder":"tf","game":"Team Fortress","app_id":440,"player_count":0,"max_players":24,"Bots":0,"server_type":"Dedicated","server_os":"Linux","password":true,"vac":true,"version":"7695204","steam_id":85568392924469994,"keywords":["nocrits","nodmgspread","payload","uncletopia"],"game_id":440,"stv_port":0,"stv_name":"","players":null},{"server_id":15,"name":"Uncletopia | New York City | 3 | All Maps","name_short":"nyc-3","host":"nyc-1.us.uncletopia.com","port":27035,"enabled":true,"region":"us-east","cc":"us","latitude":40.73061,"longitude":-73.93524,"reserved":0,"last_update":"0001-01-01T00:00:00Z","name_a2s":"Uncletopia | New York City | 3 | All Maps","protocol":17,"map":"cp_dustbowl","folder":"tf","game":"Team Fortress","app_id":440,"player_count":0,"max_players":24,"Bots":0,"server_type":"Dedicated","server_os":"Linux","password":true,"vac":true,"version":"7695204","steam_id":85568392924742820,"keywords":["cp","nocrits","nodmgspread","uncletopia"],"game_id":440,"stv_port":0,"stv_name":"","players":null},{"server_id":16,"name":"Uncletopia | New York City | 4 | Community","name_short":"nyc-4","host":"nyc-1.us.uncletopia.com","port":27045,"enabled":true,"region":"us-east","cc":"us","latitude":40.73061,"longitude":-73.93524,"reserved":0,"last_update":"0001-01-01T00:00:00Z","name_a2s":"Uncletopia | New York City | 4 | Community","protocol":17,"map":"pl_snowycoast","folder":"tf","game":"Team Fortress","app_id":440,"player_count":0,"max_players":24,"Bots":0,"server_type":"Dedicated","server_os":"Linux","password":true,"vac":true,"version":"7695204","steam_id":85568392924742821,"keywords":["nocrits","nodmgspread","payload","uncletopia"],"game_id":440,"stv_port":0,"stv_name":"","players":null},{"server_id":142,"name":"Uncletopia | São Paulo | 1 | All Maps","name_short":"sao-1","host":"sao-1.br.uncletopia.com","port":27015,"enabled":true,"region":"sa","cc":"br","latitude":-23.533773,"longitude":-46.62529,"reserved":0,"last_update":"0001-01-01T00:00:00Z","name_a2s":"Uncletopia | São Paulo | 1 | All Maps","protocol":17,"map":"ctf_2fort","folder":"tf","game":"Team Fortress","app_id":440,"player_count":7,"max_players":24,"Bots":0,"server_type":"Dedicated","server_os":"Linux","password":true,"vac":true,"version":"7695204","steam_id":85568392924469996,"keywords":["ctf","nocrits","nodmgspread","uncletopia"],"game_id":440,"stv_port":27016,"stv_name":"Uncletopia | São Paulo | 1 | All Maps | STV","players":[{"user_id":45,"name":"アイザック","steam_id":76561199262736574,"connected_time":1760000000000,"state":"active","ping":45},{"user_id":53,"name":"Pendrive is Insane","steam_id":76561199427354854,"connected_time":886000000000,"state":"active","ping":42},{"user_id":56,"name":"Zodd","steam_id":76561198940541282,"connected_time":584000000000,"state":"active","ping":69},{"user_id":54,"name":"Salsicha","steam_id":76561198981606720,"connected_time":840000000000,"state":"active","ping":70},{"user_id":57,"name":"bucket","steam_id":76561199139768843,"connected_time":551000000000,"state":"active","ping":47},{"user_id":58,"name":"ihatethefrench","steam_id":76561199038137074,"connected_time":524000000000,"state":"active","ping":185},{"user_id":59,"name":"L̶a-L͡i͠-L̴u-̸Ĺe-Lo","steam_id":76561198052805881,"connected_time":285000000000,"state":"active","ping":48}]},{"server_id":143,"name":"Uncletopia | São Paulo | 2 | All Maps","name_short":"sao-2","host":"sao-2.br.uncletopia.com","port":27015,"enabled":true,"region":"sa","cc":"br","latitude":-23.533773,"longitude":-46.62529,"reserved":0,"last_update":"0001-01-01T00:00:00Z","name_a2s":"Uncletopia | São Paulo | 2 | All Maps","protocol":17,"map":"koth_viaduct","folder":"tf","game":"Team Fortress","app_id":440,"player_count":0,"max_players":24,"Bots":0,"server_type":"Dedicated","server_os":"Linux","password":true,"vac":true,"version":"7695204","steam_id":85568392924485349,"keywords":["cp","nocrits","nodmgspread","uncletopia"],"game_id":440,"stv_port":27016,"stv_name":"Uncletopia | São Paulo | 2 | All Maps | STV","players":null},{"server_id":7,"name":"Uncletopia | Seattle | 1 | All Maps","name_short":"sea-1","host":"sea-1.us.uncletopia.com","port":27015,"enabled":true,"region":"us-west","cc":"us","latitude":47.608013,"longitude":-122.33517,"reserved":0,"last_update":"0001-01-01T00:00:00Z","name_a2s":"Uncletopia | Seattle | 1 | All Maps","protocol":17,"map":"koth_lakeside_final","folder":"tf","game":"Team Fortress","app_id":440,"player_count":0,"max_players":24,"Bots":0,"server_type":"Dedicated","server_os":"Linux","password":true,"vac":true,"version":"7695204","steam_id":85568392924469997,"keywords":["cp","nocrits","nodmgspread","uncletopia"],"game_id":440,"stv_port":27016,"stv_name":"Uncletopia | Seattle | 1 | All Maps | STV","players":null},{"server_id":119,"name":"Uncletopia | Seattle | 2 | All Maps","name_short":"sea-2","host":"sea-1.us.uncletopia.com","port":27025,"enabled":true,"region":"us-west","cc":"us","latitude":47.608013,"longitude":-122.33517,"reserved":0,"last_update":"0001-01-01T00:00:00Z","name_a2s":"Uncletopia | Seattle | 2 | All Maps","protocol":17,"map":"cp_mercenarypark","folder":"tf","game":"Team Fortress","app_id":440,"player_count":12,"max_players":24,"Bots":0,"server_type":"Dedicated","server_os":"Linux","password":true,"vac":true,"version":"7695204","steam_id":85568392924469998,"keywords":["cp","nocrits","nodmgspread","uncletopia"],"game_id":440,"stv_port":27026,"stv_name":"Uncletopia | Seattle | 2 | All Maps | STV","players":[{"user_id":6,"name":"anti-sex warrior","steam_id":76561198325306660,"connected_time":2628000000000,"state":"active","ping":52},{"user_id":11,"name":"Coffeemelon","steam_id":76561198285891257,"connected_time":1661000000000,"state":"active","ping":69},{"user_id":4,"name":"dust","steam_id":76561198045218909,"connected_time":3295000000000,"state":"active","ping":38},{"user_id":26,"name":"Cuttle's Fish","steam_id":76561198280483257,"connected_time":325000000000,"state":"active","ping":100},{"user_id":9,"name":"Mak","steam_id":76561198089197922,"connected_time":1883000000000,"state":"active","ping":46},{"user_id":28,"name":"Nespreco","steam_id":76561198252035336,"connected_time":112000000000,"state":"active","ping":138},{"user_id":13,"name":"SeamPunker39","steam_id":76561198118387256,"connected_time":1573000000000,"state":"active","ping":104},{"user_id":30,"name":"kimin","steam_id":76561198263393063,"connected_time":68000000000,"state":"active","ping":197},{"user_id":21,"name":"I Pocket Kids","steam_id":76561199440961048,"connected_time":659000000000,"state":"active","ping":221},{"user_id":29,"name":"Papa Squat","steam_id":76561198045011208,"connected_time":107000000000,"state":"active","ping":104},{"user_id":18,"name":"AbasIjai","steam_id":76561199247686802,"connected_time":1253000000000,"state":"active","ping":270},{"user_id":19,"name":"nika","steam_id":76561198308290211,"connected_time":1080000000000,"state":"active","ping":86}]},{"server_id":17,"name":"Uncletopia | San Francisco | 1 | All Maps","name_short":"sfo-1","host":"sfo-1.us.uncletopia.com","port":27015,"enabled":true,"region":"us-west","cc":"us","latitude":37.77397,"longitude":-122.4313,"reserved":0,"last_update":"0001-01-01T00:00:00Z","name_a2s":"Uncletopia | San Francisco | 1 | All Maps","protocol":17,"map":"cp_mountainlab","folder":"tf","game":"Team Fortress","app_id":440,"player_count":0,"max_players":24,"Bots":0,"server_type":"Dedicated","server_os":"Linux","password":true,"vac":true,"version":"7695204","steam_id":85568392924469999,"keywords":["cp","nocrits","nodmgspread","uncletopia"],"game_id":440,"stv_port":0,"stv_name":"","players":null},{"server_id":18,"name":"Uncletopia | San Francisco | 2 | All Maps","name_short":"sfo-2","host":"sfo-1.us.uncletopia.com","port":27025,"enabled":true,"region":"us-west","cc":"us","latitude":37.77397,"longitude":-122.4313,"reserved":0,"last_update":"0001-01-01T00:00:00Z","name_a2s":"Uncletopia | San Francisco | 2 | All Maps","protocol":17,"map":"cp_5gorge","folder":"tf","game":"Team Fortress","app_id":440,"player_count":24,"max_players":24,"Bots":0,"server_type":"Dedicated","server_os":"Linux","password":true,"vac":true,"version":"7695204","steam_id":85568392924470000,"keywords":["cp","nocrits","nodmgspread","uncletopia"],"game_id":440,"stv_port":27026,"stv_name":"Uncletopia | San Francisco | 2 | All Maps | STV","players":[{"user_id":196,"name":"Sham Cow","steam_id":76561198064556977,"connected_time":327000000000,"state":"active","ping":103},{"user_id":181,"name":"WYSI","steam_id":76561198312133205,"connected_time":1089000000000,"state":"active","ping":106},{"user_id":85,"name":"west of the alps","steam_id":76561198133360797,"connected_time":8614000000000,"state":"active","ping":62},{"user_id":182,"name":"Detective Parks","steam_id":76561198153415500,"connected_time":1079000000000,"state":"active","ping":95},{"user_id":164,"name":"AmayariX","steam_id":76561198010401776,"connected_time":2187000000000,"state":"active","ping":52},{"user_id":185,"name":"Drunken Jaeger","steam_id":76561198872856615,"connected_time":983000000000,"state":"active","ping":102},{"user_id":168,"name":"kid ichster","steam_id":76561198011675372,"connected_time":1987000000000,"state":"active","ping":82},{"user_id":190,"name":"brentonimo","steam_id":76561198035282062,"connected_time":838000000000,"state":"active","ping":43},{"user_id":174,"name":"la loveiathenne","steam_id":76561198046394237,"connected_time":1493000000000,"state":"active","ping":65},{"user_id":186,"name":"Loashes","steam_id":76561198119608299,"connected_time":940000000000,"state":"active","ping":107},{"user_id":184,"name":"MineAGK","steam_id":76561198128372943,"connected_time":1060000000000,"state":"active","ping":125},{"user_id":188,"name":"The Squid Gamer™","steam_id":76561198340621517,"connected_time":875000000000,"state":"active","ping":78},{"user_id":138,"name":"paj","steam_id":76561198080026026,"connected_time":5033000000000,"state":"active","ping":64},{"user_id":192,"name":"SirJellyRolls","steam_id":76561198119277244,"connected_time":792000000000,"state":"active","ping":69},{"user_id":189,"name":"HorizonPear","steam_id":76561198179808389,"connected_time":866000000000,"state":"active","ping":126},{"user_id":166,"name":"Anxious Nerd Bird","steam_id":76561198112178602,"connected_time":2070000000000,"state":"active","ping":56},{"user_id":117,"name":"Question Mark (His Majesty)","steam_id":76561199433313023,"connected_time":6816000000000,"state":"active","ping":115},{"user_id":173,"name":"MoopStoop","steam_id":76561198140936620,"connected_time":1517000000000,"state":"active","ping":83},{"user_id":195,"name":"Rurigade Towers","steam_id":76561198148598905,"connected_time":449000000000,"state":"active","ping":75},{"user_id":129,"name":"YungKeet","steam_id":76561198293854963,"connected_time":5678000000000,"state":"active","ping":100},{"user_id":175,"name":"-BRH- Tangled up in Bluegrass","steam_id":76561197987181139,"connected_time":1487000000000,"state":"active","ping":98},{"user_id":144,"name":"BORGIR","steam_id":76561199120505498,"connected_time":4263000000000,"state":"active","ping":177},{"user_id":193,"name":"no vc no c","steam_id":76561197989503095,"connected_time":762000000000,"state":"active","ping":147},{"user_id":197,"name":"Krazzle","steam_id":76561198029782412,"connected_time":159000000000,"state":"active","ping":72}]},{"server_id":19,"name":"Uncletopia | San Francisco | 3 | No Payload","name_short":"sfo-3","host":"sfo-1.us.uncletopia.com","port":27035,"enabled":true,"region":"us-west","cc":"us","latitude":37.77397,"longitude":-122.4313,"reserved":0,"last_update":"0001-01-01T00:00:00Z","name_a2s":"Uncletopia | San Francisco | 3 | No Payload","protocol":17,"map":"cp_snakewater_final1","folder":"tf","game":"Team Fortress","app_id":440,"player_count":0,"max_players":24,"Bots":0,"server_type":"Dedicated","server_os":"Linux","password":true,"vac":true,"version":"7695204","steam_id":85568392924742824,"keywords":["cp","nocrits","nodmgspread","uncletopia"],"game_id":440,"stv_port":0,"stv_name":"","players":null},{"server_id":20,"name":"Uncletopia | San Francisco | 4 | Community","name_short":"sfo-4","host":"sfo-1.us.uncletopia.com","port":27045,"enabled":true,"region":"us-west","cc":"us","latitude":37.77397,"longitude":-122.4313,"reserved":0,"last_update":"0001-01-01T00:00:00Z","name_a2s":"Uncletopia | San Francisco | 4 | Community","protocol":17,"map":"pl_badwater","folder":"tf","game":"Team Fortress","app_id":440,"player_count":0,"max_players":24,"Bots":0,"server_type":"Dedicated","server_os":"Linux","password":true,"vac":true,"version":"7695204","steam_id":85568392924742826,"keywords":["nocrits","nodmgspread","payload","uncletopia"],"game_id":440,"stv_port":0,"stv_name":"","players":null},{"server_id":141,"name":"Uncletopia | Sydney | 1 | All Maps","name_short":"syd-1","host":"syd-1.au.uncletopia.com","port":27015,"enabled":true,"region":"au","cc":"au","latitude":-33.865143,"longitude":151.2099,"reserved":0,"last_update":"0001-01-01T00:00:00Z","name_a2s":"Uncletopia | Sydney | 1 | All Maps","protocol":17,"map":"cp_foundry","folder":"tf","game":"Team Fortress","app_id":440,"player_count":0,"max_players":24,"Bots":0,"server_type":"Dedicated","server_os":"Linux","password":true,"vac":true,"version":"7695204","steam_id":85568392924470001,"keywords":["cp","nocrits","nodmgspread","uncletopia"],"game_id":440,"stv_port":27016,"stv_name":"Uncletopia | Sydney | 1 | All Maps | STV","players":null},{"server_id":123,"name":"Uncletopia | Sydney | 2 | All Maps","name_short":"syd-2","host":"syd-1.au.uncletopia.com","port":27025,"enabled":true,"region":"au","cc":"au","latitude":-33.865143,"longitude":151.2099,"reserved":0,"last_update":"0001-01-01T00:00:00Z","name_a2s":"Uncletopia | Sydney | 2 | All Maps","protocol":17,"map":"ctf_doublecross","folder":"tf","game":"Team Fortress","app_id":440,"player_count":0,"max_players":24,"Bots":0,"server_type":"Dedicated","server_os":"Linux","password":true,"vac":true,"version":"7695204","steam_id":85568392924470002,"keywords":["ctf","nocrits","nodmgspread","uncletopia"],"game_id":440,"stv_port":27026,"stv_name":"Uncletopia | Sydney | 2 | All Maps | STV","players":null},{"server_id":395,"name":"Uncletopia | Sydney | 3 | All Maps","name_short":"syd-3","host":"syd-1.au.uncletopia.com","port":27035,"enabled":true,"region":"au","cc":"au","latitude":-33.865143,"longitude":151.2099,"reserved":0,"last_update":"0001-01-01T00:00:00Z","name_a2s":"Uncletopia | Sydney | 3 | All Maps","protocol":17,"map":"ctf_snowfall_final","folder":"tf","game":"Team Fortress","app_id":440,"player_count":0,"max_players":24,"Bots":0,"server_type":"Dedicated","server_os":"Linux","password":true,"vac":true,"version":"7695204","steam_id":85568392925194467,"keywords":["ctf","nocrits","nodmgspread","uncletopia"],"game_id":440,"stv_port":27036,"stv_name":"Uncletopia | Sydney | 3 | All Maps | STV","players":null},{"server_id":396,"name":"Uncletopia | Sydney | 4 | All Maps","name_short":"syd-4","host":"syd-1.au.uncletopia.com","port":27045,"enabled":true,"region":"au","cc":"au","latitude":-33.865143,"longitude":151.2099,"reserved":0,"last_update":"0001-01-01T00:00:00Z","name_a2s":"Uncletopia | Sydney | 4 | All Maps","protocol":17,"map":"koth_sawmill","folder":"tf","game":"Team Fortress","app_id":440,"player_count":0,"max_players":24,"Bots":0,"server_type":"Dedicated","server_os":"Linux","password":true,"vac":true,"version":"7695204","steam_id":85568392925397958,"keywords":["cp","nocrits","nodmgspread","uncletopia"],"game_id":440,"stv_port":27046,"stv_name":"Uncletopia | Sydney | 4 | All Maps | STV","players":null},{"server_id":58,"name":"Uncletopia | Sydney | 5 | No Payload","name_short":"syd-5","host":"syd-1.au.uncletopia.com","port":27055,"enabled":true,"region":"au","cc":"au","latitude":-33.865143,"longitude":151.2099,"reserved":0,"last_update":"0001-01-01T00:00:00Z","name_a2s":"Uncletopia | Sydney | 5 | No Payload","protocol":17,"map":"cp_sunshine","folder":"tf","game":"Team Fortress","app_id":440,"player_count":0,"max_players":24,"Bots":0,"server_type":"Dedicated","server_os":"Linux","password":true,"vac":true,"version":"7695204","steam_id":85568392925397959,"keywords":["cp","nocrits","nodmgspread","uncletopia"],"game_id":440,"stv_port":27056,"stv_name":"Uncletopia | Sydney | 5 | No Payload | STV","players":null},{"server_id":59,"name":"Uncletopia | Sydney | 6 | Community","name_short":"syd-6","host":"syd-1.au.uncletopia.com","port":27065,"enabled":true,"region":"au","cc":"au","latitude":-33.865143,"longitude":151.2099,"reserved":0,"last_update":"0001-01-01T00:00:00Z","name_a2s":"Uncletopia | Sydney | 6 | Community","protocol":17,"map":"workshop/koth_ramjam_v2_b2.ugc2865676487","folder":"tf","game":"Team Fortress","app_id":440,"player_count":0,"max_players":24,"Bots":0,"server_type":"Dedicated","server_os":"Linux","password":true,"vac":true,"version":"7695204","steam_id":85568392925397960,"keywords":["cp","nocrits","nodmgspread","uncletopia"],"game_id":440,"stv_port":27066,"stv_name":"Uncletopia | Sydney | 6 | Community | STV","players":null},{"server_id":49,"name":"Uncletopia | Warsaw | 1 | All Maps","name_short":"waw-1","host":"waw-1.pl.uncletopia.com","port":27015,"enabled":true,"region":"eu","cc":"pl","latitude":52.2297,"longitude":21.017532,"reserved":0,"last_update":"0001-01-01T00:00:00Z","name_a2s":"Uncletopia | Warsaw | 1 | All Maps","protocol":17,"map":"koth_nucleus","folder":"tf","game":"Team Fortress","app_id":440,"player_count":0,"max_players":24,"Bots":0,"server_type":"Dedicated","server_os":"Linux","password":true,"vac":true,"version":"7695204","steam_id":85568392925397850,"keywords":["cp","nocrits","nodmgspread","uncletopia"],"game_id":440,"stv_port":27016,"stv_name":"Uncletopia | Warsaw | 1 | All Maps | STV","players":null},{"server_id":50,"name":"Uncletopia | Warsaw | 2 | All Maps","name_short":"waw-2","host":"waw-1.pl.uncletopia.com","port":27025,"enabled":true,"region":"eu","cc":"pl","latitude":52.2297,"longitude":21.017532,"reserved":0,"last_update":"0001-01-01T00:00:00Z","name_a2s":"Uncletopia | Warsaw | 2 | All Maps","protocol":17,"map":"cp_mountainlab","folder":"tf","game":"Team Fortress","app_id":440,"player_count":4,"max_players":24,"Bots":0,"server_type":"Dedicated","server_os":"Linux","password":true,"vac":true,"version":"7695204","steam_id":85568392925397851,"keywords":["cp","nocrits","nodmgspread","uncletopia"],"game_id":440,"stv_port":27026,"stv_name":"Uncletopia | Warsaw | 2 | All Maps | STV","players":[{"user_id":34,"name":"ඞ","steam_id":76561198257158275,"connected_time":106000000000,"state":"active","ping":162},{"user_id":33,"name":"Engi-Nearing","steam_id":76561199221172552,"connected_time":1060000000000,"state":"active","ping":84},{"user_id":29,"name":"mint apple juice","steam_id":76561198833374972,"connected_time":1885000000000,"state":"active","ping":71},{"user_id":30,"name":"OrangeBanana","steam_id":76561199230233875,"connected_time":1402000000000,"state":"active","ping":77}]},{"server_id":51,"name":"Uncletopia | Warsaw | 3 | All Maps","name_short":"waw-3","host":"waw-1.pl.uncletopia.com","port":27035,"enabled":true,"region":"eu","cc":"pl","latitude":52.2297,"longitude":21.017532,"reserved":0,"last_update":"0001-01-01T00:00:00Z","name_a2s":"Uncletopia | Warsaw | 3 | All Maps","protocol":17,"map":"koth_cascade","folder":"tf","game":"Team Fortress","app_id":440,"player_count":0,"max_players":24,"Bots":0,"server_type":"Dedicated","server_os":"Linux","password":true,"vac":true,"version":"7695204","steam_id":85568392925397852,"keywords":["cp","nocrits","nodmgspread","uncletopia"],"game_id":440,"stv_port":27036,"stv_name":"Uncletopia | Warsaw | 3 | All Maps | STV","players":null},{"server_id":52,"name":"Uncletopia | Warsaw | 4 | All Maps","name_short":"waw-4","host":"waw-1.pl.uncletopia.com","port":27045,"enabled":true,"region":"eu","cc":"pl","latitude":52.2297,"longitude":21.017532,"reserved":0,"last_update":"0001-01-01T00:00:00Z","name_a2s":"Uncletopia | Warsaw | 4 | All Maps","protocol":17,"map":"pl_enclosure_final","folder":"tf","game":"Team Fortress","app_id":440,"player_count":0,"max_players":24,"Bots":0,"server_type":"Dedicated","server_os":"Linux","password":true,"vac":true,"version":"7695204","steam_id":85568392925397853,"keywords":["nocrits","nodmgspread","payload","uncletopia"],"game_id":440,"stv_port":27046,"stv_name":"Uncletopia | Warsaw | 4 | All Maps | STV","players":null},{"server_id":53,"name":"Uncletopia | Warsaw | 5 | No Payload","name_short":"waw-5","host":"waw-1.pl.uncletopia.com","port":27055,"enabled":true,"region":"eu","cc":"pl","latitude":52.2297,"longitude":21.017532,"reserved":0,"last_update":"0001-01-01T00:00:00Z","name_a2s":"Uncletopia | Warsaw | 5 | No Payload","protocol":17,"map":"koth_cascade","folder":"tf","game":"Team Fortress","app_id":440,"player_count":0,"max_players":24,"Bots":0,"server_type":"Dedicated","server_os":"Linux","password":true,"vac":true,"version":"7695204","steam_id":85568392925397854,"keywords":["cp","nocrits","nodmgspread","uncletopia"],"game_id":440,"stv_port":0,"stv_name":"","players":null},{"server_id":54,"name":"Uncletopia | Warsaw | 6 | Community","name_short":"waw-6","host":"waw-1.pl.uncletopia.com","port":27065,"enabled":true,"region":"eu","cc":"pl","latitude":52.2297,"longitude":21.017532,"reserved":0,"last_update":"0001-01-01T00:00:00Z","name_a2s":"Uncletopia | Warsaw | 6 | Community","protocol":17,"map":"koth_viaduct","folder":"tf","game":"Team Fortress","app_id":440,"player_count":2,"max_players":24,"Bots":0,"server_type":"Dedicated","server_os":"Linux","password":true,"vac":true,"version":"7695204","steam_id":85568392925397856,"keywords":["cp","nocrits","nodmgspread","uncletopia"],"game_id":440,"stv_port":0,"stv_name":"","players":[{"user_id":14,"name":"Mary.","steam_id":76561198369977191,"connected_time":1046000000000,"state":"active","ping":65},{"user_id":15,"name":"MeoW:3","steam_id":76561198111141919,"connected_time":816000000000,"state":"active","ping":45}]}]}