{"status":true,"message":"","result":[{"server_id":9,"name":"Uncletopia | Atlanta | 1 | All Maps","name_short":"atl-1","host":"atl-1.us.uncletopia.com","port":27015,"enabled":true,"region":"us-east","cc":"us","latitude":33.753746,"longitude":-84.38633,"reserved":0,"last_update":"0001-01-01T00:00:00Z","name_a2s":"Uncletopia | Atlanta | 1 | All Maps","protocol":17,"map":"pl_frontier_final","folder":"tf","game":"Team Fortress","app_id":440,"player_count":23,"max_players":24,"Bots":0,"server_type":"Dedicated","server_os":"Linux","password":true,"vac":true,"version":"7708610","steam_id":85568392924469982,"keywords":["nocrits","nodmgspread","payload","uncletopia"],"game_id":440,"stv_port":27016,"stv_name":"Uncletopia | Atlanta | 1 | All Maps | STV","players":[{"user_id":374,"name":"Singularity","steam_id":76561198000284742,"connected_time":979000000000,"state":"active","ping":55},{"user_id":355,"name":"Johnnyclueless","steam_id":76561198065922508,"connected_time":2885000000000,"state":"active","ping":41},{"user_id":369,"name":"V!CT!M","steam_id":76561198962721502,"connected_time":2085000000000,"state":"active","ping":84},{"user_id":285,"name":"abomination","steam_id":76561198167974713,"connected_time":10972000000000,"state":"active","ping":50},{"user_id":380,"name":"‚òòÔ∏èNACHO_üçÄ","steam_id":76561198076618089,"connected_time":432000000000,"state":"active","ping":68},{"user_id":375,"name":"ATL1 | J O V A","steam_id":76561198090333536,"connected_time":978000000000,"state":"active","ping":69},{"user_id":364,"name":"Brown_Dream","steam_id":76561198975766145,"connected_time":2294000000000,"state":"active","ping":67},{"user_id":335,"name":"Vladikr1","steam_id":76561198401495362,"connected_time":5366000000000,"state":"active","ping":74},{"user_id":351,"name":"‚ùÖAlyx‚ùÖ","steam_id":76561198024303978,"connected_time":3259000000000,"state":"active","ping":60},{"user_id":373,"name":"Jin Gulilo","steam_id":76561198065151242,"connected_time":1011000000000,"state":"active","ping":74},{"user_id":328,"name":"--_Cook_--","steam_id":76561198080855748,"connected_time":6621000000000,"state":"active","ping":53},{"user_id":343,"name":"merry trapmas","steam_id":76561198402801140,"connected_time":4457000000000,"state":"active","ping":102},{"user_id":378,"name":"Cap? I own one, yes","steam_id":76561199037497493,"connected_time":696000000000,"state":"active","ping":91},{"user_id":353,"name":"zac","steam_id":76561199108994878,"connected_time":3225000000000,"state":"active","ping":94},{"user_id":359,"name":"vcx","steam_id":76561198139371143,"connected_time":2816000000000,"state":"active","ping":70},{"user_id":346,"name":"ATL1 | Lancer Fan Club","steam_id":76561198355495948,"connected_time":3584000000000,"state":"active","ping":84},{"user_id":382,"name":"Wumbologist","steam_id":76561198188729514,"connected_time":194000000000,"state":"active","ping":52},{"user_id":381,"name":"Bali","steam_id":76561198038693845,"connected_time":384000000000,"state":"active","ping":103},{"user_id":362,"name":"Bird","steam_id":76561198247484514,"connected_time":2308000000000,"state":"active","ping":63},{"user_id":376,"name":"Bames Jond","steam_id":76561198037252756,"connected_time":806000000000,"state":"active","ping":97},{"user_id":363,"name":"ZeppZepp (but merry)","steam_id":76561198824069383,"connected_time":2308000000000,"state":"active","ping":123},{"user_id":312,"name":"joe","steam_id":76561198045781320,"connected_time":8542000000000,"state":"active","ping":66}]},{"server_id":400,"name":"Uncletopia | Atlanta | 3 | All Maps","name_short":"atl-3","host":"atl-1.us.uncletopia.com","port":27035,"enabled":true,"region":"us-east","cc":"us","latitude":33.753746,"longitude":-84.38633,"reserved":0,"last_update":"0001-01-01T00:00:00Z","name_a2s":"Uncletopia | Atlanta | 3 | All Maps","protocol":17,"map":"pl_upward","folder":"tf","game":"Team Fortress","app_id":440,"player_count":0,"max_players":24,"Bots":0,"server_type":"Dedicated","server_os":"Linux","password":true,"vac":true,"version":"7708610","steam_id":85568392924515187,"keywords":["nocrits","nodmgspread","payload","uncletopia"],"game_id":440,"stv_port":27036,"stv_name":"Uncletopia | Atlanta | 3 | All Maps | STV","players":null},{"server_id":401,"name":"Uncletopia | Atlanta | 4 | No Payload","name_short":"atl-4","host":"atl-1.us.uncletopia.com","port":27045,"enabled":true,"region":"us-east","cc":"us","latitude":33.753746,"longitude":-84.38633,"reserved":0,"last_update":"0001-01-01T00:00:00Z","name_a2s":"Uncletopia | Atlanta | 4 | No Payload","protocol":17,"map":"plr_hightower","folder":"tf","game":"Team Fortress","app_id":440,"player_count":0,"max_players":24,"Bots":0,"server_type":"Dedicated","server_os":"Linux","password":true,"vac":true,"version":"7708610","steam_id":85568392924515188,"keywords":["nocrits","nodmgspread","payload","uncletopia"],"game_id":440,"stv_port":27046,"stv_name":"Uncletopia | Atlanta | 4 | No Payload | STV","players":null},{"server_id":2,"name":"Uncletopia | Chicago | 1 | All Maps","name_short":"chi-1","host":"chi-1.us.uncletopia.com","port":27015,"enabled":true,"region":"us-central","cc":"us","latitude":41.881832,"longitude":-87.62318,"reserved":0,"last_update":"0001-01-01T00:00:00Z","name_a2s":"Uncletopia | Chicago | 1 | All Maps","protocol":17,"map":"ctf_2fort","folder":"tf","game":"Team Fortress","app_id":440,"player_count":23,"max_players":24,"Bots":0,"server_type":"Dedicated","server_os":"Linux","password":true,"vac":true,"version":"7708610","steam_id":85568392924469984,"keywords":["ctf","nocrits","nodmgspread","uncletopia"],"game_id":440,"stv_port":27016,"stv_name":"Uncletopia | Chicago | 1 | All Maps | STV","players":[{"user_id":315,"name":"chesman9001","steam_id":76561198824050317,"connected_time":3037000000000,"state":"active","ping":64},{"user_id":299,"name":"Cthuwu","steam_id":76561198272014414,"connected_time":3463000000000,"state":"active","ping":65},{"user_id":316,"name":"I Twitch Lego Star Wars...","steam_id":76561198130280060,"connected_time":3007000000000,"state":"active","ping":118},{"user_id":300,"name":"Kr4bKing 11","steam_id":76561198849444982,"connected_time":3461000000000,"state":"active","ping":77},{"user_id":331,"name":"baseba8311","steam_id":76561198327711144,"connected_time":2383000000000,"state":"active","ping":82},{"user_id":349,"name":"ham bone","steam_id":76561198351143785,"connected_time":130000000000,"state":"active","ping":46},{"user_id":340,"name":"Bean Farmer","steam_id":76561198139039646,"connected_time":1370000000000,"state":"active","ping":72},{"user_id":224,"name":"dr peppah chug!","steam_id":76561198068835693,"connected_time":9982000000000,"state":"active","ping":86},{"user_id":350,"name":"Noe97663","steam_id":76561198111468690,"connected_time":117000000000,"state":"active","ping":93},{"user_id":259,"name":"Ras","steam_id":76561198123546775,"connected_time":7846000000000,"state":"active","ping":61},{"user_id":271,"name":"blob","steam_id":76561198122375328,"connected_time":5951000000000,"state":"active","ping":60},{"user_id":318,"name":"Luucyf3r","steam_id":76561198141820085,"connected_time":2861000000000,"state":"active","ping":75},{"user_id":348,"name":"Tresthebest360","steam_id":76561198965347175,"connected_time":242000000000,"state":"active","ping":56},{"user_id":321,"name":"Epicdisc","steam_id":76561198025483504,"connected_time":2786000000000,"state":"active","ping":65},{"user_id":351,"name":"Anxiety","steam_id":76561198365627687,"connected_time":85000000000,"state":"active","ping":117},{"user_id":344,"name":"Ye (I Love Hitler) West","steam_id":76561198068830312,"connected_time":331000000000,"state":"active","ping":46},{"user_id":352,"name":"Jbulleit97","steam_id":76561198044069383,"connected_time":67000000000,"state":"active","ping":60},{"user_id":341,"name":"Grunkle_Chubs","steam_id":76561198272017187,"connected_time":1182000000000,"state":"active","ping":65},{"user_id":343,"name":"A_vacuum","steam_id":76561199160874929,"connected_time":333000000000,"state":"active","ping":53},{"user_id":353,"name":"lincolndaniel","steam_id":76561198996053984,"connected_time":32000000000,"state":"spawning","ping":85},{"user_id":332,"name":"Yukon Cornelius","steam_id":76561198261512781,"connected_time":2333000000000,"state":"active","ping":64},{"user_id":354,"name":"jacospoo","steam_id":76561198076364156,"connected_time":3000000000,"state":"spawning","ping":81},{"user_id":329,"name":"AXELORDX","steam_id":76561198136639581,"connected_time":2650000000000,"state":"active","ping":64}]},{"server_id":106,"name":"Uncletopia | Chicago | 2 | All Maps","name_short":"chi-2","host":"chi-1.us.uncletopia.com","port":27025,"enabled":true,"region":"us-central","cc":"us","latitude":41.881832,"longitude":-87.62318,"reserved":0,"last_update":"0001-01-01T00:00:00Z","name_a2s":"Uncletopia | Chicago | 2 | All Maps","protocol":17,"map":"cp_sunshine","folder":"tf","game":"Team Fortress","app_id":440,"player_count":23,"max_players":24,"Bots":0,"server_type":"Dedicated","server_os":"Linux","password":true,"vac":true,"version":"7708610","steam_id":85568392924469985,"keywords":["cp","nocrits","nodmgspread","uncletopia"],"game_id":440,"stv_port":27026,"stv_name":"Uncletopia | Chicago | 2 | All Maps | STV","players":[{"user_id":201,"name":"XxX_Yung_XxX_Pr0d1gy_XxX","steam_id":76561198076367669,"connected_time":357000000000,"state":"active","ping":64},{"user_id":194,"name":"Mengle","steam_id":76561198001953684,"connected_time":768000000000,"state":"active","ping":58},{"user_id":212,"name":"kaedris","steam_id":76561198137465310,"connected_time":20000000000,"state":"active","ping":61},{"user_id":202,"name":"The Bravest of Warriors","steam_id":76561198048289242,"connected_time":316000000000,"state":"active","ping":104},{"user_id":197,"name":"*Mister Bubbles","steam_id":76561197998837410,"connected_time":652000000000,"state":"active","ping":98},{"user_id":188,"name":"ThatGalLucy","steam_id":76561198294956944,"connected_time":1330000000000,"state":"active","ping":91},{"user_id":203,"name":"Ay I'm Walkin' Here!","steam_id":76561198023967485,"connected_time":308000000000,"state":"active","ping":116},{"user_id":190,"name":"ZekeThePlumber","steam_id":76561197995016724,"connected_time":1163000000000,"state":"active","ping":69},{"user_id":200,"name":"SuperKirby","steam_id":76561198058449669,"connected_time":455000000000,"state":"active","ping":47},{"user_id":191,"name":"4d4","steam_id":76561198402360789,"connected_time":1020000000000,"state":"active","ping":54},{"user_id":204,"name":"Menachem","steam_id":76561198041226420,"connected_time":298000000000,"state":"active","ping":46},{"user_id":183,"name":"Pennis the Menace","steam_id":76561198254878037,"connected_time":1838000000000,"state":"active","ping":112},{"user_id":210,"name":"–≥—Ä—É—Å—Ç–Ω—ã–π","steam_id":76561198274550638,"connected_time":102000000000,"state":"active","ping":73},{"user_id":205,"name":"wheallchair sam","steam_id":76561199112194007,"connected_time":290000000000,"state":"active","ping":80},{"user_id":206,"name":"The Sinister Potion","steam_id":76561198131280715,"connected_time":273000000000,"state":"active","ping":64},{"user_id":207,"name":"[S]Mr. X [No Monitor]","steam_id":76561197963746035,"connected_time":264000000000,"state":"active","ping":99},{"user_id":187,"name":"IPlayGamez","steam_id":76561198041387508,"connected_time":1598000000000,"state":"active","ping":77},{"user_id":208,"name":"Marty Byrde IRL","steam_id":76561199427269098,"connected_time":185000000000,"state":"active","ping":58},{"user_id":209,"name":"BB Lorexav","steam_id":76561198207565988,"connected_time":166000000000,"state":"active","ping":84},{"user_id":186,"name":"Jak(i)","steam_id":76561198076823144,"connected_time":1704000000000,"state":"active","ping":64},{"user_id":129,"name":"peachy","steam_id":76561198026664629,"connected_time":5857000000000,"state":"active","ping":49},{"user_id":185,"name":"TheMeatlyShaymin","steam_id":76561199078945620,"connected_time":1746000000000,"state":"active","ping":57},{"user_id":195,"name":"CAr","steam_id":76561198276333907,"connected_time":719000000000,"state":"active","ping":110}]},{"server_id":402,"name":"Uncletopia | Chicago | 3 | All Maps","name_short":"chi-3","host":"chi-1.us.uncletopia.com","port":27035,"enabled":true,"region":"us-central","cc":"us","latitude":41.881832,"longitude":-87.62318,"reserved":0,"last_update":"0001-01-01T00:00:00Z","name_a2s":"Uncletopia | Chicago | 3 | All Maps","protocol":17,"map":"pl_borneo","folder":"tf","game":"Team Fortress","app_id":440,"player_count":25,"max_players":24,"Bots":0,"server_type":"Dedicated","server_os":"Linux","password":true,"vac":true,"version":"7708610","steam_id":85568392924515191,"keywords":["nocrits","nodmgspread","payload","uncletopia"],"game_id":440,"stv_port":27036,"stv_name":"Uncletopia | Chicago | 3 | All Maps | STV","players":[{"user_id":102,"name":"Quakedad","steam_id":76561198055811307,"connected_time":1286000000000,"state":"active","ping":124},{"user_id":107,"name":"Sup m8","steam_id":76561198081659121,"connected_time":843000000000,"state":"active","ping":61},{"user_id":93,"name":"Liam Triforce","steam_id":76561198065300748,"connected_time":1717000000000,"state":"active","ping":81},{"user_id":63,"name":"just tryna ball with my bros","steam_id":76561198026589960,"connected_time":3338000000000,"state":"active","ping":55},{"user_id":108,"name":"wolf_71","steam_id":76561198963570945,"connected_time":824000000000,"state":"active","ping":61},{"user_id":97,"name":"Aspxts","steam_id":76561199125254746,"connected_time":1479000000000,"state":"active","ping":54},{"user_id":99,"name":"Splarvis","steam_id":76561198007792525,"connected_time":1414000000000,"state":"active","ping":129},{"user_id":86,"name":"Bruised Banana","steam_id":76561198364172677,"connected_time":1771000000000,"state":"active","ping":78},{"user_id":115,"name":"Avg. Santa Believer (Nice list)","steam_id":76561198040444697,"connected_time":620000000000,"state":"active","ping":65},{"user_id":109,"name":"Jazz","steam_id":76561198281069210,"connected_time":823000000000,"state":"active","ping":77},{"user_id":110,"name":"Estrogen Connoisseur","steam_id":76561198085813708,"connected_time":812000000000,"state":"active","ping":63},{"user_id":111,"name":"BrianD (Gemigi)","steam_id":76561198328215363,"connected_time":800000000000,"state":"active","ping":92},{"user_id":112,"name":"big guapo","steam_id":76561198103228695,"connected_time":773000000000,"state":"active","ping":80},{"user_id":36,"name":"airballer","steam_id":76561198165899125,"connected_time":4409000000000,"state":"active","ping":72},{"user_id":117,"name":"a crazy hobo","steam_id":76561198289650060,"connected_time":351000000000,"state":"active","ping":87},{"user_id":113,"name":"Oakspace_","steam_id":76561198132487015,"connected_time":753000000000,"state":"active","ping":60},{"user_id":81,"name":"shalankawanak","steam_id":76561198987719376,"connected_time":2440000000000,"state":"active","ping":62},{"user_id":80,"name":"HappBoiAFK","steam_id":76561199443211026,"connected_time":2494000000000,"state":"active","ping":63},{"user_id":114,"name":"biggy","steam_id":76561198141903407,"connected_time":733000000000,"state":"active","ping":83},{"user_id":71,"name":"Kindrick","steam_id":76561199014184981,"connected_time":3236000000000,"state":"active","ping":65},{"user_id":116,"name":"Red","steam_id":76561197998285162,"connected_time":603000000000,"state":"active","ping":87},{"user_id":82,"name":"japanese cowboy","steam_id":76561198072105269,"connected_time":1959000000000,"state":"active","ping":61},{"user_id":92,"name":"Squidward Tortellini","steam_id":76561199017850660,"connected_time":1731000000000,"state":"active","ping":68},{"user_id":118,"name":"Rynx","steam_id":76561198369477018,"connected_time":184000000000,"state":"active","ping":65},{"user_id":55,"name":"FindItFixIt","steam_id":76561198104533371,"connected_time":3700000000000,"state":"active","ping":112}]},{"server_id":403,"name":"Uncletopia | Chicago | 4 | All Maps","name_short":"chi-4","host":"chi-1.us.uncletopia.com","port":27045,"enabled":true,"region":"us-central","cc":"us","latitude":41.881832,"longitude":-87.62318,"reserved":0,"last_update":"0001-01-01T00:00:00Z","name_a2s":"Uncletopia | Chicago | 4 | All Maps","protocol":17,"map":"cp_altitude","folder":"tf","game":"Team Fortress","app_id":440,"player_count":0,"max_players":24,"Bots":0,"server_type":"Dedicated","server_os":"Linux","password":true,"vac":true,"version":"7708610","steam_id":85568392924515193,"keywords":["cp","nocrits","nodmgspread","uncletopia"],"game_id":440,"stv_port":27046,"stv_name":"Uncletopia | Chicago | 4 | All Maps | STV","players":null},{"server_id":36,"name":"Uncletopia | Chicago | 5 | All Maps","name_short":"chi-5","host":"chi-2.us.uncletopia.com","port":27015,"enabled":true,"region":"us-central","cc":"us","latitude":41.881832,"longitude":-87.62318,"reserved":0,"last_update":"0001-01-01T00:00:00Z","name_a2s":"Uncletopia | Chicago | 5 | All Maps","protocol":17,"map":"koth_lakeside_final","folder":"tf","game":"Team Fortress","app_id":440,"player_count":2,"max_players":24,"Bots":0,"server_type":"Dedicated","server_os":"Linux","password":true,"vac":true,"version":"7708610","steam_id":85568392924866362,"keywords":["cp","nocrits","nodmgspread","uncletopia"],"game_id":440,"stv_port":27016,"stv_name":"Uncletopia | Chicago | 5 | All Maps | STV","players":[{"user_id":3,"name":"Themarinaraman","steam_id":76561198819873321,"connected_time":1234000000000,"state":"active","ping":81},{"user_id":4,"name":"3masterotha","steam_id":76561199382332116,"connected_time":1206000000000,"state":"active","ping":61}]},{"server_id":37,"name":"Uncletopia | Chicago | 6 | All Maps","name_short":"chi-6","host":"chi-2.us.uncletopia.com","port":27025,"enabled":true,"region":"us-central","cc":"us","latitude":41.881832,"longitude":-87.62318,"reserved":0,"last_update":"0001-01-01T00:00:00Z","name_a2s":"Uncletopia | Chicago | 6 | All Maps","protocol":17,"map":"pl_snowycoast","folder":"tf","game":"Team Fortress","app_id":440,"player_count":6,"max_players":24,"Bots":0,"server_type":"Dedicated","server_os":"Linux","password":true,"vac":true,"version":"7708610","steam_id":85568392924866363,"keywords":["nocrits","nodmgspread","payload","uncletopia"],"game_id":440,"stv_port":27026,"stv_name":"Uncletopia | Chicago | 6 | All Maps | STV","players":[{"user_id":8,"name":"ella üéÄ","steam_id":76561199123532358,"connected_time":2181000000000,"state":"active","ping":53},{"user_id":15,"name":"$wag pimp lord $$$$$$$$$","steam_id":76561198329035044,"connected_time":1046000000000,"state":"active","ping":48},{"user_id":11,"name":"ReGrim","steam_id":76561198959877537,"connected_time":1983000000000,"state":"active","ping":61},{"user_id":12,"name":"Diktoulong","steam_id":76561198170613135,"connected_time":1456000000000,"state":"active","ping":77},{"user_id":14,"name":"Rexmirea","steam_id":76561198350424771,"connected_time":1161000000000,"state":"active","ping":57},{"user_id":16,"name":"OldRavensFan","steam_id":76561198043919562,"connected_time":929000000000,"state":"active","ping":57}]},{"server_id":38,"name":"Uncletopia | Chicago | 7 | No Payload","name_short":"chi-7","host":"chi-2.us.uncletopia.com","port":27035,"enabled":true,"region":"us-central","cc":"us","latitude":41.881832,"longitude":-87.62318,"reserved":0,"last_update":"0001-01-01T00:00:00Z","name_a2s":"Uncletopia | Chicago | 7 | No Payload","protocol":17,"map":"koth_badlands","folder":"tf","game":"Team Fortress","app_id":440,"player_count":0,"max_players":24,"Bots":0,"server_type":"Dedicated","server_os":"Linux","password":true,"vac":true,"version":"7708610","steam_id":85568392924866364,"keywords":["cp","nocrits","nodmgspread","uncletopia"],"game_id":440,"stv_port":27036,"stv_name":"Uncletopia | Chicago | 7 | No Payload | STV","players":null},{"server_id":39,"name":"Uncletopia | Chicago | 8 | Community","name_short":"chi-8","host":"chi-2.us.uncletopia.com","port":27045,"enabled":true,"region":"us-central","cc":"us","latitude":41.881832,"longitude":-87.62318,"reserved":0,"last_update":"0001-01-01T00:00:00Z","name_a2s":"Uncletopia | Chicago | 8 | Community","protocol":17,"map":"workshop/koth_ashville_final.ugc2130459942","folder":"tf","game":"Team Fortress","app_id":440,"player_count":0,"max_players":24,"Bots":0,"server_type":"Dedicated","server_os":"Linux","password":true,"vac":true,"version":"7708610","steam_id":85568392924866365,"keywords":["cp","nocrits","nodmgspread","uncletopia"],"game_id":440,"stv_port":27046,"stv_name":"Uncletopia | Chicago | 8 | Community | STV","players":null},{"server_id":8,"name":"Uncletopia | Dallas | 1 | All Maps","name_short":"dal-1","host":"dal-1.us.uncletopia.com","port":27015,"enabled":true,"region":"us-central","cc":"us","latitude":32.779167,"longitude":-96.80889,"reserved":0,"last_update":"0001-01-01T00:00:00Z","name_a2s":"Uncletopia | Dallas | 1 | All Maps","protocol":17,"map":"cp_sunshine","folder":"tf","game":"Team Fortress","app_id":440,"player_count":16,"max_players":24,"Bots":0,"server_type":"Dedicated","server_os":"Linux","password":true,"vac":true,"version":"7708610","steam_id":85568392924469986,"keywords":["cp","nocrits","nodmgspread","uncletopia"],"game_id":440,"stv_port":27016,"stv_name":"Uncletopia | Dallas | 1 | All Maps | STV","players":[{"user_id":181,"name":"DSM-IVCE","steam_id":76561199438515797,"connected_time":2600000000000,"state":"active","ping":123},{"user_id":213,"name":"Bones","steam_id":76561198084646266,"connected_time":154000000000,"state":"active","ping":48},{"user_id":201,"name":"WillsJit","steam_id":76561198064191759,"connected_time":1382000000000,"state":"active","ping":30},{"user_id":214,"name":"[cf] Captain Terror","steam_id":76561198028034742,"connected_time":128000000000,"state":"active","ping":70},{"user_id":215,"name":"havarti gaming","steam_id":76561198069895678,"connected_time":87000000000,"state":"active","ping":116},{"user_id":200,"name":"Dealyo","steam_id":76561198282395338,"connected_time":1417000000000,"state":"active","ping":95},{"user_id":167,"name":"COYOTE","steam_id":76561198988066988,"connected_time":3297000000000,"state":"active","ping":92},{"user_id":216,"name":"junior","steam_id":76561198170060345,"connected_time":32000000000,"state":"active","ping":78},{"user_id":179,"name":"Medic","steam_id":76561198067869016,"connected_time":2688000000000,"state":"active","ping":60},{"user_id":146,"name":"valtiel","steam_id":76561198165212575,"connected_time":4663000000000,"state":"active","ping":78},{"user_id":217,"name":"acerola","steam_id":76561198145573747,"connected_time":11000000000,"state":"active","ping":131},{"user_id":210,"name":"conscripted monk","steam_id":76561199029246232,"connected_time":615000000000,"state":"active","ping":39},{"user_id":164,"name":"Dagsdaf","steam_id":76561198055317112,"connected_time":3556000000000,"state":"active","ping":82},{"user_id":185,"name":"ducky fuzz","steam_id":76561198277382845,"connected_time":2506000000000,"state":"active","ping":55},{"user_id":186,"name":"COLOSSAL HOG","steam_id":76561198079923652,"connected_time":2438000000000,"state":"active","ping":53},{"user_id":175,"name":"Davisj13","steam_id":76561198352906640,"connected_time":2883000000000,"state":"active","ping":55}]},{"server_id":108,"name":"Uncletopia | Dallas | 2 | All Maps","name_short":"dal-2","host":"dal-1.us.uncletopia.com","port":27025,"enabled":true,"region":"us-central","cc":"us","latitude":32.779167,"longitude":-96.80889,"reserved":0,"last_update":"0001-01-01T00:00:00Z","name_a2s":"Uncletopia | Dallas | 2 | All Maps","protocol":17,"map":"pl_badwater","folder":"tf","game":"Team Fortress","app_id":440,"player_count":24,"max_players":24,"Bots":0,"server_type":"Dedicated","server_os":"Linux","password":true,"vac":true,"version":"7708610","steam_id":85568392924469988,"keywords":["nocrits","nodmgspread","payload","uncletopia"],"game_id":440,"stv_port":27026,"stv_name":"Uncletopia | Dallas | 2 | All Maps | STV","players":[{"user_id":4,"name":"Hyden da kobobl","steam_id":76561198837931725,"connected_time":4071000000000,"state":"active","ping":102},{"user_id":5,"name":"marrimae","steam_id":76561198077579990,"connected_time":3619000000000,"state":"active","ping":124},{"user_id":6,"name":"DaPiÕØnkiÃöÕ¶e","steam_id":76561198022362795,"connected_time":3577000000000,"state":"active","ping":145},{"user_id":14,"name":"PootisPowHAHA","steam_id":76561199023536209,"connected_time":1795000000000,"state":"active","ping":89},{"user_id":16,"name":"-HP-","steam_id":76561198418566428,"connected_time":1200000000000,"state":"active","ping":86},{"user_id":42,"name":"sprunk","steam_id":76561198061768122,"connected_time":171000000000,"state":"active","ping":81},{"user_id":17,"name":"Pancakes","steam_id":76561198129482145,"connected_time":1162000000000,"state":"active","ping":88},{"user_id":18,"name":"TheDieeg","steam_id":76561199443116996,"connected_time":951000000000,"state":"active","ping":69},{"user_id":26,"name":"rayybel","steam_id":76561198118513785,"connected_time":599000000000,"state":"active","ping":82},{"user_id":20,"name":"Waaaaz","steam_id":76561198029754301,"connected_time":900000000000,"state":"active","ping":85},{"user_id":36,"name":"Zorlovo","steam_id":76561198006443283,"connected_time":338000000000,"state":"active","ping":65},{"user_id":25,"name":"Federal_Fish","steam_id":76561198326222737,"connected_time":649000000000,"state":"active","ping":47},{"user_id":27,"name":"Mattatoh","steam_id":76561198807946525,"connected_time":585000000000,"state":"active","ping":47},{"user_id":28,"name":"Rex","steam_id":76561198138365053,"connected_time":559000000000,"state":"active","ping":133},{"user_id":29,"name":"Grassman (Cc)","steam_id":76561198026488532,"connected_time":481000000000,"state":"active","ping":87},{"user_id":30,"name":"Sloth","steam_id":76561197998378462,"connected_time":473000000000,"state":"active","ping":99},{"user_id":31,"name":"-|Kappin'|- Kilbo Fraggins‚Ñ¢","steam_id":76561197994725498,"connected_time":456000000000,"state":"active","ping":81},{"user_id":44,"name":"Owl man[BR]","steam_id":76561199161259305,"connected_time":6000000000,"state":"spawning","ping":209},{"user_id":45,"name":"ViralSpiralZ","steam_id":76561198356727752,"connected_time":5000000000,"state":"spawning","ping":103},{"user_id":34,"name":"amrick","steam_id":76561198271788192,"connected_time":353000000000,"state":"active","ping":86},{"user_id":37,"name":"awsomeeevee1","steam_id":76561199012905300,"connected_time":319000000000,"state":"active","ping":82},{"user_id":38,"name":"obbeymaster19","steam_id":76561199197244143,"connected_time":289000000000,"state":"active","ping":91},{"user_id":39,"name":"BabyBARKing","steam_id":76561198362318243,"connected_time":275000000000,"state":"active","ping":108},{"user_id":40,"name":"Alice in Rubberland","steam_id":76561198087328346,"connected_time":273000000000,"state":"active","ping":70}]},{"server_id":5,"name":"Uncletopia | Frankfurt | 1 | All Maps","name_short":"frk-1","host":"frk-1.de.uncletopia.com","port":27015,"enabled":true,"region":"eu","cc":"de","latitude":50.110924,"longitude":8.682127,"reserved":0,"last_update":"0001-01-01T00:00:00Z","name_a2s":"Uncletopia | Frankfurt | 1 | All Maps","protocol":17,"map":"pl_pier","folder":"tf","game":"Team Fortress","app_id":440,"player_count":22,"max_players":24,"Bots":0,"server_type":"Dedicated","server_os":"Linux","password":true,"vac":true,"version":"7708610","steam_id":85568392924469989,"keywords":["nocrits","nodmgspread","payload","uncletopia"],"game_id":440,"stv_port":27016,"stv_name":"Uncletopia | Frankfurt | 1 | All Maps | STV","players":[{"user_id":950,"name":"gagalak","steam_id":76561198089979108,"connected_time":1299000000000,"state":"active","ping":90},{"user_id":946,"name":"Alain de l'ombre","steam_id":76561198037938833,"connected_time":1617000000000,"state":"active","ping":59},{"user_id":973,"name":"Love the Subhuman Self","steam_id":76561198129828715,"connected_time":0,"state":"spawning","ping":39},{"user_id":964,"name":"Kevin","steam_id":76561198035625423,"connected_time":598000000000,"state":"active","ping":65},{"user_id":970,"name":"RIFT","steam_id":76561198991622379,"connected_time":41000000000,"state":"active","ping":51},{"user_id":947,"name":"rogal","steam_id":76561198119355068,"connected_time":1320000000000,"state":"active","ping":85},{"user_id":969,"name":"Fome","steam_id":76561198180241217,"connected_time":91000000000,"state":"active","ping":75},{"user_id":935,"name":"Œ©vetabolŒ©","steam_id":76561199015064558,"connected_time":2673000000000,"state":"active","ping":101},{"user_id":968,"name":"PlebCord","steam_id":76561198120685803,"connected_time":394000000000,"state":"active","ping":78},{"user_id":972,"name":"ALL I WANT FOR SMISSMAS IS YOU","steam_id":76561199020903774,"connected_time":16000000000,"state":"active","ping":75},{"user_id":954,"name":"LordTrap.exe","steam_id":76561198318089716,"connected_time":1202000000000,"state":"active","ping":57},{"user_id":960,"name":"FunkyPants","steam_id":76561198212024357,"connected_time":921000000000,"state":"active","ping":57},{"user_id":956,"name":"Larry Penus","steam_id":76561198207546233,"connected_time":1184000000000,"state":"active","ping":75},{"user_id":813,"name":"Tonne","steam_id":76561197970856766,"connected_time":6050000000000,"state":"active","ping":62},{"user_id":875,"name":"Gator GF","steam_id":76561198134378108,"connected_time":4651000000000,"state":"active","ping":73},{"user_id":963,"name":"Vischan but worse","steam_id":76561199371650805,"connected_time":788000000000,"state":"active","ping":83},{"user_id":945,"name":"dn4k","steam_id":76561199221755690,"connected_time":1675000000000,"state":"active","ping":76},{"user_id":839,"name":"mohemmedmokhter2005","steam_id":76561199197650506,"connected_time":5443000000000,"state":"active","ping":109},{"user_id":944,"name":"DM_Tiz","steam_id":76561198061478257,"connected_time":1761000000000,"state":"active","ping":47},{"user_id":940,"name":"zero","steam_id":76561198055365234,"connected_time":2632000000000,"state":"active","ping":78},{"user_id":971,"name":"Buckler./007/.","steam_id":76561198126801474,"connected_time":36000000000,"state":"active","ping":74},{"user_id":900,"name":"Birdtakesbread","steam_id":76561199152227269,"connected_time":4090000000000,"state":"active","ping":66}]},{"server_id":110,"name":"Uncletopia | Frankfurt | 2 | All Maps","name_short":"frk-2","host":"frk-1.de.uncletopia.com","port":27025,"enabled":true,"region":"eu","cc":"de","latitude":50.110924,"longitude":8.682127,"reserved":0,"last_update":"0001-01-01T00:00:00Z","name_a2s":"Uncletopia | Frankfurt | 2 | All Maps","protocol":17,"map":"pl_pier","folder":"tf","game":"Team Fortress","app_id":440,"player_count":0,"max_players":24,"Bots":0,"server_type":"Dedicated","server_os":"Linux","password":true,"vac":true,"version":"7708610","steam_id":85568392924469990,"keywords":["nocrits","nodmgspread","payload","uncletopia"],"game_id":440,"stv_port":27026,"stv_name":"Uncletopia | Frankfurt | 2 | All Maps | STV","players":null},{"server_id":308,"name":"Uncletopia | Frankfurt | 3 | All Maps","name_short":"frk-3","host":"frk-1.de.uncletopia.com","port":27035,"enabled":true,"region":"eu","cc":"de","latitude":50.110924,"longitude":8.682127,"reserved":0,"last_update":"0001-01-01T00:00:00Z","name_a2s":"Uncletopia | Frankfurt | 3 | All Maps","protocol":17,"map":"pl_goldrush","folder":"tf","game":"Team Fortress","app_id":440,"player_count":24,"max_players":24,"Bots":0,"server_type":"Dedicated","server_os":"Linux","password":true,"vac":true,"version":"7708610","steam_id":85568392924504274,"keywords":["nocrits","nodmgspread","payload","uncletopia"],"game_id":440,"stv_port":27036,"stv_name":"Uncletopia | Frankfurt | 3 | All Maps | STV","players":[{"user_id":625,"name":"Insain Bolt!","steam_id":76561198025687726,"connected_time":1062000000000,"state":"active","ping":60},{"user_id":554,"name":"KillerQueen (he/they/she)","steam_id":76561199019399725,"connected_time":5820000000000,"state":"active","ping":61},{"user_id":626,"name":"JugoTopia","steam_id":76561197996067209,"connected_time":968000000000,"state":"active","ping":124},{"user_id":607,"name":"sigma","steam_id":76561198391396239,"connected_time":1829000000000,"state":"active","ping":93},{"user_id":623,"name":"Jonathan","steam_id":76561198087988880,"connected_time":1258000000000,"state":"active","ping":54},{"user_id":616,"name":"pl_badwater","steam_id":76561198152184280,"connected_time":1667000000000,"state":"active","ping":75},{"user_id":633,"name":"boo_thefeared","steam_id":76561198127967685,"connected_time":152000000000,"state":"active","ping":52},{"user_id":627,"name":"Tryrn","steam_id":76561198075487436,"connected_time":797000000000,"state":"active","ping":105},{"user_id":609,"name":"THERAVAGER9","steam_id":76561198420214967,"connected_time":1815000000000,"state":"active","ping":106},{"user_id":634,"name":"Rasmusson [29th ID]","steam_id":76561198191451713,"connected_time":130000000000,"state":"active","ping":81},{"user_id":610,"name":"goblin","steam_id":76561199010825303,"connected_time":1777000000000,"state":"active","ping":72},{"user_id":597,"name":"Fales","steam_id":76561198126124929,"connected_time":3079000000000,"state":"active","ping":71},{"user_id":635,"name":"Dolphin2011","steam_id":76561197997323419,"connected_time":129000000000,"state":"active","ping":91},{"user_id":577,"name":"SOONMAN","steam_id":76561198060067117,"connected_time":4347000000000,"state":"active","ping":74},{"user_id":612,"name":"rosepinkyfuzz","steam_id":76561198018546334,"connected_time":1764000000000,"state":"active","ping":74},{"user_id":636,"name":"Pahlberg","steam_id":76561198208547929,"connected_time":103000000000,"state":"active","ping":78},{"user_id":613,"name":"cinny","steam_id":76561198832112629,"connected_time":1751000000000,"state":"active","ping":83},{"user_id":614,"name":"sks ÀÖÀÖ","steam_id":76561197996485230,"connected_time":1731000000000,"state":"active","ping":74},{"user_id":637,"name":"Avsky","steam_id":76561198048870734,"connected_time":98000000000,"state":"active","ping":66},{"user_id":621,"name":"Meh","steam_id":76561198148030229,"connected_time":1447000000000,"state":"active","ping":78},{"user_id":624,"name":"Qwerty","steam_id":76561198023525894,"connected_time":1245000000000,"state":"active","ping":81},{"user_id":638,"name":"D *","steam_id":76561198086304421,"connected_time":32000000000,"state":"active","ping":89},{"user_id":618,"name":"pl_z≈Çawoda","steam_id":76561198040588109,"connected_time":1648000000000,"state":"active","ping":78},{"user_id":631,"name":"Hoff","steam_id":76561198138540938,"connected_time":534000000000,"state":"active","ping":73}]},{"server_id":309,"name":"Uncletopia | Frankfurt | 4 | All Maps","name_short":"frk-4","host":"frk-1.de.uncletopia.com","port":27045,"enabled":true,"region":"eu","cc":"de","latitude":50.110924,"longitude":8.682127,"reserved":0,"last_update":"0001-01-01T00:00:00Z","name_a2s":"Uncletopia | Frankfurt | 4 | All Maps","protocol":17,"map":"pl_hoodoo_final","folder":"tf","game":"Team Fortress","app_id":440,"player_count":22,"max_players":24,"Bots":0,"server_type":"Dedicated","server_os":"Linux","password":true,"vac":true,"version":"7708610","steam_id":85568392924504275,"keywords":["nocrits","nodmgspread","payload","uncletopia"],"game_id":440,"stv_port":27046,"stv_name":"Uncletopia | Frankfurt | 4 | All Maps | STV","players":[{"user_id":338,"name":"Belithe","steam_id":76561198082612324,"connected_time":1994000000000,"state":"active","ping":60},{"user_id":333,"name":"KaraTachibana","steam_id":76561198060345132,"connected_time":2202000000000,"state":"active","ping":66},{"user_id":319,"name":"teona","steam_id":76561198008107656,"connected_time":2964000000000,"state":"active","ping":53},{"user_id":358,"name":"D'JoeLaDeprime","steam_id":76561198375894043,"connected_time":386000000000,"state":"active","ping":76},{"user_id":322,"name":"Kaspar","steam_id":76561198081849206,"connected_time":2890000000000,"state":"active","ping":46},{"user_id":281,"name":"Jedi Knight","steam_id":76561198039030709,"connected_time":5936000000000,"state":"active","ping":59},{"user_id":346,"name":"Ged The Bombad General","steam_id":76561198079288943,"connected_time":1062000000000,"state":"active","ping":111},{"user_id":352,"name":"Evil weed wizard","steam_id":76561198076137526,"connected_time":832000000000,"state":"active","ping":63},{"user_id":342,"name":"ayuumi","steam_id":76561198796327257,"connected_time":1600000000000,"state":"active","ping":48},{"user_id":310,"name":"crybaby","steam_id":76561199383952901,"connected_time":3978000000000,"state":"active","ping":155},{"user_id":351,"name":"‡πá","steam_id":76561197972711648,"connected_time":881000000000,"state":"active","ping":63},{"user_id":330,"name":"Foxyz","steam_id":76561198040642992,"connected_time":2241000000000,"state":"active","ping":103},{"user_id":349,"name":"BELADIT","steam_id":76561198011911501,"connected_time":966000000000,"state":"active","ping":77},{"user_id":350,"name":"got that right","steam_id":76561198064656601,"connected_time":920000000000,"state":"active","ping":71},{"user_id":320,"name":"sugartits","steam_id":76561198025603699,"connected_time":2958000000000,"state":"active","ping":55},{"user_id":343,"name":"csnipery","steam_id":76561199435280050,"connected_time":1586000000000,"state":"active","ping":61},{"user_id":363,"name":".viki","steam_id":76561198119607160,"connected_time":173000000000,"state":"active","ping":77},{"user_id":361,"name":"god","steam_id":76561198095681561,"connected_time":249000000000,"state":"active","ping":104},{"user_id":335,"name":"yes","steam_id":76561199165980912,"connected_time":2116000000000,"state":"active","ping":165},{"user_id":337,"name":"Midoriaga","steam_id":76561198010699090,"connected_time":2091000000000,"state":"active","ping":47},{"user_id":356,"name":"Cahl","steam_id":76561198980863125,"connected_time":495000000000,"state":"active","ping":60},{"user_id":308,"name":"jones","steam_id":76561198044434971,"connected_time":4759000000000,"state":"active","ping":69}]},{"server_id":310,"name":"Uncletopia | Frankfurt | 5 | All Maps","name_short":"frk-5","host":"frk-1.de.uncletopia.com","port":27055,"enabled":true,"region":"eu","cc":"de","latitude":50.110924,"longitude":8.682127,"reserved":0,"last_update":"0001-01-01T00:00:00Z","name_a2s":"Uncletopia | Frankfurt | 5 | All Maps","protocol":17,"map":"koth_highpass","folder":"tf","game":"Team Fortress","app_id":440,"player_count":19,"max_players":24,"Bots":0,"server_type":"Dedicated","server_os":"Linux","password":true,"vac":true,"version":"7708610","steam_id":85568392924504277,"keywords":["cp","nocrits","nodmgspread","uncletopia"],"game_id":440,"stv_port":27056,"stv_name":"Uncletopia | Frankfurt | 5 | All Maps | STV","players":[{"user_id":573,"name":"spookyalt018","steam_id":76561199191211918,"connected_time":741000000000,"state":"active","ping":128},{"user_id":571,"name":"Tomex999","steam_id":76561198049587675,"connected_time":1224000000000,"state":"active","ping":76},{"user_id":586,"name":"busgrabb","steam_id":76561198055768465,"connected_time":350000000000,"state":"active","ping":45},{"user_id":574,"name":"Dwapking","steam_id":76561198039583834,"connected_time":519000000000,"state":"active","ping":54},{"user_id":553,"name":"BONA FIDE PISS","steam_id":76561198130020929,"connected_time":2390000000000,"state":"active","ping":49},{"user_id":575,"name":"NEET","steam_id":76561198133887882,"connected_time":505000000000,"state":"active","ping":112},{"user_id":576,"name":"Athomix","steam_id":76561198170108402,"connected_time":498000000000,"state":"active","ping":57},{"user_id":577,"name":"midnight at midnight","steam_id":76561198238955540,"connected_time":493000000000,"state":"active","ping":65},{"user_id":580,"name":"0FCKGVN","steam_id":76561198076787036,"connected_time":443000000000,"state":"active","ping":48},{"user_id":579,"name":"POW!","steam_id":76561198438343751,"connected_time":473000000000,"state":"active","ping":57},{"user_id":582,"name":"drippin jimmy","steam_id":76561198219243969,"connected_time":409000000000,"state":"active","ping":63},{"user_id":592,"name":"medick","steam_id":76561199380849468,"connected_time":92000000000,"state":"active","ping":60},{"user_id":554,"name":"ethan","steam_id":76561198119495513,"connected_time":2387000000000,"state":"active","ping":53},{"user_id":567,"name":"ValentineHU","steam_id":76561198165061845,"connected_time":1301000000000,"state":"active","ping":76},{"user_id":585,"name":"calum92","steam_id":76561197992188760,"connected_time":390000000000,"state":"active","ping":76},{"user_id":587,"name":"‚≠ï‚É§Papa Palpatine","steam_id":76561198031321735,"connected_time":345000000000,"state":"active","ping":53},{"user_id":593,"name":"nice player","steam_id":76561199312009998,"connected_time":88000000000,"state":"active","ping":62},{"user_id":590,"name":"cl","steam_id":76561199436640904,"connected_time":236000000000,"state":"active","ping":71},{"user_id":474,"name":"KarlRanzeier","steam_id":76561198066281337,"connected_time":6716000000000,"state":"active","ping":50}]},{"server_id":311,"name":"Uncletopia | Frankfurt | 6 | All Maps","name_short":"frk-6","host":"frk-1.de.uncletopia.com","port":27065,"enabled":true,"region":"eu","cc":"de","latitude":50.110924,"longitude":8.682127,"reserved":0,"last_update":"0001-01-01T00:00:00Z","name_a2s":"Uncletopia | Frankfurt | 6 | All Maps","protocol":17,"map":"koth_viaduct","folder":"tf","game":"Team Fortress","app_id":440,"player_count":3,"max_players":24,"Bots":0,"server_type":"Dedicated","server_os":"Linux","password":true,"vac":true,"version":"7708610","steam_id":85568392924504278,"keywords":["cp","nocrits","nodmgspread","uncletopia"],"game_id":440,"stv_port":27066,"stv_name":"Uncletopia | Frankfurt | 6 | All Maps | STV","players":[{"user_id":146,"name":"Danizk0","steam_id":76561198147958743,"connected_time":16000000000,"state":"active","ping":133},{"user_id":144,"name":"KlutzySole9","steam_id":76561198849039219,"connected_time":1448000000000,"state":"active","ping":173},{"user_id":145,"name":"forv","steam_id":76561198326667006,"connected_time":1337000000000,"state":"active","ping":60}]},{"server_id":23,"name":"Uncletopia | Frankfurt | 7 | No Payload","name_short":"frk-7","host":"frk-1.de.uncletopia.com","port":27075,"enabled":true,"region":"eu","cc":"de","latitude":50.110924,"longitude":8.682127,"reserved":0,"last_update":"0001-01-01T00:00:00Z","name_a2s":"Uncletopia | Frankfurt | 7 | No Payload","protocol":17,"map":"ctf_turbine","folder":"tf","game":"Team Fortress","app_id":440,"player_count":0,"max_players":24,"Bots":0,"server_type":"Dedicated","server_os":"Linux","password":true,"vac":true,"version":"7708610","steam_id":85568392924742827,"keywords":["ctf","nocrits","nodmgspread","uncletopia"],"game_id":440,"stv_port":27076,"stv_name":"Uncletopia | Frankfurt | 7 | No Payload | STV","players":null},{"server_id":24,"name":"Uncletopia | Frankfurt | 8 | Community","name_short":"frk-8","host":"frk-1.de.uncletopia.com","port":27085,"enabled":true,"region":"eu","cc":"de","latitude":50.110924,"longitude":8.682127,"reserved":0,"last_update":"0001-01-01T00:00:00Z","name_a2s":"Uncletopia | Frankfurt | 8 | Community","protocol":17,"map":"workshop/koth_ramjam_v2_b2.ugc2865676487","folder":"tf","game":"Team Fortress","app_id":440,"player_count":0,"max_players":24,"Bots":0,"server_type":"Dedicated","server_os":"Linux","password":true,"vac":true,"version":"7708610","steam_id":85568392924742828,"keywords":["cp","nocrits","nodmgspread","uncletopia"],"game_id":440,"stv_port":27086,"stv_name":"Uncletopia | Frankfurt | 8 | Community | STV","players":null},{"server_id":202,"name":"Uncletopia | Hong Kong | 1 | All Maps","name_short":"hgk-1","host":"hgk-1.hk.uncletopia.com","port":27015,"enabled":true,"region":"asia","cc":"hk","latitude":22.302711,"longitude":114.177216,"reserved":0,"last_update":"0001-01-01T00:00:00Z","name_a2s":"Uncletopia | Hong Kong | 1 | All Maps","protocol":17,"map":"cp_mountainlab","folder":"tf","game":"Team Fortress","app_id":440,"player_count":0,"max_players":24,"Bots":0,"server_type":"Dedicated","server_os":"Linux","password":true,"vac":true,"version":"7708610","steam_id":85568392924494504,"keywords":["cp","nocrits","nodmgspread","uncletopia"],"game_id":440,"stv_port":27016,"stv_name":"Uncletopia | Hong Kong | 1 | All Maps | STV","players":null},{"server_id":1,"name":"Uncletopia | Los Angeles | 1 | All Maps","name_short":"lax-1","host":"lax-1.us.uncletopia.com","port":27015,"enabled":true,"region":"us-west","cc":"us","latitude":33.94279,"longitude":-118.41004,"reserved":0,"last_update":"0001-01-01T00:00:00Z","name_a2s":"Uncletopia | Los Angeles | 1 | All Maps","protocol":17,"map":"pl_pier","folder":"tf","game":"Team Fortress","app_id":440,"player_count":25,"max_players":24,"Bots":0,"server_type":"Dedicated","server_os":"Linux","password":true,"vac":true,"version":"7708610","steam_id":85568392924469991,"keywords":["nocrits","nodmgspread","payload","uncletopia"],"game_id":440,"stv_port":27016,"stv_name":"Uncletopia | Los Angeles | 1 | All Maps | STV","players":[{"user_id":163,"name":"Brynkiwi","steam_id":76561198052177917,"connected_time":173000000000,"state":"active","ping":80},{"user_id":97,"name":"◊ï◊ô◊î◊ô ◊ê◊ï◊®","steam_id":76561198212421513,"connected_time":3188000000000,"state":"active","ping":45},{"user_id":158,"name":"Soda","steam_id":76561198219209367,"connected_time":221000000000,"state":"active","ping":56},{"user_id":119,"name":"tobo","steam_id":76561199366968526,"connected_time":2087000000000,"state":"active","ping":51},{"user_id":141,"name":"üëëAssassinüëë","steam_id":76561198041061810,"connected_time":886000000000,"state":"active","ping":74},{"user_id":121,"name":"Moxxie","steam_id":76561198392673666,"connected_time":1950000000000,"state":"active","ping":115},{"user_id":161,"name":"High Cotton","steam_id":76561197998894854,"connected_time":200000000000,"state":"active","ping":107},{"user_id":160,"name":"Vulcan","steam_id":76561198399735208,"connected_time":207000000000,"state":"active","ping":105},{"user_id":159,"name":"HanakoToast","steam_id":76561198045233131,"connected_time":220000000000,"state":"active","ping":57},{"user_id":129,"name":"Professional Cardboard Salesman","steam_id":76561198095218834,"connected_time":1156000000000,"state":"active","ping":106},{"user_id":128,"name":"existential dread","steam_id":76561198041907345,"connected_time":1215000000000,"state":"active","ping":48},{"user_id":64,"name":"luke8538","steam_id":76561198067480563,"connected_time":4025000000000,"state":"active","ping":66},{"user_id":109,"name":"kangaroo gaming","steam_id":76561198017002866,"connected_time":2679000000000,"state":"active","ping":77},{"user_id":132,"name":"is really bad","steam_id":76561199211278783,"connected_time":1054000000000,"state":"active","ping":102},{"user_id":131,"name":"dodecadron","steam_id":76561198027397222,"connected_time":1122000000000,"state":"active","ping":89},{"user_id":162,"name":"Len","steam_id":76561199141913673,"connected_time":197000000000,"state":"active","ping":37},{"user_id":134,"name":"M.L.JEW","steam_id":76561198997375055,"connected_time":1020000000000,"state":"active","ping":121},{"user_id":113,"name":"Mr. Yoshida","steam_id":76561198263829831,"connected_time":2540000000000,"state":"active","ping":82},{"user_id":69,"name":"Sparks","steam_id":76561198067483710,"connected_time":3945000000000,"state":"active","ping":62},{"user_id":143,"name":"Seriously Bruh","steam_id":76561198070408485,"connected_time":853000000000,"state":"active","ping":89},{"user_id":169,"name":"Ultra\u003c3","steam_id":76561198352021493,"connected_time":8000000000,"state":"spawning","ping":357},{"user_id":165,"name":"The Squid Gamer‚Ñ¢","steam_id":76561198340621517,"connected_time":124000000000,"state":"active","ping":74},{"user_id":46,"name":"IncogNeeto","steam_id":76561199091278006,"connected_time":5951000000000,"state":"active","ping":65},{"user_id":107,"name":"dude","steam_id":76561198253202693,"connected_time":2789000000000,"state":"active","ping":35},{"user_id":145,"name":"shines.","steam_id":76561198056704526,"connected_time":727000000000,"state":"active","ping":58}]},{"server_id":112,"name":"Uncletopia | Los Angeles | 2 | All Maps","name_short":"lax-2","host":"lax-1.us.uncletopia.com","port":27025,"enabled":true,"region":"us-west","cc":"us","latitude":33.94279,"longitude":-118.41004,"reserved":0,"last_update":"0001-01-01T00:00:00Z","name_a2s":"Uncletopia | Los Angeles | 2 | All Maps","protocol":17,"map":"pl_snowycoast","folder":"tf","game":"Team Fortress","app_id":440,"player_count":0,"max_players":24,"Bots":0,"server_type":"Dedicated","server_os":"Linux","password":true,"vac":true,"version":"7708610","steam_id":85568392924469992,"keywords":["nocrits","nodmgspread","payload","uncletopia"],"game_id":440,"stv_port":27026,"stv_name":"Uncletopia | Los Angeles | 2 | All Maps | STV","players":null},{"server_id":324,"name":"Uncletopia | Los Angeles | 3 | All Maps","name_short":"lax-3","host":"lax-1.us.uncletopia.com","port":27035,"enabled":true,"region":"us-west","cc":"us","latitude":33.94279,"longitude":-118.41004,"reserved":0,"last_update":"0001-01-01T00:00:00Z","name_a2s":"Uncletopia | Los Angeles | 3 | All Maps","protocol":17,"map":"cp_dustbowl","folder":"tf","game":"Team Fortress","app_id":440,"player_count":5,"max_players":24,"Bots":0,"server_type":"Dedicated","server_os":"Linux","password":true,"vac":true,"version":"7708610","steam_id":85568392924510198,"keywords":["cp","nocrits","nodmgspread","uncletopia"],"game_id":440,"stv_port":27036,"stv_name":"Uncletopia | Los Angeles | 3 | All Maps | STV","players":[{"user_id":15,"name":"clungler","steam_id":76561199114200228,"connected_time":1145000000000,"state":"active","ping":209},{"user_id":13,"name":"Bingus Digner","steam_id":76561199259761729,"connected_time":1476000000000,"state":"active","ping":123},{"user_id":17,"name":"Jane Doe","steam_id":76561198811296620,"connected_time":502000000000,"state":"active","ping":150},{"user_id":21,"name":"Soap Man","steam_id":76561198000490235,"connected_time":24000000000,"state":"spawning","ping":75},{"user_id":20,"name":"OH JIMMY I'M HOME #SaveTf2","steam_id":76561198396658806,"connected_time":222000000000,"state":"active","ping":45}]},{"server_id":25,"name":"Uncletopia | Los Angeles | 4 | No Payload","name_short":"lax-4","host":"lax-1.us.uncletopia.com","port":27045,"enabled":true,"region":"us-west","cc":"us","latitude":33.94279,"longitude":-118.41004,"reserved":0,"last_update":"0001-01-01T00:00:00Z","name_a2s":"Uncletopia | Los Angeles | 4 | No Payload","protocol":17,"map":"ctf_well","folder":"tf","game":"Team Fortress","app_id":440,"player_count":0,"max_players":24,"Bots":0,"server_type":"Dedicated","server_os":"Linux","password":true,"vac":true,"version":"7708610","steam_id":85568392924510199,"keywords":["ctf","nocrits","nodmgspread","uncletopia"],"game_id":440,"stv_port":27046,"stv_name":"Uncletopia | Los Angeles | 4 | No Payload | STV","players":null},{"server_id":11,"name":"Uncletopia | London | 1 | All Maps","name_short":"lon-1","host":"lon-1.uk.uncletopia.com","port":27015,"enabled":true,"region":"eu","cc":"gb","latitude":51.509865,"longitude":-0.118092,"reserved":0,"last_update":"0001-01-01T00:00:00Z","name_a2s":"Uncletopia | London | 1 | All Maps","protocol":17,"map":"cp_snakewater_final1","folder":"tf","game":"Team Fortress","app_id":440,"player_count":24,"max_players":24,"Bots":0,"server_type":"Dedicated","server_os":"Linux","password":true,"vac":true,"version":"7708610","steam_id":85568392924367362,"keywords":["cp","nocrits","nodmgspread","uncletopia"],"game_id":440,"stv_port":27016,"stv_name":"Uncletopia | London | 1 | All Maps | STV","players":[{"user_id":884,"name":"CatVid","steam_id":76561198218047263,"connected_time":1519000000000,"state":"active","ping":49},{"user_id":880,"name":"worry about it","steam_id":76561199414716848,"connected_time":1765000000000,"state":"active","ping":74},{"user_id":894,"name":"Ptahotep","steam_id":76561198008708645,"connected_time":1013000000000,"state":"active","ping":57},{"user_id":899,"name":"bruh","steam_id":76561199439030016,"connected_time":788000000000,"state":"active","ping":105},{"user_id":906,"name":"Confident point to inviting pal","steam_id":76561198184554894,"connected_time":188000000000,"state":"active","ping":60},{"user_id":868,"name":"Ruben Zo","steam_id":76561198063855616,"connected_time":2012000000000,"state":"active","ping":76},{"user_id":887,"name":"kevin","steam_id":76561198363842731,"connected_time":1470000000000,"state":"active","ping":68},{"user_id":900,"name":"Jouppi","steam_id":76561198063725468,"connected_time":746000000000,"state":"active","ping":97},{"user_id":871,"name":"mcarlinod","steam_id":76561198050487750,"connected_time":1975000000000,"state":"active","ping":77},{"user_id":897,"name":"Smarties Mc Flurry","steam_id":76561198334337867,"connected_time":920000000000,"state":"active","ping":112},{"user_id":838,"name":"festive jones","steam_id":76561198073975078,"connected_time":5399000000000,"state":"active","ping":43},{"user_id":895,"name":"install gentoo","steam_id":76561198185257982,"connected_time":987000000000,"state":"active","ping":74},{"user_id":901,"name":"‚òûLaZe‚òú","steam_id":76561198202191400,"connected_time":715000000000,"state":"active","ping":60},{"user_id":904,"name":"yoursbzt","steam_id":76561198201866574,"connected_time":263000000000,"state":"active","ping":79},{"user_id":872,"name":"ArekanPL","steam_id":76561198306811916,"connected_time":1969000000000,"state":"active","ping":82},{"user_id":889,"name":"Joff-tchoff-tchoffo-tchoffo-tch","steam_id":76561198044167743,"connected_time":1311000000000,"state":"active","ping":107},{"user_id":864,"name":"chrissymas","steam_id":76561198096547662,"connected_time":2104000000000,"state":"active","ping":52},{"user_id":851,"name":"xX_GamingGilf_Xx","steam_id":76561199118876157,"connected_time":4529000000000,"state":"active","ping":62},{"user_id":745,"name":"lvl. 50 honkler","steam_id":76561198061688660,"connected_time":14323000000000,"state":"active","ping":110},{"user_id":876,"name":"DIDE","steam_id":76561198211013187,"connected_time":1915000000000,"state":"active","ping":74},{"user_id":891,"name":"Lods of Emone","steam_id":76561198188642265,"connected_time":1247000000000,"state":"active","ping":89},{"user_id":892,"name":"Linus Mudrocket","steam_id":76561197979606110,"connected_time":1226000000000,"state":"active","ping":48},{"user_id":902,"name":"kow","steam_id":76561198135156986,"connected_time":676000000000,"state":"active","ping":63},{"user_id":905,"name":"Cranjis McBasketball","steam_id":76561198051290193,"connected_time":241000000000,"state":"active","ping":57}]},{"server_id":114,"name":"Uncletopia | London | 2 | All Maps","name_short":"lon-2","host":"lon-1.uk.uncletopia.com","port":27025,"enabled":true,"region":"eu","cc":"gb","latitude":51.509865,"longitude":-0.118092,"reserved":0,"last_update":"0001-01-01T00:00:00Z","name_a2s":"Uncletopia | London | 2 | All Maps","protocol":17,"map":"pl_thundermountain","folder":"tf","game":"Team Fortress","app_id":440,"player_count":24,"max_players":24,"Bots":0,"server_type":"Dedicated","server_os":"Linux","password":true,"vac":true,"version":"7708610","steam_id":85568392924470941,"keywords":["nocrits","nodmgspread","payload","uncletopia"],"game_id":440,"stv_port":27026,"stv_name":"Uncletopia | London | 2 | All Maps | STV","players":[{"user_id":221,"name":"there are 5 kids in my basement","steam_id":76561198237489960,"connected_time":5052000000000,"state":"active","ping":171},{"user_id":256,"name":"Mari Christmas","steam_id":76561197997020707,"connected_time":1071000000000,"state":"active","ping":50},{"user_id":249,"name":"Mex","steam_id":76561198108279631,"connected_time":1815000000000,"state":"active","ping":70},{"user_id":252,"name":"nedilya","steam_id":76561198039692077,"connected_time":1689000000000,"state":"active","ping":63},{"user_id":169,"name":"moser23","steam_id":76561197960543171,"connected_time":8299000000000,"state":"active","ping":52},{"user_id":248,"name":"Bonca","steam_id":76561198137503531,"connected_time":1957000000000,"state":"active","ping":68},{"user_id":202,"name":"soil.dirt.earth","steam_id":76561198014377623,"connected_time":6390000000000,"state":"active","ping":58},{"user_id":250,"name":"SPONGE","steam_id":76561198040933472,"connected_time":1810000000000,"state":"active","ping":63},{"user_id":140,"name":"def","steam_id":76561198857396812,"connected_time":9671000000000,"state":"active","ping":54},{"user_id":237,"name":"Windows Vista Cruiser","steam_id":76561198064102233,"connected_time":3350000000000,"state":"active","ping":60},{"user_id":233,"name":"Gruel","steam_id":76561198045408509,"connected_time":3722000000000,"state":"active","ping":51},{"user_id":177,"name":"Bloofred","steam_id":76561198111778052,"connected_time":7429000000000,"state":"active","ping":49},{"user_id":257,"name":"stroyo","steam_id":76561198409592046,"connected_time":1035000000000,"state":"active","ping":49},{"user_id":258,"name":"Nervous Catboy","steam_id":76561198308697597,"connected_time":930000000000,"state":"active","ping":65},{"user_id":139,"name":"Spajro","steam_id":76561198257383813,"connected_time":9678000000000,"state":"active","ping":53},{"user_id":214,"name":"Alibi","steam_id":76561198061845595,"connected_time":5761000000000,"state":"active","ping":54},{"user_id":215,"name":"DeMano","steam_id":76561198147857776,"connected_time":5751000000000,"state":"active","ping":87},{"user_id":244,"name":"cantcant","steam_id":76561199232143998,"connected_time":2585000000000,"state":"active","ping":48},{"user_id":224,"name":"washed up","steam_id":76561198275742101,"connected_time":4481000000000,"state":"active","ping":72},{"user_id":264,"name":"Padgriffin","steam_id":76561198205745757,"connected_time":248000000000,"state":"active","ping":46},{"user_id":239,"name":"hug giver","steam_id":76561198412702855,"connected_time":3005000000000,"state":"active","ping":30},{"user_id":266,"name":"Roboolet","steam_id":76561198107353953,"connected_time":28000000000,"state":"spawning","ping":58},{"user_id":189,"name":"Command","steam_id":76561198339873745,"connected_time":6678000000000,"state":"active","ping":84},{"user_id":222,"name":"Raeews","steam_id":76561198254646517,"connected_time":4897000000000,"state":"active","ping":45}]},{"server_id":320,"name":"Uncletopia | London | 3 | All Maps","name_short":"lon-3","host":"lon-1.uk.uncletopia.com","port":27035,"enabled":true,"region":"eu","cc":"gb","latitude":51.509865,"longitude":-0.118092,"reserved":0,"last_update":"0001-01-01T00:00:00Z","name_a2s":"Uncletopia | London | 3 | All Maps","protocol":17,"map":"koth_highpass","folder":"tf","game":"Team Fortress","app_id":440,"player_count":19,"max_players":24,"Bots":0,"server_type":"Dedicated","server_os":"Linux","password":true,"vac":true,"version":"7708610","steam_id":85568392924510192,"keywords":["cp","nocrits","nodmgspread","uncletopia"],"game_id":440,"stv_port":27036,"stv_name":"Uncletopia | London | 3 | All Maps | STV","players":[{"user_id":352,"name":"üíñYoshiiüíñ","steam_id":76561198174049277,"connected_time":504000000000,"state":"active","ping":58},{"user_id":347,"name":"Kqyt","steam_id":76561198044885742,"connected_time":1002000000000,"state":"active","ping":68},{"user_id":353,"name":"grenade37","steam_id":76561198130622248,"connected_time":494000000000,"state":"active","ping":53},{"user_id":354,"name":"√Ñmfer","steam_id":76561198036472736,"connected_time":391000000000,"state":"active","ping":64},{"user_id":302,"name":"random_player691","steam_id":76561199209946306,"connected_time":3969000000000,"state":"active","ping":58},{"user_id":355,"name":"a Sin","steam_id":76561198114382011,"connected_time":334000000000,"state":"active","ping":102},{"user_id":345,"name":"cropping","steam_id":76561198026586456,"connected_time":1401000000000,"state":"active","ping":60},{"user_id":356,"name":"Firms","steam_id":76561198845453012,"connected_time":308000000000,"state":"active","ping":74},{"user_id":357,"name":"kaelan!","steam_id":76561198001425310,"connected_time":264000000000,"state":"active","ping":69},{"user_id":358,"name":"Ezio Auditore","steam_id":76561198453527850,"connected_time":221000000000,"state":"active","ping":64},{"user_id":359,"name":"loardjosef","steam_id":76561198111142657,"connected_time":177000000000,"state":"active","ping":52},{"user_id":360,"name":"biohazard.pt","steam_id":76561198088367808,"connected_time":172000000000,"state":"active","ping":90},{"user_id":361,"name":"Doitchous  velk.ca ","steam_id":76561198119443761,"connected_time":161000000000,"state":"active","ping":62},{"user_id":362,"name":"Weeb","steam_id":76561198297928869,"connected_time":116000000000,"state":"active","ping":56},{"user_id":319,"name":"Saken","steam_id":76561198049075295,"connected_time":3402000000000,"state":"active","ping":65},{"user_id":363,"name":"·ö®·öæ·õñ·ö¢·ö±","steam_id":76561198125459690,"connected_time":114000000000,"state":"active","ping":47},{"user_id":364,"name":"neet","steam_id":76561197968115168,"connected_time":102000000000,"state":"active","ping":117},{"user_id":365,"name":"Yake","steam_id":76561199138742311,"connected_time":85000000000,"state":"active","ping":65},{"user_id":326,"name":"lark","steam_id":76561198091724522,"connected_time":3308000000000,"state":"active","ping":50}]},{"server_id":321,"name":"Uncletopia | London | 4 | All Maps","name_short":"lon-4","host":"lon-1.uk.uncletopia.com","port":27045,"enabled":true,"region":"eu","cc":"gb","latitude":51.509865,"longitude":-0.118092,"reserved":0,"last_update":"0001-01-01T00:00:00Z","name_a2s":"Uncletopia | London | 4 | All Maps","protocol":17,"map":"koth_lakeside_final","folder":"tf","game":"Team Fortress","app_id":440,"player_count":0,"max_players":24,"Bots":0,"server_type":"Dedicated","server_os":"Linux","password":true,"vac":true,"version":"7708610","steam_id":85568392924510193,"keywords":["cp","nocrits","nodmgspread","uncletopia"],"game_id":440,"stv_port":27046,"stv_name":"Uncletopia | London | 4 | All Maps | STV","players":null},{"server_id":21,"name":"Uncletopia | London | 5 | All Maps","name_short":"lon-5","host":"lon-1.uk.uncletopia.com","port":27055,"enabled":true,"region":"eu","cc":"gb","latitude":51.509865,"longitude":-0.118092,"reserved":0,"last_update":"0001-01-01T00:00:00Z","name_a2s":"Uncletopia | London | 5 | All Maps","protocol":17,"map":"pl_frontier_final","folder":"tf","game":"Team Fortress","app_id":440,"player_count":24,"max_players":24,"Bots":0,"server_type":"Dedicated","server_os":"Linux","password":true,"vac":true,"version":"7708610","steam_id":85568392924742829,"keywords":["nocrits","nodmgspread","payload","uncletopia"],"game_id":440,"stv_port":27056,"stv_name":"Uncletopia | London | 5 | All Maps | STV","players":[{"user_id":424,"name":"shepard","steam_id":76561199435854673,"connected_time":4339000000000,"state":"active","ping":44},{"user_id":480,"name":"cryyptt_ ‚òÖ","steam_id":76561198059566837,"connected_time":890000000000,"state":"active","ping":47},{"user_id":481,"name":"Purplenoogie","steam_id":76561198081872160,"connected_time":720000000000,"state":"active","ping":44},{"user_id":471,"name":"Regan","steam_id":76561198100631086,"connected_time":1464000000000,"state":"active","ping":74},{"user_id":468,"name":"saltin","steam_id":76561198018440443,"connected_time":1553000000000,"state":"active","ping":105},{"user_id":469,"name":"Ork","steam_id":76561197968575924,"connected_time":1534000000000,"state":"active","ping":55},{"user_id":463,"name":"Charly","steam_id":76561197961895147,"connected_time":2031000000000,"state":"active","ping":40},{"user_id":485,"name":"|20BB)\u003eMach","steam_id":76561198952487564,"connected_time":663000000000,"state":"active","ping":81},{"user_id":483,"name":"S0LDaTo","steam_id":76561198269413360,"connected_time":698000000000,"state":"active","ping":67},{"user_id":477,"name":"=flashpoint=","steam_id":76561197976774456,"connected_time":1128000000000,"state":"active","ping":48},{"user_id":475,"name":"bayley","steam_id":76561198117472639,"connected_time":1407000000000,"state":"active","ping":73},{"user_id":428,"name":"Sado","steam_id":76561198212542081,"connected_time":4292000000000,"state":"active","ping":76},{"user_id":452,"name":"Sunshine Moon","steam_id":76561198022604491,"connected_time":2654000000000,"state":"active","ping":57},{"user_id":456,"name":"Doog","steam_id":76561198072081731,"connected_time":2482000000000,"state":"active","ping":63},{"user_id":429,"name":"skull","steam_id":76561198269491159,"connected_time":4284000000000,"state":"active","ping":59},{"user_id":486,"name":"Arscin","steam_id":76561198262193529,"connected_time":486000000000,"state":"active","ping":54},{"user_id":444,"name":"name","steam_id":76561198152620745,"connected_time":3187000000000,"state":"active","ping":56},{"user_id":484,"name":"she strogan me off til i beef","steam_id":76561198166555207,"connected_time":695000000000,"state":"active","ping":57},{"user_id":445,"name":"Oboe","steam_id":76561198062823658,"connected_time":2900000000000,"state":"active","ping":74},{"user_id":487,"name":"p!ke","steam_id":76561198416081952,"connected_time":429000000000,"state":"active","ping":65},{"user_id":461,"name":"Steen","steam_id":76561198122992510,"connected_time":2116000000000,"state":"active","ping":45},{"user_id":465,"name":"Morseerman","steam_id":76561198040169391,"connected_time":1631000000000,"state":"active","ping":63},{"user_id":462,"name":"SVIFT Warped","steam_id":76561197989916494,"connected_time":2100000000000,"state":"active","ping":41},{"user_id":464,"name":"dolo","steam_id":76561198206672297,"connected_time":1634000000000,"state":"active","ping":59}]},{"server_id":22,"name":"Uncletopia | London | 6 | All Maps","name_short":"lon-6","host":"lon-1.uk.uncletopia.com","port":27065,"enabled":true,"region":"eu","cc":"gb","latitude":51.509865,"longitude":-0.118092,"reserved":0,"last_update":"0001-01-01T00:00:00Z","name_a2s":"Uncletopia | London | 6 | All Maps","protocol":17,"map":"pl_snowycoast","folder":"tf","game":"Team Fortress","app_id":440,"player_count":0,"max_players":24,"Bots":0,"server_type":"Dedicated","server_os":"Linux","password":true,"vac":true,"version":"7708610","steam_id":85568392924742830,"keywords":["nocrits","nodmgspread","payload","uncletopia"],"game_id":440,"stv_port":27066,"stv_name":"Uncletopia | London | 6 | All Maps | STV","players":null},{"server_id":40,"name":"Uncletopia | London | 7 | No Payload","name_short":"lon-7","host":"lon-1.uk.uncletopia.com","port":27075,"enabled":true,"region":"eu","cc":"gb","latitude":51.509865,"longitude":-0.118092,"reserved":0,"last_update":"0001-01-01T00:00:00Z","name_a2s":"Uncletopia | London | 7 | No Payload","protocol":17,"map":"koth_lazarus","folder":"tf","game":"Team Fortress","app_id":440,"player_count":0,"max_players":24,"Bots":0,"server_type":"Dedicated","server_os":"Linux","password":true,"vac":true,"version":"7708610","steam_id":85568392924964314,"keywords":["cp","nocrits","nodmgspread","uncletopia"],"game_id":440,"stv_port":27076,"stv_name":"Uncletopia | London | 7 | No Payload | STV","players":null},{"server_id":41,"name":"Uncletopia | London | 8 | Community","name_short":"lon-8","host":"lon-1.uk.uncletopia.com","port":27085,"enabled":true,"region":"eu","cc":"gb","latitude":51.509865,"longitude":-0.118092,"reserved":0,"last_update":"0001-01-01T00:00:00Z","name_a2s":"Uncletopia | London | 8 | Community","protocol":17,"map":"workshop/pl_cactuscanyon_redux_rc4b.ugc2579644293","folder":"tf","game":"Team Fortress","app_id":440,"player_count":0,"max_players":24,"Bots":0,"server_type":"Dedicated","server_os":"Linux","password":true,"vac":true,"version":"7708610","steam_id":85568392924964315,"keywords":["nocrits","nodmgspread","payload","uncletopia"],"game_id":440,"stv_port":27086,"stv_name":"Uncletopia | London | 8 | Community | STV","players":null},{"server_id":300,"name":"Uncletopia | Montr√©al | 1 | All Maps","name_short":"mtl-1","host":"mtl-1.ca.uncletopia.com","port":27015,"enabled":true,"region":"us-east","cc":"ca","latitude":45.50889,"longitude":-73.56167,"reserved":0,"last_update":"0001-01-01T00:00:00Z","name_a2s":"Uncletopia | Montr√©al | 1 | All Maps","protocol":17,"map":"pl_borneo","folder":"tf","game":"Team Fortress","app_id":440,"player_count":0,"max_players":24,"Bots":0,"server_type":"Dedicated","server_os":"Linux","password":true,"vac":true,"version":"7708610","steam_id":85568392924500087,"keywords":["nocrits","nodmgspread","payload","uncletopia"],"game_id":440,"stv_port":27016,"stv_name":"Uncletopia | Montr√©al | 1 | All Maps | STV","players":null},{"server_id":301,"name":"Uncletopia | Montr√©al | 2 | All Maps","name_short":"mtl-2","host":"mtl-1.ca.uncletopia.com","port":27025,"enabled":true,"region":"us-east","cc":"ca","latitude":45.50889,"longitude":-73.56167,"reserved":0,"last_update":"0001-01-01T00:00:00Z","name_a2s":"Uncletopia | Montr√©al | 2 | All Maps","protocol":17,"map":"pl_borneo","folder":"tf","game":"Team Fortress","app_id":440,"player_count":0,"max_players":24,"Bots":0,"server_type":"Dedicated","server_os":"Linux","password":true,"vac":true,"version":"7708610","steam_id":85568392924500088,"keywords":["nocrits","nodmgspread","payload","uncletopia"],"game_id":440,"stv_port":27026,"stv_name":"Uncletopia | Montr√©al | 2 | All Maps | STV","players":null},{"server_id":302,"name":"Uncletopia | Montr√©al | 3 | All Maps","name_short":"mtl-3","host":"mtl-1.ca.uncletopia.com","port":27035,"enabled":true,"region":"us-east","cc":"ca","latitude":45.50889,"longitude":-73.56167,"reserved":0,"last_update":"0001-01-01T00:00:00Z","name_a2s":"Uncletopia | Montr√©al | 3 | All Maps","protocol":17,"map":"cp_process_final","folder":"tf","game":"Team Fortress","app_id":440,"player_count":0,"max_players":24,"Bots":0,"server_type":"Dedicated","server_os":"Linux","password":true,"vac":true,"version":"7708610","steam_id":85568392924500089,"keywords":["cp","nocrits","nodmgspread","uncletopia"],"game_id":440,"stv_port":27036,"stv_name":"Uncletopia | Montr√©al | 3 | All Maps | STV","players":null},{"server_id":303,"name":"Uncletopia | Montr√©al | 4 | No Payload","name_short":"mtl-4","host":"mtl-1.ca.uncletopia.com","port":27045,"enabled":true,"region":"us-east","cc":"ca","latitude":45.50889,"longitude":-73.56167,"reserved":0,"last_update":"0001-01-01T00:00:00Z","name_a2s":"Uncletopia | Montr√©al | 4 | No Payload","protocol":17,"map":"cp_gorge","folder":"tf","game":"Team Fortress","app_id":440,"player_count":0,"max_players":24,"Bots":0,"server_type":"Dedicated","server_os":"Linux","password":true,"vac":true,"version":"7708610","steam_id":85568392924500090,"keywords":["cp","nocrits","nodmgspread","uncletopia"],"game_id":440,"stv_port":27046,"stv_name":"Uncletopia | Montr√©al | 4 | No Payload | STV","players":null},{"server_id":13,"name":"Uncletopia | New York City | 1 | All Maps","name_short":"nyc-1","host":"nyc-1.us.uncletopia.com","port":27015,"enabled":true,"region":"us-east","cc":"us","latitude":40.73061,"longitude":-73.93524,"reserved":0,"last_update":"0001-01-01T00:00:00Z","name_a2s":"Uncletopia | New York City | 1 | All Maps","protocol":17,"map":"pl_borneo","folder":"tf","game":"Team Fortress","app_id":440,"player_count":24,"max_players":24,"Bots":0,"server_type":"Dedicated","server_os":"Linux","password":true,"vac":true,"version":"7708610","steam_id":85568392924469993,"keywords":["nocrits","nodmgspread","payload","uncletopia"],"game_id":440,"stv_port":27016,"stv_name":"Uncletopia | New York City | 1 | All Maps | STV","players":[{"user_id":129,"name":"Rudy","steam_id":76561198013456828,"connected_time":1204000000000,"state":"active","ping":60},{"user_id":133,"name":"THRILLHO","steam_id":76561198371663047,"connected_time":524000000000,"state":"active","ping":45},{"user_id":85,"name":"Kritzburgh","steam_id":76561198149466938,"connected_time":5254000000000,"state":"active","ping":52},{"user_id":115,"name":"Fluffeline","steam_id":76561198352909489,"connected_time":2342000000000,"state":"active","ping":136},{"user_id":111,"name":"SE X","steam_id":76561198094525829,"connected_time":2841000000000,"state":"active","ping":54},{"user_id":134,"name":"kid squid","steam_id":76561198167016289,"connected_time":504000000000,"state":"active","ping":61},{"user_id":107,"name":"ForShovelry1","steam_id":76561198149395527,"connected_time":2949000000000,"state":"active","ping":68},{"user_id":116,"name":"holden ford","steam_id":76561198124810219,"connected_time":2262000000000,"state":"active","ping":52},{"user_id":99,"name":"Captain Cosmic","steam_id":76561199025356432,"connected_time":3352000000000,"state":"active","ping":47},{"user_id":131,"name":"Dr. Game and Watch","steam_id":76561197999615565,"connected_time":1153000000000,"state":"active","ping":47},{"user_id":132,"name":"yesno","steam_id":76561198067156972,"connected_time":559000000000,"state":"active","ping":56},{"user_id":104,"name":"Miller","steam_id":76561198818670166,"connected_time":3120000000000,"state":"active","ping":79},{"user_id":87,"name":"Griffin.","steam_id":76561197994750414,"connected_time":5244000000000,"state":"active","ping":118},{"user_id":80,"name":"xenolith","steam_id":76561198041496496,"connected_time":5838000000000,"state":"active","ping":56},{"user_id":140,"name":"demoknight tf2","steam_id":76561198070393998,"connected_time":282000000000,"state":"active","ping":73},{"user_id":130,"name":"ExtraSoap","steam_id":76561198008712409,"connected_time":1197000000000,"state":"active","ping":49},{"user_id":136,"name":"swan","steam_id":76561198012569200,"connected_time":416000000000,"state":"active","ping":53},{"user_id":68,"name":"flappyflap2","steam_id":76561198285048973,"connected_time":7185000000000,"state":"active","ping":45},{"user_id":90,"name":"Queen Frau the Round","steam_id":76561197999942134,"connected_time":5214000000000,"state":"active","ping":60},{"user_id":141,"name":"Calamant","steam_id":76561198054650483,"connected_time":5000000000,"state":"spawning","ping":51},{"user_id":109,"name":"Inevitable","steam_id":76561198210050169,"connected_time":2908000000000,"state":"active","ping":45},{"user_id":138,"name":"mewzmybro","steam_id":76561199222572726,"connected_time":390000000000,"state":"active","ping":94},{"user_id":112,"name":"ndvr","steam_id":76561199379200102,"connected_time":2601000000000,"state":"active","ping":46},{"user_id":114,"name":"Among Us Booster Pack","steam_id":76561198068538473,"connected_time":2538000000000,"state":"active","ping":96}]},{"server_id":14,"name":"Uncletopia | New York City | 2 | All Maps","name_short":"nyc-2","host":"nyc-1.us.uncletopia.com","port":27025,"enabled":true,"region":"us-east","cc":"us","latitude":40.73061,"longitude":-73.93524,"reserved":0,"last_update":"0001-01-01T00:00:00Z","name_a2s":"Uncletopia | New York City | 2 | All Maps","protocol":17,"map":"koth_harvest_final","folder":"tf","game":"Team Fortress","app_id":440,"player_count":24,"max_players":24,"Bots":0,"server_type":"Dedicated","server_os":"Linux","password":true,"vac":true,"version":"7708610","steam_id":85568392924469994,"keywords":["cp","nocrits","nodmgspread","uncletopia"],"game_id":440,"stv_port":27026,"stv_name":"Uncletopia | New York City | 2 | All Maps | STV","players":[{"user_id":56,"name":"newboi (F2P)","steam_id":76561199273882768,"connected_time":1054000000000,"state":"active","ping":52},{"user_id":59,"name":"h√§mis","steam_id":76561198089616341,"connected_time":1023000000000,"state":"active","ping":53},{"user_id":79,"name":"jennydude","steam_id":76561198119132813,"connected_time":277000000000,"state":"active","ping":101},{"user_id":13,"name":"Sprucelass","steam_id":76561197998391724,"connected_time":3690000000000,"state":"active","ping":60},{"user_id":85,"name":"‚ô•Phocae‚ô•","steam_id":76561199317584594,"connected_time":117000000000,"state":"active","ping":61},{"user_id":81,"name":"wes","steam_id":76561198273536400,"connected_time":255000000000,"state":"active","ping":64},{"user_id":25,"name":"Hipp-Dip","steam_id":76561199027874633,"connected_time":2785000000000,"state":"active","ping":38},{"user_id":48,"name":"Got Hat?","steam_id":76561197998486431,"connected_time":1642000000000,"state":"active","ping":50},{"user_id":82,"name":"sioti","steam_id":76561198128796649,"connected_time":253000000000,"state":"active","ping":46},{"user_id":55,"name":"DerpFamous","steam_id":76561198046167888,"connected_time":1147000000000,"state":"active","ping":64},{"user_id":61,"name":"fumo","steam_id":76561199089453214,"connected_time":978000000000,"state":"active","ping":56},{"user_id":69,"name":"Typical Gentleman","steam_id":76561199229771413,"connected_time":762000000000,"state":"active","ping":77},{"user_id":70,"name":"PapaPatrick","steam_id":76561199017975241,"connected_time":726000000000,"state":"active","ping":89},{"user_id":71,"name":"deckerhoff!","steam_id":76561198010741410,"connected_time":715000000000,"state":"active","ping":77},{"user_id":83,"name":"A very \"silly\" person","steam_id":76561199082017837,"connected_time":251000000000,"state":"active","ping":55},{"user_id":72,"name":"cyg","steam_id":76561198138012167,"connected_time":658000000000,"state":"active","ping":60},{"user_id":65,"name":"TheOnlyBeast","steam_id":76561197993208453,"connected_time":901000000000,"state":"active","ping":69},{"user_id":84,"name":"toastman","steam_id":76561198207073088,"connected_time":238000000000,"state":"active","ping":101},{"user_id":87,"name":"Jaeger Bombastic","steam_id":76561198129825533,"connected_time":10000000000,"state":"spawning","ping":66},{"user_id":36,"name":"5poon/","steam_id":76561198140699845,"connected_time":2456000000000,"state":"active","ping":87},{"user_id":37,"name":"bite of 87 (real NOT CLICKBAIT)","steam_id":76561198045832398,"connected_time":2434000000000,"state":"active","ping":78},{"user_id":45,"name":"Whyamidoingthisaaaa","steam_id":76561199168837342,"connected_time":1787000000000,"state":"active","ping":46},{"user_id":68,"name":"Washed up Scout main","steam_id":76561199030160932,"connected_time":841000000000,"state":"active","ping":87},{"user_id":76,"name":"Daksuki","steam_id":76561198084127751,"connected_time":522000000000,"state":"active","ping":90}]},{"server_id":15,"name":"Uncletopia | New York City | 3 | All Maps","name_short":"nyc-3","host":"nyc-1.us.uncletopia.com","port":27035,"enabled":true,"region":"us-east","cc":"us","latitude":40.73061,"longitude":-73.93524,"reserved":0,"last_update":"0001-01-01T00:00:00Z","name_a2s":"Uncletopia | New York City | 3 | All Maps","protocol":17,"map":"koth_cascade","folder":"tf","game":"Team Fortress","app_id":440,"player_count":3,"max_players":24,"Bots":0,"server_type":"Dedicated","server_os":"Linux","password":true,"vac":true,"version":"7708610","steam_id":85568392924742820,"keywords":["cp","nocrits","nodmgspread","uncletopia"],"game_id":440,"stv_port":27036,"stv_name":"Uncletopia | New York City | 3 | All Maps | STV","players":[{"user_id":9,"name":"piflle","steam_id":76561199283873577,"connected_time":1922000000000,"state":"active","ping":45},{"user_id":11,"name":"AquaTsunami","steam_id":76561199085473809,"connected_time":766000000000,"state":"active","ping":82},{"user_id":12,"name":"Dread Pierat Squeaks","steam_id":76561198413602368,"connected_time":75000000000,"state":"active","ping":68}]},{"server_id":16,"name":"Uncletopia | New York City | 4 | Community","name_short":"nyc-4","host":"nyc-1.us.uncletopia.com","port":27045,"enabled":true,"region":"us-east","cc":"us","latitude":40.73061,"longitude":-73.93524,"reserved":0,"last_update":"0001-01-01T00:00:00Z","name_a2s":"Uncletopia | New York City | 4 | Community","protocol":17,"map":"workshop/pl_eruption_b8c.ugc2865677281","folder":"tf","game":"Team Fortress","app_id":440,"player_count":0,"max_players":24,"Bots":0,"server_type":"Dedicated","server_os":"Linux","password":true,"vac":true,"version":"7708610","steam_id":85568392924742821,"keywords":["nocrits","nodmgspread","payload","uncletopia"],"game_id":440,"stv_port":27046,"stv_name":"Uncletopia | New York City | 4 | Community | STV","players":null},{"server_id":142,"name":"Uncletopia | S√£o Paulo | 1 | All Maps","name_short":"sao-1","host":"sao-1.br.uncletopia.com","port":27015,"enabled":true,"region":"sa","cc":"br","latitude":-23.533773,"longitude":-46.62529,"reserved":0,"last_update":"0001-01-01T00:00:00Z","name_a2s":"Uncletopia | S√£o Paulo | 1 | All Maps","protocol":17,"map":"pl_barnblitz","folder":"tf","game":"Team Fortress","app_id":440,"player_count":2,"max_players":24,"Bots":0,"server_type":"Dedicated","server_os":"Linux","password":true,"vac":true,"version":"7708610","steam_id":85568392924469996,"keywords":["nocrits","nodmgspread","payload","uncletopia"],"game_id":440,"stv_port":27016,"stv_name":"Uncletopia | S√£o Paulo | 1 | All Maps | STV","players":[{"user_id":53,"name":"DogePlayer","steam_id":76561198304552173,"connected_time":35000000000,"state":"active","ping":82},{"user_id":54,"name":"Who?!","steam_id":76561199072778609,"connected_time":7000000000,"state":"active","ping":163}]},{"server_id":143,"name":"Uncletopia | S√£o Paulo | 2 | All Maps","name_short":"sao-2","host":"sao-2.br.uncletopia.com","port":27015,"enabled":true,"region":"sa","cc":"br","latitude":-23.533773,"longitude":-46.62529,"reserved":0,"last_update":"0001-01-01T00:00:00Z","name_a2s":"Uncletopia | S√£o Paulo | 2 | All Maps","protocol":17,"map":"pl_upward","folder":"tf","game":"Team Fortress","app_id":440,"player_count":21,"max_players":24,"Bots":0,"server_type":"Dedicated","server_os":"Linux","password":true,"vac":true,"version":"7708610","steam_id":85568392924485349,"keywords":["nocrits","nodmgspread","payload","uncletopia"],"game_id":440,"stv_port":27016,"stv_name":"Uncletopia | S√£o Paulo | 2 | All Maps | STV","players":[{"user_id":86,"name":"Pathetic","steam_id":76561198051056987,"connected_time":3781000000000,"state":"active","ping":60},{"user_id":87,"name":"niruma","steam_id":76561198067799345,"connected_time":3770000000000,"state":"active","ping":37},{"user_id":88,"name":"siirtyaoliveira","steam_id":76561199176805537,"connected_time":3656000000000,"state":"active","ping":45},{"user_id":89,"name":"Vic Rattlehead","steam_id":76561199232899925,"connected_time":3575000000000,"state":"active","ping":53},{"user_id":90,"name":"PrÈÄö„Çä„ÅÆ‰ºùË™¨","steam_id":76561198976110673,"connected_time":3330000000000,"state":"active","ping":64},{"user_id":92,"name":"matheus_lanches","steam_id":76561199359501901,"connected_time":2394000000000,"state":"active","ping":41},{"user_id":101,"name":"ebd_Failnaught","steam_id":76561198108041555,"connected_time":1289000000000,"state":"active","ping":55},{"user_id":95,"name":"jake gyllenhal tomando banho","steam_id":76561198313461024,"connected_time":1930000000000,"state":"active","ping":102},{"user_id":112,"name":"fulguro","steam_id":76561197967686506,"connected_time":95000000000,"state":"active","ping":233},{"user_id":97,"name":"Gabriel„ÇÑ„Çã„Åç","steam_id":76561198332577325,"connected_time":1492000000000,"state":"active","ping":46},{"user_id":98,"name":"jr_rusty","steam_id":76561198313937899,"connected_time":1452000000000,"state":"active","ping":46},{"user_id":99,"name":"rafxv","steam_id":76561198083321227,"connected_time":1405000000000,"state":"active","ping":66},{"user_id":100,"name":"the one who knocks","steam_id":76561198080089883,"connected_time":1392000000000,"state":"active","ping":73},{"user_id":104,"name":"1 beer left","steam_id":76561198995575441,"connected_time":934000000000,"state":"active","ping":46},{"user_id":103,"name":"randall the roach","steam_id":76561198244344400,"connected_time":1083000000000,"state":"active","ping":54},{"user_id":106,"name":"Gustavocoste","steam_id":76561198233692404,"connected_time":489000000000,"state":"active","ping":35},{"user_id":110,"name":"delta","steam_id":76561198288966901,"connected_time":145000000000,"state":"active","ping":37},{"user_id":108,"name":"hansow","steam_id":76561198013212163,"connected_time":345000000000,"state":"active","ping":77},{"user_id":111,"name":"trimegisto","steam_id":76561198138328235,"connected_time":138000000000,"state":"active","ping":44},{"user_id":113,"name":"Pan","steam_id":76561198161899287,"connected_time":22000000000,"state":"active","ping":388},{"user_id":114,"name":"lyn","steam_id":76561199099759205,"connected_time":16000000000,"state":"spawning","ping":193}]},{"server_id":7,"name":"Uncletopia | Seattle | 1 | All Maps","name_short":"sea-1","host":"sea-1.us.uncletopia.com","port":27015,"enabled":true,"region":"us-west","cc":"us","latitude":47.608013,"longitude":-122.33517,"reserved":0,"last_update":"0001-01-01T00:00:00Z","name_a2s":"Uncletopia | Seattle | 1 | All Maps","protocol":17,"map":"pl_thundermountain","folder":"tf","game":"Team Fortress","app_id":440,"player_count":9,"max_players":24,"Bots":0,"server_type":"Dedicated","server_os":"Linux","password":true,"vac":true,"version":"7708610","steam_id":85568392924469997,"keywords":["nocrits","nodmgspread","payload","uncletopia"],"game_id":440,"stv_port":27016,"stv_name":"Uncletopia | Seattle | 1 | All Maps | STV","players":[{"user_id":415,"name":"NotAWeeb","steam_id":76561198165530739,"connected_time":718000000000,"state":"active","ping":55},{"user_id":417,"name":"Lonestar827","steam_id":76561198035533639,"connected_time":287000000000,"state":"active","ping":51},{"user_id":420,"name":"cream team","steam_id":76561198139043953,"connected_time":275000000000,"state":"active","ping":90},{"user_id":416,"name":"doomshroom","steam_id":76561198092827250,"connected_time":419000000000,"state":"active","ping":53},{"user_id":397,"name":"Dedlock","steam_id":76561198046290002,"connected_time":3449000000000,"state":"active","ping":53},{"user_id":409,"name":"Sh3ba Spaniel","steam_id":76561198047412394,"connected_time":1328000000000,"state":"active","ping":109},{"user_id":410,"name":"SomeRandomPerson (F2p)","steam_id":76561198977045933,"connected_time":1307000000000,"state":"active","ping":156},{"user_id":274,"name":"Mr.Pan","steam_id":76561198069030613,"connected_time":11983000000000,"state":"active","ping":174},{"user_id":392,"name":"MY FAVORITE TYPE OF VIOLENCE","steam_id":76561198011675372,"connected_time":4036000000000,"state":"active","ping":49}]},{"server_id":119,"name":"Uncletopia | Seattle | 2 | All Maps","name_short":"sea-2","host":"sea-1.us.uncletopia.com","port":27025,"enabled":true,"region":"us-west","cc":"us","latitude":47.608013,"longitude":-122.33517,"reserved":0,"last_update":"0001-01-01T00:00:00Z","name_a2s":"Uncletopia | Seattle | 2 | All Maps","protocol":17,"map":"pl_badwater","folder":"tf","game":"Team Fortress","app_id":440,"player_count":0,"max_players":24,"Bots":0,"server_type":"Dedicated","server_os":"Linux","password":true,"vac":true,"version":"7708610","steam_id":85568392924469998,"keywords":["nocrits","nodmgspread","payload","uncletopia"],"game_id":440,"stv_port":27026,"stv_name":"Uncletopia | Seattle | 2 | All Maps | STV","players":null},{"server_id":17,"name":"Uncletopia | San Francisco | 1 | All Maps","name_short":"sfo-1","host":"sfo-1.us.uncletopia.com","port":27015,"enabled":true,"region":"us-west","cc":"us","latitude":37.77397,"longitude":-122.4313,"reserved":0,"last_update":"0001-01-01T00:00:00Z","name_a2s":"Uncletopia | San Francisco | 1 | All Maps","protocol":17,"map":"pl_barnblitz","folder":"tf","game":"Team Fortress","app_id":440,"player_count":0,"max_players":24,"Bots":0,"server_type":"Dedicated","server_os":"Linux","password":true,"vac":true,"version":"7708610","steam_id":85568392924469999,"keywords":["nocrits","nodmgspread","payload","uncletopia"],"game_id":440,"stv_port":27016,"stv_name":"Uncletopia | San Francisco | 1 | All Maps | STV","players":null},{"server_id":18,"name":"Uncletopia | San Francisco | 2 | All Maps","name_short":"sfo-2","host":"sfo-1.us.uncletopia.com","port":27025,"enabled":true,"region":"us-west","cc":"us","latitude":37.77397,"longitude":-122.4313,"reserved":0,"last_update":"0001-01-01T00:00:00Z","name_a2s":"Uncletopia | San Francisco | 2 | All Maps","protocol":17,"map":"pl_upward","folder":"tf","game":"Team Fortress","app_id":440,"player_count":0,"max_players":24,"Bots":0,"server_type":"Dedicated","server_os":"Linux","password":true,"vac":true,"version":"7708610","steam_id":85568392924470000,"keywords":["nocrits","nodmgspread","payload","uncletopia"],"game_id":440,"stv_port":27026,"stv_name":"Uncletopia | San Francisco | 2 | All Maps | STV","players":null},{"server_id":19,"name":"Uncletopia | San Francisco | 3 | No Payload","name_short":"sfo-3","host":"sfo-1.us.uncletopia.com","port":27035,"enabled":true,"region":"us-west","cc":"us","latitude":37.77397,"longitude":-122.4313,"reserved":0,"last_update":"0001-01-01T00:00:00Z","name_a2s":"Uncletopia | San Francisco | 3 | No Payload","protocol":17,"map":"koth_lazarus","folder":"tf","game":"Team Fortress","app_id":440,"player_count":0,"max_players":24,"Bots":0,"server_type":"Dedicated","server_os":"Linux","password":true,"vac":true,"version":"7708610","steam_id":85568392924742824,"keywords":["cp","nocrits","nodmgspread","uncletopia"],"game_id":440,"stv_port":27036,"stv_name":"Uncletopia | San Francisco | 3 | No Payload | STV","players":null},{"server_id":20,"name":"Uncletopia | San Francisco | 4 | Community","name_short":"sfo-4","host":"sfo-1.us.uncletopia.com","port":27045,"enabled":true,"region":"us-west","cc":"us","latitude":37.77397,"longitude":-122.4313,"reserved":0,"last_update":"0001-01-01T00:00:00Z","name_a2s":"Uncletopia | San Francisco | 4 | Community","protocol":17,"map":"workshop/koth_slaughter_rc1.ugc1712845210","folder":"tf","game":"Team Fortress","app_id":440,"player_count":0,"max_players":24,"Bots":0,"server_type":"Dedicated","server_os":"Linux","password":true,"vac":true,"version":"7708610","steam_id":85568392924742826,"keywords":["cp","nocrits","nodmgspread","uncletopia"],"game_id":440,"stv_port":27046,"stv_name":"Uncletopia | San Francisco | 4 | Community | STV","players":null},{"server_id":141,"name":"Uncletopia | Sydney | 1 | All Maps","name_short":"syd-1","host":"syd-1.au.uncletopia.com","port":27015,"enabled":true,"region":"au","cc":"au","latitude":-33.865143,"longitude":151.2099,"reserved":0,"last_update":"0001-01-01T00:00:00Z","name_a2s":"Uncletopia | Sydney | 1 | All Maps","protocol":17,"map":"pl_borneo","folder":"tf","game":"Team Fortress","app_id":440,"player_count":0,"max_players":24,"Bots":0,"server_type":"Dedicated","server_os":"Linux","password":true,"vac":true,"version":"7708610","steam_id":85568392924470001,"keywords":["nocrits","nodmgspread","payload","uncletopia"],"game_id":440,"stv_port":27016,"stv_name":"Uncletopia | Sydney | 1 | All Maps | STV","players":null},{"server_id":123,"name":"Uncletopia | Sydney | 2 | All Maps","name_short":"syd-2","host":"syd-1.au.uncletopia.com","port":27025,"enabled":true,"region":"au","cc":"au","latitude":-33.865143,"longitude":151.2099,"reserved":0,"last_update":"0001-01-01T00:00:00Z","name_a2s":"Uncletopia | Sydney | 2 | All Maps","protocol":17,"map":"pl_barnblitz","folder":"tf","game":"Team Fortress","app_id":440,"player_count":0,"max_players":24,"Bots":0,"server_type":"Dedicated","server_os":"Linux","password":true,"vac":true,"version":"7708610","steam_id":85568392924470002,"keywords":["nocrits","nodmgspread","payload","uncletopia"],"game_id":440,"stv_port":27026,"stv_name":"Uncletopia | Sydney | 2 | All Maps | STV","players":null},{"server_id":395,"name":"Uncletopia | Sydney | 3 | All Maps","name_short":"syd-3","host":"syd-1.au.uncletopia.com","port":27035,"enabled":true,"region":"au","cc":"au","latitude":-33.865143,"longitude":151.2099,"reserved":0,"last_update":"0001-01-01T00:00:00Z","name_a2s":"Uncletopia | Sydney | 3 | All Maps","protocol":17,"map":"koth_viaduct","folder":"tf","game":"Team Fortress","app_id":440,"player_count":0,"max_players":24,"Bots":0,"server_type":"Dedicated","server_os":"Linux","password":true,"vac":true,"version":"7708610","steam_id":85568392925194467,"keywords":["cp","nocrits","nodmgspread","uncletopia"],"game_id":440,"stv_port":27036,"stv_name":"Uncletopia | Sydney | 3 | All Maps | STV","players":null},{"server_id":396,"name":"Uncletopia | Sydney | 4 | All Maps","name_short":"syd-4","host":"syd-1.au.uncletopia.com","port":27045,"enabled":true,"region":"au","cc":"au","latitude":-33.865143,"longitude":151.2099,"reserved":0,"last_update":"0001-01-01T00:00:00Z","name_a2s":"Uncletopia | Sydney | 4 | All Maps","protocol":17,"map":"pl_frontier_final","folder":"tf","game":"Team Fortress","app_id":440,"player_count":0,"max_players":24,"Bots":0,"server_type":"Dedicated","server_os":"Linux","password":true,"vac":true,"version":"7708610","steam_id":85568392925397958,"keywords":["nocrits","nodmgspread","payload","uncletopia"],"game_id":440,"stv_port":27046,"stv_name":"Uncletopia | Sydney | 4 | All Maps | STV","players":null},{"server_id":58,"name":"Uncletopia | Sydney | 5 | No Payload","name_short":"syd-5","host":"syd-1.au.uncletopia.com","port":27055,"enabled":true,"region":"au","cc":"au","latitude":-33.865143,"longitude":151.2099,"reserved":0,"last_update":"0001-01-01T00:00:00Z","name_a2s":"Uncletopia | Sydney | 5 | No Payload","protocol":17,"map":"pl_pier","folder":"tf","game":"Team Fortress","app_id":440,"player_count":0,"max_players":24,"Bots":0,"server_type":"Dedicated","server_os":"Linux","password":true,"vac":true,"version":"7708610","steam_id":85568392925397959,"keywords":["nocrits","nodmgspread","payload","uncletopia"],"game_id":440,"stv_port":27056,"stv_name":"Uncletopia | Sydney | 5 | No Payload | STV","players":null},{"server_id":59,"name":"Uncletopia | Sydney | 6 | Community","name_short":"syd-6","host":"syd-1.au.uncletopia.com","port":27065,"enabled":true,"region":"au","cc":"au","latitude":-33.865143,"longitude":151.2099,"reserved":0,"last_update":"0001-01-01T00:00:00Z","name_a2s":"Uncletopia | Sydney | 6 | Community","protocol":17,"map":"workshop/koth_synthetic_rc6a.ugc1549817316","folder":"tf","game":"Team Fortress","app_id":440,"player_count":1,"max_players":24,"Bots":0,"server_type":"Dedicated","server_os":"Linux","password":true,"vac":true,"version":"7708610","steam_id":85568392925397960,"keywords":["cp","nocrits","nodmgspread","uncletopia"],"game_id":440,"stv_port":27066,"stv_name":"Uncletopia | Sydney | 6 | Community | STV","players":[{"user_id":4,"name":"The Generic Terrorist","steam_id":76561199257116847,"connected_time":35000000000,"state":"spawning","ping":244}]},{"server_id":49,"name":"Uncletopia | Warsaw | 1 | All Maps","name_short":"waw-1","host":"waw-1.pl.uncletopia.com","port":27015,"enabled":true,"region":"eu","cc":"pl","latitude":52.2297,"longitude":21.017532,"reserved":0,"last_update":"0001-01-01T00:00:00Z","name_a2s":"Uncletopia | Warsaw | 1 | All Maps","protocol":17,"map":"cp_dustbowl","folder":"tf","game":"Team Fortress","app_id":440,"player_count":0,"max_players":24,"Bots":0,"server_type":"Dedicated","server_os":"Linux","password":true,"vac":true,"version":"7708610","steam_id":85568392925397850,"keywords":["cp","nocrits","nodmgspread","uncletopia"],"game_id":440,"stv_port":27016,"stv_name":"Uncletopia | Warsaw | 1 | All Maps | STV","players":null},{"server_id":50,"name":"Uncletopia | Warsaw | 2 | All Maps","name_short":"waw-2","host":"waw-1.pl.uncletopia.com","port":27025,"enabled":true,"region":"eu","cc":"pl","latitude":52.2297,"longitude":21.017532,"reserved":0,"last_update":"0001-01-01T00:00:00Z","name_a2s":"Uncletopia | Warsaw | 2 | All Maps","protocol":17,"map":"koth_highpass","folder":"tf","game":"Team Fortress","app_id":440,"player_count":0,"max_players":24,"Bots":0,"server_type":"Dedicated","server_os":"Linux","password":true,"vac":true,"version":"7708610","steam_id":85568392925397851,"keywords":["cp","nocrits","nodmgspread","uncletopia"],"game_id":440,"stv_port":27026,"stv_name":"Uncletopia | Warsaw | 2 | All Maps | STV","players":null},{"server_id":51,"name":"Uncletopia | Warsaw | 3 | All Maps","name_short":"waw-3","host":"waw-1.pl.uncletopia.com","port":27035,"enabled":true,"region":"eu","cc":"pl","latitude":52.2297,"longitude":21.017532,"reserved":0,"last_update":"0001-01-01T00:00:00Z","name_a2s":"Uncletopia | Warsaw | 3 | All Maps","protocol":17,"map":"cp_sunshine","folder":"tf","game":"Team Fortress","app_id":440,"player_count":0,"max_players":24,"Bots":0,"server_type":"Dedicated","server_os":"Linux","password":true,"vac":true,"version":"7708610","steam_id":85568392925397852,"keywords":["cp","nocrits","nodmgspread","uncletopia"],"game_id":440,"stv_port":27036,"stv_name":"Uncletopia | Warsaw | 3 | All Maps | STV","players":null},{"server_id":52,"name":"Uncletopia | Warsaw | 4 | All Maps","name_short":"waw-4","host":"waw-1.pl.uncletopia.com","port":27045,"enabled":true,"region":"eu","cc":"pl","latitude":52.2297,"longitude":21.017532,"reserved":0,"last_update":"0001-01-01T00:00:00Z","name_a2s":"Uncletopia | Warsaw | 4 | All Maps","protocol":17,"map":"pl_pier","folder":"tf","game":"Team Fortress","app_id":440,"player_count":0,"max_players":24,"Bots":0,"server_type":"Dedicated","server_os":"Linux","password":true,"vac":true,"version":"7708610","steam_id":85568392925397853,"keywords":["nocrits","nodmgspread","payload","uncletopia"],"game_id":440,"stv_port":27046,"stv_name":"Uncletopia | Warsaw | 4 | All Maps | STV","players":null},{"server_id":53,"name":"Uncletopia | Warsaw | 5 | No Payload","name_short":"waw-5","host":"waw-1.pl.uncletopia.com","port":27055,"enabled":true,"region":"eu","cc":"pl","latitude":52.2297,"longitude":21.017532,"reserved":0,"last_update":"0001-01-01T00:00:00Z","name_a2s":"Uncletopia | Warsaw | 5 | No Payload","protocol":17,"map":"pl_borneo","folder":"tf","game":"Team Fortress","app_id":440,"player_count":0,"max_players":24,"Bots":0,"server_type":"Dedicated","server_os":"Linux","password":true,"vac":true,"version":"7708610","steam_id":85568392925397854,"keywords":["nocrits","nodmgspread","payload","uncletopia"],"game_id":440,"stv_port":27056,"stv_name":"Uncletopia | Warsaw | 5 | No Payload | STV","players":null},{"server_id":54,"name":"Uncletopia | Warsaw | 6 | Community","name_short":"waw-6","host":"waw-1.pl.uncletopia.com","port":27065,"enabled":true,"region":"eu","cc":"pl","latitude":52.2297,"longitude":21.017532,"reserved":0,"last_update":"0001-01-01T00:00:00Z","name_a2s":"Uncletopia | Warsaw | 6 | Community","protocol":17,"map":"workshop/pl_barnblitz_pro7.ugc582280235","folder":"tf","game":"Team Fortress","app_id":440,"player_count":0,"max_players":24,"Bots":0,"server_type":"Dedicated","server_os":"Linux","password":true,"vac":true,"version":"7708610","steam_id":85568392925397856,"keywords":["nocrits","nodmgspread","payload","uncletopia"],"game_id":440,"stv_port":27066,"stv_name":"Uncletopia | Warsaw | 6 | Community | STV","players":null}]}