{"status":true,"message":"","result":[{"server_id":9,"name":"Uncletopia | Atlanta | 1 | All Maps","name_short":"atl-1","host":"atl-1.us.uncletopia.com","port":27015,"enabled":true,"region":"us-east","cc":"us","latitude":33.753746,"longitude":-84.38633,"reserved":0,"last_update":"0001-01-01T00:00:00Z","name_a2s":"Uncletopia | Atlanta | 1 | All Maps","protocol":17,"map":"pl_snowycoast","folder":"tf","game":"Team Fortress","app_id":440,"player_count":24,"max_players":24,"Bots":0,"server_type":"Dedicated","server_os":"Linux","password":true,"vac":true,"version":"7961495","steam_id":85568392924469982,"keywords":["nocrits","nodmgspread","payload","uncletopia"],"game_id":440,"stv_port":27016,"stv_name":"Uncletopia | Atlanta | 1 | All Maps | STV","players":[{"user_id":740,"name":"BabyGhast4","steam_id":76561198990172561,"connected_time":320000000000,"state":"active","ping":178},{"user_id":730,"name":"wetto makaveli","steam_id":76561198224811504,"connected_time":1478000000000,"state":"active","ping":45},{"user_id":732,"name":"spiderland","steam_id":76561198335992132,"connected_time":1121000000000,"state":"active","ping":103},{"user_id":686,"name":"why","steam_id":76561199059732212,"connected_time":5289000000000,"state":"active","ping":49},{"user_id":694,"name":"Hobo Shanker","steam_id":76561198001785187,"connected_time":5164000000000,"state":"active","ping":76},{"user_id":735,"name":"RoseaVenefica","steam_id":76561198020660560,"connected_time":1049000000000,"state":"active","ping":72},{"user_id":741,"name":"Rudy","steam_id":76561198013456828,"connected_time":305000000000,"state":"active","ping":65},{"user_id":729,"name":"C Papi","steam_id":76561198027779564,"connected_time":1568000000000,"state":"active","ping":55},{"user_id":657,"name":"--_Cook_--","steam_id":76561198080855748,"connected_time":7510000000000,"state":"active","ping":62},{"user_id":742,"name":"pah","steam_id":76561198065040540,"connected_time":251000000000,"state":"active","ping":70},{"user_id":733,"name":"eBay","steam_id":76561198061214569,"connected_time":1096000000000,"state":"active","ping":103},{"user_id":743,"name":"Person","steam_id":76561198093244204,"connected_time":194000000000,"state":"active","ping":81},{"user_id":744,"name":"alan","steam_id":76561198172809446,"connected_time":169000000000,"state":"active","ping":65},{"user_id":716,"name":"CONKER","steam_id":76561197986079320,"connected_time":2864000000000,"state":"active","ping":80},{"user_id":728,"name":"Erchius","steam_id":76561198256892300,"connected_time":1914000000000,"state":"active","ping":63},{"user_id":745,"name":"Cthulhu's Malewife","steam_id":76561198085888959,"connected_time":93000000000,"state":"active","ping":46},{"user_id":699,"name":"Achilles","steam_id":76561198086037134,"connected_time":4385000000000,"state":"active","ping":63},{"user_id":697,"name":"RAWRWAIFU","steam_id":76561198032118386,"connected_time":4901000000000,"state":"active","ping":90},{"user_id":727,"name":"Trey The Awesome","steam_id":76561198370718264,"connected_time":1981000000000,"state":"active","ping":62},{"user_id":746,"name":"spookeronis","steam_id":76561198050964597,"connected_time":5000000000,"state":"spawning","ping":66},{"user_id":683,"name":"TÖZI","steam_id":76561198045268695,"connected_time":5748000000000,"state":"active","ping":114},{"user_id":706,"name":"Confused Rock","steam_id":76561198051763034,"connected_time":4256000000000,"state":"active","ping":60},{"user_id":717,"name":"D","steam_id":76561198292908619,"connected_time":2842000000000,"state":"active","ping":74},{"user_id":700,"name":"Utah","steam_id":76561198108244455,"connected_time":4385000000000,"state":"active","ping":81}]},{"server_id":104,"name":"Uncletopia | Atlanta | 2 | All Maps","name_short":"atl-2","host":"atl-1.us.uncletopia.com","port":27025,"enabled":true,"region":"us-east","cc":"us","latitude":33.753746,"longitude":-84.38633,"reserved":0,"last_update":"0001-01-01T00:00:00Z","name_a2s":"Uncletopia | Atlanta | 2 | All Maps","protocol":17,"map":"pl_borneo","folder":"tf","game":"Team Fortress","app_id":440,"player_count":22,"max_players":24,"Bots":0,"server_type":"Dedicated","server_os":"Linux","password":true,"vac":true,"version":"7961495","steam_id":85568392924469983,"keywords":["nocrits","nodmgspread","payload","uncletopia"],"game_id":440,"stv_port":27026,"stv_name":"Uncletopia | Atlanta | 2 | All Maps | STV","players":[{"user_id":484,"name":"megamamaddox","steam_id":76561199122454665,"connected_time":347000000000,"state":"active","ping":70},{"user_id":492,"name":"36400","steam_id":76561198128124800,"connected_time":22000000000,"state":"spawning","ping":72},{"user_id":487,"name":"Fish_man_Jon","steam_id":76561198068158264,"connected_time":282000000000,"state":"active","ping":61},{"user_id":489,"name":"GP","steam_id":76561198215438831,"connected_time":90000000000,"state":"active","ping":70},{"user_id":467,"name":"jade","steam_id":76561198055611029,"connected_time":2350000000000,"state":"active","ping":44},{"user_id":471,"name":"Hipster_Giraffe","steam_id":76561198069701092,"connected_time":2007000000000,"state":"active","ping":81},{"user_id":465,"name":"Jordani","steam_id":76561198195772231,"connected_time":2387000000000,"state":"active","ping":110},{"user_id":447,"name":"Noponz","steam_id":76561198176891054,"connected_time":3603000000000,"state":"active","ping":68},{"user_id":443,"name":"Jesse Bear","steam_id":76561198217075305,"connected_time":3949000000000,"state":"active","ping":72},{"user_id":445,"name":"Boomyz","steam_id":76561198023817706,"connected_time":3823000000000,"state":"active","ping":83},{"user_id":448,"name":"raccocooon","steam_id":76561199138602425,"connected_time":3590000000000,"state":"active","ping":60},{"user_id":479,"name":"Poppet","steam_id":76561198012301951,"connected_time":1214000000000,"state":"active","ping":85},{"user_id":491,"name":"Ricochet Pro","steam_id":76561198005328215,"connected_time":70000000000,"state":"active","ping":95},{"user_id":485,"name":"concrete_car","steam_id":76561198388207363,"connected_time":343000000000,"state":"active","ping":81},{"user_id":488,"name":"✿ PoutyBun ✿","steam_id":76561197965762847,"connected_time":142000000000,"state":"active","ping":104},{"user_id":468,"name":"velk.ca Nim","steam_id":76561198053645059,"connected_time":2345000000000,"state":"active","ping":69},{"user_id":466,"name":"The Final Terminus","steam_id":76561197964985183,"connected_time":2378000000000,"state":"active","ping":60},{"user_id":456,"name":"Filthy Hobo","steam_id":76561198174373015,"connected_time":3291000000000,"state":"active","ping":101},{"user_id":458,"name":"Owls = Government Drones","steam_id":76561198439793697,"connected_time":3172000000000,"state":"active","ping":70},{"user_id":482,"name":"AzuriousAlex","steam_id":76561198158026405,"connected_time":649000000000,"state":"active","ping":90},{"user_id":461,"name":"Jake The Snake","steam_id":76561198047722285,"connected_time":2979000000000,"state":"active","ping":66},{"user_id":462,"name":"Pokon","steam_id":76561198053113088,"connected_time":2976000000000,"state":"active","ping":47}]},{"server_id":400,"name":"Uncletopia | Atlanta | 3 | Stopwatch","name_short":"atl-3","host":"atl-1.us.uncletopia.com","port":27035,"enabled":true,"region":"us-east","cc":"us","latitude":33.753746,"longitude":-84.38633,"reserved":0,"last_update":"0001-01-01T00:00:00Z","name_a2s":"Uncletopia | Atlanta | 3 | Stopwatch","protocol":17,"map":"koth_highpass","folder":"tf","game":"Team Fortress","app_id":440,"player_count":0,"max_players":24,"Bots":0,"server_type":"Dedicated","server_os":"Linux","password":true,"vac":true,"version":"7961495","steam_id":85568392924515187,"keywords":["cp","nocrits","nodmgspread","uncletopia"],"game_id":440,"stv_port":27036,"stv_name":"Uncletopia | Atlanta | 3 | Stopwatch | STV","players":null},{"server_id":401,"name":"Uncletopia | Atlanta | 4 | Community","name_short":"atl-4","host":"atl-1.us.uncletopia.com","port":27045,"enabled":true,"region":"us-east","cc":"us","latitude":33.753746,"longitude":-84.38633,"reserved":0,"last_update":"0001-01-01T00:00:00Z","name_a2s":"Uncletopia | Atlanta | 4 | Community","protocol":17,"map":"workshop/cp_indulge.ugc528106646","folder":"tf","game":"Team Fortress","app_id":440,"player_count":0,"max_players":24,"Bots":0,"server_type":"Dedicated","server_os":"Linux","password":true,"vac":true,"version":"7961495","steam_id":85568392924515188,"keywords":["cp","nocrits","nodmgspread","uncletopia"],"game_id":440,"stv_port":27046,"stv_name":"Uncletopia | Atlanta | 4 | Community | STV","players":null},{"server_id":2,"name":"Uncletopia | Chicago | 1 | All Maps","name_short":"chi-1","host":"chi-1.us.uncletopia.com","port":27015,"enabled":true,"region":"us-central","cc":"us","latitude":41.881832,"longitude":-87.62318,"reserved":0,"last_update":"0001-01-01T00:00:00Z","name_a2s":"Uncletopia | Chicago | 1 | All Maps","protocol":17,"map":"koth_harvest_final","folder":"tf","game":"Team Fortress","app_id":440,"player_count":22,"max_players":24,"Bots":0,"server_type":"Dedicated","server_os":"Linux","password":true,"vac":true,"version":"7961495","steam_id":85568392924469984,"keywords":["cp","nocrits","nodmgspread","uncletopia"],"game_id":440,"stv_port":27016,"stv_name":"Uncletopia | Chicago | 1 | All Maps | STV","players":[{"user_id":588,"name":"Mixed Up","steam_id":76561198042570322,"connected_time":3200000000000,"state":"active","ping":92},{"user_id":632,"name":"Flyinglab","steam_id":76561198042161408,"connected_time":268000000000,"state":"active","ping":72},{"user_id":626,"name":"vulcan nightclub pon farr night","steam_id":76561197974283797,"connected_time":1317000000000,"state":"active","ping":45},{"user_id":633,"name":"Siah","steam_id":76561197990045774,"connected_time":232000000000,"state":"active","ping":107},{"user_id":623,"name":"Titut11","steam_id":76561198392505656,"connected_time":1575000000000,"state":"active","ping":154},{"user_id":593,"name":"SuperSalty","steam_id":76561198297779347,"connected_time":3108000000000,"state":"active","ping":62},{"user_id":583,"name":"Blade Racer","steam_id":76561198155896703,"connected_time":3465000000000,"state":"active","ping":69},{"user_id":624,"name":"TTV/YT hunter","steam_id":76561198115812405,"connected_time":1333000000000,"state":"active","ping":72},{"user_id":590,"name":"Hedene","steam_id":76561198044848271,"connected_time":3139000000000,"state":"active","ping":60},{"user_id":552,"name":"Natsuki the Scunt","steam_id":76561199175922684,"connected_time":5110000000000,"state":"active","ping":114},{"user_id":605,"name":"robot with human hair","steam_id":76561198018691308,"connected_time":2393000000000,"state":"active","ping":75},{"user_id":627,"name":"He rolls his own","steam_id":76561198058162684,"connected_time":1311000000000,"state":"active","ping":76},{"user_id":634,"name":"Zorlovo","steam_id":76561198006443283,"connected_time":114000000000,"state":"active","ping":79},{"user_id":586,"name":"joseph stalin","steam_id":76561199230441293,"connected_time":3227000000000,"state":"active","ping":78},{"user_id":614,"name":"Dzhoshua","steam_id":76561198071915251,"connected_time":2185000000000,"state":"active","ping":69},{"user_id":603,"name":"󰀑BoppyDoppy 󰀑","steam_id":76561198976668694,"connected_time":2479000000000,"state":"active","ping":99},{"user_id":635,"name":"Laventhey","steam_id":76561198977523626,"connected_time":67000000000,"state":"active","ping":74},{"user_id":561,"name":"Mr. Luggy","steam_id":76561198072723392,"connected_time":4968000000000,"state":"active","ping":91},{"user_id":631,"name":"saucy jack","steam_id":76561198307012859,"connected_time":777000000000,"state":"active","ping":64},{"user_id":607,"name":"J O S H³²","steam_id":76561198122603779,"connected_time":2380000000000,"state":"active","ping":99},{"user_id":629,"name":"Congcrab","steam_id":76561198078687685,"connected_time":1265000000000,"state":"active","ping":85},{"user_id":617,"name":"Arthur SSJ2","steam_id":76561198043678479,"connected_time":2173000000000,"state":"active","ping":54}]},{"server_id":106,"name":"Uncletopia | Chicago | 2 | All Maps","name_short":"chi-2","host":"chi-1.us.uncletopia.com","port":27025,"enabled":true,"region":"us-central","cc":"us","latitude":41.881832,"longitude":-87.62318,"reserved":0,"last_update":"0001-01-01T00:00:00Z","name_a2s":"Uncletopia | Chicago | 2 | All Maps","protocol":17,"map":"pl_badwater","folder":"tf","game":"Team Fortress","app_id":440,"player_count":24,"max_players":24,"Bots":0,"server_type":"Dedicated","server_os":"Linux","password":true,"vac":true,"version":"7961495","steam_id":85568392924469985,"keywords":["nocrits","nodmgspread","payload","uncletopia"],"game_id":440,"stv_port":27026,"stv_name":"Uncletopia | Chicago | 2 | All Maps | STV","players":[{"user_id":334,"name":"44Ejkej77","steam_id":76561198117717593,"connected_time":3593000000000,"state":"active","ping":170},{"user_id":378,"name":"clavin","steam_id":76561198069380992,"connected_time":800000000000,"state":"active","ping":77},{"user_id":373,"name":"StinkyTofu Palpitating","steam_id":76561198125372241,"connected_time":1041000000000,"state":"active","ping":57},{"user_id":368,"name":"portal robewrtson big fan","steam_id":76561198150428763,"connected_time":1414000000000,"state":"active","ping":100},{"user_id":340,"name":"the stallion","steam_id":76561198212242403,"connected_time":3565000000000,"state":"active","ping":89},{"user_id":379,"name":"toasty weber","steam_id":76561198037746805,"connected_time":798000000000,"state":"active","ping":68},{"user_id":380,"name":"The Assistant Regional Manager","steam_id":76561199221484936,"connected_time":796000000000,"state":"active","ping":119},{"user_id":371,"name":"Darth Bane","steam_id":76561198236828096,"connected_time":1175000000000,"state":"active","ping":79},{"user_id":348,"name":"Howard Hamlin","steam_id":76561198881039861,"connected_time":3493000000000,"state":"active","ping":71},{"user_id":381,"name":"Tobo","steam_id":76561198085846393,"connected_time":790000000000,"state":"active","ping":84},{"user_id":382,"name":"bad spy player","steam_id":76561198873699671,"connected_time":779000000000,"state":"active","ping":112},{"user_id":383,"name":"superx","steam_id":76561198044976613,"connected_time":756000000000,"state":"active","ping":71},{"user_id":344,"name":"Frank (Live on Twitch)","steam_id":76561198126681511,"connected_time":3555000000000,"state":"active","ping":110},{"user_id":384,"name":"cool guy legs","steam_id":76561198099494670,"connected_time":721000000000,"state":"active","ping":97},{"user_id":362,"name":"Ripley","steam_id":76561198064478354,"connected_time":2128000000000,"state":"active","ping":146},{"user_id":345,"name":"Honky Bobocop #Cheeba","steam_id":76561198264288798,"connected_time":3546000000000,"state":"active","ping":95},{"user_id":385,"name":"Papa Smoke","steam_id":76561198181348206,"connected_time":713000000000,"state":"active","ping":59},{"user_id":365,"name":"sfoster","steam_id":76561197993895857,"connected_time":2087000000000,"state":"active","ping":90},{"user_id":356,"name":"Bradz","steam_id":76561198175090085,"connected_time":3090000000000,"state":"active","ping":88},{"user_id":375,"name":"Clear Sights","steam_id":76561198006215683,"connected_time":974000000000,"state":"active","ping":69},{"user_id":355,"name":"loser","steam_id":76561198259380127,"connected_time":3186000000000,"state":"active","ping":89},{"user_id":367,"name":"werecat","steam_id":76561198005091213,"connected_time":2010000000000,"state":"active","ping":58},{"user_id":310,"name":"OH BOY","steam_id":76561199052273428,"connected_time":5584000000000,"state":"active","ping":41},{"user_id":376,"name":"I Am Alpharius","steam_id":76561198033100226,"connected_time":938000000000,"state":"active","ping":71}]},{"server_id":402,"name":"Uncletopia | Chicago | 3 | All Maps","name_short":"chi-3","host":"chi-1.us.uncletopia.com","port":27035,"enabled":true,"region":"us-central","cc":"us","latitude":41.881832,"longitude":-87.62318,"reserved":0,"last_update":"0001-01-01T00:00:00Z","name_a2s":"Uncletopia | Chicago | 3 | All Maps","protocol":17,"map":"ctf_turbine","folder":"tf","game":"Team Fortress","app_id":440,"player_count":16,"max_players":24,"Bots":0,"server_type":"Dedicated","server_os":"Linux","password":true,"vac":true,"version":"7961495","steam_id":85568392924515191,"keywords":["ctf","nocrits","nodmgspread","uncletopia"],"game_id":440,"stv_port":27036,"stv_name":"Uncletopia | Chicago | 3 | All Maps | STV","players":[{"user_id":532,"name":"mark","steam_id":76561198200380143,"connected_time":222000000000,"state":"active","ping":116},{"user_id":408,"name":"Tarot Warden","steam_id":76561198284383023,"connected_time":7392000000000,"state":"active","ping":79},{"user_id":529,"name":"9Bendy9","steam_id":76561198164023601,"connected_time":392000000000,"state":"active","ping":99},{"user_id":436,"name":"ECCO","steam_id":76561198002821513,"connected_time":5990000000000,"state":"active","ping":55},{"user_id":428,"name":"Kyle Kushman","steam_id":76561199257008060,"connected_time":6474000000000,"state":"active","ping":70},{"user_id":486,"name":"A Ghost","steam_id":76561198057881343,"connected_time":2632000000000,"state":"active","ping":76},{"user_id":479,"name":"Gram Tokers Count Doinkula","steam_id":76561198112811565,"connected_time":2860000000000,"state":"active","ping":73},{"user_id":528,"name":"Plunderphonic","steam_id":76561198062565784,"connected_time":412000000000,"state":"active","ping":69},{"user_id":471,"name":"Cactus™ ♥","steam_id":76561198036441270,"connected_time":4020000000000,"state":"active","ping":111},{"user_id":508,"name":"Missing Minus","steam_id":76561198120822928,"connected_time":1739000000000,"state":"active","ping":60},{"user_id":523,"name":"Mr.Ito","steam_id":76561198106985955,"connected_time":868000000000,"state":"active","ping":114},{"user_id":485,"name":"Larry Laffer","steam_id":76561198046832069,"connected_time":2639000000000,"state":"active","ping":52},{"user_id":470,"name":"Ok then","steam_id":76561198891914787,"connected_time":4035000000000,"state":"active","ping":115},{"user_id":519,"name":"SanitysEdge","steam_id":76561198130732813,"connected_time":1178000000000,"state":"active","ping":100},{"user_id":513,"name":"frank","steam_id":76561198137777483,"connected_time":1542000000000,"state":"active","ping":62},{"user_id":475,"name":"oxy","steam_id":76561198089770351,"connected_time":3398000000000,"state":"active","ping":81}]},{"server_id":403,"name":"Uncletopia | Chicago | 4 | All Maps","name_short":"chi-4","host":"chi-1.us.uncletopia.com","port":27045,"enabled":true,"region":"us-central","cc":"us","latitude":41.881832,"longitude":-87.62318,"reserved":0,"last_update":"0001-01-01T00:00:00Z","name_a2s":"Uncletopia | Chicago | 4 | All Maps","protocol":17,"map":"cp_dustbowl","folder":"tf","game":"Team Fortress","app_id":440,"player_count":23,"max_players":24,"Bots":0,"server_type":"Dedicated","server_os":"Linux","password":true,"vac":true,"version":"7961495","steam_id":85568392924515193,"keywords":["cp","nocrits","nodmgspread","uncletopia"],"game_id":440,"stv_port":27046,"stv_name":"Uncletopia | Chicago | 4 | All Maps | STV","players":[{"user_id":593,"name":"Joe Sloppy","steam_id":76561198130329863,"connected_time":4921000000000,"state":"active","ping":57},{"user_id":653,"name":"Amari","steam_id":76561198272446730,"connected_time":679000000000,"state":"active","ping":54},{"user_id":658,"name":"Soma","steam_id":76561199218760942,"connected_time":228000000000,"state":"active","ping":146},{"user_id":616,"name":"1st place love live fan","steam_id":76561198037951506,"connected_time":3034000000000,"state":"active","ping":67},{"user_id":654,"name":"Kantamoe","steam_id":76561198046661611,"connected_time":630000000000,"state":"active","ping":86},{"user_id":622,"name":"Sooch","steam_id":76561198007043697,"connected_time":2473000000000,"state":"active","ping":81},{"user_id":656,"name":"Ember The Drunk Femboy","steam_id":76561198139630565,"connected_time":264000000000,"state":"active","ping":137},{"user_id":624,"name":"zpalmtree","steam_id":76561198134307620,"connected_time":2370000000000,"state":"active","ping":59},{"user_id":614,"name":"donn","steam_id":76561198113080083,"connected_time":3122000000000,"state":"active","ping":59},{"user_id":644,"name":"Dwanor","steam_id":76561198039571887,"connected_time":1420000000000,"state":"active","ping":73},{"user_id":649,"name":"9gon Danmar33","steam_id":76561198056453091,"connected_time":1002000000000,"state":"active","ping":54},{"user_id":621,"name":"HalfDead","steam_id":76561198049700226,"connected_time":2796000000000,"state":"active","ping":88},{"user_id":657,"name":"Femboy Foxi","steam_id":76561198108635769,"connected_time":247000000000,"state":"active","ping":149},{"user_id":613,"name":"Gimme your Teeth","steam_id":76561198240523882,"connected_time":3217000000000,"state":"active","ping":97},{"user_id":650,"name":"Profact","steam_id":76561198019274719,"connected_time":931000000000,"state":"active","ping":60},{"user_id":659,"name":"Thai","steam_id":76561198302397245,"connected_time":184000000000,"state":"active","ping":62},{"user_id":628,"name":"Phillip Jeffries","steam_id":76561198064052174,"connected_time":2231000000000,"state":"active","ping":64},{"user_id":638,"name":"the12xu","steam_id":76561198197086561,"connected_time":1728000000000,"state":"active","ping":67},{"user_id":651,"name":"Jousty","steam_id":76561199162677853,"connected_time":874000000000,"state":"active","ping":91},{"user_id":608,"name":"Menachem","steam_id":76561198041226420,"connected_time":3834000000000,"state":"active","ping":47},{"user_id":609,"name":"Castroy","steam_id":76561198108160099,"connected_time":3807000000000,"state":"active","ping":59},{"user_id":652,"name":"∰","steam_id":76561198064424202,"connected_time":817000000000,"state":"active","ping":61},{"user_id":639,"name":"WiteBord","steam_id":76561198891799301,"connected_time":1668000000000,"state":"active","ping":82}]},{"server_id":36,"name":"Uncletopia | Chicago | 5 | All Maps","name_short":"chi-5","host":"chi-2.us.uncletopia.com","port":27015,"enabled":true,"region":"us-central","cc":"us","latitude":41.881832,"longitude":-87.62318,"reserved":0,"last_update":"0001-01-01T00:00:00Z","name_a2s":"Uncletopia | Chicago | 5 | All Maps","protocol":17,"map":"ctf_turbine","folder":"tf","game":"Team Fortress","app_id":440,"player_count":0,"max_players":24,"Bots":0,"server_type":"Dedicated","server_os":"Linux","password":true,"vac":true,"version":"7961495","steam_id":85568392924866362,"keywords":["ctf","nocrits","nodmgspread","uncletopia"],"game_id":440,"stv_port":27016,"stv_name":"Uncletopia | Chicago | 5 | All Maps | STV","players":null},{"server_id":37,"name":"Uncletopia | Chicago | 6 | All Maps","name_short":"chi-6","host":"chi-2.us.uncletopia.com","port":27025,"enabled":true,"region":"us-central","cc":"us","latitude":41.881832,"longitude":-87.62318,"reserved":0,"last_update":"0001-01-01T00:00:00Z","name_a2s":"Uncletopia | Chicago | 6 | All Maps","protocol":17,"map":"koth_highpass","folder":"tf","game":"Team Fortress","app_id":440,"player_count":0,"max_players":24,"Bots":0,"server_type":"Dedicated","server_os":"Linux","password":true,"vac":true,"version":"7961495","steam_id":85568392924866363,"keywords":["cp","nocrits","nodmgspread","uncletopia"],"game_id":440,"stv_port":27026,"stv_name":"Uncletopia | Chicago | 6 | All Maps | STV","players":null},{"server_id":38,"name":"Uncletopia | Chicago | 7 | Stopwatch","name_short":"chi-7","host":"chi-2.us.uncletopia.com","port":27035,"enabled":true,"region":"us-central","cc":"us","latitude":41.881832,"longitude":-87.62318,"reserved":0,"last_update":"0001-01-01T00:00:00Z","name_a2s":"Uncletopia | Chicago | 7 | Stopwatch","protocol":17,"map":"workshop/koth_bagel_rc6.ugc2514036946","folder":"tf","game":"Team Fortress","app_id":440,"player_count":0,"max_players":24,"Bots":0,"server_type":"Dedicated","server_os":"Linux","password":true,"vac":true,"version":"7961495","steam_id":85568392924866364,"keywords":["cp","nocrits","nodmgspread","uncletopia"],"game_id":440,"stv_port":27036,"stv_name":"Uncletopia | Chicago | 7 | Stopwatch | STV","players":null},{"server_id":39,"name":"Uncletopia | Chicago | 8 | Community","name_short":"chi-8","host":"chi-2.us.uncletopia.com","port":27045,"enabled":true,"region":"us-central","cc":"us","latitude":41.881832,"longitude":-87.62318,"reserved":0,"last_update":"0001-01-01T00:00:00Z","name_a2s":"Uncletopia | Chicago | 8 | Community","protocol":17,"map":"workshop/koth_ashville_final.ugc2130459942","folder":"tf","game":"Team Fortress","app_id":440,"player_count":0,"max_players":24,"Bots":0,"server_type":"Dedicated","server_os":"Linux","password":true,"vac":true,"version":"7961495","steam_id":85568392924866365,"keywords":["cp","nocrits","nodmgspread","uncletopia"],"game_id":440,"stv_port":27046,"stv_name":"Uncletopia | Chicago | 8 | Community | STV","players":null},{"server_id":8,"name":"Uncletopia | Dallas | 1 | All Maps","name_short":"dal-1","host":"dal-1.us.uncletopia.com","port":27015,"enabled":true,"region":"us-central","cc":"us","latitude":32.779167,"longitude":-96.80889,"reserved":0,"last_update":"0001-01-01T00:00:00Z","name_a2s":"Uncletopia | Dallas | 1 | All Maps","protocol":17,"map":"koth_harvest_final","folder":"tf","game":"Team Fortress","app_id":440,"player_count":23,"max_players":24,"Bots":0,"server_type":"Dedicated","server_os":"Linux","password":true,"vac":true,"version":"7961495","steam_id":85568392924469986,"keywords":["cp","nocrits","nodmgspread","uncletopia"],"game_id":440,"stv_port":27016,"stv_name":"Uncletopia | Dallas | 1 | All Maps | STV","players":[{"user_id":389,"name":"she became a fish","steam_id":76561198062263639,"connected_time":4907000000000,"state":"active","ping":56},{"user_id":459,"name":"Green Mario","steam_id":76561198094325997,"connected_time":239000000000,"state":"active","ping":63},{"user_id":405,"name":"SteveC","steam_id":76561197994786195,"connected_time":3239000000000,"state":"active","ping":76},{"user_id":445,"name":"Mr Drug Addict","steam_id":76561199062081467,"connected_time":1523000000000,"state":"active","ping":75},{"user_id":450,"name":"CherryPieRed2023","steam_id":76561198998007496,"connected_time":1103000000000,"state":"active","ping":135},{"user_id":409,"name":"exten-z","steam_id":76561198004359190,"connected_time":3056000000000,"state":"active","ping":74},{"user_id":422,"name":"tsz","steam_id":76561199246231090,"connected_time":2579000000000,"state":"active","ping":83},{"user_id":454,"name":"bottom pride burger","steam_id":76561198322247602,"connected_time":429000000000,"state":"active","ping":86},{"user_id":440,"name":"Rennsellaer","steam_id":76561198096207580,"connected_time":1691000000000,"state":"active","ping":86},{"user_id":455,"name":"sithreis","steam_id":76561198000564263,"connected_time":406000000000,"state":"active","ping":73},{"user_id":446,"name":"shin megami tensei nocturne","steam_id":76561198026563351,"connected_time":1471000000000,"state":"active","ping":77},{"user_id":460,"name":"★TC2","steam_id":76561198026985346,"connected_time":234000000000,"state":"active","ping":77},{"user_id":461,"name":"Draven","steam_id":76561198074776388,"connected_time":201000000000,"state":"active","ping":55},{"user_id":453,"name":"Syndra's Futa Balls","steam_id":76561198058671296,"connected_time":873000000000,"state":"active","ping":75},{"user_id":457,"name":"AlecTheNefarious","steam_id":76561198035291230,"connected_time":391000000000,"state":"active","ping":50},{"user_id":448,"name":"krebex","steam_id":76561198004660630,"connected_time":1403000000000,"state":"active","ping":58},{"user_id":424,"name":"Smoke Stacks","steam_id":76561197999478769,"connected_time":2540000000000,"state":"active","ping":66},{"user_id":462,"name":"Cat doin laundry","steam_id":76561198063895852,"connected_time":194000000000,"state":"active","ping":52},{"user_id":444,"name":"Mexican Muselk","steam_id":76561199289676387,"connected_time":1604000000000,"state":"active","ping":63},{"user_id":419,"name":"L to the OG","steam_id":76561199215811448,"connected_time":2675000000000,"state":"active","ping":86},{"user_id":458,"name":"lanoc","steam_id":76561198055415367,"connected_time":387000000000,"state":"active","ping":59},{"user_id":425,"name":"Mattie43","steam_id":76561198012053433,"connected_time":2533000000000,"state":"active","ping":77},{"user_id":449,"name":"ash","steam_id":76561198127890645,"connected_time":1377000000000,"state":"active","ping":82}]},{"server_id":108,"name":"Uncletopia | Dallas | 2 | All Maps","name_short":"dal-2","host":"dal-1.us.uncletopia.com","port":27025,"enabled":true,"region":"us-central","cc":"us","latitude":32.779167,"longitude":-96.80889,"reserved":0,"last_update":"0001-01-01T00:00:00Z","name_a2s":"Uncletopia | Dallas | 2 | All Maps","protocol":17,"map":"cp_steel","folder":"tf","game":"Team Fortress","app_id":440,"player_count":5,"max_players":24,"Bots":0,"server_type":"Dedicated","server_os":"Linux","password":true,"vac":true,"version":"7961495","steam_id":85568392924469988,"keywords":["cp","nocrits","nodmgspread","uncletopia"],"game_id":440,"stv_port":27026,"stv_name":"Uncletopia | Dallas | 2 | All Maps | STV","players":[{"user_id":529,"name":"bored in the house","steam_id":76561199498821080,"connected_time":294000000000,"state":"active","ping":45},{"user_id":522,"name":"basilberry","steam_id":76561198145275937,"connected_time":1097000000000,"state":"active","ping":61},{"user_id":509,"name":"Wick","steam_id":76561198062996360,"connected_time":1888000000000,"state":"active","ping":94},{"user_id":506,"name":"shnowshner","steam_id":76561198066450438,"connected_time":2430000000000,"state":"active","ping":79},{"user_id":466,"name":"Dragorf2010","steam_id":76561199238402270,"connected_time":4973000000000,"state":"active","ping":72}]},{"server_id":404,"name":"Uncletopia | Dallas | 3 | All Maps","name_short":"dal-3","host":"dal-1.us.uncletopia.com","port":27035,"enabled":true,"region":"us-central","cc":"us","latitude":32.779167,"longitude":-96.80889,"reserved":0,"last_update":"0001-01-01T00:00:00Z","name_a2s":"Uncletopia | Dallas | 3 | All Maps","protocol":17,"map":"pl_badwater","folder":"tf","game":"Team Fortress","app_id":440,"player_count":22,"max_players":24,"Bots":0,"server_type":"Dedicated","server_os":"Linux","password":true,"vac":true,"version":"7961495","steam_id":85568392924515219,"keywords":["nocrits","nodmgspread","payload","uncletopia"],"game_id":440,"stv_port":27036,"stv_name":"Uncletopia | Dallas | 3 | All Maps | STV","players":[{"user_id":824,"name":"Fargo","steam_id":76561198044703931,"connected_time":609000000000,"state":"active","ping":60},{"user_id":825,"name":"GreenApples","steam_id":76561198120559543,"connected_time":607000000000,"state":"active","ping":97},{"user_id":695,"name":"black tar estrogen","steam_id":76561198043911582,"connected_time":8574000000000,"state":"active","ping":75},{"user_id":812,"name":"Gnaash","steam_id":76561198940657194,"connected_time":1441000000000,"state":"active","ping":54},{"user_id":826,"name":"Weakest Toe Enjoyer","steam_id":76561198056007990,"connected_time":590000000000,"state":"active","ping":63},{"user_id":801,"name":"Thequirka","steam_id":76561198968058652,"connected_time":2229000000000,"state":"active","ping":104},{"user_id":831,"name":"onion","steam_id":76561198242311084,"connected_time":416000000000,"state":"active","ping":89},{"user_id":833,"name":"Anomic","steam_id":76561198044000414,"connected_time":143000000000,"state":"active","ping":209},{"user_id":800,"name":"ʏᴜᴊɪ","steam_id":76561198401572620,"connected_time":2351000000000,"state":"active","ping":77},{"user_id":832,"name":"如願","steam_id":76561198038486613,"connected_time":358000000000,"state":"active","ping":83},{"user_id":773,"name":"Fridgidaere @bowie.gg","steam_id":76561198131467867,"connected_time":4128000000000,"state":"active","ping":76},{"user_id":834,"name":"37 septillion tapeworms","steam_id":76561198186128723,"connected_time":79000000000,"state":"active","ping":46},{"user_id":835,"name":"tRiCkStAb","steam_id":76561197984716005,"connected_time":43000000000,"state":"active","ping":72},{"user_id":836,"name":"ItsYaBoiScooter","steam_id":76561199028427897,"connected_time":27000000000,"state":"active","ping":92},{"user_id":777,"name":"Cinnifox","steam_id":76561198068773971,"connected_time":3905000000000,"state":"active","ping":84},{"user_id":828,"name":"effy","steam_id":76561198087137066,"connected_time":545000000000,"state":"active","ping":66},{"user_id":802,"name":"Phoenix","steam_id":76561199465534945,"connected_time":2182000000000,"state":"active","ping":112},{"user_id":830,"name":"Lemonty","steam_id":76561198163812778,"connected_time":505000000000,"state":"active","ping":83},{"user_id":807,"name":"Tweek Tweak","steam_id":76561198445739792,"connected_time":1736000000000,"state":"active","ping":80},{"user_id":813,"name":"Cheese","steam_id":76561199207081299,"connected_time":1407000000000,"state":"active","ping":108},{"user_id":822,"name":"jizz gaming","steam_id":76561198984762462,"connected_time":1030000000000,"state":"active","ping":90},{"user_id":815,"name":"Censure","steam_id":76561198850891374,"connected_time":1318000000000,"state":"active","ping":90}]},{"server_id":405,"name":"Uncletopia | Dallas | 4 | Community","name_short":"dal-4","host":"dal-1.us.uncletopia.com","port":27045,"enabled":true,"region":"us-central","cc":"us","latitude":32.779167,"longitude":-96.80889,"reserved":0,"last_update":"0001-01-01T00:00:00Z","name_a2s":"Uncletopia | Dallas | 4 | Community","protocol":17,"map":"workshop/cp_overgrown_rc8.ugc503939302","folder":"tf","game":"Team Fortress","app_id":440,"player_count":0,"max_players":24,"Bots":0,"server_type":"Dedicated","server_os":"Linux","password":true,"vac":true,"version":"7961495","steam_id":85568392924515220,"keywords":["cp","nocrits","nodmgspread","uncletopia"],"game_id":440,"stv_port":27046,"stv_name":"Uncletopia | Dallas | 4 | Community | STV","players":null},{"server_id":5,"name":"Uncletopia | Frankfurt | 1 | All Maps","name_short":"frk-1","host":"frk-1.de.uncletopia.com","port":27015,"enabled":true,"region":"eu","cc":"de","latitude":50.110924,"longitude":8.682127,"reserved":0,"last_update":"0001-01-01T00:00:00Z","name_a2s":"Uncletopia | Frankfurt | 1 | All Maps","protocol":17,"map":"koth_highpass","folder":"tf","game":"Team Fortress","app_id":440,"player_count":0,"max_players":24,"Bots":0,"server_type":"Dedicated","server_os":"Linux","password":true,"vac":true,"version":"7961495","steam_id":85568392924469989,"keywords":["cp","nocrits","nodmgspread","uncletopia"],"game_id":440,"stv_port":27016,"stv_name":"Uncletopia | Frankfurt | 1 | All Maps | STV","players":null},{"server_id":110,"name":"Uncletopia | Frankfurt | 2 | All Maps","name_short":"frk-2","host":"frk-1.de.uncletopia.com","port":27025,"enabled":true,"region":"eu","cc":"de","latitude":50.110924,"longitude":8.682127,"reserved":0,"last_update":"0001-01-01T00:00:00Z","name_a2s":"Uncletopia | Frankfurt | 2 | All Maps","protocol":17,"map":"cp_dustbowl","folder":"tf","game":"Team Fortress","app_id":440,"player_count":0,"max_players":24,"Bots":0,"server_type":"Dedicated","server_os":"Linux","password":true,"vac":true,"version":"7961495","steam_id":85568392924469990,"keywords":["cp","nocrits","nodmgspread","uncletopia"],"game_id":440,"stv_port":27026,"stv_name":"Uncletopia | Frankfurt | 2 | All Maps | STV","players":null},{"server_id":308,"name":"Uncletopia | Frankfurt | 3 | All Maps","name_short":"frk-3","host":"frk-1.de.uncletopia.com","port":27035,"enabled":true,"region":"eu","cc":"de","latitude":50.110924,"longitude":8.682127,"reserved":0,"last_update":"0001-01-01T00:00:00Z","name_a2s":"Uncletopia | Frankfurt | 3 | All Maps","protocol":17,"map":"pl_swiftwater_final1","folder":"tf","game":"Team Fortress","app_id":440,"player_count":0,"max_players":24,"Bots":0,"server_type":"Dedicated","server_os":"Linux","password":true,"vac":true,"version":"7961495","steam_id":85568392924504274,"keywords":["nocrits","nodmgspread","payload","uncletopia"],"game_id":440,"stv_port":27036,"stv_name":"Uncletopia | Frankfurt | 3 | All Maps | STV","players":null},{"server_id":309,"name":"Uncletopia | Frankfurt | 4 | All Maps","name_short":"frk-4","host":"frk-1.de.uncletopia.com","port":27045,"enabled":true,"region":"eu","cc":"de","latitude":50.110924,"longitude":8.682127,"reserved":0,"last_update":"0001-01-01T00:00:00Z","name_a2s":"Uncletopia | Frankfurt | 4 | All Maps","protocol":17,"map":"koth_highpass","folder":"tf","game":"Team Fortress","app_id":440,"player_count":0,"max_players":24,"Bots":0,"server_type":"Dedicated","server_os":"Linux","password":true,"vac":true,"version":"7961495","steam_id":85568392924504275,"keywords":["cp","nocrits","nodmgspread","uncletopia"],"game_id":440,"stv_port":27046,"stv_name":"Uncletopia | Frankfurt | 4 | All Maps | STV","players":null},{"server_id":310,"name":"Uncletopia | Frankfurt | 5 | All Maps","name_short":"frk-5","host":"frk-1.de.uncletopia.com","port":27055,"enabled":true,"region":"eu","cc":"de","latitude":50.110924,"longitude":8.682127,"reserved":0,"last_update":"0001-01-01T00:00:00Z","name_a2s":"Uncletopia | Frankfurt | 5 | All Maps","protocol":17,"map":"pl_badwater","folder":"tf","game":"Team Fortress","app_id":440,"player_count":0,"max_players":24,"Bots":0,"server_type":"Dedicated","server_os":"Linux","password":true,"vac":true,"version":"7961495","steam_id":85568392924504277,"keywords":["nocrits","nodmgspread","payload","uncletopia"],"game_id":440,"stv_port":27056,"stv_name":"Uncletopia | Frankfurt | 5 | All Maps | STV","players":null},{"server_id":311,"name":"Uncletopia | Frankfurt | 6 | All Maps","name_short":"frk-6","host":"frk-1.de.uncletopia.com","port":27065,"enabled":true,"region":"eu","cc":"de","latitude":50.110924,"longitude":8.682127,"reserved":0,"last_update":"0001-01-01T00:00:00Z","name_a2s":"Uncletopia | Frankfurt | 6 | All Maps","protocol":17,"map":"pl_upward","folder":"tf","game":"Team Fortress","app_id":440,"player_count":0,"max_players":24,"Bots":0,"server_type":"Dedicated","server_os":"Linux","password":true,"vac":true,"version":"7961495","steam_id":85568392924504278,"keywords":["nocrits","nodmgspread","payload","uncletopia"],"game_id":440,"stv_port":27066,"stv_name":"Uncletopia | Frankfurt | 6 | All Maps | STV","players":null},{"server_id":23,"name":"Uncletopia | Frankfurt | 7 | Stopwatch","name_short":"frk-7","host":"frk-1.de.uncletopia.com","port":27075,"enabled":true,"region":"eu","cc":"de","latitude":50.110924,"longitude":8.682127,"reserved":0,"last_update":"0001-01-01T00:00:00Z","name_a2s":"Uncletopia | Frankfurt | 7 | Stopwatch","protocol":17,"map":"pl_frontier_final","folder":"tf","game":"Team Fortress","app_id":440,"player_count":0,"max_players":24,"Bots":0,"server_type":"Dedicated","server_os":"Linux","password":true,"vac":true,"version":"7961495","steam_id":85568392924742827,"keywords":["nocrits","nodmgspread","payload","uncletopia"],"game_id":440,"stv_port":27076,"stv_name":"Uncletopia | Frankfurt | 7 | Stopwatch | STV","players":null},{"server_id":24,"name":"Uncletopia | Frankfurt | 8 | Community","name_short":"frk-8","host":"frk-1.de.uncletopia.com","port":27085,"enabled":true,"region":"eu","cc":"de","latitude":50.110924,"longitude":8.682127,"reserved":0,"last_update":"0001-01-01T00:00:00Z","name_a2s":"Uncletopia | Frankfurt | 8 | Community","protocol":17,"map":"cp_mountainlab","folder":"tf","game":"Team Fortress","app_id":440,"player_count":0,"max_players":24,"Bots":0,"server_type":"Dedicated","server_os":"Linux","password":true,"vac":true,"version":"7961495","steam_id":85568392924742828,"keywords":["cp","nocrits","nodmgspread","uncletopia"],"game_id":440,"stv_port":27086,"stv_name":"Uncletopia | Frankfurt | 8 | Community | STV","players":null},{"server_id":202,"name":"Uncletopia | Hong Kong | 1 | All Maps","name_short":"hgk-1","host":"hgk-1.hk.uncletopia.com","port":27015,"enabled":true,"region":"asia","cc":"hk","latitude":22.302711,"longitude":114.177216,"reserved":0,"last_update":"0001-01-01T00:00:00Z","name_a2s":"Uncletopia | Hong Kong | 1 | All Maps","protocol":17,"map":"pl_borneo","folder":"tf","game":"Team Fortress","app_id":440,"player_count":0,"max_players":24,"Bots":0,"server_type":"Dedicated","server_os":"Linux","password":true,"vac":true,"version":"7961495","steam_id":85568392924494504,"keywords":["nocrits","nodmgspread","payload","uncletopia"],"game_id":440,"stv_port":27016,"stv_name":"Uncletopia | Hong Kong | 1 | All Maps | STV","players":null},{"server_id":1,"name":"Uncletopia | Los Angeles | 1 | All Maps","name_short":"lax-1","host":"lax-1.us.uncletopia.com","port":27015,"enabled":true,"region":"us-west","cc":"us","latitude":33.94279,"longitude":-118.41004,"reserved":0,"last_update":"0001-01-01T00:00:00Z","name_a2s":"Uncletopia | Los Angeles | 1 | All Maps","protocol":17,"map":"pl_badwater","folder":"tf","game":"Team Fortress","app_id":440,"player_count":24,"max_players":24,"Bots":0,"server_type":"Dedicated","server_os":"Linux","password":true,"vac":true,"version":"7961495","steam_id":85568392924469991,"keywords":["nocrits","nodmgspread","payload","uncletopia"],"game_id":440,"stv_port":27016,"stv_name":"Uncletopia | Los Angeles | 1 | All Maps | STV","players":[{"user_id":189,"name":"Zippy","steam_id":76561198279229422,"connected_time":1853000000000,"state":"active","ping":108},{"user_id":158,"name":"PROFILE NAME","steam_id":76561199438851854,"connected_time":4706000000000,"state":"active","ping":87},{"user_id":201,"name":"AlphaBoi","steam_id":76561198995017977,"connected_time":1204000000000,"state":"active","ping":83},{"user_id":202,"name":"Dinosaur","steam_id":76561199079626189,"connected_time":1189000000000,"state":"active","ping":96},{"user_id":113,"name":"Anon","steam_id":76561198109740776,"connected_time":7787000000000,"state":"active","ping":51},{"user_id":203,"name":"MerkyWaters","steam_id":76561197998853063,"connected_time":1181000000000,"state":"active","ping":60},{"user_id":218,"name":"i love toes","steam_id":76561199385410424,"connected_time":52000000000,"state":"spawning","ping":50},{"user_id":204,"name":"Dunkaccino","steam_id":76561198050228531,"connected_time":1173000000000,"state":"active","ping":55},{"user_id":206,"name":"BLØRG","steam_id":76561198036126673,"connected_time":1099000000000,"state":"active","ping":87},{"user_id":207,"name":"REPTILIAN HOLOGRAM","steam_id":76561198002819791,"connected_time":1081000000000,"state":"active","ping":84},{"user_id":208,"name":"Octo","steam_id":76561198024056355,"connected_time":1054000000000,"state":"active","ping":47},{"user_id":209,"name":"nanoboosts","steam_id":76561199500861337,"connected_time":1014000000000,"state":"active","ping":59},{"user_id":192,"name":"HAT-WEARING™ Maggot Gamer Cat","steam_id":76561197973992705,"connected_time":1639000000000,"state":"active","ping":70},{"user_id":210,"name":"Rotarius","steam_id":76561198109893506,"connected_time":1013000000000,"state":"active","ping":72},{"user_id":211,"name":"Lumberjane37 (She/Her)","steam_id":76561198014841793,"connected_time":1004000000000,"state":"active","ping":60},{"user_id":198,"name":"ThecoolestEmmy","steam_id":76561198999423393,"connected_time":1355000000000,"state":"active","ping":61},{"user_id":199,"name":"Maulit","steam_id":76561199113525854,"connected_time":1267000000000,"state":"active","ping":122},{"user_id":200,"name":"Nutella","steam_id":76561198147062334,"connected_time":1251000000000,"state":"active","ping":44},{"user_id":212,"name":"ZeroEmpires","steam_id":76561198044112464,"connected_time":1003000000000,"state":"active","ping":69},{"user_id":213,"name":"fish","steam_id":76561198054070811,"connected_time":990000000000,"state":"active","ping":48},{"user_id":217,"name":"imma let my nuts hang","steam_id":76561198097544038,"connected_time":834000000000,"state":"active","ping":57},{"user_id":215,"name":"Midnight","steam_id":76561198115714484,"connected_time":947000000000,"state":"active","ping":91},{"user_id":216,"name":"pigswill","steam_id":76561197999081865,"connected_time":939000000000,"state":"active","ping":125},{"user_id":161,"name":"rocketspires","steam_id":76561198800386026,"connected_time":4180000000000,"state":"active","ping":73}]},{"server_id":112,"name":"Uncletopia | Los Angeles | 2 | All Maps","name_short":"lax-2","host":"lax-1.us.uncletopia.com","port":27025,"enabled":true,"region":"us-west","cc":"us","latitude":33.94279,"longitude":-118.41004,"reserved":0,"last_update":"0001-01-01T00:00:00Z","name_a2s":"Uncletopia | Los Angeles | 2 | All Maps","protocol":17,"map":"pl_frontier_final","folder":"tf","game":"Team Fortress","app_id":440,"player_count":24,"max_players":24,"Bots":0,"server_type":"Dedicated","server_os":"Linux","password":true,"vac":true,"version":"7961495","steam_id":85568392924469992,"keywords":["nocrits","nodmgspread","payload","uncletopia"],"game_id":440,"stv_port":27026,"stv_name":"Uncletopia | Los Angeles | 2 | All Maps | STV","players":[{"user_id":195,"name":"smile face","steam_id":76561198334044006,"connected_time":619000000000,"state":"active","ping":44},{"user_id":194,"name":"filtered by cp_steel","steam_id":76561198031409921,"connected_time":633000000000,"state":"active","ping":57},{"user_id":205,"name":"buttons","steam_id":76561198066995476,"connected_time":96000000000,"state":"active","ping":67},{"user_id":175,"name":"Secret Tunnel","steam_id":76561198272403112,"connected_time":2330000000000,"state":"active","ping":50},{"user_id":150,"name":"ga-HYUK","steam_id":76561199072745011,"connected_time":3516000000000,"state":"active","ping":50},{"user_id":198,"name":"Wendall555","steam_id":76561198985637603,"connected_time":595000000000,"state":"active","ping":65},{"user_id":190,"name":"[☯] randomshagz*","steam_id":76561197968666646,"connected_time":1669000000000,"state":"active","ping":65},{"user_id":131,"name":"deeeefers","steam_id":76561198082592496,"connected_time":5172000000000,"state":"active","ping":75},{"user_id":196,"name":"Mr. Noodle","steam_id":76561198025280658,"connected_time":614000000000,"state":"active","ping":53},{"user_id":197,"name":"lol","steam_id":76561198026491738,"connected_time":611000000000,"state":"active","ping":62},{"user_id":201,"name":"scringo","steam_id":76561198169969030,"connected_time":523000000000,"state":"active","ping":64},{"user_id":136,"name":"Livin' Like Larry","steam_id":76561198313360974,"connected_time":4860000000000,"state":"active","ping":46},{"user_id":202,"name":"Skumpfsklub","steam_id":76561198045782334,"connected_time":483000000000,"state":"active","ping":197},{"user_id":176,"name":"Smoothpolishness","steam_id":76561198029084002,"connected_time":2307000000000,"state":"active","ping":64},{"user_id":165,"name":"(° ͜   °)","steam_id":76561198064273568,"connected_time":2715000000000,"state":"active","ping":45},{"user_id":186,"name":"Lane","steam_id":76561197965828506,"connected_time":2033000000000,"state":"active","ping":90},{"user_id":180,"name":"Warzard","steam_id":76561199154051413,"connected_time":2291000000000,"state":"active","ping":124},{"user_id":157,"name":"Sexterminator","steam_id":76561199018767956,"connected_time":3267000000000,"state":"active","ping":105},{"user_id":170,"name":"thnx","steam_id":76561198107219183,"connected_time":2616000000000,"state":"active","ping":48},{"user_id":192,"name":"The Gitrog Monster","steam_id":76561198026941076,"connected_time":834000000000,"state":"active","ping":57},{"user_id":203,"name":"who","steam_id":76561198066091050,"connected_time":374000000000,"state":"active","ping":91},{"user_id":204,"name":"Wiggs is the Shiggs","steam_id":76561198078379719,"connected_time":363000000000,"state":"active","ping":59},{"user_id":206,"name":"Beast","steam_id":76561198087571347,"connected_time":94000000000,"state":"active","ping":74},{"user_id":189,"name":"FortniteJimmy2008","steam_id":76561198821567852,"connected_time":1726000000000,"state":"active","ping":54}]},{"server_id":324,"name":"Uncletopia | Los Angeles | 3 | All Maps","name_short":"lax-3","host":"lax-1.us.uncletopia.com","port":27035,"enabled":true,"region":"us-west","cc":"us","latitude":33.94279,"longitude":-118.41004,"reserved":0,"last_update":"0001-01-01T00:00:00Z","name_a2s":"Uncletopia | Los Angeles | 3 | All Maps","protocol":17,"map":"koth_cascade","folder":"tf","game":"Team Fortress","app_id":440,"player_count":0,"max_players":24,"Bots":0,"server_type":"Dedicated","server_os":"Linux","password":true,"vac":true,"version":"7961495","steam_id":85568392924510198,"keywords":["cp","nocrits","nodmgspread","uncletopia"],"game_id":440,"stv_port":27036,"stv_name":"Uncletopia | Los Angeles | 3 | All Maps | STV","players":null},{"server_id":25,"name":"Uncletopia | Los Angeles | 4 | Stopwatch","name_short":"lax-4","host":"lax-1.us.uncletopia.com","port":27045,"enabled":true,"region":"us-west","cc":"us","latitude":33.94279,"longitude":-118.41004,"reserved":0,"last_update":"0001-01-01T00:00:00Z","name_a2s":"Uncletopia | Los Angeles | 4 | Stopwatch","protocol":17,"map":"workshop/koth_ashville_final.ugc2130459942","folder":"tf","game":"Team Fortress","app_id":440,"player_count":0,"max_players":24,"Bots":0,"server_type":"Dedicated","server_os":"Linux","password":true,"vac":true,"version":"7961495","steam_id":85568392924510199,"keywords":["cp","nocrits","nodmgspread","uncletopia"],"game_id":440,"stv_port":27046,"stv_name":"Uncletopia | Los Angeles | 4 | Stopwatch | STV","players":null},{"server_id":11,"name":"Uncletopia | London | 1 | All Maps","name_short":"lon-1","host":"lon-1.uk.uncletopia.com","port":27015,"enabled":true,"region":"eu","cc":"gb","latitude":51.509865,"longitude":-0.118092,"reserved":0,"last_update":"0001-01-01T00:00:00Z","name_a2s":"Uncletopia | London | 1 | All Maps","protocol":17,"map":"koth_highpass","folder":"tf","game":"Team Fortress","app_id":440,"player_count":5,"max_players":24,"Bots":0,"server_type":"Dedicated","server_os":"Linux","password":true,"vac":true,"version":"7961495","steam_id":85568392924367362,"keywords":["cp","nocrits","nodmgspread","uncletopia"],"game_id":440,"stv_port":27016,"stv_name":"Uncletopia | London | 1 | All Maps | STV","players":[{"user_id":3,"name":"lipaul777","steam_id":76561199090751367,"connected_time":409000000000,"state":"active","ping":69},{"user_id":4,"name":"yuno appreciator","steam_id":76561198083286511,"connected_time":294000000000,"state":"active","ping":30},{"user_id":5,"name":"♡ ✿ Ash The Femboy ✿ ♡","steam_id":76561199501551481,"connected_time":111000000000,"state":"active","ping":64},{"user_id":6,"name":"geroxe cruo","steam_id":76561199480942903,"connected_time":96000000000,"state":"active","ping":70},{"user_id":7,"name":"K","steam_id":76561198144604444,"connected_time":68000000000,"state":"active","ping":45}]},{"server_id":114,"name":"Uncletopia | London | 2 | All Maps","name_short":"lon-2","host":"lon-1.uk.uncletopia.com","port":27025,"enabled":true,"region":"eu","cc":"gb","latitude":51.509865,"longitude":-0.118092,"reserved":0,"last_update":"0001-01-01T00:00:00Z","name_a2s":"Uncletopia | London | 2 | All Maps","protocol":17,"map":"koth_lakeside_final","folder":"tf","game":"Team Fortress","app_id":440,"player_count":0,"max_players":24,"Bots":0,"server_type":"Dedicated","server_os":"Linux","password":true,"vac":true,"version":"7961495","steam_id":85568392924470941,"keywords":["cp","nocrits","nodmgspread","uncletopia"],"game_id":440,"stv_port":27026,"stv_name":"Uncletopia | London | 2 | All Maps | STV","players":null},{"server_id":320,"name":"Uncletopia | London | 3 | All Maps","name_short":"lon-3","host":"lon-1.uk.uncletopia.com","port":27035,"enabled":true,"region":"eu","cc":"gb","latitude":51.509865,"longitude":-0.118092,"reserved":0,"last_update":"0001-01-01T00:00:00Z","name_a2s":"Uncletopia | London | 3 | All Maps","protocol":17,"map":"cp_process_final","folder":"tf","game":"Team Fortress","app_id":440,"player_count":0,"max_players":24,"Bots":0,"server_type":"Dedicated","server_os":"Linux","password":true,"vac":true,"version":"7961495","steam_id":85568392924510192,"keywords":["cp","nocrits","nodmgspread","uncletopia"],"game_id":440,"stv_port":27036,"stv_name":"Uncletopia | London | 3 | All Maps | STV","players":null},{"server_id":321,"name":"Uncletopia | London | 4 | All Maps","name_short":"lon-4","host":"lon-1.uk.uncletopia.com","port":27045,"enabled":true,"region":"eu","cc":"gb","latitude":51.509865,"longitude":-0.118092,"reserved":0,"last_update":"0001-01-01T00:00:00Z","name_a2s":"Uncletopia | London | 4 | All Maps","protocol":17,"map":"koth_cascade","folder":"tf","game":"Team Fortress","app_id":440,"player_count":0,"max_players":24,"Bots":0,"server_type":"Dedicated","server_os":"Linux","password":true,"vac":true,"version":"7961495","steam_id":85568392924510193,"keywords":["cp","nocrits","nodmgspread","uncletopia"],"game_id":440,"stv_port":27046,"stv_name":"Uncletopia | London | 4 | All Maps | STV","players":null},{"server_id":21,"name":"Uncletopia | London | 5 | All Maps","name_short":"lon-5","host":"lon-1.uk.uncletopia.com","port":27055,"enabled":true,"region":"eu","cc":"gb","latitude":51.509865,"longitude":-0.118092,"reserved":0,"last_update":"0001-01-01T00:00:00Z","name_a2s":"Uncletopia | London | 5 | All Maps","protocol":17,"map":"koth_lakeside_final","folder":"tf","game":"Team Fortress","app_id":440,"player_count":0,"max_players":24,"Bots":0,"server_type":"Dedicated","server_os":"Linux","password":true,"vac":true,"version":"7961495","steam_id":85568392924742829,"keywords":["cp","nocrits","nodmgspread","uncletopia"],"game_id":440,"stv_port":27056,"stv_name":"Uncletopia | London | 5 | All Maps | STV","players":null},{"server_id":22,"name":"Uncletopia | London | 6 | All Maps","name_short":"lon-6","host":"lon-1.uk.uncletopia.com","port":27065,"enabled":true,"region":"eu","cc":"gb","latitude":51.509865,"longitude":-0.118092,"reserved":0,"last_update":"0001-01-01T00:00:00Z","name_a2s":"Uncletopia | London | 6 | All Maps","protocol":17,"map":"cp_dustbowl","folder":"tf","game":"Team Fortress","app_id":440,"player_count":0,"max_players":24,"Bots":0,"server_type":"Dedicated","server_os":"Linux","password":true,"vac":true,"version":"7961495","steam_id":85568392924742830,"keywords":["cp","nocrits","nodmgspread","uncletopia"],"game_id":440,"stv_port":27066,"stv_name":"Uncletopia | London | 6 | All Maps | STV","players":null},{"server_id":40,"name":"Uncletopia | London | 7 | Stopwatch","name_short":"lon-7","host":"lon-1.uk.uncletopia.com","port":27075,"enabled":true,"region":"eu","cc":"gb","latitude":51.509865,"longitude":-0.118092,"reserved":0,"last_update":"0001-01-01T00:00:00Z","name_a2s":"Uncletopia | London | 7 | Stopwatch","protocol":17,"map":"koth_lakeside_final","folder":"tf","game":"Team Fortress","app_id":440,"player_count":0,"max_players":24,"Bots":0,"server_type":"Dedicated","server_os":"Linux","password":true,"vac":true,"version":"7961495","steam_id":85568392924964314,"keywords":["cp","nocrits","nodmgspread","uncletopia"],"game_id":440,"stv_port":27076,"stv_name":"Uncletopia | London | 7 | Stopwatch | STV","players":null},{"server_id":41,"name":"Uncletopia | London | 8 | Community","name_short":"lon-8","host":"lon-1.uk.uncletopia.com","port":27085,"enabled":true,"region":"eu","cc":"gb","latitude":51.509865,"longitude":-0.118092,"reserved":0,"last_update":"0001-01-01T00:00:00Z","name_a2s":"Uncletopia | London | 8 | Community","protocol":17,"map":"cp_snakewater_final1","folder":"tf","game":"Team Fortress","app_id":440,"player_count":0,"max_players":24,"Bots":0,"server_type":"Dedicated","server_os":"Linux","password":true,"vac":true,"version":"7961495","steam_id":85568392924964315,"keywords":["cp","nocrits","nodmgspread","uncletopia"],"game_id":440,"stv_port":27086,"stv_name":"Uncletopia | London | 8 | Community | STV","players":null},{"server_id":300,"name":"Uncletopia | Montréal | 1 | One Thousand Uncles","name_short":"mtl-1","host":"mtl-1.ca.uncletopia.com","port":27015,"enabled":true,"region":"us-east","cc":"ca","latitude":45.50889,"longitude":-73.56167,"reserved":0,"last_update":"0001-01-01T00:00:00Z","name_a2s":"","protocol":0,"map":"","folder":"","game":"","app_id":0,"player_count":0,"max_players":0,"Bots":0,"server_type":"","server_os":"","password":false,"vac":false,"version":"","steam_id":0,"keywords":null,"game_id":0,"stv_port":0,"stv_name":"","players":null},{"server_id":301,"name":"Uncletopia | Montréal | 2 | One Thousand Uncles","name_short":"mtl-2","host":"mtl-1.ca.uncletopia.com","port":27025,"enabled":true,"region":"us-east","cc":"ca","latitude":45.50889,"longitude":-73.56167,"reserved":0,"last_update":"0001-01-01T00:00:00Z","name_a2s":"","protocol":0,"map":"","folder":"","game":"","app_id":0,"player_count":0,"max_players":0,"Bots":0,"server_type":"","server_os":"","password":false,"vac":false,"version":"","steam_id":0,"keywords":null,"game_id":0,"stv_port":0,"stv_name":"","players":null},{"server_id":302,"name":"Uncletopia | Montréal | 3 | One Thousand Uncles","name_short":"mtl-3","host":"mtl-1.ca.uncletopia.com","port":27035,"enabled":true,"region":"us-east","cc":"ca","latitude":45.50889,"longitude":-73.56167,"reserved":0,"last_update":"0001-01-01T00:00:00Z","name_a2s":"","protocol":0,"map":"","folder":"","game":"","app_id":0,"player_count":0,"max_players":0,"Bots":0,"server_type":"","server_os":"","password":false,"vac":false,"version":"","steam_id":0,"keywords":null,"game_id":0,"stv_port":0,"stv_name":"","players":null},{"server_id":13,"name":"Uncletopia | New York City | 1 | All Maps","name_short":"nyc-1","host":"nyc-1.us.uncletopia.com","port":27015,"enabled":true,"region":"us-east","cc":"us","latitude":40.73061,"longitude":-73.93524,"reserved":0,"last_update":"0001-01-01T00:00:00Z","name_a2s":"Uncletopia | New York City | 1 | All Maps","protocol":17,"map":"pl_pier","folder":"tf","game":"Team Fortress","app_id":440,"player_count":0,"max_players":24,"Bots":0,"server_type":"Dedicated","server_os":"Linux","password":true,"vac":true,"version":"7961495","steam_id":85568392924469993,"keywords":["nocrits","nodmgspread","payload","uncletopia"],"game_id":440,"stv_port":27016,"stv_name":"Uncletopia | New York City | 1 | All Maps | STV","players":null},{"server_id":14,"name":"Uncletopia | New York City | 2 | All Maps","name_short":"nyc-2","host":"nyc-1.us.uncletopia.com","port":27025,"enabled":true,"region":"us-east","cc":"us","latitude":40.73061,"longitude":-73.93524,"reserved":0,"last_update":"0001-01-01T00:00:00Z","name_a2s":"Uncletopia | New York City | 2 | All Maps","protocol":17,"map":"koth_viaduct","folder":"tf","game":"Team Fortress","app_id":440,"player_count":0,"max_players":24,"Bots":0,"server_type":"Dedicated","server_os":"Linux","password":true,"vac":true,"version":"7961495","steam_id":85568392924469994,"keywords":["cp","nocrits","nodmgspread","uncletopia"],"game_id":440,"stv_port":27026,"stv_name":"Uncletopia | New York City | 2 | All Maps | STV","players":null},{"server_id":15,"name":"Uncletopia | New York City | 3 | Stopwatch","name_short":"nyc-3","host":"nyc-1.us.uncletopia.com","port":27035,"enabled":true,"region":"us-east","cc":"us","latitude":40.73061,"longitude":-73.93524,"reserved":0,"last_update":"0001-01-01T00:00:00Z","name_a2s":"Uncletopia | New York City | 3 | Stopwatch","protocol":17,"map":"pl_upward","folder":"tf","game":"Team Fortress","app_id":440,"player_count":0,"max_players":24,"Bots":0,"server_type":"Dedicated","server_os":"Linux","password":true,"vac":true,"version":"7961495","steam_id":85568392924742820,"keywords":["nocrits","nodmgspread","payload","uncletopia"],"game_id":440,"stv_port":27036,"stv_name":"Uncletopia | New York City | 3 | Stopwatch | STV","players":null},{"server_id":16,"name":"Uncletopia | New York City | 4 | Community","name_short":"nyc-4","host":"nyc-1.us.uncletopia.com","port":27045,"enabled":true,"region":"us-east","cc":"us","latitude":40.73061,"longitude":-73.93524,"reserved":0,"last_update":"0001-01-01T00:00:00Z","name_a2s":"Uncletopia | New York City | 4 | Community","protocol":17,"map":"workshop/koth_bagel_rc6.ugc2514036946","folder":"tf","game":"Team Fortress","app_id":440,"player_count":0,"max_players":24,"Bots":0,"server_type":"Dedicated","server_os":"Linux","password":true,"vac":true,"version":"7961495","steam_id":85568392924742821,"keywords":["cp","nocrits","nodmgspread","uncletopia"],"game_id":440,"stv_port":27046,"stv_name":"Uncletopia | New York City | 4 | Community | STV","players":null},{"server_id":142,"name":"Uncletopia | São Paulo | 1 | All Maps","name_short":"sao-1","host":"sao-1.br.uncletopia.com","port":27015,"enabled":true,"region":"sa","cc":"br","latitude":-23.533773,"longitude":-46.62529,"reserved":0,"last_update":"0001-01-01T00:00:00Z","name_a2s":"Uncletopia | São Paulo | 1 | All Maps","protocol":17,"map":"koth_highpass","folder":"tf","game":"Team Fortress","app_id":440,"player_count":0,"max_players":24,"Bots":0,"server_type":"Dedicated","server_os":"Linux","password":true,"vac":true,"version":"7961495","steam_id":85568392924469996,"keywords":["cp","nocrits","nodmgspread","uncletopia"],"game_id":440,"stv_port":27016,"stv_name":"Uncletopia | São Paulo | 1 | All Maps | STV","players":null},{"server_id":143,"name":"Uncletopia | São Paulo | 2 | Community","name_short":"sao-2","host":"sao-2.br.uncletopia.com","port":27015,"enabled":true,"region":"sa","cc":"br","latitude":-23.533773,"longitude":-46.62529,"reserved":0,"last_update":"0001-01-01T00:00:00Z","name_a2s":"Uncletopia | São Paulo | 2 | Community","protocol":17,"map":"workshop/koth_bagel_rc6.ugc2514036946","folder":"tf","game":"Team Fortress","app_id":440,"player_count":0,"max_players":24,"Bots":0,"server_type":"Dedicated","server_os":"Linux","password":true,"vac":true,"version":"7961495","steam_id":85568392924485349,"keywords":["cp","nocrits","nodmgspread","uncletopia"],"game_id":440,"stv_port":27016,"stv_name":"Uncletopia | São Paulo | 2 | Community | STV","players":null},{"server_id":7,"name":"Uncletopia | Seattle | 1 | All Maps","name_short":"sea-1","host":"sea-1.us.uncletopia.com","port":27015,"enabled":true,"region":"us-west","cc":"us","latitude":47.608013,"longitude":-122.33517,"reserved":0,"last_update":"0001-01-01T00:00:00Z","name_a2s":"Uncletopia | Seattle | 1 | All Maps","protocol":17,"map":"koth_nucleus","folder":"tf","game":"Team Fortress","app_id":440,"player_count":22,"max_players":24,"Bots":0,"server_type":"Dedicated","server_os":"Linux","password":true,"vac":true,"version":"7961495","steam_id":85568392924469997,"keywords":["cp","nocrits","nodmgspread","uncletopia"],"game_id":440,"stv_port":27016,"stv_name":"Uncletopia | Seattle | 1 | All Maps | STV","players":[{"user_id":984,"name":"fwoov","steam_id":76561198129166260,"connected_time":3997000000000,"state":"active","ping":75},{"user_id":999,"name":"Peppy","steam_id":76561198866629645,"connected_time":2385000000000,"state":"active","ping":78},{"user_id":994,"name":"Sailor","steam_id":76561199081983517,"connected_time":2962000000000,"state":"active","ping":86},{"user_id":1009,"name":"runescape gf","steam_id":76561198066824710,"connected_time":1344000000000,"state":"active","ping":105},{"user_id":1023,"name":"The Don","steam_id":76561198322125657,"connected_time":109000000000,"state":"active","ping":52},{"user_id":1014,"name":"Mocha Josie","steam_id":76561198066452726,"connected_time":715000000000,"state":"active","ping":61},{"user_id":1000,"name":"Cheezbeargur","steam_id":76561198164702899,"connected_time":2382000000000,"state":"active","ping":69},{"user_id":988,"name":"bocchi the shlock (real)","steam_id":76561198844648825,"connected_time":3305000000000,"state":"active","ping":48},{"user_id":1010,"name":"Noah1k","steam_id":76561199428633514,"connected_time":1176000000000,"state":"active","ping":76},{"user_id":940,"name":"waggyaggy","steam_id":76561197998241407,"connected_time":7402000000000,"state":"active","ping":75},{"user_id":1024,"name":"darren","steam_id":76561199050155136,"connected_time":104000000000,"state":"active","ping":69},{"user_id":1017,"name":"Hog Rider","steam_id":76561198275999294,"connected_time":443000000000,"state":"active","ping":50},{"user_id":1008,"name":"Melly","steam_id":76561198045867175,"connected_time":1874000000000,"state":"active","ping":60},{"user_id":996,"name":"trackpad gaming | f2p","steam_id":76561198840414371,"connected_time":2753000000000,"state":"active","ping":52},{"user_id":995,"name":"Daz","steam_id":76561198041431938,"connected_time":2892000000000,"state":"active","ping":48},{"user_id":947,"name":"Nom Skirrett","steam_id":76561198014600788,"connected_time":7033000000000,"state":"active","ping":64},{"user_id":987,"name":"Branta","steam_id":76561199103842843,"connected_time":3520000000000,"state":"active","ping":43},{"user_id":966,"name":"HopeTheNeko","steam_id":76561199159285465,"connected_time":5346000000000,"state":"active","ping":76},{"user_id":1013,"name":"Arkell","steam_id":76561198135884882,"connected_time":1000000000000,"state":"active","ping":45},{"user_id":1007,"name":"thats crazy","steam_id":76561198095480838,"connected_time":1917000000000,"state":"active","ping":45},{"user_id":960,"name":"[TrC] Nosy","steam_id":76561197978859310,"connected_time":5476000000000,"state":"active","ping":55},{"user_id":963,"name":"[TrC] Dackstrus","steam_id":76561197973518509,"connected_time":5368000000000,"state":"active","ping":56}]},{"server_id":119,"name":"Uncletopia | Seattle | 2 | All Maps","name_short":"sea-2","host":"sea-1.us.uncletopia.com","port":27025,"enabled":true,"region":"us-west","cc":"us","latitude":47.608013,"longitude":-122.33517,"reserved":0,"last_update":"0001-01-01T00:00:00Z","name_a2s":"Uncletopia | Seattle | 2 | All Maps","protocol":17,"map":"pl_upward","folder":"tf","game":"Team Fortress","app_id":440,"player_count":24,"max_players":24,"Bots":0,"server_type":"Dedicated","server_os":"Linux","password":true,"vac":true,"version":"7961495","steam_id":85568392924469998,"keywords":["nocrits","nodmgspread","payload","uncletopia"],"game_id":440,"stv_port":27026,"stv_name":"Uncletopia | Seattle | 2 | All Maps | STV","players":[{"user_id":293,"name":"And The Radio Up","steam_id":76561198405865400,"connected_time":1498000000000,"state":"active","ping":88},{"user_id":301,"name":"NOT FRIENDLY","steam_id":76561198041327231,"connected_time":676000000000,"state":"active","ping":45},{"user_id":309,"name":"cuckboi","steam_id":76561198343060961,"connected_time":109000000000,"state":"active","ping":50},{"user_id":289,"name":"Templar Senpai","steam_id":76561198105659850,"connected_time":1867000000000,"state":"active","ping":45},{"user_id":273,"name":"S Q U I S H E  T H A T  C A T","steam_id":76561198293865429,"connected_time":2551000000000,"state":"active","ping":44},{"user_id":290,"name":"Sefren","steam_id":76561198007657340,"connected_time":1670000000000,"state":"active","ping":46},{"user_id":306,"name":"Sparite","steam_id":76561198288743767,"connected_time":299000000000,"state":"active","ping":76},{"user_id":275,"name":"Breast Expansion Bertha","steam_id":76561198225766444,"connected_time":2503000000000,"state":"active","ping":52},{"user_id":303,"name":"Persona404","steam_id":76561198109635077,"connected_time":467000000000,"state":"active","ping":161},{"user_id":282,"name":"GaningHero","steam_id":76561198449957141,"connected_time":2309000000000,"state":"active","ping":58},{"user_id":286,"name":"Hawksgamer","steam_id":76561198152405941,"connected_time":2064000000000,"state":"active","ping":68},{"user_id":297,"name":"THAT CAT","steam_id":76561198010828625,"connected_time":887000000000,"state":"active","ping":44},{"user_id":295,"name":"banjobun","steam_id":76561198116814525,"connected_time":1209000000000,"state":"active","ping":48},{"user_id":305,"name":"Admiral Angry","steam_id":76561198058199206,"connected_time":412000000000,"state":"active","ping":109},{"user_id":307,"name":"Rich Homie Rob","steam_id":76561198046570914,"connected_time":244000000000,"state":"active","ping":73},{"user_id":288,"name":"Facepalm","steam_id":76561198001935226,"connected_time":1974000000000,"state":"active","ping":61},{"user_id":283,"name":"Keamy","steam_id":76561199471434875,"connected_time":2287000000000,"state":"active","ping":46},{"user_id":274,"name":"vacachimuela","steam_id":76561198297332421,"connected_time":2546000000000,"state":"active","ping":59},{"user_id":271,"name":"Yhimir","steam_id":76561198973439216,"connected_time":2817000000000,"state":"active","ping":90},{"user_id":300,"name":"Who","steam_id":76561198013049671,"connected_time":781000000000,"state":"active","ping":75},{"user_id":296,"name":"moonboy","steam_id":76561198172113657,"connected_time":1171000000000,"state":"active","ping":129},{"user_id":310,"name":"Aglovail","steam_id":76561198276988844,"connected_time":89000000000,"state":"active","ping":58},{"user_id":304,"name":"dougrocks421","steam_id":76561198165063918,"connected_time":467000000000,"state":"active","ping":39},{"user_id":259,"name":"Mr8bittripper","steam_id":76561198133894229,"connected_time":4017000000000,"state":"active","ping":38}]},{"server_id":406,"name":"Uncletopia | Seattle | 3 | Stopwatch","name_short":"sea-3","host":"sea-1.us.uncletopia.com","port":27035,"enabled":true,"region":"us-west","cc":"us","latitude":47.608013,"longitude":-122.33517,"reserved":0,"last_update":"0001-01-01T00:00:00Z","name_a2s":"Uncletopia | Seattle | 3 | Stopwatch","protocol":17,"map":"cp_gullywash_final1","folder":"tf","game":"Team Fortress","app_id":440,"player_count":0,"max_players":24,"Bots":0,"server_type":"Dedicated","server_os":"Linux","password":true,"vac":true,"version":"7961495","steam_id":85568392924515217,"keywords":["cp","nocrits","nodmgspread","uncletopia"],"game_id":440,"stv_port":27036,"stv_name":"Uncletopia | Seattle | 3 | Stopwatch | STV","players":null},{"server_id":17,"name":"Uncletopia | San Francisco | 1 | All Maps","name_short":"sfo-1","host":"sfo-1.us.uncletopia.com","port":27015,"enabled":true,"region":"us-west","cc":"us","latitude":37.77397,"longitude":-122.4313,"reserved":0,"last_update":"0001-01-01T00:00:00Z","name_a2s":"Uncletopia | San Francisco | 1 | All Maps","protocol":17,"map":"pl_pier","folder":"tf","game":"Team Fortress","app_id":440,"player_count":22,"max_players":24,"Bots":0,"server_type":"Dedicated","server_os":"Linux","password":true,"vac":true,"version":"7961495","steam_id":85568392924469999,"keywords":["nocrits","nodmgspread","payload","uncletopia"],"game_id":440,"stv_port":27016,"stv_name":"Uncletopia | San Francisco | 1 | All Maps | STV","players":[{"user_id":304,"name":"rach9411","steam_id":76561198256535721,"connected_time":422000000000,"state":"active","ping":171},{"user_id":309,"name":"Dr. Bubs","steam_id":76561198011696595,"connected_time":120000000000,"state":"active","ping":54},{"user_id":303,"name":"Poladroid","steam_id":76561198032005291,"connected_time":423000000000,"state":"active","ping":70},{"user_id":310,"name":"PTR","steam_id":76561198237253772,"connected_time":72000000000,"state":"active","ping":87},{"user_id":289,"name":"Orange Mann Bad","steam_id":76561198021126964,"connected_time":2045000000000,"state":"active","ping":67},{"user_id":306,"name":"Always Here for You","steam_id":76561198219252313,"connected_time":382000000000,"state":"active","ping":116},{"user_id":288,"name":"Addy \u003c3","steam_id":76561198045819723,"connected_time":2058000000000,"state":"active","ping":114},{"user_id":274,"name":"The Wind Fucker Lives","steam_id":76561198275362375,"connected_time":3987000000000,"state":"active","ping":47},{"user_id":290,"name":"Gawin Goodman","steam_id":76561198192661585,"connected_time":2020000000000,"state":"active","ping":64},{"user_id":298,"name":"Cave Dweller","steam_id":76561198374825685,"connected_time":1421000000000,"state":"active","ping":58},{"user_id":307,"name":"KaosInfinite","steam_id":76561198009126350,"connected_time":343000000000,"state":"active","ping":58},{"user_id":302,"name":"The Fairy Love Sniper","steam_id":76561198049358645,"connected_time":434000000000,"state":"active","ping":101},{"user_id":308,"name":"nerf me","steam_id":76561198310495200,"connected_time":261000000000,"state":"active","ping":110},{"user_id":238,"name":"just took estrogen ama :3","steam_id":76561198039225492,"connected_time":6619000000000,"state":"active","ping":50},{"user_id":311,"name":"LuckyTF2","steam_id":76561199108883530,"connected_time":63000000000,"state":"active","ping":54},{"user_id":286,"name":"Seshreb","steam_id":76561198846614634,"connected_time":2535000000000,"state":"active","ping":67},{"user_id":312,"name":"1000 Ping","steam_id":76561198098330939,"connected_time":23000000000,"state":"spawning","ping":63},{"user_id":313,"name":"find lofi","steam_id":76561199134462656,"connected_time":18000000000,"state":"spawning","ping":45},{"user_id":301,"name":"5oc","steam_id":76561199196300397,"connected_time":484000000000,"state":"active","ping":70},{"user_id":241,"name":"estrogen in my vape juice","steam_id":76561198068387373,"connected_time":6576000000000,"state":"active","ping":60},{"user_id":291,"name":"Cypress [ +/- ] ✔","steam_id":76561198067164431,"connected_time":2014000000000,"state":"active","ping":49},{"user_id":292,"name":"Quigi","steam_id":76561198144645874,"connected_time":1994000000000,"state":"active","ping":71}]},{"server_id":18,"name":"Uncletopia | San Francisco | 2 | All Maps","name_short":"sfo-2","host":"sfo-1.us.uncletopia.com","port":27025,"enabled":true,"region":"us-west","cc":"us","latitude":37.77397,"longitude":-122.4313,"reserved":0,"last_update":"0001-01-01T00:00:00Z","name_a2s":"Uncletopia | San Francisco | 2 | All Maps","protocol":17,"map":"pl_badwater","folder":"tf","game":"Team Fortress","app_id":440,"player_count":0,"max_players":24,"Bots":0,"server_type":"Dedicated","server_os":"Linux","password":true,"vac":true,"version":"7961495","steam_id":85568392924470000,"keywords":["nocrits","nodmgspread","payload","uncletopia"],"game_id":440,"stv_port":27026,"stv_name":"Uncletopia | San Francisco | 2 | All Maps | STV","players":null},{"server_id":19,"name":"Uncletopia | San Francisco | 3 | Stopwatch","name_short":"sfo-3","host":"sfo-1.us.uncletopia.com","port":27035,"enabled":true,"region":"us-west","cc":"us","latitude":37.77397,"longitude":-122.4313,"reserved":0,"last_update":"0001-01-01T00:00:00Z","name_a2s":"Uncletopia | San Francisco | 3 | Stopwatch","protocol":17,"map":"workshop/koth_ashville_final.ugc2130459942","folder":"tf","game":"Team Fortress","app_id":440,"player_count":0,"max_players":24,"Bots":0,"server_type":"Dedicated","server_os":"Linux","password":true,"vac":true,"version":"7961495","steam_id":85568392924742824,"keywords":["cp","nocrits","nodmgspread","uncletopia"],"game_id":440,"stv_port":27036,"stv_name":"Uncletopia | San Francisco | 3 | Stopwatch | STV","players":null},{"server_id":20,"name":"Uncletopia | San Francisco | 4 | Community","name_short":"sfo-4","host":"sfo-1.us.uncletopia.com","port":27045,"enabled":true,"region":"us-west","cc":"us","latitude":37.77397,"longitude":-122.4313,"reserved":0,"last_update":"0001-01-01T00:00:00Z","name_a2s":"Uncletopia | San Francisco | 4 | Community","protocol":17,"map":"workshop/koth_bagel_rc6.ugc2514036946","folder":"tf","game":"Team Fortress","app_id":440,"player_count":0,"max_players":24,"Bots":0,"server_type":"Dedicated","server_os":"Linux","password":true,"vac":true,"version":"7961495","steam_id":85568392924742826,"keywords":["cp","nocrits","nodmgspread","uncletopia"],"game_id":440,"stv_port":27046,"stv_name":"Uncletopia | San Francisco | 4 | Community | STV","players":null},{"server_id":141,"name":"Uncletopia | Sydney | 1 | All Maps","name_short":"syd-1","host":"syd-1.au.uncletopia.com","port":27015,"enabled":true,"region":"au","cc":"au","latitude":-33.865143,"longitude":151.2099,"reserved":0,"last_update":"0001-01-01T00:00:00Z","name_a2s":"Uncletopia | Sydney | 1 | All Maps","protocol":17,"map":"koth_lakeside_final","folder":"tf","game":"Team Fortress","app_id":440,"player_count":4,"max_players":24,"Bots":0,"server_type":"Dedicated","server_os":"Linux","password":true,"vac":true,"version":"7961495","steam_id":85568392924470001,"keywords":["cp","nocrits","nodmgspread","uncletopia"],"game_id":440,"stv_port":27016,"stv_name":"Uncletopia | Sydney | 1 | All Maps | STV","players":[{"user_id":6,"name":"JP","steam_id":76561198026221737,"connected_time":3227000000000,"state":"active","ping":45},{"user_id":19,"name":"Crucial","steam_id":76561198992582454,"connected_time":364000000000,"state":"active","ping":46},{"user_id":21,"name":"yumps","steam_id":76561198009311069,"connected_time":123000000000,"state":"active","ping":61},{"user_id":17,"name":"P. Ness (Length/Girth)","steam_id":76561198037664265,"connected_time":892000000000,"state":"active","ping":53}]},{"server_id":123,"name":"Uncletopia | Sydney | 2 | All Maps","name_short":"syd-2","host":"syd-1.au.uncletopia.com","port":27025,"enabled":true,"region":"au","cc":"au","latitude":-33.865143,"longitude":151.2099,"reserved":0,"last_update":"0001-01-01T00:00:00Z","name_a2s":"Uncletopia | Sydney | 2 | All Maps","protocol":17,"map":"koth_lakeside_final","folder":"tf","game":"Team Fortress","app_id":440,"player_count":0,"max_players":24,"Bots":0,"server_type":"Dedicated","server_os":"Linux","password":true,"vac":true,"version":"7961495","steam_id":85568392924470002,"keywords":["cp","nocrits","nodmgspread","uncletopia"],"game_id":440,"stv_port":27026,"stv_name":"Uncletopia | Sydney | 2 | All Maps | STV","players":null},{"server_id":395,"name":"Uncletopia | Sydney | 3 | All Maps","name_short":"syd-3","host":"syd-1.au.uncletopia.com","port":27035,"enabled":true,"region":"au","cc":"au","latitude":-33.865143,"longitude":151.2099,"reserved":0,"last_update":"0001-01-01T00:00:00Z","name_a2s":"Uncletopia | Sydney | 3 | All Maps","protocol":17,"map":"pl_frontier_final","folder":"tf","game":"Team Fortress","app_id":440,"player_count":0,"max_players":24,"Bots":0,"server_type":"Dedicated","server_os":"Linux","password":true,"vac":true,"version":"7961495","steam_id":85568392925194467,"keywords":["nocrits","nodmgspread","payload","uncletopia"],"game_id":440,"stv_port":27036,"stv_name":"Uncletopia | Sydney | 3 | All Maps | STV","players":null},{"server_id":396,"name":"Uncletopia | Sydney | 4 | All Maps","name_short":"syd-4","host":"syd-1.au.uncletopia.com","port":27045,"enabled":true,"region":"au","cc":"au","latitude":-33.865143,"longitude":151.2099,"reserved":0,"last_update":"0001-01-01T00:00:00Z","name_a2s":"Uncletopia | Sydney | 4 | All Maps","protocol":17,"map":"cp_mountainlab","folder":"tf","game":"Team Fortress","app_id":440,"player_count":0,"max_players":24,"Bots":0,"server_type":"Dedicated","server_os":"Linux","password":true,"vac":true,"version":"7961495","steam_id":85568392925397958,"keywords":["cp","nocrits","nodmgspread","uncletopia"],"game_id":440,"stv_port":27046,"stv_name":"Uncletopia | Sydney | 4 | All Maps | STV","players":null},{"server_id":58,"name":"Uncletopia | Sydney | 5 | Stopwatch","name_short":"syd-5","host":"syd-1.au.uncletopia.com","port":27055,"enabled":true,"region":"au","cc":"au","latitude":-33.865143,"longitude":151.2099,"reserved":0,"last_update":"0001-01-01T00:00:00Z","name_a2s":"Uncletopia | Sydney | 5 | Stopwatch","protocol":17,"map":"cp_metalworks","folder":"tf","game":"Team Fortress","app_id":440,"player_count":0,"max_players":24,"Bots":0,"server_type":"Dedicated","server_os":"Linux","password":true,"vac":true,"version":"7961495","steam_id":85568392925397959,"keywords":["cp","nocrits","nodmgspread","uncletopia"],"game_id":440,"stv_port":27056,"stv_name":"Uncletopia | Sydney | 5 | Stopwatch | STV","players":null},{"server_id":59,"name":"Uncletopia | Sydney | 6 | Community","name_short":"syd-6","host":"syd-1.au.uncletopia.com","port":27065,"enabled":true,"region":"au","cc":"au","latitude":-33.865143,"longitude":151.2099,"reserved":0,"last_update":"0001-01-01T00:00:00Z","name_a2s":"Uncletopia | Sydney | 6 | Community","protocol":17,"map":"cp_sunshine","folder":"tf","game":"Team Fortress","app_id":440,"player_count":0,"max_players":24,"Bots":0,"server_type":"Dedicated","server_os":"Linux","password":true,"vac":true,"version":"7961495","steam_id":85568392925397960,"keywords":["cp","nocrits","nodmgspread","uncletopia"],"game_id":440,"stv_port":27066,"stv_name":"Uncletopia | Sydney | 6 | Community | STV","players":null},{"server_id":49,"name":"Uncletopia | Warsaw | 1 | One Thousand Uncles","name_short":"waw-1","host":"waw-1.pl.uncletopia.com","port":27015,"enabled":true,"region":"eu","cc":"pl","latitude":52.2297,"longitude":21.017532,"reserved":0,"last_update":"0001-01-01T00:00:00Z","name_a2s":"Uncletopia | Warsaw | 1 | One Thousand Uncles","protocol":17,"map":"cp_altitude","folder":"tf","game":"Team Fortress","app_id":440,"player_count":18,"max_players":32,"Bots":16,"server_type":"Dedicated","server_os":"Linux","password":true,"vac":true,"version":"7961495","steam_id":85568392925397850,"keywords":["alltalk","bots","cp","danepve","increased_maxplayers","nocrits","norespawntime","uncletopia"],"game_id":440,"stv_port":0,"stv_name":"","players":[{"user_id":86,"name":"mrthugpug1732","steam_id":76561198881200768,"connected_time":18000000000,"state":"active","ping":201},{"user_id":65,"name":"freggy2024","steam_id":76561199012231884,"connected_time":1216000000000,"state":"active","ping":76}]},{"server_id":50,"name":"Uncletopia | Warsaw | 2 | One Thousand Uncles","name_short":"waw-2","host":"waw-1.pl.uncletopia.com","port":27025,"enabled":true,"region":"eu","cc":"pl","latitude":52.2297,"longitude":21.017532,"reserved":0,"last_update":"0001-01-01T00:00:00Z","name_a2s":"Uncletopia | Warsaw | 2 | One Thousand Uncles","protocol":17,"map":"pl_goldrush","folder":"tf","game":"Team Fortress","app_id":440,"player_count":0,"max_players":32,"Bots":0,"server_type":"Dedicated","server_os":"Linux","password":true,"vac":true,"version":"7961495","steam_id":85568392925397851,"keywords":["alltalk","danepve","increased_maxplayers","nocrits","norespawntime","payload","uncletopia"],"game_id":440,"stv_port":0,"stv_name":"","players":null},{"server_id":51,"name":"Uncletopia | Warsaw | 3 | All Maps","name_short":"waw-3","host":"waw-1.pl.uncletopia.com","port":27035,"enabled":true,"region":"eu","cc":"pl","latitude":52.2297,"longitude":21.017532,"reserved":0,"last_update":"0001-01-01T00:00:00Z","name_a2s":"Uncletopia | Warsaw | 3 | All Maps","protocol":17,"map":"plr_pipeline","folder":"tf","game":"Team Fortress","app_id":440,"player_count":0,"max_players":24,"Bots":0,"server_type":"Dedicated","server_os":"Linux","password":true,"vac":true,"version":"7961495","steam_id":85568392925397852,"keywords":["nocrits","nodmgspread","payload","uncletopia"],"game_id":440,"stv_port":27036,"stv_name":"Uncletopia | Warsaw | 3 | All Maps | STV","players":null},{"server_id":52,"name":"Uncletopia | Warsaw | 4 | All Maps","name_short":"waw-4","host":"waw-1.pl.uncletopia.com","port":27045,"enabled":true,"region":"eu","cc":"pl","latitude":52.2297,"longitude":21.017532,"reserved":0,"last_update":"0001-01-01T00:00:00Z","name_a2s":"Uncletopia | Warsaw | 4 | All Maps","protocol":17,"map":"cp_coldfront","folder":"tf","game":"Team Fortress","app_id":440,"player_count":0,"max_players":24,"Bots":0,"server_type":"Dedicated","server_os":"Linux","password":true,"vac":true,"version":"7961495","steam_id":85568392925397853,"keywords":["cp","nocrits","nodmgspread","uncletopia"],"game_id":440,"stv_port":27046,"stv_name":"Uncletopia | Warsaw | 4 | All Maps | STV","players":null},{"server_id":53,"name":"Uncletopia | Warsaw | 5 | Stopwatch","name_short":"waw-5","host":"waw-1.pl.uncletopia.com","port":27055,"enabled":true,"region":"eu","cc":"pl","latitude":52.2297,"longitude":21.017532,"reserved":0,"last_update":"0001-01-01T00:00:00Z","name_a2s":"Uncletopia | Warsaw | 5 | Stopwatch","protocol":17,"map":"workshop/koth_bagel_rc6.ugc2514036946","folder":"tf","game":"Team Fortress","app_id":440,"player_count":0,"max_players":24,"Bots":0,"server_type":"Dedicated","server_os":"Linux","password":true,"vac":true,"version":"7961495","steam_id":85568392925397854,"keywords":["cp","nocrits","nodmgspread","uncletopia"],"game_id":440,"stv_port":27056,"stv_name":"Uncletopia | Warsaw | 5 | Stopwatch | STV","players":null},{"server_id":54,"name":"Uncletopia | Warsaw | 6 | Community","name_short":"waw-6","host":"waw-1.pl.uncletopia.com","port":27065,"enabled":true,"region":"eu","cc":"pl","latitude":52.2297,"longitude":21.017532,"reserved":0,"last_update":"0001-01-01T00:00:00Z","name_a2s":"Uncletopia | Warsaw | 6 | Community","protocol":17,"map":"workshop/pl_badwater_pro_v12.ugc2142942074","folder":"tf","game":"Team Fortress","app_id":440,"player_count":0,"max_players":24,"Bots":0,"server_type":"Dedicated","server_os":"Linux","password":true,"vac":true,"version":"7961495","steam_id":85568392925397856,"keywords":["nocrits","nodmgspread","payload","uncletopia"],"game_id":440,"stv_port":27066,"stv_name":"Uncletopia | Warsaw | 6 | Community | STV","players":null}]}