{"status":true,"message":"","result":[{"server_id":2,"name":"Uncletopia | Chicago | 1 | All Maps","name_short":"chi-1","host":"chi-1.us.uncletopia.com","port":27015,"enabled":true,"region":"us-central","cc":"us","latitude":41.881832,"longitude":-87.62318,"reserved":0,"last_update":"0001-01-01T00:00:00Z","name_a2s":"Uncletopia | Chicago | 1 | All Maps","protocol":17,"map":"koth_nucleus","folder":"tf","game":"Team Fortress","app_id":440,"player_count":24,"max_players":24,"Bots":0,"server_type":"Dedicated","server_os":"Linux","password":true,"vac":true,"version":"7932396","steam_id":85568392924469984,"keywords":["cp","nocrits","nodmgspread","uncletopia"],"game_id":440,"stv_port":27016,"stv_name":"Uncletopia | Chicago | 1 | All Maps | STV","players":[{"user_id":122,"name":"Sunflower","steam_id":76561198081223793,"connected_time":3094000000000,"state":"active","ping":56},{"user_id":114,"name":"mikey","steam_id":76561198095803763,"connected_time":3997000000000,"state":"active","ping":86},{"user_id":120,"name":"William Wallace","steam_id":76561199343316814,"connected_time":3451000000000,"state":"active","ping":73},{"user_id":116,"name":"Crispy","steam_id":76561198037481161,"connected_time":3663000000000,"state":"active","ping":72},{"user_id":126,"name":"God's Sleepiest Puppy Girl","steam_id":76561198070315609,"connected_time":1996000000000,"state":"active","ping":60},{"user_id":145,"name":"Im High","steam_id":76561198049954886,"connected_time":86000000000,"state":"active","ping":67},{"user_id":139,"name":"NeonVibe","steam_id":76561198084758707,"connected_time":665000000000,"state":"active","ping":69},{"user_id":71,"name":"Asmodeus","steam_id":76561198072923642,"connected_time":7262000000000,"state":"active","ping":76},{"user_id":140,"name":"DSM-IVCE","steam_id":76561199438515797,"connected_time":393000000000,"state":"active","ping":133},{"user_id":94,"name":"B.","steam_id":76561198040445907,"connected_time":5801000000000,"state":"active","ping":72},{"user_id":125,"name":"ALBINO LESBIAN MIDGET","steam_id":76561198122691714,"connected_time":2648000000000,"state":"active","ping":79},{"user_id":117,"name":"Sputnix","steam_id":76561198236857310,"connected_time":3480000000000,"state":"active","ping":50},{"user_id":65,"name":"Earl S","steam_id":76561198064273772,"connected_time":7420000000000,"state":"active","ping":76},{"user_id":100,"name":"JokLit","steam_id":76561198117542242,"connected_time":5360000000000,"state":"active","ping":193},{"user_id":121,"name":"Yummy Kabobz","steam_id":76561198067661705,"connected_time":3376000000000,"state":"active","ping":63},{"user_id":143,"name":"Girl gamer","steam_id":76561198237827742,"connected_time":270000000000,"state":"active","ping":148},{"user_id":90,"name":"TheGreatDong","steam_id":76561198000634178,"connected_time":6034000000000,"state":"active","ping":90},{"user_id":129,"name":"cow inspector","steam_id":76561198309823950,"connected_time":1763000000000,"state":"active","ping":83},{"user_id":127,"name":"Heat My Justice","steam_id":76561197995252750,"connected_time":1959000000000,"state":"active","ping":92},{"user_id":144,"name":"Epifiny","steam_id":76561198027958086,"connected_time":270000000000,"state":"active","ping":65},{"user_id":130,"name":"PocketTieAMPLFY","steam_id":76561199080485881,"connected_time":1557000000000,"state":"active","ping":112},{"user_id":132,"name":"MikeLovesRabbit","steam_id":76561197997742625,"connected_time":1202000000000,"state":"active","ping":68},{"user_id":53,"name":"Viren","steam_id":76561198012636897,"connected_time":8052000000000,"state":"active","ping":63},{"user_id":138,"name":"Enki","steam_id":76561198329104604,"connected_time":748000000000,"state":"active","ping":75}]},{"server_id":106,"name":"Uncletopia | Chicago | 2 | All Maps","name_short":"chi-2","host":"chi-1.us.uncletopia.com","port":27025,"enabled":true,"region":"us-central","cc":"us","latitude":41.881832,"longitude":-87.62318,"reserved":0,"last_update":"0001-01-01T00:00:00Z","name_a2s":"Uncletopia | Chicago | 2 | All Maps","protocol":17,"map":"koth_lakeside_final","folder":"tf","game":"Team Fortress","app_id":440,"player_count":0,"max_players":24,"Bots":0,"server_type":"Dedicated","server_os":"Linux","password":true,"vac":true,"version":"7932396","steam_id":85568392924469985,"keywords":["cp","nocrits","nodmgspread","uncletopia"],"game_id":440,"stv_port":27026,"stv_name":"Uncletopia | Chicago | 2 | All Maps | STV","players":null},{"server_id":402,"name":"Uncletopia | Chicago | 3 | All Maps","name_short":"chi-3","host":"chi-1.us.uncletopia.com","port":27035,"enabled":true,"region":"us-central","cc":"us","latitude":41.881832,"longitude":-87.62318,"reserved":0,"last_update":"0001-01-01T00:00:00Z","name_a2s":"Uncletopia | Chicago | 3 | All Maps","protocol":17,"map":"pl_pier","folder":"tf","game":"Team Fortress","app_id":440,"player_count":0,"max_players":24,"Bots":0,"server_type":"Dedicated","server_os":"Linux","password":true,"vac":true,"version":"7932396","steam_id":85568392924515191,"keywords":["nocrits","nodmgspread","payload","uncletopia"],"game_id":440,"stv_port":27036,"stv_name":"Uncletopia | Chicago | 3 | All Maps | STV","players":null},{"server_id":403,"name":"Uncletopia | Chicago | 4 | All Maps","name_short":"chi-4","host":"chi-1.us.uncletopia.com","port":27045,"enabled":true,"region":"us-central","cc":"us","latitude":41.881832,"longitude":-87.62318,"reserved":0,"last_update":"0001-01-01T00:00:00Z","name_a2s":"Uncletopia | Chicago | 4 | All Maps","protocol":17,"map":"cp_process_final","folder":"tf","game":"Team Fortress","app_id":440,"player_count":0,"max_players":24,"Bots":0,"server_type":"Dedicated","server_os":"Linux","password":true,"vac":true,"version":"7932396","steam_id":85568392924515193,"keywords":["cp","nocrits","nodmgspread","uncletopia"],"game_id":440,"stv_port":27046,"stv_name":"Uncletopia | Chicago | 4 | All Maps | STV","players":null},{"server_id":36,"name":"Uncletopia | Chicago | 5 | All Maps","name_short":"chi-5","host":"chi-2.us.uncletopia.com","port":27015,"enabled":true,"region":"us-central","cc":"us","latitude":41.881832,"longitude":-87.62318,"reserved":0,"last_update":"0001-01-01T00:00:00Z","name_a2s":"Uncletopia | Chicago | 5 | All Maps","protocol":17,"map":"pl_snowycoast","folder":"tf","game":"Team Fortress","app_id":440,"player_count":0,"max_players":24,"Bots":0,"server_type":"Dedicated","server_os":"Linux","password":true,"vac":true,"version":"7932396","steam_id":85568392924866362,"keywords":["nocrits","nodmgspread","payload","uncletopia"],"game_id":440,"stv_port":27016,"stv_name":"Uncletopia | Chicago | 5 | All Maps | STV","players":null},{"server_id":37,"name":"Uncletopia | Chicago | 6 | All Maps","name_short":"chi-6","host":"chi-2.us.uncletopia.com","port":27025,"enabled":true,"region":"us-central","cc":"us","latitude":41.881832,"longitude":-87.62318,"reserved":0,"last_update":"0001-01-01T00:00:00Z","name_a2s":"Uncletopia | Chicago | 6 | All Maps","protocol":17,"map":"koth_viaduct","folder":"tf","game":"Team Fortress","app_id":440,"player_count":0,"max_players":24,"Bots":0,"server_type":"Dedicated","server_os":"Linux","password":true,"vac":true,"version":"7932396","steam_id":85568392924866363,"keywords":["cp","nocrits","nodmgspread","uncletopia"],"game_id":440,"stv_port":27026,"stv_name":"Uncletopia | Chicago | 6 | All Maps | STV","players":null},{"server_id":38,"name":"Uncletopia | Chicago | 7 | Stopwatch Beta","name_short":"chi-7","host":"chi-2.us.uncletopia.com","port":27035,"enabled":true,"region":"us-central","cc":"us","latitude":41.881832,"longitude":-87.62318,"reserved":0,"last_update":"0001-01-01T00:00:00Z","name_a2s":"Uncletopia | Chicago | 7 | Stopwatch Beta","protocol":17,"map":"pl_borneo","folder":"tf","game":"Team Fortress","app_id":440,"player_count":0,"max_players":24,"Bots":0,"server_type":"Dedicated","server_os":"Linux","password":true,"vac":true,"version":"7932396","steam_id":85568392924866364,"keywords":["nocrits","nodmgspread","payload","uncletopia"],"game_id":440,"stv_port":27036,"stv_name":"Uncletopia | Chicago | 7 | Stopwatch Beta | STV","players":null},{"server_id":39,"name":"Uncletopia | Chicago | 8 | Community","name_short":"chi-8","host":"chi-2.us.uncletopia.com","port":27045,"enabled":true,"region":"us-central","cc":"us","latitude":41.881832,"longitude":-87.62318,"reserved":0,"last_update":"0001-01-01T00:00:00Z","name_a2s":"Uncletopia | Chicago | 8 | Community","protocol":17,"map":"koth_viaduct","folder":"tf","game":"Team Fortress","app_id":440,"player_count":0,"max_players":24,"Bots":0,"server_type":"Dedicated","server_os":"Linux","password":true,"vac":true,"version":"7932396","steam_id":85568392924866365,"keywords":["cp","nocrits","nodmgspread","uncletopia"],"game_id":440,"stv_port":27046,"stv_name":"Uncletopia | Chicago | 8 | Community | STV","players":null},{"server_id":8,"name":"Uncletopia | Dallas | 1 | All Maps","name_short":"dal-1","host":"dal-1.us.uncletopia.com","port":27015,"enabled":true,"region":"us-central","cc":"us","latitude":32.779167,"longitude":-96.80889,"reserved":0,"last_update":"0001-01-01T00:00:00Z","name_a2s":"Uncletopia | Dallas | 1 | All Maps","protocol":17,"map":"pl_frontier_final","folder":"tf","game":"Team Fortress","app_id":440,"player_count":0,"max_players":24,"Bots":0,"server_type":"Dedicated","server_os":"Linux","password":true,"vac":true,"version":"7932396","steam_id":85568392924469986,"keywords":["nocrits","nodmgspread","payload","uncletopia"],"game_id":440,"stv_port":27016,"stv_name":"Uncletopia | Dallas | 1 | All Maps | STV","players":null},{"server_id":108,"name":"Uncletopia | Dallas | 2 | All Maps","name_short":"dal-2","host":"dal-1.us.uncletopia.com","port":27025,"enabled":true,"region":"us-central","cc":"us","latitude":32.779167,"longitude":-96.80889,"reserved":0,"last_update":"0001-01-01T00:00:00Z","name_a2s":"Uncletopia | Dallas | 2 | All Maps","protocol":17,"map":"pl_badwater","folder":"tf","game":"Team Fortress","app_id":440,"player_count":0,"max_players":24,"Bots":0,"server_type":"Dedicated","server_os":"Linux","password":true,"vac":true,"version":"7932396","steam_id":85568392924469988,"keywords":["nocrits","nodmgspread","payload","uncletopia"],"game_id":440,"stv_port":27026,"stv_name":"Uncletopia | Dallas | 2 | All Maps | STV","players":null},{"server_id":5,"name":"Uncletopia | Frankfurt | 1 | All Maps","name_short":"frk-1","host":"frk-1.de.uncletopia.com","port":27015,"enabled":true,"region":"eu","cc":"de","latitude":50.110924,"longitude":8.682127,"reserved":0,"last_update":"0001-01-01T00:00:00Z","name_a2s":"Uncletopia | Frankfurt | 1 | All Maps","protocol":17,"map":"koth_viaduct","folder":"tf","game":"Team Fortress","app_id":440,"player_count":24,"max_players":24,"Bots":0,"server_type":"Dedicated","server_os":"Linux","password":true,"vac":true,"version":"7932396","steam_id":85568392924469989,"keywords":["cp","nocrits","nodmgspread","uncletopia"],"game_id":440,"stv_port":27016,"stv_name":"Uncletopia | Frankfurt | 1 | All Maps | STV","players":[{"user_id":71,"name":"Vlandemart","steam_id":76561198041758135,"connected_time":5507000000000,"state":"active","ping":79},{"user_id":120,"name":"Urfangonultasadana","steam_id":76561199389286151,"connected_time":405000000000,"state":"active","ping":96},{"user_id":97,"name":"Sold your kid for a perc 64","steam_id":76561198823497252,"connected_time":2512000000000,"state":"active","ping":50},{"user_id":20,"name":"Kron Krian","steam_id":76561198122541754,"connected_time":7416000000000,"state":"active","ping":61},{"user_id":112,"name":"pavlik rohlik","steam_id":76561198110544279,"connected_time":1284000000000,"state":"active","ping":44},{"user_id":85,"name":"nevim","steam_id":76561199120843402,"connected_time":3935000000000,"state":"active","ping":54},{"user_id":114,"name":"Pils","steam_id":76561198238295796,"connected_time":1022000000000,"state":"active","ping":135},{"user_id":115,"name":"Julmuri","steam_id":76561198284843949,"connected_time":976000000000,"state":"active","ping":95},{"user_id":65,"name":"Ennard777","steam_id":76561198965409493,"connected_time":5909000000000,"state":"active","ping":105},{"user_id":73,"name":"TF2","steam_id":76561198256328990,"connected_time":5351000000000,"state":"active","ping":84},{"user_id":92,"name":"Alekk","steam_id":76561198093533143,"connected_time":3514000000000,"state":"active","ping":75},{"user_id":118,"name":"Teathling.ttv","steam_id":76561198061580505,"connected_time":539000000000,"state":"active","ping":59},{"user_id":108,"name":"Enkloth!","steam_id":76561198115106008,"connected_time":1504000000000,"state":"active","ping":54},{"user_id":111,"name":"Der Geist des Hans Rosling","steam_id":76561198049231109,"connected_time":1313000000000,"state":"active","ping":58},{"user_id":119,"name":"Chen","steam_id":76561198440363619,"connected_time":533000000000,"state":"active","ping":50},{"user_id":106,"name":"tunamayo","steam_id":76561198127099299,"connected_time":1530000000000,"state":"active","ping":57},{"user_id":117,"name":"Adam","steam_id":76561198062388802,"connected_time":653000000000,"state":"active","ping":47},{"user_id":81,"name":"dispenser","steam_id":76561198165732391,"connected_time":4406000000000,"state":"active","ping":113},{"user_id":109,"name":"zep","steam_id":76561197995909249,"connected_time":1446000000000,"state":"active","ping":75},{"user_id":95,"name":"mohamadparadox","steam_id":76561198346156085,"connected_time":3078000000000,"state":"active","ping":157},{"user_id":121,"name":"Malkuth","steam_id":76561198058567662,"connected_time":231000000000,"state":"active","ping":102},{"user_id":101,"name":"Greenmaker","steam_id":76561198060466591,"connected_time":2117000000000,"state":"active","ping":79},{"user_id":103,"name":"FLASH","steam_id":76561197996649686,"connected_time":1849000000000,"state":"active","ping":74},{"user_id":64,"name":"‚ù§Speedbump‚ù§","steam_id":76561198388690313,"connected_time":5955000000000,"state":"active","ping":67}]},{"server_id":110,"name":"Uncletopia | Frankfurt | 2 | All Maps","name_short":"frk-2","host":"frk-1.de.uncletopia.com","port":27025,"enabled":true,"region":"eu","cc":"de","latitude":50.110924,"longitude":8.682127,"reserved":0,"last_update":"0001-01-01T00:00:00Z","name_a2s":"Uncletopia | Frankfurt | 2 | All Maps","protocol":17,"map":"cp_steel","folder":"tf","game":"Team Fortress","app_id":440,"player_count":19,"max_players":24,"Bots":0,"server_type":"Dedicated","server_os":"Linux","password":true,"vac":true,"version":"7932396","steam_id":85568392924469990,"keywords":["cp","nocrits","nodmgspread","uncletopia"],"game_id":440,"stv_port":27026,"stv_name":"Uncletopia | Frankfurt | 2 | All Maps | STV","players":[{"user_id":348,"name":"eva.","steam_id":76561198054474684,"connected_time":1723000000000,"state":"active","ping":75},{"user_id":372,"name":"dreamz....?,","steam_id":76561198121434692,"connected_time":674000000000,"state":"active","ping":128},{"user_id":316,"name":"mixxxa_french","steam_id":76561198085098243,"connected_time":2936000000000,"state":"active","ping":107},{"user_id":379,"name":"joe big mcdickinton","steam_id":76561199212894277,"connected_time":65000000000,"state":"active","ping":89},{"user_id":361,"name":"lu.c77","steam_id":76561199089652432,"connected_time":993000000000,"state":"active","ping":95},{"user_id":351,"name":"Fataol","steam_id":76561198242227064,"connected_time":1567000000000,"state":"active","ping":79},{"user_id":380,"name":"belle bite !","steam_id":76561198204821037,"connected_time":8000000000,"state":"active","ping":92},{"user_id":374,"name":"NANI?!?!?!","steam_id":76561198172078559,"connected_time":614000000000,"state":"active","ping":75},{"user_id":366,"name":"silicon based life form","steam_id":76561199127121346,"connected_time":875000000000,"state":"active","ping":60},{"user_id":312,"name":"ifre3","steam_id":76561198052545817,"connected_time":3242000000000,"state":"active","ping":97},{"user_id":375,"name":"germinator","steam_id":76561199387893648,"connected_time":600000000000,"state":"active","ping":111},{"user_id":376,"name":"Salamon","steam_id":76561198280756561,"connected_time":469000000000,"state":"active","ping":105},{"user_id":378,"name":"We are in a world of magic","steam_id":76561198104745492,"connected_time":190000000000,"state":"active","ping":70},{"user_id":371,"name":"Mael\u003c3","steam_id":76561197996852498,"connected_time":709000000000,"state":"active","ping":57},{"user_id":369,"name":"Drovecz_Hun","steam_id":76561198054703214,"connected_time":809000000000,"state":"active","ping":73},{"user_id":345,"name":"OldBob","steam_id":76561198834987508,"connected_time":1758000000000,"state":"active","ping":74},{"user_id":260,"name":"FighterX9","steam_id":76561198832500806,"connected_time":7350000000000,"state":"active","ping":166},{"user_id":377,"name":"MrKampfCookie","steam_id":76561198085490175,"connected_time":319000000000,"state":"active","ping":44},{"user_id":332,"name":"zorze supreme.exe","steam_id":76561198996333022,"connected_time":2698000000000,"state":"active","ping":73}]},{"server_id":308,"name":"Uncletopia | Frankfurt | 3 | All Maps","name_short":"frk-3","host":"frk-1.de.uncletopia.com","port":27035,"enabled":true,"region":"eu","cc":"de","latitude":50.110924,"longitude":8.682127,"reserved":0,"last_update":"0001-01-01T00:00:00Z","name_a2s":"Uncletopia | Frankfurt | 3 | All Maps","protocol":17,"map":"pl_badwater","folder":"tf","game":"Team Fortress","app_id":440,"player_count":0,"max_players":24,"Bots":0,"server_type":"Dedicated","server_os":"Linux","password":true,"vac":true,"version":"7932396","steam_id":85568392924504274,"keywords":["nocrits","nodmgspread","payload","uncletopia"],"game_id":440,"stv_port":27036,"stv_name":"Uncletopia | Frankfurt | 3 | All Maps | STV","players":null},{"server_id":309,"name":"Uncletopia | Frankfurt | 4 | All Maps","name_short":"frk-4","host":"frk-1.de.uncletopia.com","port":27045,"enabled":true,"region":"eu","cc":"de","latitude":50.110924,"longitude":8.682127,"reserved":0,"last_update":"0001-01-01T00:00:00Z","name_a2s":"Uncletopia | Frankfurt | 4 | All Maps","protocol":17,"map":"ctf_2fort","folder":"tf","game":"Team Fortress","app_id":440,"player_count":0,"max_players":24,"Bots":0,"server_type":"Dedicated","server_os":"Linux","password":true,"vac":true,"version":"7932396","steam_id":85568392924504275,"keywords":["ctf","nocrits","nodmgspread","uncletopia"],"game_id":440,"stv_port":27046,"stv_name":"Uncletopia | Frankfurt | 4 | All Maps | STV","players":null},{"server_id":310,"name":"Uncletopia | Frankfurt | 5 | All Maps","name_short":"frk-5","host":"frk-1.de.uncletopia.com","port":27055,"enabled":true,"region":"eu","cc":"de","latitude":50.110924,"longitude":8.682127,"reserved":0,"last_update":"0001-01-01T00:00:00Z","name_a2s":"Uncletopia | Frankfurt | 5 | All Maps","protocol":17,"map":"pl_frontier_final","folder":"tf","game":"Team Fortress","app_id":440,"player_count":23,"max_players":24,"Bots":0,"server_type":"Dedicated","server_os":"Linux","password":true,"vac":true,"version":"7932396","steam_id":85568392924504277,"keywords":["nocrits","nodmgspread","payload","uncletopia"],"game_id":440,"stv_port":27056,"stv_name":"Uncletopia | Frankfurt | 5 | All Maps | STV","players":[{"user_id":15,"name":"kaiser18887","steam_id":76561199482346702,"connected_time":2060000000000,"state":"active","ping":85},{"user_id":16,"name":"A3517","steam_id":76561198346434027,"connected_time":1935000000000,"state":"active","ping":103},{"user_id":48,"name":"‚ô£–ì–µ–Ω—Å–µ–∫ –ü–æ–Ω–æ—Å–∞","steam_id":76561198796404149,"connected_time":452000000000,"state":"active","ping":98},{"user_id":18,"name":"Akkras","steam_id":76561198046004148,"connected_time":1821000000000,"state":"active","ping":79},{"user_id":49,"name":"Komisaras_Pauk≈°ƒçi≈≥_Pienas","steam_id":76561198878984977,"connected_time":308000000000,"state":"active","ping":75},{"user_id":45,"name":"miiq130","steam_id":76561198188010666,"connected_time":746000000000,"state":"active","ping":75},{"user_id":27,"name":"depressed","steam_id":76561198336523288,"connected_time":1420000000000,"state":"active","ping":118},{"user_id":22,"name":"Stoic","steam_id":76561199088506542,"connected_time":1702000000000,"state":"active","ping":45},{"user_id":28,"name":"SchwanzusLongus","steam_id":76561198112599986,"connected_time":1297000000000,"state":"active","ping":43},{"user_id":24,"name":"Audrey Hale","steam_id":76561198047566695,"connected_time":1590000000000,"state":"active","ping":76},{"user_id":25,"name":"BIGGEST MAC","steam_id":76561198847517098,"connected_time":1528000000000,"state":"active","ping":163},{"user_id":32,"name":"Mingo","steam_id":76561199191245650,"connected_time":1249000000000,"state":"active","ping":109},{"user_id":30,"name":"laza's boy","steam_id":76561199074095198,"connected_time":1266000000000,"state":"active","ping":120},{"user_id":31,"name":"Doggo225","steam_id":76561198166707002,"connected_time":1258000000000,"state":"active","ping":47},{"user_id":33,"name":"Bullet magnet (FIN)","steam_id":76561197975715220,"connected_time":1164000000000,"state":"active","ping":84},{"user_id":35,"name":"Darwin's Danger Shield from TF2","steam_id":76561199214163032,"connected_time":1146000000000,"state":"active","ping":90},{"user_id":36,"name":"howabe","steam_id":76561197996486818,"connected_time":1141000000000,"state":"active","ping":54},{"user_id":52,"name":"toten","steam_id":76561198388750592,"connected_time":97000000000,"state":"active","ping":185},{"user_id":50,"name":"Silvestro","steam_id":76561198021660066,"connected_time":266000000000,"state":"active","ping":75},{"user_id":39,"name":"green demon","steam_id":76561198203353732,"connected_time":1051000000000,"state":"active","ping":155},{"user_id":40,"name":"mango","steam_id":76561198046062645,"connected_time":1040000000000,"state":"active","ping":165},{"user_id":46,"name":"YeeterSkeeter","steam_id":76561198015380933,"connected_time":700000000000,"state":"active","ping":68},{"user_id":47,"name":"unded","steam_id":76561198122952830,"connected_time":680000000000,"state":"active","ping":89}]},{"server_id":311,"name":"Uncletopia | Frankfurt | 6 | All Maps","name_short":"frk-6","host":"frk-1.de.uncletopia.com","port":27065,"enabled":true,"region":"eu","cc":"de","latitude":50.110924,"longitude":8.682127,"reserved":0,"last_update":"0001-01-01T00:00:00Z","name_a2s":"Uncletopia | Frankfurt | 6 | All Maps","protocol":17,"map":"ctf_2fort","folder":"tf","game":"Team Fortress","app_id":440,"player_count":0,"max_players":24,"Bots":0,"server_type":"Dedicated","server_os":"Linux","password":true,"vac":true,"version":"7932396","steam_id":85568392924504278,"keywords":["ctf","nocrits","nodmgspread","uncletopia"],"game_id":440,"stv_port":27066,"stv_name":"Uncletopia | Frankfurt | 6 | All Maps | STV","players":null},{"server_id":23,"name":"Uncletopia | Frankfurt | 7 | Stopwatch Beta","name_short":"frk-7","host":"frk-1.de.uncletopia.com","port":27075,"enabled":true,"region":"eu","cc":"de","latitude":50.110924,"longitude":8.682127,"reserved":0,"last_update":"0001-01-01T00:00:00Z","name_a2s":"Uncletopia | Frankfurt | 7 | Stopwatch Beta","protocol":17,"map":"pl_snowycoast","folder":"tf","game":"Team Fortress","app_id":440,"player_count":0,"max_players":24,"Bots":0,"server_type":"Dedicated","server_os":"Linux","password":true,"vac":true,"version":"7932396","steam_id":85568392924742827,"keywords":["nocrits","nodmgspread","payload","uncletopia"],"game_id":440,"stv_port":27076,"stv_name":"Uncletopia | Frankfurt | 7 | Stopwatch Beta | STV","players":null},{"server_id":24,"name":"Uncletopia | Frankfurt | 8 | Community","name_short":"frk-8","host":"frk-1.de.uncletopia.com","port":27085,"enabled":true,"region":"eu","cc":"de","latitude":50.110924,"longitude":8.682127,"reserved":0,"last_update":"0001-01-01T00:00:00Z","name_a2s":"Uncletopia | Frankfurt | 8 | Community","protocol":17,"map":"workshop/koth_product_final.ugc454272353","folder":"tf","game":"Team Fortress","app_id":440,"player_count":0,"max_players":24,"Bots":0,"server_type":"Dedicated","server_os":"Linux","password":true,"vac":true,"version":"7932396","steam_id":85568392924742828,"keywords":["cp","nocrits","nodmgspread","uncletopia"],"game_id":440,"stv_port":27086,"stv_name":"Uncletopia | Frankfurt | 8 | Community | STV","players":null},{"server_id":202,"name":"Uncletopia | Hong Kong | 1 | All Maps","name_short":"hgk-1","host":"hgk-1.hk.uncletopia.com","port":27015,"enabled":true,"region":"asia","cc":"hk","latitude":22.302711,"longitude":114.177216,"reserved":0,"last_update":"0001-01-01T00:00:00Z","name_a2s":"Uncletopia | Hong Kong | 1 | All Maps","protocol":17,"map":"pl_frontier_final","folder":"tf","game":"Team Fortress","app_id":440,"player_count":24,"max_players":24,"Bots":0,"server_type":"Dedicated","server_os":"Linux","password":true,"vac":true,"version":"7932396","steam_id":85568392924494504,"keywords":["nocrits","nodmgspread","payload","uncletopia"],"game_id":440,"stv_port":27016,"stv_name":"Uncletopia | Hong Kong | 1 | All Maps | STV","players":[{"user_id":134,"name":"indo slum god","steam_id":76561198412329672,"connected_time":3371000000000,"state":"active","ping":99},{"user_id":117,"name":"Dr. Piss Rat","steam_id":76561199074809838,"connected_time":4908000000000,"state":"active","ping":95},{"user_id":169,"name":"why wont my gun shoot?","steam_id":76561199249938987,"connected_time":1321000000000,"state":"active","ping":40},{"user_id":70,"name":"The Estate Sale","steam_id":76561198074339034,"connected_time":8590000000000,"state":"active","ping":74},{"user_id":170,"name":"let him cook","steam_id":76561199219484527,"connected_time":1311000000000,"state":"active","ping":118},{"user_id":127,"name":"meowsh","steam_id":76561198060448954,"connected_time":3966000000000,"state":"active","ping":75},{"user_id":137,"name":"Samoyed","steam_id":76561198299150410,"connected_time":3046000000000,"state":"active","ping":141},{"user_id":160,"name":"Gordon.Freeman","steam_id":76561198337746852,"connected_time":1694000000000,"state":"active","ping":59},{"user_id":133,"name":"Creaserg","steam_id":76561198827951097,"connected_time":3398000000000,"state":"active","ping":86},{"user_id":80,"name":"protons","steam_id":76561198008307645,"connected_time":8116000000000,"state":"active","ping":134},{"user_id":140,"name":"Green","steam_id":76561198391718463,"connected_time":2696000000000,"state":"active","ping":55},{"user_id":115,"name":"nanau","steam_id":76561199166938276,"connected_time":5297000000000,"state":"active","ping":63},{"user_id":139,"name":"condiment king","steam_id":76561199039560921,"connected_time":2711000000000,"state":"active","ping":76},{"user_id":163,"name":"OKEMOWENDI(cant hit shit)","steam_id":76561199170908788,"connected_time":1526000000000,"state":"active","ping":45},{"user_id":174,"name":"Lelouch","steam_id":76561198828840546,"connected_time":485000000000,"state":"active","ping":72},{"user_id":157,"name":"sierra","steam_id":76561197969873415,"connected_time":1949000000000,"state":"active","ping":109},{"user_id":123,"name":"we ball","steam_id":76561199480939609,"connected_time":4092000000000,"state":"active","ping":82},{"user_id":166,"name":"juice","steam_id":76561199009556495,"connected_time":1401000000000,"state":"active","ping":98},{"user_id":171,"name":"Cock Gobbler [F2P]","steam_id":76561199205335227,"connected_time":1269000000000,"state":"active","ping":63},{"user_id":167,"name":"Headmouth","steam_id":76561198019789855,"connected_time":1376000000000,"state":"active","ping":119},{"user_id":175,"name":"nefarious nigel","steam_id":76561198055553140,"connected_time":116000000000,"state":"active","ping":76},{"user_id":77,"name":"ÂÖâÂ§¥Âº∫","steam_id":76561198045255591,"connected_time":8329000000000,"state":"active","ping":122},{"user_id":126,"name":"P","steam_id":76561198304514505,"connected_time":3975000000000,"state":"active","ping":78},{"user_id":132,"name":"Ivy","steam_id":76561198400698408,"connected_time":3745000000000,"state":"active","ping":91}]},{"server_id":1,"name":"Uncletopia | Los Angeles | 1 | All Maps","name_short":"lax-1","host":"lax-1.us.uncletopia.com","port":27015,"enabled":true,"region":"us-west","cc":"us","latitude":33.94279,"longitude":-118.41004,"reserved":0,"last_update":"0001-01-01T00:00:00Z","name_a2s":"Uncletopia | Los Angeles | 1 | All Maps","protocol":17,"map":"cp_process_final","folder":"tf","game":"Team Fortress","app_id":440,"player_count":0,"max_players":24,"Bots":0,"server_type":"Dedicated","server_os":"Linux","password":true,"vac":true,"version":"7932396","steam_id":85568392924469991,"keywords":["cp","nocrits","nodmgspread","uncletopia"],"game_id":440,"stv_port":27016,"stv_name":"Uncletopia | Los Angeles | 1 | All Maps | STV","players":null},{"server_id":112,"name":"Uncletopia | Los Angeles | 2 | All Maps","name_short":"lax-2","host":"lax-1.us.uncletopia.com","port":27025,"enabled":true,"region":"us-west","cc":"us","latitude":33.94279,"longitude":-118.41004,"reserved":0,"last_update":"0001-01-01T00:00:00Z","name_a2s":"Uncletopia | Los Angeles | 2 | All Maps","protocol":17,"map":"pl_borneo","folder":"tf","game":"Team Fortress","app_id":440,"player_count":0,"max_players":24,"Bots":0,"server_type":"Dedicated","server_os":"Linux","password":true,"vac":true,"version":"7932396","steam_id":85568392924469992,"keywords":["nocrits","nodmgspread","payload","uncletopia"],"game_id":440,"stv_port":27026,"stv_name":"Uncletopia | Los Angeles | 2 | All Maps | STV","players":null},{"server_id":324,"name":"Uncletopia | Los Angeles | 3 | All Maps","name_short":"lax-3","host":"lax-1.us.uncletopia.com","port":27035,"enabled":true,"region":"us-west","cc":"us","latitude":33.94279,"longitude":-118.41004,"reserved":0,"last_update":"0001-01-01T00:00:00Z","name_a2s":"Uncletopia | Los Angeles | 3 | All Maps","protocol":17,"map":"pl_borneo","folder":"tf","game":"Team Fortress","app_id":440,"player_count":21,"max_players":24,"Bots":0,"server_type":"Dedicated","server_os":"Linux","password":true,"vac":true,"version":"7932396","steam_id":85568392924510198,"keywords":["nocrits","nodmgspread","payload","uncletopia"],"game_id":440,"stv_port":27036,"stv_name":"Uncletopia | Los Angeles | 3 | All Maps | STV","players":[{"user_id":3,"name":"Prof. Eggnog","steam_id":76561198193389166,"connected_time":2085000000000,"state":"active","ping":126},{"user_id":41,"name":"strabes","steam_id":76561197961480297,"connected_time":138000000000,"state":"active","ping":46},{"user_id":10,"name":"Operable2694","steam_id":76561199486377532,"connected_time":2019000000000,"state":"active","ping":193},{"user_id":14,"name":"Average GTX 1650 User","steam_id":76561198061770842,"connected_time":1758000000000,"state":"active","ping":121},{"user_id":22,"name":"Starkiller","steam_id":76561198101643120,"connected_time":1007000000000,"state":"active","ping":75},{"user_id":30,"name":"Professional Brohamad","steam_id":76561198824025210,"connected_time":533000000000,"state":"active","ping":102},{"user_id":18,"name":"saph","steam_id":76561198982059630,"connected_time":1339000000000,"state":"active","ping":106},{"user_id":25,"name":"emperor belos","steam_id":76561198259715096,"connected_time":833000000000,"state":"active","ping":84},{"user_id":20,"name":"Denzel McFlurry","steam_id":76561199231296521,"connected_time":1189000000000,"state":"active","ping":113},{"user_id":42,"name":"Sam","steam_id":76561197991129901,"connected_time":109000000000,"state":"active","ping":107},{"user_id":27,"name":"Enkinanna","steam_id":76561198045965821,"connected_time":760000000000,"state":"active","ping":81},{"user_id":28,"name":"brayayin","steam_id":76561199257286346,"connected_time":711000000000,"state":"active","ping":174},{"user_id":29,"name":"fart shit ass dick head","steam_id":76561198355094896,"connected_time":709000000000,"state":"active","ping":102},{"user_id":37,"name":"erect pidgeon","steam_id":76561198055140301,"connected_time":253000000000,"state":"active","ping":158},{"user_id":33,"name":"PieTheMan","steam_id":76561198027825469,"connected_time":454000000000,"state":"active","ping":137},{"user_id":43,"name":"¬∞Creamy Gilligan","steam_id":76561198001569384,"connected_time":106000000000,"state":"active","ping":107},{"user_id":35,"name":"donut","steam_id":76561198076635466,"connected_time":381000000000,"state":"active","ping":90},{"user_id":36,"name":"Kaluka","steam_id":76561198036861445,"connected_time":331000000000,"state":"active","ping":106},{"user_id":44,"name":"El Bozo","steam_id":76561198010370396,"connected_time":78000000000,"state":"active","ping":103},{"user_id":40,"name":"Fishing Champ","steam_id":76561198089795189,"connected_time":209000000000,"state":"active","ping":87},{"user_id":45,"name":"Mythical","steam_id":76561198362275997,"connected_time":70000000000,"state":"active","ping":104}]},{"server_id":25,"name":"Uncletopia | Los Angeles | 4 | Stopwatch Beta","name_short":"lax-4","host":"lax-1.us.uncletopia.com","port":27045,"enabled":true,"region":"us-west","cc":"us","latitude":33.94279,"longitude":-118.41004,"reserved":0,"last_update":"0001-01-01T00:00:00Z","name_a2s":"Uncletopia | Los Angeles | 4 | Stopwatch Beta","protocol":17,"map":"cp_altitude","folder":"tf","game":"Team Fortress","app_id":440,"player_count":0,"max_players":24,"Bots":0,"server_type":"Dedicated","server_os":"Linux","password":true,"vac":true,"version":"7932396","steam_id":85568392924510199,"keywords":["cp","nocrits","nodmgspread","uncletopia"],"game_id":440,"stv_port":27046,"stv_name":"Uncletopia | Los Angeles | 4 | Stopwatch Beta | STV","players":null},{"server_id":11,"name":"Uncletopia | London | 1 | All Maps","name_short":"lon-1","host":"lon-1.uk.uncletopia.com","port":27015,"enabled":true,"region":"eu","cc":"gb","latitude":51.509865,"longitude":-0.118092,"reserved":0,"last_update":"0001-01-01T00:00:00Z","name_a2s":"Uncletopia | London | 1 | All Maps","protocol":17,"map":"pl_barnblitz","folder":"tf","game":"Team Fortress","app_id":440,"player_count":24,"max_players":24,"Bots":0,"server_type":"Dedicated","server_os":"Linux","password":true,"vac":true,"version":"7932396","steam_id":85568392924367362,"keywords":["nocrits","nodmgspread","payload","uncletopia"],"game_id":440,"stv_port":27016,"stv_name":"Uncletopia | London | 1 | All Maps | STV","players":[{"user_id":377,"name":"lexi ‚òÖ","steam_id":76561198988695461,"connected_time":2131000000000,"state":"active","ping":41},{"user_id":402,"name":"axalotly-gaming","steam_id":76561199131971501,"connected_time":232000000000,"state":"active","ping":93},{"user_id":336,"name":"Monsteh","steam_id":76561198325898181,"connected_time":4845000000000,"state":"active","ping":64},{"user_id":396,"name":"Brittle Bob","steam_id":76561198146310039,"connected_time":831000000000,"state":"active","ping":62},{"user_id":395,"name":"Hukka","steam_id":76561198035505355,"connected_time":1053000000000,"state":"active","ping":97},{"user_id":385,"name":"jge","steam_id":76561198123186387,"connected_time":1731000000000,"state":"active","ping":60},{"user_id":353,"name":"—É–∑–±–µ–∫_–ø–ª–æ–≤","steam_id":76561199380250568,"connected_time":3239000000000,"state":"active","ping":133},{"user_id":392,"name":"mister squibward","steam_id":76561198718760200,"connected_time":1372000000000,"state":"active","ping":48},{"user_id":332,"name":"Sipsu","steam_id":76561198059424107,"connected_time":5118000000000,"state":"active","ping":78},{"user_id":318,"name":"hopperthebox","steam_id":76561198053418437,"connected_time":5682000000000,"state":"active","ping":83},{"user_id":328,"name":"bonk","steam_id":76561198953939723,"connected_time":5218000000000,"state":"active","ping":100},{"user_id":386,"name":"Munibe","steam_id":76561198107967904,"connected_time":1727000000000,"state":"active","ping":64},{"user_id":376,"name":"Marcus","steam_id":76561198205027963,"connected_time":2224000000000,"state":"active","ping":61},{"user_id":394,"name":"Return of Girlboy","steam_id":76561198029025500,"connected_time":1236000000000,"state":"active","ping":60},{"user_id":397,"name":"Spinya","steam_id":76561198086653667,"connected_time":828000000000,"state":"active","ping":54},{"user_id":370,"name":"„ÄåIQ„Äç#savetf2","steam_id":76561198965612371,"connected_time":2660000000000,"state":"active","ping":51},{"user_id":330,"name":"FirePenguin","steam_id":76561198151468340,"connected_time":5207000000000,"state":"active","ping":34},{"user_id":378,"name":"Labomarcelo","steam_id":76561198211186473,"connected_time":2026000000000,"state":"active","ping":90},{"user_id":379,"name":"Isuurn","steam_id":76561198150201094,"connected_time":1959000000000,"state":"active","ping":75},{"user_id":401,"name":"Kernel Panic","steam_id":76561198215811047,"connected_time":240000000000,"state":"active","ping":42},{"user_id":380,"name":"isaku","steam_id":76561198092648865,"connected_time":1880000000000,"state":"active","ping":78},{"user_id":399,"name":"üÉî Katarina","steam_id":76561198065652251,"connected_time":596000000000,"state":"active","ping":50},{"user_id":405,"name":"Germanium_Ge","steam_id":76561198130561775,"connected_time":114000000000,"state":"active","ping":57},{"user_id":400,"name":"Hexagon","steam_id":76561198151205758,"connected_time":257000000000,"state":"active","ping":60}]},{"server_id":114,"name":"Uncletopia | London | 2 | All Maps","name_short":"lon-2","host":"lon-1.uk.uncletopia.com","port":27025,"enabled":true,"region":"eu","cc":"gb","latitude":51.509865,"longitude":-0.118092,"reserved":0,"last_update":"0001-01-01T00:00:00Z","name_a2s":"Uncletopia | London | 2 | All Maps","protocol":17,"map":"pl_borneo","folder":"tf","game":"Team Fortress","app_id":440,"player_count":23,"max_players":24,"Bots":0,"server_type":"Dedicated","server_os":"Linux","password":true,"vac":true,"version":"7932396","steam_id":85568392924470941,"keywords":["nocrits","nodmgspread","payload","uncletopia"],"game_id":440,"stv_port":27026,"stv_name":"Uncletopia | London | 2 | All Maps | STV","players":[{"user_id":187,"name":"halow","steam_id":76561198061505163,"connected_time":4485000000000,"state":"active","ping":102},{"user_id":251,"name":"Rays","steam_id":76561198072462009,"connected_time":1025000000000,"state":"active","ping":121},{"user_id":274,"name":"xulera","steam_id":76561198080736030,"connected_time":92000000000,"state":"active","ping":66},{"user_id":264,"name":"Brinier","steam_id":76561199012604288,"connected_time":421000000000,"state":"active","ping":72},{"user_id":267,"name":"Flint","steam_id":76561197995920776,"connected_time":386000000000,"state":"active","ping":47},{"user_id":266,"name":"your lawyer","steam_id":76561199160703098,"connected_time":406000000000,"state":"active","ping":64},{"user_id":276,"name":"jalones al pecho","steam_id":76561198112986842,"connected_time":39000000000,"state":"active","ping":46},{"user_id":268,"name":"fernandobmwm355555","steam_id":76561198086609447,"connected_time":369000000000,"state":"active","ping":50},{"user_id":118,"name":"collin","steam_id":76561198067030681,"connected_time":9648000000000,"state":"active","ping":45},{"user_id":254,"name":"clunk","steam_id":76561198836460767,"connected_time":920000000000,"state":"active","ping":75},{"user_id":269,"name":"leo","steam_id":76561198066274297,"connected_time":352000000000,"state":"active","ping":90},{"user_id":259,"name":"nick","steam_id":76561199137237424,"connected_time":732000000000,"state":"active","ping":51},{"user_id":270,"name":"Powder that makes you push cart","steam_id":76561197984661199,"connected_time":333000000000,"state":"active","ping":57},{"user_id":68,"name":"m909","steam_id":76561198279621400,"connected_time":12586000000000,"state":"active","ping":95},{"user_id":246,"name":"gman {RTD}","steam_id":76561199316310715,"connected_time":1404000000000,"state":"active","ping":76},{"user_id":271,"name":"kluri","steam_id":76561198084518962,"connected_time":322000000000,"state":"active","ping":73},{"user_id":260,"name":"stk.","steam_id":76561198239461680,"connected_time":713000000000,"state":"active","ping":106},{"user_id":239,"name":"dustwrld","steam_id":76561198152576682,"connected_time":1824000000000,"state":"active","ping":84},{"user_id":253,"name":"ahmedali_","steam_id":76561198441446863,"connected_time":936000000000,"state":"active","ping":91},{"user_id":275,"name":"unfaulty wifi card","steam_id":76561198020270981,"connected_time":72000000000,"state":"active","ping":128},{"user_id":261,"name":"Walter Black","steam_id":76561198833482123,"connected_time":694000000000,"state":"active","ping":100},{"user_id":273,"name":"MovingIsOverRated","steam_id":76561198385633292,"connected_time":215000000000,"state":"active","ping":188},{"user_id":272,"name":"maty10","steam_id":76561198031411453,"connected_time":263000000000,"state":"active","ping":69}]},{"server_id":320,"name":"Uncletopia | London | 3 | All Maps","name_short":"lon-3","host":"lon-1.uk.uncletopia.com","port":27035,"enabled":true,"region":"eu","cc":"gb","latitude":51.509865,"longitude":-0.118092,"reserved":0,"last_update":"0001-01-01T00:00:00Z","name_a2s":"Uncletopia | London | 3 | All Maps","protocol":17,"map":"cp_snakewater_final1","folder":"tf","game":"Team Fortress","app_id":440,"player_count":0,"max_players":24,"Bots":0,"server_type":"Dedicated","server_os":"Linux","password":true,"vac":true,"version":"7932396","steam_id":85568392924510192,"keywords":["cp","nocrits","nodmgspread","uncletopia"],"game_id":440,"stv_port":27036,"stv_name":"Uncletopia | London | 3 | All Maps | STV","players":null},{"server_id":321,"name":"Uncletopia | London | 4 | All Maps","name_short":"lon-4","host":"lon-1.uk.uncletopia.com","port":27045,"enabled":true,"region":"eu","cc":"gb","latitude":51.509865,"longitude":-0.118092,"reserved":0,"last_update":"0001-01-01T00:00:00Z","name_a2s":"Uncletopia | London | 4 | All Maps","protocol":17,"map":"ctf_2fort","folder":"tf","game":"Team Fortress","app_id":440,"player_count":0,"max_players":24,"Bots":0,"server_type":"Dedicated","server_os":"Linux","password":true,"vac":true,"version":"7932396","steam_id":85568392924510193,"keywords":["ctf","nocrits","nodmgspread","uncletopia"],"game_id":440,"stv_port":27046,"stv_name":"Uncletopia | London | 4 | All Maps | STV","players":null},{"server_id":21,"name":"Uncletopia | London | 5 | All Maps","name_short":"lon-5","host":"lon-1.uk.uncletopia.com","port":27055,"enabled":true,"region":"eu","cc":"gb","latitude":51.509865,"longitude":-0.118092,"reserved":0,"last_update":"0001-01-01T00:00:00Z","name_a2s":"Uncletopia | London | 5 | All Maps","protocol":17,"map":"cp_process_final","folder":"tf","game":"Team Fortress","app_id":440,"player_count":22,"max_players":24,"Bots":0,"server_type":"Dedicated","server_os":"Linux","password":true,"vac":true,"version":"7932396","steam_id":85568392924742829,"keywords":["cp","nocrits","nodmgspread","uncletopia"],"game_id":440,"stv_port":27056,"stv_name":"Uncletopia | London | 5 | All Maps | STV","players":[{"user_id":95,"name":"OzKo","steam_id":76561198245355476,"connected_time":310000000000,"state":"active","ping":161},{"user_id":104,"name":"RiSlava","steam_id":76561198084071930,"connected_time":136000000000,"state":"active","ping":91},{"user_id":62,"name":"EEEEEH","steam_id":76561198126717413,"connected_time":2791000000000,"state":"active","ping":81},{"user_id":91,"name":"ÿ£ÿØŸäÿ® ÿßŸÑÿ£ÿµŸÅÿ±","steam_id":76561198095691592,"connected_time":1348000000000,"state":"active","ping":70},{"user_id":92,"name":"toomas2018(real)","steam_id":76561199105796083,"connected_time":1219000000000,"state":"active","ping":81},{"user_id":97,"name":"Juliderkek","steam_id":76561198962270674,"connected_time":241000000000,"state":"active","ping":90},{"user_id":98,"name":"MEOWMEOWMEOWMEOWMEOWMEOWMEOWMEO","steam_id":76561198723244199,"connected_time":216000000000,"state":"active","ping":75},{"user_id":80,"name":"pirate pete","steam_id":76561198151048590,"connected_time":2054000000000,"state":"active","ping":149},{"user_id":100,"name":"TJ1212","steam_id":76561199013575313,"connected_time":202000000000,"state":"active","ping":68},{"user_id":81,"name":"SpyChef","steam_id":76561198075326117,"connected_time":2038000000000,"state":"active","ping":51},{"user_id":105,"name":"MILKY","steam_id":76561199261620682,"connected_time":63000000000,"state":"active","ping":61},{"user_id":101,"name":"Benny","steam_id":76561198056128703,"connected_time":200000000000,"state":"active","ping":77},{"user_id":102,"name":"noobdog","steam_id":76561198036486671,"connected_time":183000000000,"state":"active","ping":67},{"user_id":87,"name":"Ember from Hungary","steam_id":76561198269211299,"connected_time":1637000000000,"state":"active","ping":94},{"user_id":103,"name":"Huskey","steam_id":76561198152392309,"connected_time":142000000000,"state":"active","ping":45},{"user_id":34,"name":"Lorenzo Lovers","steam_id":76561198073973581,"connected_time":4044000000000,"state":"active","ping":82},{"user_id":106,"name":"shablool","steam_id":76561199192795613,"connected_time":41000000000,"state":"active","ping":100},{"user_id":84,"name":"rachel aldana's massive milkers","steam_id":76561198025916703,"connected_time":1897000000000,"state":"active","ping":65},{"user_id":107,"name":"Your Local Moron","steam_id":76561198810637224,"connected_time":16000000000,"state":"spawning","ping":138},{"user_id":61,"name":"Romultra","steam_id":76561198354105082,"connected_time":2844000000000,"state":"active","ping":40},{"user_id":85,"name":"Flare","steam_id":76561198039098320,"connected_time":1777000000000,"state":"active","ping":50},{"user_id":78,"name":"SoupER","steam_id":76561198063056668,"connected_time":2137000000000,"state":"active","ping":46}]},{"server_id":22,"name":"Uncletopia | London | 6 | All Maps","name_short":"lon-6","host":"lon-1.uk.uncletopia.com","port":27065,"enabled":true,"region":"eu","cc":"gb","latitude":51.509865,"longitude":-0.118092,"reserved":0,"last_update":"0001-01-01T00:00:00Z","name_a2s":"Uncletopia | London | 6 | All Maps","protocol":17,"map":"ctf_2fort","folder":"tf","game":"Team Fortress","app_id":440,"player_count":0,"max_players":24,"Bots":0,"server_type":"Dedicated","server_os":"Linux","password":true,"vac":true,"version":"7932396","steam_id":85568392924742830,"keywords":["ctf","nocrits","nodmgspread","uncletopia"],"game_id":440,"stv_port":27066,"stv_name":"Uncletopia | London | 6 | All Maps | STV","players":null},{"server_id":40,"name":"Uncletopia | London | 7 | No Payload","name_short":"lon-7","host":"lon-1.uk.uncletopia.com","port":27075,"enabled":true,"region":"eu","cc":"gb","latitude":51.509865,"longitude":-0.118092,"reserved":0,"last_update":"0001-01-01T00:00:00Z","name_a2s":"Uncletopia | London | 7 | No Payload","protocol":17,"map":"pl_snowycoast","folder":"tf","game":"Team Fortress","app_id":440,"player_count":0,"max_players":24,"Bots":0,"server_type":"Dedicated","server_os":"Linux","password":true,"vac":true,"version":"7932396","steam_id":85568392924964314,"keywords":["nocrits","nodmgspread","payload","uncletopia"],"game_id":440,"stv_port":27076,"stv_name":"Uncletopia | London | 7 | No Payload | STV","players":null},{"server_id":41,"name":"Uncletopia | London | 8 | Community","name_short":"lon-8","host":"lon-1.uk.uncletopia.com","port":27085,"enabled":true,"region":"eu","cc":"gb","latitude":51.509865,"longitude":-0.118092,"reserved":0,"last_update":"0001-01-01T00:00:00Z","name_a2s":"Uncletopia | London | 8 | Community","protocol":17,"map":"workshop/cp_caldera_rc2.ugc2834196889","folder":"tf","game":"Team Fortress","app_id":440,"player_count":0,"max_players":24,"Bots":0,"server_type":"Dedicated","server_os":"Linux","password":true,"vac":true,"version":"7932396","steam_id":85568392924964315,"keywords":["cp","nocrits","nodmgspread","uncletopia"],"game_id":440,"stv_port":27086,"stv_name":"Uncletopia | London | 8 | Community | STV","players":null},{"server_id":300,"name":"Uncletopia | Montr√©al | 1 | All Maps","name_short":"mtl-1","host":"mtl-1.ca.uncletopia.com","port":27015,"enabled":true,"region":"us-east","cc":"ca","latitude":45.50889,"longitude":-73.56167,"reserved":0,"last_update":"0001-01-01T00:00:00Z","name_a2s":"Uncletopia | Montr√©al | 1 | All Maps","protocol":17,"map":"cp_altitude","folder":"tf","game":"Team Fortress","app_id":440,"player_count":0,"max_players":24,"Bots":0,"server_type":"Dedicated","server_os":"Linux","password":true,"vac":true,"version":"7932396","steam_id":85568392924500087,"keywords":["cp","nocrits","nodmgspread","uncletopia"],"game_id":440,"stv_port":27016,"stv_name":"Uncletopia | Montr√©al | 1 | All Maps | STV","players":null},{"server_id":301,"name":"Uncletopia | Montr√©al | 2 | All Maps","name_short":"mtl-2","host":"mtl-1.ca.uncletopia.com","port":27025,"enabled":true,"region":"us-east","cc":"ca","latitude":45.50889,"longitude":-73.56167,"reserved":0,"last_update":"0001-01-01T00:00:00Z","name_a2s":"Uncletopia | Montr√©al | 2 | All Maps","protocol":17,"map":"pl_frontier_final","folder":"tf","game":"Team Fortress","app_id":440,"player_count":0,"max_players":24,"Bots":0,"server_type":"Dedicated","server_os":"Linux","password":true,"vac":true,"version":"7932396","steam_id":85568392924500088,"keywords":["nocrits","nodmgspread","payload","uncletopia"],"game_id":440,"stv_port":27026,"stv_name":"Uncletopia | Montr√©al | 2 | All Maps | STV","players":null},{"server_id":302,"name":"Uncletopia | Montr√©al | 3 | All Maps","name_short":"mtl-3","host":"mtl-1.ca.uncletopia.com","port":27035,"enabled":true,"region":"us-east","cc":"ca","latitude":45.50889,"longitude":-73.56167,"reserved":0,"last_update":"0001-01-01T00:00:00Z","name_a2s":"Uncletopia | Montr√©al | 3 | All Maps","protocol":17,"map":"cp_process_final","folder":"tf","game":"Team Fortress","app_id":440,"player_count":0,"max_players":24,"Bots":0,"server_type":"Dedicated","server_os":"Linux","password":true,"vac":true,"version":"7932396","steam_id":85568392924500089,"keywords":["cp","nocrits","nodmgspread","uncletopia"],"game_id":440,"stv_port":27036,"stv_name":"Uncletopia | Montr√©al | 3 | All Maps | STV","players":null},{"server_id":303,"name":"Uncletopia | Montr√©al | 4 | No Payload","name_short":"mtl-4","host":"mtl-1.ca.uncletopia.com","port":27045,"enabled":true,"region":"us-east","cc":"ca","latitude":45.50889,"longitude":-73.56167,"reserved":0,"last_update":"0001-01-01T00:00:00Z","name_a2s":"Uncletopia | Montr√©al | 4 | No Payload","protocol":17,"map":"cp_snakewater_final1","folder":"tf","game":"Team Fortress","app_id":440,"player_count":0,"max_players":24,"Bots":0,"server_type":"Dedicated","server_os":"Linux","password":true,"vac":true,"version":"7932396","steam_id":85568392924500090,"keywords":["cp","nocrits","nodmgspread","uncletopia"],"game_id":440,"stv_port":27046,"stv_name":"Uncletopia | Montr√©al | 4 | No Payload | STV","players":null},{"server_id":13,"name":"Uncletopia | New York City | 1 | All Maps","name_short":"nyc-1","host":"nyc-1.us.uncletopia.com","port":27015,"enabled":true,"region":"us-east","cc":"us","latitude":40.73061,"longitude":-73.93524,"reserved":0,"last_update":"0001-01-01T00:00:00Z","name_a2s":"Uncletopia | New York City | 1 | All Maps","protocol":17,"map":"koth_cascade","folder":"tf","game":"Team Fortress","app_id":440,"player_count":0,"max_players":24,"Bots":0,"server_type":"Dedicated","server_os":"Linux","password":true,"vac":true,"version":"7932396","steam_id":85568392924469993,"keywords":["cp","nocrits","nodmgspread","uncletopia"],"game_id":440,"stv_port":27016,"stv_name":"Uncletopia | New York City | 1 | All Maps | STV","players":null},{"server_id":14,"name":"Uncletopia | New York City | 2 | All Maps","name_short":"nyc-2","host":"nyc-1.us.uncletopia.com","port":27025,"enabled":true,"region":"us-east","cc":"us","latitude":40.73061,"longitude":-73.93524,"reserved":0,"last_update":"0001-01-01T00:00:00Z","name_a2s":"Uncletopia | New York City | 2 | All Maps","protocol":17,"map":"koth_lakeside_final","folder":"tf","game":"Team Fortress","app_id":440,"player_count":0,"max_players":24,"Bots":0,"server_type":"Dedicated","server_os":"Linux","password":true,"vac":true,"version":"7932396","steam_id":85568392924469994,"keywords":["cp","nocrits","nodmgspread","uncletopia"],"game_id":440,"stv_port":27026,"stv_name":"Uncletopia | New York City | 2 | All Maps | STV","players":null},{"server_id":15,"name":"Uncletopia | New York City | 3 | Stopwatch Beta","name_short":"nyc-3","host":"nyc-1.us.uncletopia.com","port":27035,"enabled":true,"region":"us-east","cc":"us","latitude":40.73061,"longitude":-73.93524,"reserved":0,"last_update":"0001-01-01T00:00:00Z","name_a2s":"Uncletopia | New York City | 3 | Stopwatch Beta","protocol":17,"map":"cp_sunshine","folder":"tf","game":"Team Fortress","app_id":440,"player_count":0,"max_players":24,"Bots":0,"server_type":"Dedicated","server_os":"Linux","password":true,"vac":true,"version":"7932396","steam_id":85568392924742820,"keywords":["cp","nocrits","nodmgspread","uncletopia"],"game_id":440,"stv_port":27036,"stv_name":"Uncletopia | New York City | 3 | Stopwatch Beta | STV","players":null},{"server_id":16,"name":"Uncletopia | New York City | 4 | Community","name_short":"nyc-4","host":"nyc-1.us.uncletopia.com","port":27045,"enabled":true,"region":"us-east","cc":"us","latitude":40.73061,"longitude":-73.93524,"reserved":0,"last_update":"0001-01-01T00:00:00Z","name_a2s":"Uncletopia | New York City | 4 | Community","protocol":17,"map":"pl_barnblitz","folder":"tf","game":"Team Fortress","app_id":440,"player_count":0,"max_players":24,"Bots":0,"server_type":"Dedicated","server_os":"Linux","password":true,"vac":true,"version":"7932396","steam_id":85568392924742821,"keywords":["nocrits","nodmgspread","payload","uncletopia"],"game_id":440,"stv_port":27046,"stv_name":"Uncletopia | New York City | 4 | Community | STV","players":null},{"server_id":142,"name":"Uncletopia | S√£o Paulo | 1 | All Maps","name_short":"sao-1","host":"sao-1.br.uncletopia.com","port":27015,"enabled":true,"region":"sa","cc":"br","latitude":-23.533773,"longitude":-46.62529,"reserved":0,"last_update":"0001-01-01T00:00:00Z","name_a2s":"Uncletopia | S√£o Paulo | 1 | All Maps","protocol":17,"map":"cp_mountainlab","folder":"tf","game":"Team Fortress","app_id":440,"player_count":0,"max_players":24,"Bots":0,"server_type":"Dedicated","server_os":"Linux","password":true,"vac":true,"version":"7932396","steam_id":85568392924469996,"keywords":["cp","nocrits","nodmgspread","uncletopia"],"game_id":440,"stv_port":27016,"stv_name":"Uncletopia | S√£o Paulo | 1 | All Maps | STV","players":null},{"server_id":143,"name":"Uncletopia | S√£o Paulo | 2 | All Maps","name_short":"sao-2","host":"sao-2.br.uncletopia.com","port":27015,"enabled":true,"region":"sa","cc":"br","latitude":-23.533773,"longitude":-46.62529,"reserved":0,"last_update":"0001-01-01T00:00:00Z","name_a2s":"Uncletopia | S√£o Paulo | 2 | All Maps","protocol":17,"map":"pl_swiftwater_final1","folder":"tf","game":"Team Fortress","app_id":440,"player_count":0,"max_players":24,"Bots":0,"server_type":"Dedicated","server_os":"Linux","password":true,"vac":true,"version":"7932396","steam_id":85568392924485349,"keywords":["nocrits","nodmgspread","payload","uncletopia"],"game_id":440,"stv_port":27016,"stv_name":"Uncletopia | S√£o Paulo | 2 | All Maps | STV","players":null},{"server_id":7,"name":"Uncletopia | Seattle | 1 | All Maps","name_short":"sea-1","host":"sea-1.us.uncletopia.com","port":27015,"enabled":true,"region":"us-west","cc":"us","latitude":47.608013,"longitude":-122.33517,"reserved":0,"last_update":"0001-01-01T00:00:00Z","name_a2s":"Uncletopia | Seattle | 1 | All Maps","protocol":17,"map":"koth_highpass","folder":"tf","game":"Team Fortress","app_id":440,"player_count":15,"max_players":24,"Bots":0,"server_type":"Dedicated","server_os":"Linux","password":true,"vac":true,"version":"7932396","steam_id":85568392924469997,"keywords":["cp","nocrits","nodmgspread","uncletopia"],"game_id":440,"stv_port":27016,"stv_name":"Uncletopia | Seattle | 1 | All Maps | STV","players":[{"user_id":35,"name":"Wheaty","steam_id":76561198003553412,"connected_time":618000000000,"state":"active","ping":44},{"user_id":29,"name":"Monarch of Glass","steam_id":76561198165638237,"connected_time":1465000000000,"state":"active","ping":34},{"user_id":33,"name":"Crunchy","steam_id":76561198240523882,"connected_time":1113000000000,"state":"active","ping":81},{"user_id":7,"name":"My Name A Borat","steam_id":76561198077713291,"connected_time":2065000000000,"state":"active","ping":60},{"user_id":10,"name":"Spy from defense fort","steam_id":76561198832910095,"connected_time":2051000000000,"state":"active","ping":99},{"user_id":11,"name":"shark bait hoo ha ha","steam_id":76561198114603745,"connected_time":2048000000000,"state":"active","ping":96},{"user_id":40,"name":"StudLovinLefty","steam_id":76561199132661606,"connected_time":87000000000,"state":"active","ping":130},{"user_id":14,"name":"VixianUwU","steam_id":76561198948815060,"connected_time":2037000000000,"state":"active","ping":80},{"user_id":15,"name":"voot","steam_id":76561198041936377,"connected_time":2026000000000,"state":"active","ping":137},{"user_id":16,"name":"vfa","steam_id":76561198055729118,"connected_time":2015000000000,"state":"active","ping":54},{"user_id":17,"name":"Jebby","steam_id":76561198300150276,"connected_time":2011000000000,"state":"active","ping":62},{"user_id":36,"name":"YourFriendJessie #savetf2","steam_id":76561198176883097,"connected_time":346000000000,"state":"active","ping":117},{"user_id":31,"name":"Gibs Degrossi","steam_id":76561198066152609,"connected_time":1344000000000,"state":"active","ping":90},{"user_id":22,"name":"dailydoseofmelon","steam_id":76561198092690052,"connected_time":1964000000000,"state":"active","ping":67},{"user_id":27,"name":"Cornsauce","steam_id":76561198085007342,"connected_time":1931000000000,"state":"active","ping":95}]},{"server_id":119,"name":"Uncletopia | Seattle | 2 | All Maps","name_short":"sea-2","host":"sea-1.us.uncletopia.com","port":27025,"enabled":true,"region":"us-west","cc":"us","latitude":47.608013,"longitude":-122.33517,"reserved":0,"last_update":"0001-01-01T00:00:00Z","name_a2s":"Uncletopia | Seattle | 2 | All Maps","protocol":17,"map":"cp_dustbowl","folder":"tf","game":"Team Fortress","app_id":440,"player_count":0,"max_players":24,"Bots":0,"server_type":"Dedicated","server_os":"Linux","password":true,"vac":true,"version":"7932396","steam_id":85568392924469998,"keywords":["cp","nocrits","nodmgspread","uncletopia"],"game_id":440,"stv_port":27026,"stv_name":"Uncletopia | Seattle | 2 | All Maps | STV","players":null},{"server_id":406,"name":"Uncletopia | Seattle | 3 | Stopwatch Beta","name_short":"sea-3","host":"sea-1.us.uncletopia.com","port":27035,"enabled":true,"region":"us-west","cc":"us","latitude":47.608013,"longitude":-122.33517,"reserved":0,"last_update":"0001-01-01T00:00:00Z","name_a2s":"Uncletopia | Seattle | 3 | Stopwatch Beta","protocol":17,"map":"cp_mountainlab","folder":"tf","game":"Team Fortress","app_id":440,"player_count":0,"max_players":24,"Bots":0,"server_type":"Dedicated","server_os":"Linux","password":true,"vac":true,"version":"7932396","steam_id":85568392924515217,"keywords":["cp","nocrits","nodmgspread","uncletopia"],"game_id":440,"stv_port":27036,"stv_name":"Uncletopia | Seattle | 3 | Stopwatch Beta | STV","players":null},{"server_id":17,"name":"Uncletopia | San Francisco | 1 | All Maps","name_short":"sfo-1","host":"sfo-1.us.uncletopia.com","port":27015,"enabled":true,"region":"us-west","cc":"us","latitude":37.77397,"longitude":-122.4313,"reserved":0,"last_update":"0001-01-01T00:00:00Z","name_a2s":"Uncletopia | San Francisco | 1 | All Maps","protocol":17,"map":"pl_frontier_final","folder":"tf","game":"Team Fortress","app_id":440,"player_count":0,"max_players":24,"Bots":0,"server_type":"Dedicated","server_os":"Linux","password":true,"vac":true,"version":"7932396","steam_id":85568392924469999,"keywords":["nocrits","nodmgspread","payload","uncletopia"],"game_id":440,"stv_port":27016,"stv_name":"Uncletopia | San Francisco | 1 | All Maps | STV","players":null},{"server_id":18,"name":"Uncletopia | San Francisco | 2 | All Maps","name_short":"sfo-2","host":"sfo-1.us.uncletopia.com","port":27025,"enabled":true,"region":"us-west","cc":"us","latitude":37.77397,"longitude":-122.4313,"reserved":0,"last_update":"0001-01-01T00:00:00Z","name_a2s":"Uncletopia | San Francisco | 2 | All Maps","protocol":17,"map":"cp_snakewater_final1","folder":"tf","game":"Team Fortress","app_id":440,"player_count":0,"max_players":24,"Bots":0,"server_type":"Dedicated","server_os":"Linux","password":true,"vac":true,"version":"7932396","steam_id":85568392924470000,"keywords":["cp","nocrits","nodmgspread","uncletopia"],"game_id":440,"stv_port":27026,"stv_name":"Uncletopia | San Francisco | 2 | All Maps | STV","players":null},{"server_id":19,"name":"Uncletopia | San Francisco | 3 | Stopwatch Beta","name_short":"sfo-3","host":"sfo-1.us.uncletopia.com","port":27035,"enabled":true,"region":"us-west","cc":"us","latitude":37.77397,"longitude":-122.4313,"reserved":0,"last_update":"0001-01-01T00:00:00Z","name_a2s":"Uncletopia | San Francisco | 3 | Stopwatch Beta","protocol":17,"map":"koth_lakeside_final","folder":"tf","game":"Team Fortress","app_id":440,"player_count":0,"max_players":24,"Bots":0,"server_type":"Dedicated","server_os":"Linux","password":true,"vac":true,"version":"7932396","steam_id":85568392924742824,"keywords":["cp","nocrits","nodmgspread","uncletopia"],"game_id":440,"stv_port":27036,"stv_name":"Uncletopia | San Francisco | 3 | Stopwatch Beta | STV","players":null},{"server_id":20,"name":"Uncletopia | San Francisco | 4 | Community","name_short":"sfo-4","host":"sfo-1.us.uncletopia.com","port":27045,"enabled":true,"region":"us-west","cc":"us","latitude":37.77397,"longitude":-122.4313,"reserved":0,"last_update":"0001-01-01T00:00:00Z","name_a2s":"Uncletopia | San Francisco | 4 | Community","protocol":17,"map":"pl_borneo","folder":"tf","game":"Team Fortress","app_id":440,"player_count":0,"max_players":24,"Bots":0,"server_type":"Dedicated","server_os":"Linux","password":true,"vac":true,"version":"7932396","steam_id":85568392924742826,"keywords":["nocrits","nodmgspread","payload","uncletopia"],"game_id":440,"stv_port":27046,"stv_name":"Uncletopia | San Francisco | 4 | Community | STV","players":null},{"server_id":141,"name":"Uncletopia | Sydney | 1 | All Maps","name_short":"syd-1","host":"syd-1.au.uncletopia.com","port":27015,"enabled":true,"region":"au","cc":"au","latitude":-33.865143,"longitude":151.2099,"reserved":0,"last_update":"0001-01-01T00:00:00Z","name_a2s":"Uncletopia | Sydney | 1 | All Maps","protocol":17,"map":"koth_cascade","folder":"tf","game":"Team Fortress","app_id":440,"player_count":0,"max_players":24,"Bots":0,"server_type":"Dedicated","server_os":"Linux","password":true,"vac":true,"version":"7932396","steam_id":85568392924470001,"keywords":["cp","nocrits","nodmgspread","uncletopia"],"game_id":440,"stv_port":27016,"stv_name":"Uncletopia | Sydney | 1 | All Maps | STV","players":null},{"server_id":123,"name":"Uncletopia | Sydney | 2 | All Maps","name_short":"syd-2","host":"syd-1.au.uncletopia.com","port":27025,"enabled":true,"region":"au","cc":"au","latitude":-33.865143,"longitude":151.2099,"reserved":0,"last_update":"0001-01-01T00:00:00Z","name_a2s":"Uncletopia | Sydney | 2 | All Maps","protocol":17,"map":"pl_borneo","folder":"tf","game":"Team Fortress","app_id":440,"player_count":13,"max_players":24,"Bots":0,"server_type":"Dedicated","server_os":"Linux","password":true,"vac":true,"version":"7932396","steam_id":85568392924470002,"keywords":["nocrits","nodmgspread","payload","uncletopia"],"game_id":440,"stv_port":27026,"stv_name":"Uncletopia | Sydney | 2 | All Maps | STV","players":[{"user_id":158,"name":"RustyMeat","steam_id":76561198119162442,"connected_time":334000000000,"state":"active","ping":64},{"user_id":139,"name":"Recurve","steam_id":76561197989040614,"connected_time":1685000000000,"state":"active","ping":63},{"user_id":160,"name":"ada lovelace","steam_id":76561198238034502,"connected_time":90000000000,"state":"active","ping":45},{"user_id":91,"name":"FauxFree","steam_id":76561198027419609,"connected_time":3655000000000,"state":"active","ping":106},{"user_id":87,"name":"Hungry for thumbtacks","steam_id":76561198059129270,"connected_time":4020000000000,"state":"active","ping":65},{"user_id":25,"name":"Gerbil Fighting Yoghurt","steam_id":76561198036477898,"connected_time":7566000000000,"state":"active","ping":61},{"user_id":121,"name":"doctor morbin' (real)","steam_id":76561199365241695,"connected_time":2415000000000,"state":"active","ping":128},{"user_id":151,"name":"wom","steam_id":76561199375834537,"connected_time":880000000000,"state":"active","ping":146},{"user_id":134,"name":"‚ô• BILL!!! ‚ô•","steam_id":76561198066726621,"connected_time":1859000000000,"state":"active","ping":45},{"user_id":124,"name":"Soru","steam_id":76561198010844786,"connected_time":2336000000000,"state":"active","ping":60},{"user_id":80,"name":"Summer Stunner","steam_id":76561197989058528,"connected_time":4496000000000,"state":"active","ping":57},{"user_id":105,"name":"cas ganister","steam_id":76561198879023728,"connected_time":3196000000000,"state":"active","ping":56},{"user_id":156,"name":"steezus christ","steam_id":76561198048064049,"connected_time":781000000000,"state":"active","ping":80}]},{"server_id":395,"name":"Uncletopia | Sydney | 3 | All Maps","name_short":"syd-3","host":"syd-1.au.uncletopia.com","port":27035,"enabled":true,"region":"au","cc":"au","latitude":-33.865143,"longitude":151.2099,"reserved":0,"last_update":"0001-01-01T00:00:00Z","name_a2s":"Uncletopia | Sydney | 3 | All Maps","protocol":17,"map":"koth_lakeside_final","folder":"tf","game":"Team Fortress","app_id":440,"player_count":0,"max_players":24,"Bots":0,"server_type":"Dedicated","server_os":"Linux","password":true,"vac":true,"version":"7932396","steam_id":85568392925194467,"keywords":["cp","nocrits","nodmgspread","uncletopia"],"game_id":440,"stv_port":27036,"stv_name":"Uncletopia | Sydney | 3 | All Maps | STV","players":null},{"server_id":396,"name":"Uncletopia | Sydney | 4 | All Maps","name_short":"syd-4","host":"syd-1.au.uncletopia.com","port":27045,"enabled":true,"region":"au","cc":"au","latitude":-33.865143,"longitude":151.2099,"reserved":0,"last_update":"0001-01-01T00:00:00Z","name_a2s":"Uncletopia | Sydney | 4 | All Maps","protocol":17,"map":"pl_swiftwater_final1","folder":"tf","game":"Team Fortress","app_id":440,"player_count":0,"max_players":24,"Bots":0,"server_type":"Dedicated","server_os":"Linux","password":true,"vac":true,"version":"7932396","steam_id":85568392925397958,"keywords":["nocrits","nodmgspread","payload","uncletopia"],"game_id":440,"stv_port":27046,"stv_name":"Uncletopia | Sydney | 4 | All Maps | STV","players":null},{"server_id":58,"name":"Uncletopia | Sydney | 5 | Stopwatch Beta","name_short":"syd-5","host":"syd-1.au.uncletopia.com","port":27055,"enabled":true,"region":"au","cc":"au","latitude":-33.865143,"longitude":151.2099,"reserved":0,"last_update":"0001-01-01T00:00:00Z","name_a2s":"Uncletopia | Sydney | 5 | Stopwatch Beta","protocol":17,"map":"pl_borneo","folder":"tf","game":"Team Fortress","app_id":440,"player_count":0,"max_players":24,"Bots":0,"server_type":"Dedicated","server_os":"Linux","password":true,"vac":true,"version":"7932396","steam_id":85568392925397959,"keywords":["nocrits","nodmgspread","payload","uncletopia"],"game_id":440,"stv_port":27056,"stv_name":"Uncletopia | Sydney | 5 | Stopwatch Beta | STV","players":null},{"server_id":59,"name":"Uncletopia | Sydney | 6 | Community","name_short":"syd-6","host":"syd-1.au.uncletopia.com","port":27065,"enabled":true,"region":"au","cc":"au","latitude":-33.865143,"longitude":151.2099,"reserved":0,"last_update":"0001-01-01T00:00:00Z","name_a2s":"Uncletopia | Sydney | 6 | Community","protocol":17,"map":"workshop/koth_product_final.ugc454272353","folder":"tf","game":"Team Fortress","app_id":440,"player_count":0,"max_players":24,"Bots":0,"server_type":"Dedicated","server_os":"Linux","password":true,"vac":true,"version":"7932396","steam_id":85568392925397960,"keywords":["cp","nocrits","nodmgspread","uncletopia"],"game_id":440,"stv_port":27066,"stv_name":"Uncletopia | Sydney | 6 | Community | STV","players":null},{"server_id":49,"name":"Uncletopia | Warsaw | 1 | All Maps","name_short":"waw-1","host":"waw-1.pl.uncletopia.com","port":27015,"enabled":true,"region":"eu","cc":"pl","latitude":52.2297,"longitude":21.017532,"reserved":0,"last_update":"0001-01-01T00:00:00Z","name_a2s":"","protocol":0,"map":"","folder":"","game":"","app_id":0,"player_count":0,"max_players":0,"Bots":0,"server_type":"","server_os":"","password":false,"vac":false,"version":"","steam_id":0,"keywords":null,"game_id":0,"stv_port":0,"stv_name":"","players":null},{"server_id":50,"name":"Uncletopia | Warsaw | 2 | All Maps","name_short":"waw-2","host":"waw-1.pl.uncletopia.com","port":27025,"enabled":true,"region":"eu","cc":"pl","latitude":52.2297,"longitude":21.017532,"reserved":0,"last_update":"0001-01-01T00:00:00Z","name_a2s":"Uncletopia | Warsaw | 2 | All Maps","protocol":17,"map":"pl_pier","folder":"tf","game":"Team Fortress","app_id":440,"player_count":0,"max_players":24,"Bots":0,"server_type":"Dedicated","server_os":"Linux","password":true,"vac":true,"version":"7932396","steam_id":85568392925397851,"keywords":["nocrits","nodmgspread","payload","uncletopia"],"game_id":440,"stv_port":27026,"stv_name":"Uncletopia | Warsaw | 2 | All Maps | STV","players":null},{"server_id":51,"name":"Uncletopia | Warsaw | 3 | All Maps","name_short":"waw-3","host":"waw-1.pl.uncletopia.com","port":27035,"enabled":true,"region":"eu","cc":"pl","latitude":52.2297,"longitude":21.017532,"reserved":0,"last_update":"0001-01-01T00:00:00Z","name_a2s":"Uncletopia | Warsaw | 3 | All Maps","protocol":17,"map":"koth_lakeside_final","folder":"tf","game":"Team Fortress","app_id":440,"player_count":0,"max_players":24,"Bots":0,"server_type":"Dedicated","server_os":"Linux","password":true,"vac":true,"version":"7932396","steam_id":85568392925397852,"keywords":["cp","nocrits","nodmgspread","uncletopia"],"game_id":440,"stv_port":27036,"stv_name":"Uncletopia | Warsaw | 3 | All Maps | STV","players":null},{"server_id":52,"name":"Uncletopia | Warsaw | 4 | All Maps","name_short":"waw-4","host":"waw-1.pl.uncletopia.com","port":27045,"enabled":true,"region":"eu","cc":"pl","latitude":52.2297,"longitude":21.017532,"reserved":0,"last_update":"0001-01-01T00:00:00Z","name_a2s":"Uncletopia | Warsaw | 4 | All Maps","protocol":17,"map":"pl_swiftwater_final1","folder":"tf","game":"Team Fortress","app_id":440,"player_count":0,"max_players":24,"Bots":0,"server_type":"Dedicated","server_os":"Linux","password":true,"vac":true,"version":"7932396","steam_id":85568392925397853,"keywords":["nocrits","nodmgspread","payload","uncletopia"],"game_id":440,"stv_port":27046,"stv_name":"Uncletopia | Warsaw | 4 | All Maps | STV","players":null},{"server_id":53,"name":"Uncletopia | Warsaw | 5 | Stopwatch Beta","name_short":"waw-5","host":"waw-1.pl.uncletopia.com","port":27055,"enabled":true,"region":"eu","cc":"pl","latitude":52.2297,"longitude":21.017532,"reserved":0,"last_update":"0001-01-01T00:00:00Z","name_a2s":"Uncletopia | Warsaw | 5 | Stopwatch Beta","protocol":17,"map":"koth_highpass","folder":"tf","game":"Team Fortress","app_id":440,"player_count":0,"max_players":24,"Bots":0,"server_type":"Dedicated","server_os":"Linux","password":true,"vac":true,"version":"7932396","steam_id":85568392925397854,"keywords":["cp","nocrits","nodmgspread","uncletopia"],"game_id":440,"stv_port":27056,"stv_name":"Uncletopia | Warsaw | 5 | Stopwatch Beta | STV","players":null},{"server_id":54,"name":"Uncletopia | Warsaw | 6 | Community","name_short":"waw-6","host":"waw-1.pl.uncletopia.com","port":27065,"enabled":true,"region":"eu","cc":"pl","latitude":52.2297,"longitude":21.017532,"reserved":0,"last_update":"0001-01-01T00:00:00Z","name_a2s":"Uncletopia | Warsaw | 6 | Community","protocol":17,"map":"pl_upward","folder":"tf","game":"Team Fortress","app_id":440,"player_count":0,"max_players":24,"Bots":0,"server_type":"Dedicated","server_os":"Linux","password":true,"vac":true,"version":"7932396","steam_id":85568392925397856,"keywords":["nocrits","nodmgspread","payload","uncletopia"],"game_id":440,"stv_port":27066,"stv_name":"Uncletopia | Warsaw | 6 | Community | STV","players":null}]}