{"status":true,"message":"","result":[{"server_id":9,"name":"Uncletopia | Atlanta | 1 | All Maps","name_short":"atl-1","host":"atl-1.us.uncletopia.com","port":27015,"enabled":true,"region":"us-east","cc":"us","latitude":33.753746,"longitude":-84.38633,"reserved":0,"last_update":"0001-01-01T00:00:00Z","name_a2s":"Uncletopia | Atlanta | 1 | All Maps","protocol":17,"map":"cp_powerhouse","folder":"tf","game":"Team Fortress","app_id":440,"player_count":24,"max_players":24,"Bots":0,"server_type":"Dedicated","server_os":"Linux","password":true,"vac":true,"version":"7757534","steam_id":85568392924469982,"keywords":["cp","nocrits","nodmgspread","uncletopia"],"game_id":440,"stv_port":27016,"stv_name":"Uncletopia | Atlanta | 1 | All Maps | STV","players":[{"user_id":141,"name":"BIG HOG","steam_id":76561198079923652,"connected_time":2338000000000,"state":"active","ping":72},{"user_id":130,"name":"jackary","steam_id":76561198193405221,"connected_time":3628000000000,"state":"active","ping":69},{"user_id":118,"name":"mkl","steam_id":76561197986401685,"connected_time":4353000000000,"state":"active","ping":89},{"user_id":142,"name":"SanitysEdge","steam_id":76561198130732813,"connected_time":2276000000000,"state":"active","ping":104},{"user_id":156,"name":"ƐՌѴƳ","steam_id":76561198099470277,"connected_time":203000000000,"state":"active","ping":63},{"user_id":131,"name":"Ooodleglobsღ","steam_id":76561198360201222,"connected_time":3605000000000,"state":"active","ping":60},{"user_id":107,"name":"Pitbull named precise","steam_id":76561198065345105,"connected_time":5022000000000,"state":"active","ping":143},{"user_id":155,"name":"Tony","steam_id":76561198040602075,"connected_time":647000000000,"state":"active","ping":92},{"user_id":140,"name":"gamerlegend47","steam_id":76561198122776598,"connected_time":2344000000000,"state":"active","ping":57},{"user_id":150,"name":"Albino Jellyfish","steam_id":76561198208561097,"connected_time":1322000000000,"state":"active","ping":67},{"user_id":152,"name":"Icaras","steam_id":76561198416724843,"connected_time":1148000000000,"state":"active","ping":130},{"user_id":145,"name":"Cyrllo","steam_id":76561198207809512,"connected_time":2113000000000,"state":"active","ping":71},{"user_id":149,"name":"ror!","steam_id":76561198021227843,"connected_time":1886000000000,"state":"active","ping":68},{"user_id":148,"name":"gandalf zaza","steam_id":76561198059787688,"connected_time":1920000000000,"state":"active","ping":62},{"user_id":84,"name":"Ashes!","steam_id":76561197998475441,"connected_time":7404000000000,"state":"active","ping":77},{"user_id":121,"name":"VALENCE","steam_id":76561198118492031,"connected_time":4251000000000,"state":"active","ping":100},{"user_id":144,"name":"trowel","steam_id":76561198195109445,"connected_time":2242000000000,"state":"active","ping":102},{"user_id":115,"name":"matt_rolltide","steam_id":76561198796727164,"connected_time":4748000000000,"state":"active","ping":84},{"user_id":135,"name":"poob","steam_id":76561198321877882,"connected_time":2672000000000,"state":"active","ping":61},{"user_id":97,"name":"metal pipe","steam_id":76561198849461209,"connected_time":6929000000000,"state":"active","ping":82},{"user_id":133,"name":"My nose can play the trumpet","steam_id":76561198074803752,"connected_time":2888000000000,"state":"active","ping":72},{"user_id":146,"name":"Shwaey","steam_id":76561198218886668,"connected_time":2093000000000,"state":"active","ping":74},{"user_id":147,"name":"Tsuki No Okami","steam_id":76561198012508184,"connected_time":2091000000000,"state":"active","ping":168},{"user_id":154,"name":"AlmondMilk","steam_id":76561198151229725,"connected_time":697000000000,"state":"active","ping":55}]},{"server_id":104,"name":"Uncletopia | Atlanta | 2 | All Maps","name_short":"atl-2","host":"atl-1.us.uncletopia.com","port":27025,"enabled":true,"region":"us-east","cc":"us","latitude":33.753746,"longitude":-84.38633,"reserved":0,"last_update":"0001-01-01T00:00:00Z","name_a2s":"Uncletopia | Atlanta | 2 | All Maps","protocol":17,"map":"koth_highpass","folder":"tf","game":"Team Fortress","app_id":440,"player_count":0,"max_players":24,"Bots":0,"server_type":"Dedicated","server_os":"Linux","password":true,"vac":true,"version":"7757534","steam_id":85568392924469983,"keywords":["cp","nocrits","nodmgspread","uncletopia"],"game_id":440,"stv_port":27026,"stv_name":"Uncletopia | Atlanta | 2 | All Maps | STV","players":null},{"server_id":400,"name":"Uncletopia | Atlanta | 3 | Community","name_short":"atl-3","host":"atl-1.us.uncletopia.com","port":27035,"enabled":true,"region":"us-east","cc":"us","latitude":33.753746,"longitude":-84.38633,"reserved":0,"last_update":"0001-01-01T00:00:00Z","name_a2s":"Uncletopia | Atlanta | 3 | Community","protocol":17,"map":"cp_snakewater_final1","folder":"tf","game":"Team Fortress","app_id":440,"player_count":0,"max_players":24,"Bots":0,"server_type":"Dedicated","server_os":"Linux","password":true,"vac":true,"version":"7757534","steam_id":85568392924515187,"keywords":["cp","nocrits","nodmgspread","uncletopia"],"game_id":440,"stv_port":27036,"stv_name":"Uncletopia | Atlanta | 3 | Community | STV","players":null},{"server_id":401,"name":"Uncletopia | Atlanta | 4 | No Payload","name_short":"atl-4","host":"atl-1.us.uncletopia.com","port":27045,"enabled":true,"region":"us-east","cc":"us","latitude":33.753746,"longitude":-84.38633,"reserved":0,"last_update":"0001-01-01T00:00:00Z","name_a2s":"","protocol":0,"map":"","folder":"","game":"","app_id":0,"player_count":0,"max_players":0,"Bots":0,"server_type":"","server_os":"","password":false,"vac":false,"version":"","steam_id":0,"keywords":null,"game_id":0,"stv_port":0,"stv_name":"","players":null},{"server_id":2,"name":"Uncletopia | Chicago | 1 | All Maps","name_short":"chi-1","host":"chi-1.us.uncletopia.com","port":27015,"enabled":true,"region":"us-central","cc":"us","latitude":41.881832,"longitude":-87.62318,"reserved":0,"last_update":"0001-01-01T00:00:00Z","name_a2s":"Uncletopia | Chicago | 1 | All Maps","protocol":17,"map":"pl_pier","folder":"tf","game":"Team Fortress","app_id":440,"player_count":24,"max_players":24,"Bots":0,"server_type":"Dedicated","server_os":"Linux","password":true,"vac":true,"version":"7757534","steam_id":85568392924469984,"keywords":["nocrits","nodmgspread","payload","uncletopia"],"game_id":440,"stv_port":27016,"stv_name":"Uncletopia | Chicago | 1 | All Maps | STV","players":[{"user_id":337,"name":"SaucySandwichKid","steam_id":76561199372590934,"connected_time":1370000000000,"state":"active","ping":71},{"user_id":274,"name":"WatchWill","steam_id":76561198157237945,"connected_time":8580000000000,"state":"active","ping":69},{"user_id":326,"name":"Za Zombie","steam_id":76561198055545262,"connected_time":2457000000000,"state":"active","ping":72},{"user_id":323,"name":"Big Dick Goth GF","steam_id":76561198033152376,"connected_time":2546000000000,"state":"active","ping":149},{"user_id":318,"name":"roman","steam_id":76561198170066797,"connected_time":2640000000000,"state":"active","ping":59},{"user_id":345,"name":"maS","steam_id":76561198033846407,"connected_time":695000000000,"state":"active","ping":61},{"user_id":328,"name":"Brother Pudge","steam_id":76561198247815090,"connected_time":2240000000000,"state":"active","ping":52},{"user_id":346,"name":"Wigl","steam_id":76561198019324464,"connected_time":507000000000,"state":"active","ping":70},{"user_id":307,"name":"kermitcreeper(ZAZA)","steam_id":76561199222829972,"connected_time":3522000000000,"state":"active","ping":59},{"user_id":340,"name":"LucentOwl","steam_id":76561198140978957,"connected_time":967000000000,"state":"active","ping":74},{"user_id":261,"name":"apcsmoore","steam_id":76561199124727793,"connected_time":9298000000000,"state":"active","ping":82},{"user_id":339,"name":"ContinuedBear","steam_id":76561198265176919,"connected_time":991000000000,"state":"active","ping":61},{"user_id":332,"name":"Bozanimal","steam_id":76561198044096897,"connected_time":1891000000000,"state":"active","ping":60},{"user_id":120,"name":"jim bob","steam_id":76561198815547064,"connected_time":18503000000000,"state":"active","ping":60},{"user_id":322,"name":"Fogleg Hoghorn","steam_id":76561198024690595,"connected_time":2562000000000,"state":"active","ping":113},{"user_id":336,"name":"Pikajump","steam_id":76561198024626166,"connected_time":1454000000000,"state":"active","ping":85},{"user_id":338,"name":"NUt","steam_id":76561198031007966,"connected_time":1005000000000,"state":"active","ping":75},{"user_id":334,"name":"vv","steam_id":76561198134813102,"connected_time":1757000000000,"state":"active","ping":60},{"user_id":308,"name":"PKBEAST_7","steam_id":76561198177136537,"connected_time":3518000000000,"state":"active","ping":90},{"user_id":349,"name":"rat eater","steam_id":76561199216874750,"connected_time":175000000000,"state":"active","ping":53},{"user_id":348,"name":"carly rae jepsen","steam_id":76561198336144991,"connected_time":260000000000,"state":"active","ping":77},{"user_id":194,"name":"Glory","steam_id":76561198013975080,"connected_time":12087000000000,"state":"active","ping":83},{"user_id":325,"name":"cass","steam_id":76561198074502046,"connected_time":2536000000000,"state":"active","ping":77},{"user_id":342,"name":"Brown_Dream","steam_id":76561198975766145,"connected_time":945000000000,"state":"active","ping":85}]},{"server_id":106,"name":"Uncletopia | Chicago | 2 | All Maps","name_short":"chi-2","host":"chi-1.us.uncletopia.com","port":27025,"enabled":true,"region":"us-central","cc":"us","latitude":41.881832,"longitude":-87.62318,"reserved":0,"last_update":"0001-01-01T00:00:00Z","name_a2s":"Uncletopia | Chicago | 2 | All Maps","protocol":17,"map":"cp_altitude","folder":"tf","game":"Team Fortress","app_id":440,"player_count":24,"max_players":24,"Bots":0,"server_type":"Dedicated","server_os":"Linux","password":true,"vac":true,"version":"7757534","steam_id":85568392924469985,"keywords":["cp","nocrits","nodmgspread","uncletopia"],"game_id":440,"stv_port":27026,"stv_name":"Uncletopia | Chicago | 2 | All Maps | STV","players":[{"user_id":89,"name":"Pumpkin Spice","steam_id":76561198058356815,"connected_time":2296000000000,"state":"active","ping":68},{"user_id":52,"name":"femboy foxgirl","steam_id":76561198056432756,"connected_time":4973000000000,"state":"active","ping":56},{"user_id":37,"name":"Adonut","steam_id":76561198805858184,"connected_time":6154000000000,"state":"active","ping":95},{"user_id":92,"name":"Alexhcgarヅ","steam_id":76561198085706389,"connected_time":1583000000000,"state":"active","ping":111},{"user_id":85,"name":"Training Arc","steam_id":76561198038832034,"connected_time":2393000000000,"state":"active","ping":106},{"user_id":98,"name":"Rekragamm","steam_id":76561198095402252,"connected_time":1306000000000,"state":"active","ping":67},{"user_id":99,"name":"Frosty","steam_id":76561198121412489,"connected_time":1069000000000,"state":"active","ping":78},{"user_id":95,"name":"Cuttle's Fish","steam_id":76561198280483257,"connected_time":1525000000000,"state":"active","ping":52},{"user_id":107,"name":"Krodonet","steam_id":76561197970268796,"connected_time":207000000000,"state":"active","ping":71},{"user_id":112,"name":"shit bro","steam_id":76561199178885266,"connected_time":33000000000,"state":"active","ping":61},{"user_id":109,"name":"ae","steam_id":76561198012945016,"connected_time":186000000000,"state":"active","ping":50},{"user_id":69,"name":"Shattered Glass","steam_id":76561198116835391,"connected_time":3554000000000,"state":"active","ping":94},{"user_id":76,"name":"sansDimmadome","steam_id":76561198182611798,"connected_time":3071000000000,"state":"active","ping":119},{"user_id":86,"name":"Chaotic Rushu","steam_id":76561198170054407,"connected_time":2382000000000,"state":"active","ping":83},{"user_id":104,"name":"UnusualAce","steam_id":76561198170655806,"connected_time":440000000000,"state":"active","ping":74},{"user_id":108,"name":"Grunt420","steam_id":76561199407313140,"connected_time":200000000000,"state":"active","ping":168},{"user_id":101,"name":"Enderneer","steam_id":76561198012136653,"connected_time":943000000000,"state":"active","ping":60},{"user_id":110,"name":"¿skitt1eS?","steam_id":76561198330093211,"connected_time":162000000000,"state":"active","ping":60},{"user_id":62,"name":"Rornir","steam_id":76561198081829615,"connected_time":3997000000000,"state":"active","ping":34},{"user_id":102,"name":"Drapph","steam_id":76561199384213314,"connected_time":764000000000,"state":"active","ping":58},{"user_id":111,"name":"Mr.noob","steam_id":76561199200442395,"connected_time":143000000000,"state":"active","ping":176},{"user_id":65,"name":"Aeris","steam_id":76561198287271028,"connected_time":3888000000000,"state":"active","ping":62},{"user_id":113,"name":"Ask Nicely For Heals","steam_id":76561198138478907,"connected_time":24000000000,"state":"active","ping":72},{"user_id":88,"name":"turkeysarefriendsz","steam_id":76561199074521322,"connected_time":2359000000000,"state":"active","ping":115}]},{"server_id":402,"name":"Uncletopia | Chicago | 3 | All Maps","name_short":"chi-3","host":"chi-1.us.uncletopia.com","port":27035,"enabled":true,"region":"us-central","cc":"us","latitude":41.881832,"longitude":-87.62318,"reserved":0,"last_update":"0001-01-01T00:00:00Z","name_a2s":"Uncletopia | Chicago | 3 | All Maps","protocol":17,"map":"cp_fastlane","folder":"tf","game":"Team Fortress","app_id":440,"player_count":17,"max_players":24,"Bots":0,"server_type":"Dedicated","server_os":"Linux","password":true,"vac":true,"version":"7757534","steam_id":85568392924515191,"keywords":["cp","nocrits","nodmgspread","uncletopia"],"game_id":440,"stv_port":27036,"stv_name":"Uncletopia | Chicago | 3 | All Maps | STV","players":[{"user_id":172,"name":"BasicPeaches","steam_id":76561198190890150,"connected_time":235000000000,"state":"active","ping":79},{"user_id":99,"name":"no.","steam_id":76561198988350454,"connected_time":4025000000000,"state":"active","ping":159},{"user_id":169,"name":"BetoelAff es","steam_id":76561198377842585,"connected_time":271000000000,"state":"active","ping":133},{"user_id":168,"name":"Tlaloc","steam_id":76561198375215983,"connected_time":272000000000,"state":"active","ping":116},{"user_id":101,"name":"lost in spaaaaace","steam_id":76561199085974120,"connected_time":4019000000000,"state":"active","ping":60},{"user_id":164,"name":"ceaseless pleasure","steam_id":76561198063841152,"connected_time":788000000000,"state":"active","ping":91},{"user_id":134,"name":"LORD CANTI","steam_id":76561198254479725,"connected_time":2101000000000,"state":"active","ping":44},{"user_id":170,"name":"spondy","steam_id":76561198081201520,"connected_time":250000000000,"state":"active","ping":30},{"user_id":171,"name":"joel","steam_id":76561198044949718,"connected_time":247000000000,"state":"active","ping":56},{"user_id":137,"name":"Goober","steam_id":76561198988863807,"connected_time":2064000000000,"state":"active","ping":73},{"user_id":166,"name":"Trove","steam_id":76561198110970476,"connected_time":588000000000,"state":"active","ping":44},{"user_id":149,"name":"Idk","steam_id":76561198971629959,"connected_time":1701000000000,"state":"active","ping":143},{"user_id":129,"name":"AdorableMew","steam_id":76561198186706405,"connected_time":2912000000000,"state":"active","ping":69},{"user_id":85,"name":"dnaak","steam_id":76561197960489193,"connected_time":6243000000000,"state":"active","ping":45},{"user_id":142,"name":"Penny #girl","steam_id":76561198144281771,"connected_time":1987000000000,"state":"active","ping":63},{"user_id":144,"name":"frizzle fried","steam_id":76561198062991744,"connected_time":1922000000000,"state":"active","ping":69},{"user_id":160,"name":"Aristotle Voulton","steam_id":76561198100174923,"connected_time":1241000000000,"state":"active","ping":87}]},{"server_id":403,"name":"Uncletopia | Chicago | 4 | All Maps","name_short":"chi-4","host":"chi-1.us.uncletopia.com","port":27045,"enabled":true,"region":"us-central","cc":"us","latitude":41.881832,"longitude":-87.62318,"reserved":0,"last_update":"0001-01-01T00:00:00Z","name_a2s":"Uncletopia | Chicago | 4 | All Maps","protocol":17,"map":"koth_lakeside_final","folder":"tf","game":"Team Fortress","app_id":440,"player_count":0,"max_players":24,"Bots":0,"server_type":"Dedicated","server_os":"Linux","password":true,"vac":true,"version":"7757534","steam_id":85568392924515193,"keywords":["cp","nocrits","nodmgspread","uncletopia"],"game_id":440,"stv_port":27046,"stv_name":"Uncletopia | Chicago | 4 | All Maps | STV","players":null},{"server_id":36,"name":"Uncletopia | Chicago | 5 | All Maps","name_short":"chi-5","host":"chi-2.us.uncletopia.com","port":27015,"enabled":true,"region":"us-central","cc":"us","latitude":41.881832,"longitude":-87.62318,"reserved":0,"last_update":"0001-01-01T00:00:00Z","name_a2s":"Uncletopia | Chicago | 5 | All Maps","protocol":17,"map":"koth_cascade","folder":"tf","game":"Team Fortress","app_id":440,"player_count":0,"max_players":24,"Bots":0,"server_type":"Dedicated","server_os":"Linux","password":true,"vac":true,"version":"7757534","steam_id":85568392924866362,"keywords":["cp","nocrits","nodmgspread","uncletopia"],"game_id":440,"stv_port":27016,"stv_name":"Uncletopia | Chicago | 5 | All Maps | STV","players":null},{"server_id":37,"name":"Uncletopia | Chicago | 6 | All Maps","name_short":"chi-6","host":"chi-2.us.uncletopia.com","port":27025,"enabled":true,"region":"us-central","cc":"us","latitude":41.881832,"longitude":-87.62318,"reserved":0,"last_update":"0001-01-01T00:00:00Z","name_a2s":"Uncletopia | Chicago | 6 | All Maps","protocol":17,"map":"koth_highpass","folder":"tf","game":"Team Fortress","app_id":440,"player_count":0,"max_players":24,"Bots":0,"server_type":"Dedicated","server_os":"Linux","password":true,"vac":true,"version":"7757534","steam_id":85568392924866363,"keywords":["cp","nocrits","nodmgspread","uncletopia"],"game_id":440,"stv_port":27026,"stv_name":"Uncletopia | Chicago | 6 | All Maps | STV","players":null},{"server_id":38,"name":"Uncletopia | Chicago | 7 | Stopwatch Beta","name_short":"chi-7","host":"chi-2.us.uncletopia.com","port":27035,"enabled":true,"region":"us-central","cc":"us","latitude":41.881832,"longitude":-87.62318,"reserved":0,"last_update":"0001-01-01T00:00:00Z","name_a2s":"Uncletopia | Chicago | 7 | Stopwatch Beta","protocol":17,"map":"pl_barnblitz","folder":"tf","game":"Team Fortress","app_id":440,"player_count":0,"max_players":24,"Bots":0,"server_type":"Dedicated","server_os":"Linux","password":true,"vac":true,"version":"7757534","steam_id":85568392924866364,"keywords":["nocrits","nodmgspread","payload","uncletopia"],"game_id":440,"stv_port":27036,"stv_name":"Uncletopia | Chicago | 7 | Stopwatch Beta | STV","players":null},{"server_id":39,"name":"Uncletopia | Chicago | 8 | Community","name_short":"chi-8","host":"chi-2.us.uncletopia.com","port":27045,"enabled":true,"region":"us-central","cc":"us","latitude":41.881832,"longitude":-87.62318,"reserved":0,"last_update":"0001-01-01T00:00:00Z","name_a2s":"Uncletopia | Chicago | 8 | Community","protocol":17,"map":"koth_cascade","folder":"tf","game":"Team Fortress","app_id":440,"player_count":0,"max_players":24,"Bots":0,"server_type":"Dedicated","server_os":"Linux","password":true,"vac":true,"version":"7757534","steam_id":85568392924866365,"keywords":["cp","nocrits","nodmgspread","uncletopia"],"game_id":440,"stv_port":27046,"stv_name":"Uncletopia | Chicago | 8 | Community | STV","players":null},{"server_id":8,"name":"Uncletopia | Dallas | 1 | All Maps","name_short":"dal-1","host":"dal-1.us.uncletopia.com","port":27015,"enabled":true,"region":"us-central","cc":"us","latitude":32.779167,"longitude":-96.80889,"reserved":0,"last_update":"0001-01-01T00:00:00Z","name_a2s":"Uncletopia | Dallas | 1 | All Maps","protocol":17,"map":"koth_viaduct","folder":"tf","game":"Team Fortress","app_id":440,"player_count":0,"max_players":24,"Bots":0,"server_type":"Dedicated","server_os":"Linux","password":true,"vac":true,"version":"7757534","steam_id":85568392924469986,"keywords":["cp","nocrits","nodmgspread","uncletopia"],"game_id":440,"stv_port":27016,"stv_name":"Uncletopia | Dallas | 1 | All Maps | STV","players":null},{"server_id":108,"name":"Uncletopia | Dallas | 2 | All Maps","name_short":"dal-2","host":"dal-1.us.uncletopia.com","port":27025,"enabled":true,"region":"us-central","cc":"us","latitude":32.779167,"longitude":-96.80889,"reserved":0,"last_update":"0001-01-01T00:00:00Z","name_a2s":"Uncletopia | Dallas | 2 | All Maps","protocol":17,"map":"pl_badwater","folder":"tf","game":"Team Fortress","app_id":440,"player_count":4,"max_players":24,"Bots":0,"server_type":"Dedicated","server_os":"Linux","password":true,"vac":true,"version":"7757534","steam_id":85568392924469988,"keywords":["nocrits","nodmgspread","payload","uncletopia"],"game_id":440,"stv_port":27026,"stv_name":"Uncletopia | Dallas | 2 | All Maps | STV","players":[{"user_id":4,"name":"Card Games Knight","steam_id":76561198831997540,"connected_time":618000000000,"state":"active","ping":49},{"user_id":5,"name":"４０ ＦＰＳ","steam_id":76561198272394965,"connected_time":567000000000,"state":"active","ping":146},{"user_id":6,"name":"misterspud","steam_id":76561198195306218,"connected_time":422000000000,"state":"active","ping":74},{"user_id":7,"name":"Dr.Ludwig","steam_id":76561199221271922,"connected_time":187000000000,"state":"active","ping":238}]},{"server_id":5,"name":"Uncletopia | Frankfurt | 1 | All Maps","name_short":"frk-1","host":"frk-1.de.uncletopia.com","port":27015,"enabled":true,"region":"eu","cc":"de","latitude":50.110924,"longitude":8.682127,"reserved":0,"last_update":"0001-01-01T00:00:00Z","name_a2s":"Uncletopia | Frankfurt | 1 | All Maps","protocol":17,"map":"pl_borneo","folder":"tf","game":"Team Fortress","app_id":440,"player_count":24,"max_players":24,"Bots":0,"server_type":"Dedicated","server_os":"Linux","password":true,"vac":true,"version":"7757534","steam_id":85568392924469989,"keywords":["nocrits","nodmgspread","payload","uncletopia"],"game_id":440,"stv_port":27016,"stv_name":"Uncletopia | Frankfurt | 1 | All Maps | STV","players":[{"user_id":142,"name":"Valkyr","steam_id":76561197994049208,"connected_time":1047000000000,"state":"active","ping":66},{"user_id":106,"name":"Rimx","steam_id":76561198053034840,"connected_time":3384000000000,"state":"active","ping":97},{"user_id":115,"name":"Metalli","steam_id":76561198078735026,"connected_time":3060000000000,"state":"active","ping":88},{"user_id":108,"name":"marc","steam_id":76561198018694332,"connected_time":3281000000000,"state":"active","ping":53},{"user_id":127,"name":"RubyTheUnicorn","steam_id":76561198091772218,"connected_time":2637000000000,"state":"active","ping":56},{"user_id":143,"name":"SoupER","steam_id":76561198063056668,"connected_time":1031000000000,"state":"active","ping":61},{"user_id":96,"name":"Rez","steam_id":76561198410598772,"connected_time":4663000000000,"state":"active","ping":55},{"user_id":141,"name":"Atse","steam_id":76561199019974513,"connected_time":1168000000000,"state":"active","ping":113},{"user_id":120,"name":"Dr.Nefario","steam_id":76561198874586020,"connected_time":3021000000000,"state":"active","ping":64},{"user_id":91,"name":"jones","steam_id":76561198044434971,"connected_time":5122000000000,"state":"active","ping":59},{"user_id":121,"name":"Surfyx","steam_id":76561199110545477,"connected_time":2990000000000,"state":"active","ping":58},{"user_id":110,"name":"Carter","steam_id":76561198005243938,"connected_time":3235000000000,"state":"active","ping":75},{"user_id":89,"name":"Toasty5050","steam_id":76561198073540881,"connected_time":5745000000000,"state":"active","ping":47},{"user_id":144,"name":"3L","steam_id":76561198007208996,"connected_time":1023000000000,"state":"active","ping":46},{"user_id":146,"name":"bunglar","steam_id":76561198027374166,"connected_time":579000000000,"state":"active","ping":107},{"user_id":99,"name":"Annoying Scout","steam_id":76561199201938256,"connected_time":3969000000000,"state":"active","ping":78},{"user_id":147,"name":"Nullsson","steam_id":76561199225929497,"connected_time":346000000000,"state":"active","ping":50},{"user_id":139,"name":"bmwunfy","steam_id":76561198168776869,"connected_time":1553000000000,"state":"active","ping":95},{"user_id":88,"name":"Captain Scrumpe","steam_id":76561198032206577,"connected_time":5825000000000,"state":"active","ping":81},{"user_id":148,"name":"hora","steam_id":76561198404470526,"connected_time":334000000000,"state":"active","ping":97},{"user_id":128,"name":"lamalakamala","steam_id":76561198314076661,"connected_time":2404000000000,"state":"active","ping":114},{"user_id":124,"name":"Waltcha","steam_id":76561198007691468,"connected_time":2951000000000,"state":"active","ping":60},{"user_id":72,"name":"Mr.Duck","steam_id":76561197983710667,"connected_time":6677000000000,"state":"active","ping":79},{"user_id":105,"name":"Matteo Il Biondo","steam_id":76561198315389475,"connected_time":3400000000000,"state":"active","ping":72}]},{"server_id":110,"name":"Uncletopia | Frankfurt | 2 | All Maps","name_short":"frk-2","host":"frk-1.de.uncletopia.com","port":27025,"enabled":true,"region":"eu","cc":"de","latitude":50.110924,"longitude":8.682127,"reserved":0,"last_update":"0001-01-01T00:00:00Z","name_a2s":"Uncletopia | Frankfurt | 2 | All Maps","protocol":17,"map":"pl_borneo","folder":"tf","game":"Team Fortress","app_id":440,"player_count":24,"max_players":24,"Bots":0,"server_type":"Dedicated","server_os":"Linux","password":true,"vac":true,"version":"7757534","steam_id":85568392924469990,"keywords":["nocrits","nodmgspread","payload","uncletopia"],"game_id":440,"stv_port":27026,"stv_name":"Uncletopia | Frankfurt | 2 | All Maps | STV","players":[{"user_id":182,"name":"TJ1212","steam_id":76561199013575313,"connected_time":4880000000000,"state":"active","ping":58},{"user_id":209,"name":"madman hesus","steam_id":76561198159702599,"connected_time":2632000000000,"state":"active","ping":78},{"user_id":213,"name":"the_Qcumber","steam_id":76561199152515819,"connected_time":2415000000000,"state":"active","ping":74},{"user_id":228,"name":"os2","steam_id":76561199482805601,"connected_time":1379000000000,"state":"active","ping":61},{"user_id":229,"name":"sex havin'","steam_id":76561198169857427,"connected_time":1363000000000,"state":"active","ping":80},{"user_id":230,"name":"Krefa12","steam_id":76561198268375393,"connected_time":1354000000000,"state":"active","ping":93},{"user_id":208,"name":"Raspberry","steam_id":76561198799259569,"connected_time":2765000000000,"state":"active","ping":51},{"user_id":240,"name":"One Hop Dis Time *BWRAB*","steam_id":76561198146081601,"connected_time":119000000000,"state":"active","ping":42},{"user_id":179,"name":"󠀡󠀡","steam_id":76561198140627349,"connected_time":4921000000000,"state":"active","ping":159},{"user_id":236,"name":"Guwop","steam_id":76561197970425737,"connected_time":845000000000,"state":"active","ping":169},{"user_id":235,"name":"the catboy","steam_id":76561198236015506,"connected_time":1175000000000,"state":"active","ping":125},{"user_id":238,"name":"WolfmanCZ","steam_id":76561199157141414,"connected_time":288000000000,"state":"active","ping":69},{"user_id":227,"name":"Tuore Faye","steam_id":76561199482687980,"connected_time":1458000000000,"state":"active","ping":119},{"user_id":234,"name":"Creative","steam_id":76561198835034247,"connected_time":1315000000000,"state":"active","ping":84},{"user_id":231,"name":"Fatass Cat In A Tuxedo","steam_id":76561198363366212,"connected_time":1352000000000,"state":"active","ping":58},{"user_id":202,"name":"Just_Chilling","steam_id":76561198036712229,"connected_time":3058000000000,"state":"active","ping":55},{"user_id":173,"name":"twitch.tv/Dr.Sex","steam_id":76561198029044617,"connected_time":5517000000000,"state":"active","ping":67},{"user_id":198,"name":"rex110","steam_id":76561198159631448,"connected_time":3602000000000,"state":"active","ping":85},{"user_id":232,"name":"Little Satan","steam_id":76561198083614760,"connected_time":1349000000000,"state":"active","ping":65},{"user_id":203,"name":"celt","steam_id":76561198406083426,"connected_time":3054000000000,"state":"active","ping":75},{"user_id":196,"name":"The Business Man","steam_id":76561198059907124,"connected_time":3721000000000,"state":"active","ping":177},{"user_id":237,"name":"Thors","steam_id":76561197968739075,"connected_time":639000000000,"state":"active","ping":53},{"user_id":194,"name":"Devil","steam_id":76561198129721935,"connected_time":3758000000000,"state":"active","ping":89},{"user_id":239,"name":"Bumblebee","steam_id":76561198033551105,"connected_time":260000000000,"state":"active","ping":61}]},{"server_id":308,"name":"Uncletopia | Frankfurt | 3 | All Maps","name_short":"frk-3","host":"frk-1.de.uncletopia.com","port":27035,"enabled":true,"region":"eu","cc":"de","latitude":50.110924,"longitude":8.682127,"reserved":0,"last_update":"0001-01-01T00:00:00Z","name_a2s":"Uncletopia | Frankfurt | 3 | All Maps","protocol":17,"map":"cp_dustbowl","folder":"tf","game":"Team Fortress","app_id":440,"player_count":0,"max_players":24,"Bots":0,"server_type":"Dedicated","server_os":"Linux","password":true,"vac":true,"version":"7757534","steam_id":85568392924504274,"keywords":["cp","nocrits","nodmgspread","uncletopia"],"game_id":440,"stv_port":27036,"stv_name":"Uncletopia | Frankfurt | 3 | All Maps | STV","players":null},{"server_id":309,"name":"Uncletopia | Frankfurt | 4 | All Maps","name_short":"frk-4","host":"frk-1.de.uncletopia.com","port":27045,"enabled":true,"region":"eu","cc":"de","latitude":50.110924,"longitude":8.682127,"reserved":0,"last_update":"0001-01-01T00:00:00Z","name_a2s":"Uncletopia | Frankfurt | 4 | All Maps","protocol":17,"map":"pl_upward","folder":"tf","game":"Team Fortress","app_id":440,"player_count":24,"max_players":24,"Bots":0,"server_type":"Dedicated","server_os":"Linux","password":true,"vac":true,"version":"7757534","steam_id":85568392924504275,"keywords":["nocrits","nodmgspread","payload","uncletopia"],"game_id":440,"stv_port":27046,"stv_name":"Uncletopia | Frankfurt | 4 | All Maps | STV","players":[{"user_id":173,"name":"kamekame","steam_id":76561198047108054,"connected_time":86000000000,"state":"active","ping":103},{"user_id":113,"name":"pizzaboob","steam_id":76561198097507847,"connected_time":4002000000000,"state":"active","ping":78},{"user_id":160,"name":"scarymanfunnynipples","steam_id":76561198057149957,"connected_time":1093000000000,"state":"active","ping":155},{"user_id":130,"name":"giclure :;","steam_id":76561197986362828,"connected_time":2653000000000,"state":"active","ping":58},{"user_id":167,"name":"X-tis","steam_id":76561198043837480,"connected_time":307000000000,"state":"active","ping":73},{"user_id":171,"name":"Seron-Lowell","steam_id":76561198070291347,"connected_time":148000000000,"state":"active","ping":46},{"user_id":172,"name":"$zhern","steam_id":76561198027033926,"connected_time":103000000000,"state":"active","ping":60},{"user_id":163,"name":"Irgend so n Trottel","steam_id":76561197997126444,"connected_time":741000000000,"state":"active","ping":59},{"user_id":144,"name":"Tea","steam_id":76561198799243030,"connected_time":2114000000000,"state":"active","ping":72},{"user_id":168,"name":"MoistyMeatyMiniMan","steam_id":76561199237571837,"connected_time":283000000000,"state":"active","ping":173},{"user_id":142,"name":"Conrad Murray","steam_id":76561198141682876,"connected_time":2250000000000,"state":"active","ping":135},{"user_id":128,"name":"El Gato Volador","steam_id":76561198021296882,"connected_time":2818000000000,"state":"active","ping":76},{"user_id":162,"name":"biden blast","steam_id":76561198059699043,"connected_time":762000000000,"state":"active","ping":68},{"user_id":169,"name":"Fat Pigeon","steam_id":76561198817940142,"connected_time":168000000000,"state":"active","ping":54},{"user_id":166,"name":"wouris","steam_id":76561198876188003,"connected_time":649000000000,"state":"active","ping":53},{"user_id":174,"name":"noobdog","steam_id":76561198036486671,"connected_time":78000000000,"state":"active","ping":60},{"user_id":161,"name":"Chambersite","steam_id":76561198197022399,"connected_time":889000000000,"state":"active","ping":60},{"user_id":150,"name":"Udinese Dion","steam_id":76561198067931573,"connected_time":1871000000000,"state":"active","ping":46},{"user_id":175,"name":"Topi","steam_id":76561198165732391,"connected_time":66000000000,"state":"active","ping":92},{"user_id":148,"name":"Menty","steam_id":76561198036748212,"connected_time":2009000000000,"state":"active","ping":51},{"user_id":111,"name":"my poosy","steam_id":76561198170609049,"connected_time":4167000000000,"state":"active","ping":64},{"user_id":158,"name":"Zune","steam_id":76561198119382708,"connected_time":1229000000000,"state":"active","ping":97},{"user_id":154,"name":"Zatusrex","steam_id":76561198104147805,"connected_time":1578000000000,"state":"active","ping":72},{"user_id":176,"name":"Lyell","steam_id":76561198350329389,"connected_time":66000000000,"state":"active","ping":82}]},{"server_id":310,"name":"Uncletopia | Frankfurt | 5 | All Maps","name_short":"frk-5","host":"frk-1.de.uncletopia.com","port":27055,"enabled":true,"region":"eu","cc":"de","latitude":50.110924,"longitude":8.682127,"reserved":0,"last_update":"0001-01-01T00:00:00Z","name_a2s":"Uncletopia | Frankfurt | 5 | All Maps","protocol":17,"map":"pl_badwater","folder":"tf","game":"Team Fortress","app_id":440,"player_count":24,"max_players":24,"Bots":0,"server_type":"Dedicated","server_os":"Linux","password":true,"vac":true,"version":"7757534","steam_id":85568392924504277,"keywords":["nocrits","nodmgspread","payload","uncletopia"],"game_id":440,"stv_port":27056,"stv_name":"Uncletopia | Frankfurt | 5 | All Maps | STV","players":[{"user_id":78,"name":"TSx* Naxer","steam_id":76561198011986779,"connected_time":433000000000,"state":"active","ping":60},{"user_id":20,"name":"TSx* Osa__PL","steam_id":76561198027016799,"connected_time":3153000000000,"state":"active","ping":73},{"user_id":21,"name":"MFA [pt]","steam_id":76561198021950957,"connected_time":3129000000000,"state":"active","ping":78},{"user_id":77,"name":"koko","steam_id":76561198953867666,"connected_time":439000000000,"state":"active","ping":53},{"user_id":68,"name":"клинч","steam_id":76561198169012017,"connected_time":1564000000000,"state":"active","ping":98},{"user_id":50,"name":"ducks","steam_id":76561198166148685,"connected_time":2033000000000,"state":"active","ping":35},{"user_id":79,"name":"The Bonk Man™","steam_id":76561199044260792,"connected_time":391000000000,"state":"active","ping":60},{"user_id":26,"name":"DiscoTraveler","steam_id":76561199240168088,"connected_time":2724000000000,"state":"active","ping":129},{"user_id":80,"name":"Labia in Fishnets","steam_id":76561198061382104,"connected_time":385000000000,"state":"active","ping":60},{"user_id":72,"name":"Erates","steam_id":76561197968707211,"connected_time":1184000000000,"state":"active","ping":52},{"user_id":83,"name":"Mr.Schnittlauch","steam_id":76561198295868113,"connected_time":107000000000,"state":"active","ping":62},{"user_id":48,"name":"Lessoz","steam_id":76561199211572036,"connected_time":2051000000000,"state":"active","ping":93},{"user_id":73,"name":"Kolmannen","steam_id":76561198288826376,"connected_time":1167000000000,"state":"active","ping":60},{"user_id":74,"name":"увынск","steam_id":76561198172046813,"connected_time":719000000000,"state":"active","ping":75},{"user_id":62,"name":"[waffles]","steam_id":76561198951206047,"connected_time":1798000000000,"state":"active","ping":78},{"user_id":81,"name":"Snow the Proto","steam_id":76561198104898069,"connected_time":363000000000,"state":"active","ping":162},{"user_id":82,"name":"Raven","steam_id":76561198036076305,"connected_time":362000000000,"state":"active","ping":59},{"user_id":65,"name":"Besten44","steam_id":76561198145140832,"connected_time":1723000000000,"state":"active","ping":89},{"user_id":71,"name":"Dio","steam_id":76561198117685434,"connected_time":1265000000000,"state":"active","ping":89},{"user_id":86,"name":"washed up","steam_id":76561198275742101,"connected_time":45000000000,"state":"active","ping":58},{"user_id":75,"name":"Nelu","steam_id":76561198073415991,"connected_time":714000000000,"state":"active","ping":63},{"user_id":47,"name":"Helon","steam_id":76561198050761682,"connected_time":2081000000000,"state":"active","ping":58},{"user_id":56,"name":"Tob","steam_id":76561198108250545,"connected_time":1981000000000,"state":"active","ping":60},{"user_id":85,"name":"Reichskanzlerl✙","steam_id":76561199010757888,"connected_time":97000000000,"state":"active","ping":65}]},{"server_id":311,"name":"Uncletopia | Frankfurt | 6 | All Maps","name_short":"frk-6","host":"frk-1.de.uncletopia.com","port":27065,"enabled":true,"region":"eu","cc":"de","latitude":50.110924,"longitude":8.682127,"reserved":0,"last_update":"0001-01-01T00:00:00Z","name_a2s":"Uncletopia | Frankfurt | 6 | All Maps","protocol":17,"map":"cp_mountainlab","folder":"tf","game":"Team Fortress","app_id":440,"player_count":24,"max_players":24,"Bots":0,"server_type":"Dedicated","server_os":"Linux","password":true,"vac":true,"version":"7757534","steam_id":85568392924504278,"keywords":["cp","nocrits","nodmgspread","uncletopia"],"game_id":440,"stv_port":27066,"stv_name":"Uncletopia | Frankfurt | 6 | All Maps | STV","players":[{"user_id":86,"name":"YuraGreek","steam_id":76561198050182252,"connected_time":7082000000000,"state":"active","ping":77},{"user_id":125,"name":"arcticcu","steam_id":76561198002435882,"connected_time":5015000000000,"state":"active","ping":102},{"user_id":134,"name":"kryhu","steam_id":76561198293327713,"connected_time":4137000000000,"state":"active","ping":61},{"user_id":117,"name":"Ketich","steam_id":76561198021772703,"connected_time":5674000000000,"state":"active","ping":68},{"user_id":160,"name":"Tobleroney","steam_id":76561198154402655,"connected_time":930000000000,"state":"active","ping":47},{"user_id":166,"name":"Monkey Friend","steam_id":76561198144403074,"connected_time":829000000000,"state":"active","ping":40},{"user_id":161,"name":"KaasKrans","steam_id":76561198240451972,"connected_time":915000000000,"state":"active","ping":65},{"user_id":138,"name":"LivEssense","steam_id":76561198052476979,"connected_time":3636000000000,"state":"active","ping":75},{"user_id":145,"name":"Hey, I´m Andy!","steam_id":76561198060337777,"connected_time":2409000000000,"state":"active","ping":77},{"user_id":156,"name":"HelwiiHill","steam_id":76561198066730552,"connected_time":1234000000000,"state":"active","ping":83},{"user_id":170,"name":"Ardello","steam_id":76561198864484125,"connected_time":169000000000,"state":"active","ping":192},{"user_id":149,"name":"on1on (fried)","steam_id":76561197995304137,"connected_time":2305000000000,"state":"active","ping":67},{"user_id":162,"name":"Znoz","steam_id":76561198012093928,"connected_time":905000000000,"state":"active","ping":96},{"user_id":157,"name":"Clitorina","steam_id":76561198077570815,"connected_time":1032000000000,"state":"active","ping":60},{"user_id":169,"name":"Polech","steam_id":76561199187916824,"connected_time":202000000000,"state":"active","ping":77},{"user_id":58,"name":"Rat head","steam_id":76561198184360615,"connected_time":9832000000000,"state":"active","ping":91},{"user_id":163,"name":"CarrotFlowers","steam_id":76561198154714698,"connected_time":896000000000,"state":"active","ping":60},{"user_id":159,"name":"Bambi","steam_id":76561198166972711,"connected_time":971000000000,"state":"active","ping":70},{"user_id":132,"name":"senior pomidor","steam_id":76561198123659806,"connected_time":4237000000000,"state":"active","ping":102},{"user_id":153,"name":"cursedbygod♡","steam_id":76561198318291047,"connected_time":2185000000000,"state":"active","ping":118},{"user_id":119,"name":"ldshwt","steam_id":76561198090364357,"connected_time":5657000000000,"state":"active","ping":49},{"user_id":172,"name":"Mr. Mundy","steam_id":76561198132008918,"connected_time":71000000000,"state":"active","ping":75},{"user_id":164,"name":"Бravo","steam_id":76561198259340310,"connected_time":873000000000,"state":"active","ping":71},{"user_id":167,"name":"Makłowicz","steam_id":76561198281831506,"connected_time":666000000000,"state":"active","ping":82}]},{"server_id":23,"name":"Uncletopia | Frankfurt | 7 | Stopwatch Beta","name_short":"frk-7","host":"frk-1.de.uncletopia.com","port":27075,"enabled":true,"region":"eu","cc":"de","latitude":50.110924,"longitude":8.682127,"reserved":0,"last_update":"0001-01-01T00:00:00Z","name_a2s":"Uncletopia | Frankfurt | 7 | Stopwatch Beta","protocol":17,"map":"pl_swiftwater_final1","folder":"tf","game":"Team Fortress","app_id":440,"player_count":0,"max_players":24,"Bots":0,"server_type":"Dedicated","server_os":"Linux","password":true,"vac":true,"version":"7757534","steam_id":85568392924742827,"keywords":["nocrits","nodmgspread","payload","uncletopia"],"game_id":440,"stv_port":27076,"stv_name":"Uncletopia | Frankfurt | 7 | Stopwatch Beta | STV","players":null},{"server_id":24,"name":"Uncletopia | Frankfurt | 8 | Community","name_short":"frk-8","host":"frk-1.de.uncletopia.com","port":27085,"enabled":true,"region":"eu","cc":"de","latitude":50.110924,"longitude":8.682127,"reserved":0,"last_update":"0001-01-01T00:00:00Z","name_a2s":"Uncletopia | Frankfurt | 8 | Community","protocol":17,"map":"koth_lakeside_final","folder":"tf","game":"Team Fortress","app_id":440,"player_count":0,"max_players":24,"Bots":0,"server_type":"Dedicated","server_os":"Linux","password":true,"vac":true,"version":"7757534","steam_id":85568392924742828,"keywords":["cp","nocrits","nodmgspread","uncletopia"],"game_id":440,"stv_port":27086,"stv_name":"Uncletopia | Frankfurt | 8 | Community | STV","players":null},{"server_id":202,"name":"Uncletopia | Hong Kong | 1 | All Maps","name_short":"hgk-1","host":"hgk-1.hk.uncletopia.com","port":27015,"enabled":true,"region":"asia","cc":"hk","latitude":22.302711,"longitude":114.177216,"reserved":0,"last_update":"0001-01-01T00:00:00Z","name_a2s":"Uncletopia | Hong Kong | 1 | All Maps","protocol":17,"map":"ctf_landfall","folder":"tf","game":"Team Fortress","app_id":440,"player_count":0,"max_players":24,"Bots":0,"server_type":"Dedicated","server_os":"Linux","password":true,"vac":true,"version":"7757534","steam_id":85568392924494504,"keywords":["ctf","nocrits","nodmgspread","uncletopia"],"game_id":440,"stv_port":27016,"stv_name":"Uncletopia | Hong Kong | 1 | All Maps | STV","players":null},{"server_id":1,"name":"Uncletopia | Los Angeles | 1 | All Maps","name_short":"lax-1","host":"lax-1.us.uncletopia.com","port":27015,"enabled":true,"region":"us-west","cc":"us","latitude":33.94279,"longitude":-118.41004,"reserved":0,"last_update":"0001-01-01T00:00:00Z","name_a2s":"Uncletopia | Los Angeles | 1 | All Maps","protocol":17,"map":"koth_lakeside_final","folder":"tf","game":"Team Fortress","app_id":440,"player_count":0,"max_players":24,"Bots":0,"server_type":"Dedicated","server_os":"Linux","password":true,"vac":true,"version":"7757534","steam_id":85568392924469991,"keywords":["cp","nocrits","nodmgspread","uncletopia"],"game_id":440,"stv_port":27016,"stv_name":"Uncletopia | Los Angeles | 1 | All Maps | STV","players":null},{"server_id":112,"name":"Uncletopia | Los Angeles | 2 | All Maps","name_short":"lax-2","host":"lax-1.us.uncletopia.com","port":27025,"enabled":true,"region":"us-west","cc":"us","latitude":33.94279,"longitude":-118.41004,"reserved":0,"last_update":"0001-01-01T00:00:00Z","name_a2s":"Uncletopia | Los Angeles | 2 | All Maps","protocol":17,"map":"pl_snowycoast","folder":"tf","game":"Team Fortress","app_id":440,"player_count":0,"max_players":24,"Bots":0,"server_type":"Dedicated","server_os":"Linux","password":true,"vac":true,"version":"7757534","steam_id":85568392924469992,"keywords":["nocrits","nodmgspread","payload","uncletopia"],"game_id":440,"stv_port":27026,"stv_name":"Uncletopia | Los Angeles | 2 | All Maps | STV","players":null},{"server_id":324,"name":"Uncletopia | Los Angeles | 3 | All Maps","name_short":"lax-3","host":"lax-1.us.uncletopia.com","port":27035,"enabled":true,"region":"us-west","cc":"us","latitude":33.94279,"longitude":-118.41004,"reserved":0,"last_update":"0001-01-01T00:00:00Z","name_a2s":"Uncletopia | Los Angeles | 3 | All Maps","protocol":17,"map":"cp_mountainlab","folder":"tf","game":"Team Fortress","app_id":440,"player_count":0,"max_players":24,"Bots":0,"server_type":"Dedicated","server_os":"Linux","password":true,"vac":true,"version":"7757534","steam_id":85568392924510198,"keywords":["cp","nocrits","nodmgspread","uncletopia"],"game_id":440,"stv_port":27036,"stv_name":"Uncletopia | Los Angeles | 3 | All Maps | STV","players":null},{"server_id":25,"name":"Uncletopia | Los Angeles | 4 | Stopwatch Beta","name_short":"lax-4","host":"lax-1.us.uncletopia.com","port":27045,"enabled":true,"region":"us-west","cc":"us","latitude":33.94279,"longitude":-118.41004,"reserved":0,"last_update":"0001-01-01T00:00:00Z","name_a2s":"Uncletopia | Los Angeles | 4 | Stopwatch Beta","protocol":17,"map":"pl_swiftwater_final1","folder":"tf","game":"Team Fortress","app_id":440,"player_count":0,"max_players":24,"Bots":0,"server_type":"Dedicated","server_os":"Linux","password":true,"vac":true,"version":"7757534","steam_id":85568392924510199,"keywords":["nocrits","nodmgspread","payload","uncletopia"],"game_id":440,"stv_port":27046,"stv_name":"Uncletopia | Los Angeles | 4 | Stopwatch Beta | STV","players":null},{"server_id":11,"name":"Uncletopia | London | 1 | All Maps","name_short":"lon-1","host":"lon-1.uk.uncletopia.com","port":27015,"enabled":true,"region":"eu","cc":"gb","latitude":51.509865,"longitude":-0.118092,"reserved":0,"last_update":"0001-01-01T00:00:00Z","name_a2s":"Uncletopia | London | 1 | All Maps","protocol":17,"map":"pl_barnblitz","folder":"tf","game":"Team Fortress","app_id":440,"player_count":24,"max_players":24,"Bots":0,"server_type":"Dedicated","server_os":"Linux","password":true,"vac":true,"version":"7757534","steam_id":85568392924367362,"keywords":["nocrits","nodmgspread","payload","uncletopia"],"game_id":440,"stv_port":27016,"stv_name":"Uncletopia | London | 1 | All Maps | STV","players":[{"user_id":631,"name":"Hive","steam_id":76561199480966681,"connected_time":697000000000,"state":"active","ping":72},{"user_id":635,"name":"L4gman","steam_id":76561198048227040,"connected_time":486000000000,"state":"active","ping":99},{"user_id":643,"name":"SharK","steam_id":76561198059193009,"connected_time":314000000000,"state":"active","ping":44},{"user_id":617,"name":"Sandshee","steam_id":76561198088574666,"connected_time":2634000000000,"state":"active","ping":35},{"user_id":615,"name":"fieldbox","steam_id":76561198101893112,"connected_time":2887000000000,"state":"active","ping":54},{"user_id":616,"name":"Jinx my beloved","steam_id":76561198819986745,"connected_time":2844000000000,"state":"active","ping":118},{"user_id":641,"name":"Hardway","steam_id":76561198272529254,"connected_time":322000000000,"state":"active","ping":59},{"user_id":645,"name":"Makumba","steam_id":76561198057014708,"connected_time":266000000000,"state":"active","ping":74},{"user_id":638,"name":"Milk","steam_id":76561198125876588,"connected_time":424000000000,"state":"active","ping":53},{"user_id":495,"name":"Rappin' Sebastian","steam_id":76561198453928256,"connected_time":12824000000000,"state":"active","ping":78},{"user_id":467,"name":"john fortress","steam_id":76561198013237629,"connected_time":14967000000000,"state":"active","ping":101},{"user_id":611,"name":"Swedish Vegan","steam_id":76561198042775020,"connected_time":3795000000000,"state":"active","ping":76},{"user_id":637,"name":"twitch.tv/vision515","steam_id":76561198065293729,"connected_time":438000000000,"state":"active","ping":168},{"user_id":602,"name":"♥ aura ♥","steam_id":76561198066258544,"connected_time":4494000000000,"state":"active","ping":66},{"user_id":618,"name":"B.batt","steam_id":76561198998684199,"connected_time":2630000000000,"state":"active","ping":125},{"user_id":628,"name":"SuperBob103","steam_id":76561199175360012,"connected_time":960000000000,"state":"active","ping":58},{"user_id":644,"name":"Skyfox","steam_id":76561198036647535,"connected_time":298000000000,"state":"active","ping":60},{"user_id":625,"name":"Lennox","steam_id":76561198069063554,"connected_time":1250000000000,"state":"active","ping":50},{"user_id":646,"name":"god's eepiest girl","steam_id":76561198128327529,"connected_time":10000000000,"state":"spawning","ping":57},{"user_id":634,"name":"The SEX Master","steam_id":76561198812424933,"connected_time":580000000000,"state":"active","ping":58},{"user_id":630,"name":"Alexandre","steam_id":76561198121784446,"connected_time":934000000000,"state":"active","ping":34},{"user_id":623,"name":"mercurial","steam_id":76561198046227550,"connected_time":1889000000000,"state":"active","ping":56},{"user_id":627,"name":"Sorky","steam_id":76561198007502339,"connected_time":1180000000000,"state":"active","ping":73},{"user_id":580,"name":"Penis Contortionist","steam_id":76561198073663784,"connected_time":6727000000000,"state":"active","ping":41}]},{"server_id":114,"name":"Uncletopia | London | 2 | All Maps","name_short":"lon-2","host":"lon-1.uk.uncletopia.com","port":27025,"enabled":true,"region":"eu","cc":"gb","latitude":51.509865,"longitude":-0.118092,"reserved":0,"last_update":"0001-01-01T00:00:00Z","name_a2s":"Uncletopia | London | 2 | All Maps","protocol":17,"map":"pl_swiftwater_final1","folder":"tf","game":"Team Fortress","app_id":440,"player_count":18,"max_players":24,"Bots":0,"server_type":"Dedicated","server_os":"Linux","password":true,"vac":true,"version":"7757534","steam_id":85568392924470941,"keywords":["nocrits","nodmgspread","payload","uncletopia"],"game_id":440,"stv_port":27026,"stv_name":"Uncletopia | London | 2 | All Maps | STV","players":[{"user_id":449,"name":"MaRo","steam_id":76561198992286676,"connected_time":31000000000,"state":"active","ping":54},{"user_id":450,"name":"SkillFullNinja","steam_id":76561198376246441,"connected_time":29000000000,"state":"active","ping":120},{"user_id":425,"name":"followthenight","steam_id":76561198017619752,"connected_time":1501000000000,"state":"active","ping":70},{"user_id":414,"name":"Zerfesh","steam_id":76561198117534358,"connected_time":2036000000000,"state":"active","ping":102},{"user_id":432,"name":"Breizbuc","steam_id":76561198118220633,"connected_time":1354000000000,"state":"active","ping":63},{"user_id":453,"name":"RIFT","steam_id":76561198991622379,"connected_time":10000000000,"state":"active","ping":33},{"user_id":441,"name":"LUNATIC (real)","steam_id":76561198107220903,"connected_time":467000000000,"state":"active","ping":61},{"user_id":452,"name":"Old Hat","steam_id":76561197994673297,"connected_time":13000000000,"state":"active","ping":55},{"user_id":388,"name":"Gnarville","steam_id":76561198006373329,"connected_time":3784000000000,"state":"active","ping":46},{"user_id":411,"name":"engineer drip","steam_id":76561198991032570,"connected_time":2373000000000,"state":"active","ping":120},{"user_id":454,"name":"Rizziologist","steam_id":76561198089003514,"connected_time":10000000000,"state":"spawning","ping":44},{"user_id":440,"name":"Vinnidict","steam_id":76561198037087000,"connected_time":613000000000,"state":"active","ping":62},{"user_id":426,"name":"テイルス","steam_id":76561198022403271,"connected_time":1490000000000,"state":"active","ping":46},{"user_id":427,"name":"maggot","steam_id":76561199075532033,"connected_time":1490000000000,"state":"spawning","ping":97},{"user_id":421,"name":"kyra","steam_id":76561198412004372,"connected_time":1653000000000,"state":"active","ping":67},{"user_id":438,"name":"tier 7 jumper","steam_id":76561198308439257,"connected_time":755000000000,"state":"active","ping":51},{"user_id":431,"name":"LemonLeCitron","steam_id":76561198215545267,"connected_time":1425000000000,"state":"active","ping":70},{"user_id":447,"name":"O4W P1N","steam_id":76561198382749493,"connected_time":227000000000,"state":"active","ping":128}]},{"server_id":320,"name":"Uncletopia | London | 3 | All Maps","name_short":"lon-3","host":"lon-1.uk.uncletopia.com","port":27035,"enabled":true,"region":"eu","cc":"gb","latitude":51.509865,"longitude":-0.118092,"reserved":0,"last_update":"0001-01-01T00:00:00Z","name_a2s":"Uncletopia | London | 3 | All Maps","protocol":17,"map":"pl_upward","folder":"tf","game":"Team Fortress","app_id":440,"player_count":24,"max_players":24,"Bots":0,"server_type":"Dedicated","server_os":"Linux","password":true,"vac":true,"version":"7757534","steam_id":85568392924510192,"keywords":["nocrits","nodmgspread","payload","uncletopia"],"game_id":440,"stv_port":27036,"stv_name":"Uncletopia | London | 3 | All Maps | STV","players":[{"user_id":528,"name":"Tyra","steam_id":76561198043739064,"connected_time":733000000000,"state":"active","ping":73},{"user_id":514,"name":"walluu","steam_id":76561198121830870,"connected_time":1930000000000,"state":"active","ping":84},{"user_id":515,"name":"Strafely","steam_id":76561199242567438,"connected_time":1929000000000,"state":"active","ping":67},{"user_id":404,"name":"I hate binkzon...","steam_id":76561198057403817,"connected_time":8859000000000,"state":"active","ping":69},{"user_id":540,"name":"o","steam_id":76561198066799770,"connected_time":146000000000,"state":"active","ping":67},{"user_id":405,"name":"Mental","steam_id":76561198057117092,"connected_time":8840000000000,"state":"active","ping":61},{"user_id":529,"name":"Favi","steam_id":76561198013236935,"connected_time":728000000000,"state":"active","ping":84},{"user_id":485,"name":"Cypher","steam_id":76561197996967254,"connected_time":4271000000000,"state":"active","ping":61},{"user_id":522,"name":"Mean Green Peen","steam_id":76561198228455736,"connected_time":1664000000000,"state":"active","ping":46},{"user_id":527,"name":"Oriuke","steam_id":76561197992166123,"connected_time":751000000000,"state":"active","ping":59},{"user_id":530,"name":"Doohickey mechanic","steam_id":76561198146180114,"connected_time":721000000000,"state":"active","ping":94},{"user_id":541,"name":"fabacher","steam_id":76561198057905272,"connected_time":63000000000,"state":"active","ping":60},{"user_id":524,"name":"Emma","steam_id":76561198076724979,"connected_time":1570000000000,"state":"active","ping":61},{"user_id":538,"name":"[Kry]","steam_id":76561198145756066,"connected_time":420000000000,"state":"active","ping":45},{"user_id":539,"name":"XPullaHiiri","steam_id":76561198031652375,"connected_time":288000000000,"state":"active","ping":100},{"user_id":537,"name":"dimitrij_6ix_god","steam_id":76561199023275543,"connected_time":499000000000,"state":"active","ping":84},{"user_id":526,"name":"Soerlssoelssöen","steam_id":76561197993060585,"connected_time":757000000000,"state":"active","ping":84},{"user_id":532,"name":"rock","steam_id":76561198093488870,"connected_time":709000000000,"state":"active","ping":60},{"user_id":493,"name":"Kurage","steam_id":76561198021221288,"connected_time":3881000000000,"state":"active","ping":71},{"user_id":494,"name":"PashaVerti","steam_id":76561199013963024,"connected_time":3699000000000,"state":"active","ping":95},{"user_id":533,"name":"XBOX Sturux","steam_id":76561198277644122,"connected_time":706000000000,"state":"active","ping":75},{"user_id":534,"name":"goblinninja110","steam_id":76561198269159354,"connected_time":683000000000,"state":"active","ping":57},{"user_id":506,"name":"padillacampos","steam_id":76561198161923970,"connected_time":2707000000000,"state":"active","ping":72},{"user_id":520,"name":"trolley","steam_id":76561199089765404,"connected_time":1829000000000,"state":"active","ping":59}]},{"server_id":321,"name":"Uncletopia | London | 4 | All Maps","name_short":"lon-4","host":"lon-1.uk.uncletopia.com","port":27045,"enabled":true,"region":"eu","cc":"gb","latitude":51.509865,"longitude":-0.118092,"reserved":0,"last_update":"0001-01-01T00:00:00Z","name_a2s":"Uncletopia | London | 4 | All Maps","protocol":17,"map":"koth_lakeside_final","folder":"tf","game":"Team Fortress","app_id":440,"player_count":8,"max_players":24,"Bots":0,"server_type":"Dedicated","server_os":"Linux","password":true,"vac":true,"version":"7757534","steam_id":85568392924510193,"keywords":["cp","nocrits","nodmgspread","uncletopia"],"game_id":440,"stv_port":27046,"stv_name":"Uncletopia | London | 4 | All Maps | STV","players":[{"user_id":12,"name":"B∞p | ❤Fasto❤","steam_id":76561198118298527,"connected_time":291000000000,"state":"active","ping":59},{"user_id":14,"name":"Wire  Bash","steam_id":76561198033268371,"connected_time":284000000000,"state":"active","ping":51},{"user_id":19,"name":"Flying skyhigh","steam_id":76561198372971096,"connected_time":229000000000,"state":"active","ping":75},{"user_id":16,"name":"Tankedup_","steam_id":76561198168659251,"connected_time":279000000000,"state":"active","ping":39},{"user_id":18,"name":"B∞p | ❤Hina❤","steam_id":76561198058465921,"connected_time":258000000000,"state":"active","ping":51},{"user_id":21,"name":"Rocket.Blade","steam_id":76561198063104145,"connected_time":209000000000,"state":"active","ping":47},{"user_id":22,"name":"johncenx","steam_id":76561198366703672,"connected_time":167000000000,"state":"active","ping":74},{"user_id":23,"name":"Goro Majima","steam_id":76561198003040222,"connected_time":124000000000,"state":"active","ping":40}]},{"server_id":21,"name":"Uncletopia | London | 5 | All Maps","name_short":"lon-5","host":"lon-1.uk.uncletopia.com","port":27055,"enabled":true,"region":"eu","cc":"gb","latitude":51.509865,"longitude":-0.118092,"reserved":0,"last_update":"0001-01-01T00:00:00Z","name_a2s":"Uncletopia | London | 5 | All Maps","protocol":17,"map":"ctf_turbine","folder":"tf","game":"Team Fortress","app_id":440,"player_count":24,"max_players":24,"Bots":0,"server_type":"Dedicated","server_os":"Linux","password":true,"vac":true,"version":"7757534","steam_id":85568392924742829,"keywords":["ctf","nocrits","nodmgspread","uncletopia"],"game_id":440,"stv_port":27056,"stv_name":"Uncletopia | London | 5 | All Maps | STV","players":[{"user_id":431,"name":"Snoucher","steam_id":76561198955323108,"connected_time":2585000000000,"state":"active","ping":80},{"user_id":491,"name":"HilldogGaming","steam_id":76561198082209322,"connected_time":410000000000,"state":"active","ping":81},{"user_id":450,"name":"Xoukz","steam_id":76561198356014540,"connected_time":2057000000000,"state":"active","ping":104},{"user_id":492,"name":"Oceo","steam_id":76561199035661606,"connected_time":326000000000,"state":"active","ping":55},{"user_id":473,"name":"desnot","steam_id":76561198862581894,"connected_time":1213000000000,"state":"active","ping":74},{"user_id":459,"name":"TomNoSocks","steam_id":76561198114071046,"connected_time":1875000000000,"state":"active","ping":63},{"user_id":444,"name":"[O\u0026O]YaboiDucki","steam_id":76561198195976589,"connected_time":2174000000000,"state":"active","ping":69},{"user_id":451,"name":"Mobster Tortoise","steam_id":76561199036837091,"connected_time":2038000000000,"state":"active","ping":90},{"user_id":489,"name":"Axord","steam_id":76561199289652176,"connected_time":511000000000,"state":"active","ping":73},{"user_id":449,"name":"Dozer","steam_id":76561197998742338,"connected_time":2099000000000,"state":"active","ping":53},{"user_id":484,"name":"Average meme enjoyer","steam_id":76561199087566663,"connected_time":624000000000,"state":"active","ping":92},{"user_id":494,"name":"Festive Keshu","steam_id":76561198852603168,"connected_time":173000000000,"state":"active","ping":75},{"user_id":497,"name":"ุ","steam_id":76561198045466919,"connected_time":96000000000,"state":"active","ping":73},{"user_id":472,"name":"go play rimworld","steam_id":76561199397932924,"connected_time":1330000000000,"state":"active","ping":79},{"user_id":437,"name":"TEN YEARS IN THE JOINT","steam_id":76561198393528841,"connected_time":2487000000000,"state":"active","ping":104},{"user_id":454,"name":"Elix","steam_id":76561199072306920,"connected_time":1955000000000,"state":"active","ping":105},{"user_id":493,"name":"Gorogaz","steam_id":76561198207157679,"connected_time":263000000000,"state":"active","ping":70},{"user_id":468,"name":"CNTRL","steam_id":76561199125803827,"connected_time":1583000000000,"state":"active","ping":65},{"user_id":495,"name":"Kek meister 8 mil","steam_id":76561197989904384,"connected_time":169000000000,"state":"active","ping":76},{"user_id":403,"name":"Morutomo","steam_id":76561198100640441,"connected_time":4400000000000,"state":"active","ping":97},{"user_id":479,"name":"Homosapien","steam_id":76561197972035953,"connected_time":919000000000,"state":"active","ping":74},{"user_id":496,"name":"upisfree","steam_id":76561198064037857,"connected_time":160000000000,"state":"active","ping":116},{"user_id":467,"name":"xTheDarkLight","steam_id":76561198239128298,"connected_time":1614000000000,"state":"active","ping":60},{"user_id":478,"name":"Doggen","steam_id":76561198061152504,"connected_time":1032000000000,"state":"active","ping":81}]},{"server_id":22,"name":"Uncletopia | London | 6 | All Maps","name_short":"lon-6","host":"lon-1.uk.uncletopia.com","port":27065,"enabled":true,"region":"eu","cc":"gb","latitude":51.509865,"longitude":-0.118092,"reserved":0,"last_update":"0001-01-01T00:00:00Z","name_a2s":"Uncletopia | London | 6 | All Maps","protocol":17,"map":"cp_sunshine","folder":"tf","game":"Team Fortress","app_id":440,"player_count":0,"max_players":24,"Bots":0,"server_type":"Dedicated","server_os":"Linux","password":true,"vac":true,"version":"7757534","steam_id":85568392924742830,"keywords":["cp","nocrits","nodmgspread","uncletopia"],"game_id":440,"stv_port":27066,"stv_name":"Uncletopia | London | 6 | All Maps | STV","players":null},{"server_id":40,"name":"Uncletopia | London | 7 | No Payload","name_short":"lon-7","host":"lon-1.uk.uncletopia.com","port":27075,"enabled":true,"region":"eu","cc":"gb","latitude":51.509865,"longitude":-0.118092,"reserved":0,"last_update":"0001-01-01T00:00:00Z","name_a2s":"Uncletopia | London | 7 | No Payload","protocol":17,"map":"cp_process_final","folder":"tf","game":"Team Fortress","app_id":440,"player_count":5,"max_players":24,"Bots":0,"server_type":"Dedicated","server_os":"Linux","password":true,"vac":true,"version":"7757534","steam_id":85568392924964314,"keywords":["cp","nocrits","nodmgspread","uncletopia"],"game_id":440,"stv_port":27076,"stv_name":"Uncletopia | London | 7 | No Payload | STV","players":[{"user_id":109,"name":"ran is running","steam_id":76561199443185667,"connected_time":1277000000000,"state":"active","ping":124},{"user_id":108,"name":"lipaul777","steam_id":76561199090751367,"connected_time":1359000000000,"state":"active","ping":77},{"user_id":110,"name":"Dommy","steam_id":76561197990864747,"connected_time":1263000000000,"state":"active","ping":55},{"user_id":112,"name":"ScaryTree","steam_id":76561199384362833,"connected_time":284000000000,"state":"active","ping":58},{"user_id":114,"name":"Dor_atar","steam_id":76561198973980542,"connected_time":28000000000,"state":"active","ping":82}]},{"server_id":41,"name":"Uncletopia | London | 8 | Community","name_short":"lon-8","host":"lon-1.uk.uncletopia.com","port":27085,"enabled":true,"region":"eu","cc":"gb","latitude":51.509865,"longitude":-0.118092,"reserved":0,"last_update":"0001-01-01T00:00:00Z","name_a2s":"Uncletopia | London | 8 | Community","protocol":17,"map":"pl_barnblitz","folder":"tf","game":"Team Fortress","app_id":440,"player_count":0,"max_players":24,"Bots":0,"server_type":"Dedicated","server_os":"Linux","password":true,"vac":true,"version":"7757534","steam_id":85568392924964315,"keywords":["nocrits","nodmgspread","payload","uncletopia"],"game_id":440,"stv_port":27086,"stv_name":"Uncletopia | London | 8 | Community | STV","players":null},{"server_id":300,"name":"Uncletopia | Montréal | 1 | All Maps","name_short":"mtl-1","host":"mtl-1.ca.uncletopia.com","port":27015,"enabled":true,"region":"us-east","cc":"ca","latitude":45.50889,"longitude":-73.56167,"reserved":0,"last_update":"0001-01-01T00:00:00Z","name_a2s":"Uncletopia | Montréal | 1 | All Maps","protocol":17,"map":"pl_upward","folder":"tf","game":"Team Fortress","app_id":440,"player_count":0,"max_players":24,"Bots":0,"server_type":"Dedicated","server_os":"Linux","password":true,"vac":true,"version":"7757534","steam_id":85568392924500087,"keywords":["nocrits","nodmgspread","payload","uncletopia"],"game_id":440,"stv_port":27016,"stv_name":"Uncletopia | Montréal | 1 | All Maps | STV","players":null},{"server_id":301,"name":"Uncletopia | Montréal | 2 | All Maps","name_short":"mtl-2","host":"mtl-1.ca.uncletopia.com","port":27025,"enabled":true,"region":"us-east","cc":"ca","latitude":45.50889,"longitude":-73.56167,"reserved":0,"last_update":"0001-01-01T00:00:00Z","name_a2s":"Uncletopia | Montréal | 2 | All Maps","protocol":17,"map":"pl_snowycoast","folder":"tf","game":"Team Fortress","app_id":440,"player_count":0,"max_players":24,"Bots":0,"server_type":"Dedicated","server_os":"Linux","password":true,"vac":true,"version":"7757534","steam_id":85568392924500088,"keywords":["nocrits","nodmgspread","payload","uncletopia"],"game_id":440,"stv_port":27026,"stv_name":"Uncletopia | Montréal | 2 | All Maps | STV","players":null},{"server_id":302,"name":"Uncletopia | Montréal | 3 | All Maps","name_short":"mtl-3","host":"mtl-1.ca.uncletopia.com","port":27035,"enabled":true,"region":"us-east","cc":"ca","latitude":45.50889,"longitude":-73.56167,"reserved":0,"last_update":"0001-01-01T00:00:00Z","name_a2s":"Uncletopia | Montréal | 3 | All Maps","protocol":17,"map":"pl_swiftwater_final1","folder":"tf","game":"Team Fortress","app_id":440,"player_count":0,"max_players":24,"Bots":0,"server_type":"Dedicated","server_os":"Linux","password":true,"vac":true,"version":"7757534","steam_id":85568392924500089,"keywords":["nocrits","nodmgspread","payload","uncletopia"],"game_id":440,"stv_port":27036,"stv_name":"Uncletopia | Montréal | 3 | All Maps | STV","players":null},{"server_id":303,"name":"Uncletopia | Montréal | 4 | No Payload","name_short":"mtl-4","host":"mtl-1.ca.uncletopia.com","port":27045,"enabled":true,"region":"us-east","cc":"ca","latitude":45.50889,"longitude":-73.56167,"reserved":0,"last_update":"0001-01-01T00:00:00Z","name_a2s":"Uncletopia | Montréal | 4 | No Payload","protocol":17,"map":"pl_pier","folder":"tf","game":"Team Fortress","app_id":440,"player_count":0,"max_players":24,"Bots":0,"server_type":"Dedicated","server_os":"Linux","password":true,"vac":true,"version":"7757534","steam_id":85568392924500090,"keywords":["nocrits","nodmgspread","payload","uncletopia"],"game_id":440,"stv_port":27046,"stv_name":"Uncletopia | Montréal | 4 | No Payload | STV","players":null},{"server_id":13,"name":"Uncletopia | New York City | 1 | All Maps","name_short":"nyc-1","host":"nyc-1.us.uncletopia.com","port":27015,"enabled":true,"region":"us-east","cc":"us","latitude":40.73061,"longitude":-73.93524,"reserved":0,"last_update":"0001-01-01T00:00:00Z","name_a2s":"Uncletopia | New York City | 1 | All Maps","protocol":17,"map":"pl_pier","folder":"tf","game":"Team Fortress","app_id":440,"player_count":12,"max_players":24,"Bots":0,"server_type":"Dedicated","server_os":"Linux","password":true,"vac":true,"version":"7757534","steam_id":85568392924469993,"keywords":["nocrits","nodmgspread","payload","uncletopia"],"game_id":440,"stv_port":27016,"stv_name":"Uncletopia | New York City | 1 | All Maps | STV","players":[{"user_id":8,"name":"Gobbo Nikki","steam_id":76561198164401669,"connected_time":1082000000000,"state":"active","ping":89},{"user_id":4,"name":"emilee (evil)","steam_id":76561198061455664,"connected_time":2000000000000,"state":"active","ping":44},{"user_id":6,"name":"Schizophrenia Gaming","steam_id":76561198242118240,"connected_time":1432000000000,"state":"active","ping":61},{"user_id":9,"name":"by de grace of god","steam_id":76561198091353390,"connected_time":1036000000000,"state":"active","ping":119},{"user_id":10,"name":"Real player. 123","steam_id":76561199040298288,"connected_time":1028000000000,"state":"active","ping":136},{"user_id":26,"name":"TONE","steam_id":76561198043898471,"connected_time":248000000000,"state":"active","ping":47},{"user_id":27,"name":"sam","steam_id":76561198217362968,"connected_time":64000000000,"state":"active","ping":64},{"user_id":21,"name":"\u003cTFF\u003e Gurn","steam_id":76561198011393367,"connected_time":378000000000,"state":"active","ping":89},{"user_id":22,"name":"TJGSASQUATCH","steam_id":76561198077806921,"connected_time":366000000000,"state":"active","ping":68},{"user_id":15,"name":"uzr","steam_id":76561198799343084,"connected_time":854000000000,"state":"active","ping":112},{"user_id":16,"name":"dmdr1969","steam_id":76561198080469611,"connected_time":750000000000,"state":"active","ping":76},{"user_id":23,"name":"gmaay","steam_id":76561199104911185,"connected_time":348000000000,"state":"active","ping":48}]},{"server_id":14,"name":"Uncletopia | New York City | 2 | All Maps","name_short":"nyc-2","host":"nyc-1.us.uncletopia.com","port":27025,"enabled":true,"region":"us-east","cc":"us","latitude":40.73061,"longitude":-73.93524,"reserved":0,"last_update":"0001-01-01T00:00:00Z","name_a2s":"Uncletopia | New York City | 2 | All Maps","protocol":17,"map":"koth_viaduct","folder":"tf","game":"Team Fortress","app_id":440,"player_count":0,"max_players":24,"Bots":0,"server_type":"Dedicated","server_os":"Linux","password":true,"vac":true,"version":"7757534","steam_id":85568392924469994,"keywords":["cp","nocrits","nodmgspread","uncletopia"],"game_id":440,"stv_port":27026,"stv_name":"Uncletopia | New York City | 2 | All Maps | STV","players":null},{"server_id":15,"name":"Uncletopia | New York City | 3 | Stopwatch Beta","name_short":"nyc-3","host":"nyc-1.us.uncletopia.com","port":27035,"enabled":true,"region":"us-east","cc":"us","latitude":40.73061,"longitude":-73.93524,"reserved":0,"last_update":"0001-01-01T00:00:00Z","name_a2s":"Uncletopia | New York City | 3 | Stopwatch Beta","protocol":17,"map":"pl_upward","folder":"tf","game":"Team Fortress","app_id":440,"player_count":0,"max_players":24,"Bots":0,"server_type":"Dedicated","server_os":"Linux","password":true,"vac":true,"version":"7757534","steam_id":85568392924742820,"keywords":["nocrits","nodmgspread","payload","uncletopia"],"game_id":440,"stv_port":27036,"stv_name":"Uncletopia | New York City | 3 | Stopwatch Beta | STV","players":null},{"server_id":16,"name":"Uncletopia | New York City | 4 | Community","name_short":"nyc-4","host":"nyc-1.us.uncletopia.com","port":27045,"enabled":true,"region":"us-east","cc":"us","latitude":40.73061,"longitude":-73.93524,"reserved":0,"last_update":"0001-01-01T00:00:00Z","name_a2s":"Uncletopia | New York City | 4 | Community","protocol":17,"map":"workshop/koth_product_final.ugc454272353","folder":"tf","game":"Team Fortress","app_id":440,"player_count":0,"max_players":24,"Bots":0,"server_type":"Dedicated","server_os":"Linux","password":true,"vac":true,"version":"7757534","steam_id":85568392924742821,"keywords":["cp","nocrits","nodmgspread","uncletopia"],"game_id":440,"stv_port":27046,"stv_name":"Uncletopia | New York City | 4 | Community | STV","players":null},{"server_id":142,"name":"Uncletopia | São Paulo | 1 | All Maps","name_short":"sao-1","host":"sao-1.br.uncletopia.com","port":27015,"enabled":true,"region":"sa","cc":"br","latitude":-23.533773,"longitude":-46.62529,"reserved":0,"last_update":"0001-01-01T00:00:00Z","name_a2s":"Uncletopia | São Paulo | 1 | All Maps","protocol":17,"map":"koth_lakeside_final","folder":"tf","game":"Team Fortress","app_id":440,"player_count":0,"max_players":24,"Bots":0,"server_type":"Dedicated","server_os":"Linux","password":true,"vac":true,"version":"7757534","steam_id":85568392924469996,"keywords":["cp","nocrits","nodmgspread","uncletopia"],"game_id":440,"stv_port":27016,"stv_name":"Uncletopia | São Paulo | 1 | All Maps | STV","players":null},{"server_id":143,"name":"Uncletopia | São Paulo | 2 | All Maps","name_short":"sao-2","host":"sao-2.br.uncletopia.com","port":27015,"enabled":true,"region":"sa","cc":"br","latitude":-23.533773,"longitude":-46.62529,"reserved":0,"last_update":"0001-01-01T00:00:00Z","name_a2s":"Uncletopia | São Paulo | 2 | All Maps","protocol":17,"map":"pl_snowycoast","folder":"tf","game":"Team Fortress","app_id":440,"player_count":0,"max_players":24,"Bots":0,"server_type":"Dedicated","server_os":"Linux","password":true,"vac":true,"version":"7757534","steam_id":85568392924485349,"keywords":["nocrits","nodmgspread","payload","uncletopia"],"game_id":440,"stv_port":27016,"stv_name":"Uncletopia | São Paulo | 2 | All Maps | STV","players":null},{"server_id":7,"name":"Uncletopia | Seattle | 1 | All Maps","name_short":"sea-1","host":"sea-1.us.uncletopia.com","port":27015,"enabled":true,"region":"us-west","cc":"us","latitude":47.608013,"longitude":-122.33517,"reserved":0,"last_update":"0001-01-01T00:00:00Z","name_a2s":"Uncletopia | Seattle | 1 | All Maps","protocol":17,"map":"cp_fastlane","folder":"tf","game":"Team Fortress","app_id":440,"player_count":22,"max_players":24,"Bots":0,"server_type":"Dedicated","server_os":"Linux","password":true,"vac":true,"version":"7757534","steam_id":85568392924469997,"keywords":["cp","nocrits","nodmgspread","uncletopia"],"game_id":440,"stv_port":27016,"stv_name":"Uncletopia | Seattle | 1 | All Maps | STV","players":[{"user_id":194,"name":"jhonthecat","steam_id":76561198120559390,"connected_time":1094000000000,"state":"active","ping":66},{"user_id":182,"name":"Ocvember","steam_id":76561198206308152,"connected_time":1613000000000,"state":"active","ping":68},{"user_id":177,"name":"Mr8bittripper","steam_id":76561198133894229,"connected_time":2607000000000,"state":"active","ping":45},{"user_id":203,"name":"Taylor Swift","steam_id":76561198078130694,"connected_time":137000000000,"state":"active","ping":93},{"user_id":136,"name":"Headmouth","steam_id":76561198019789855,"connected_time":5972000000000,"state":"active","ping":168},{"user_id":181,"name":"nori_420","steam_id":76561199117134203,"connected_time":1683000000000,"state":"active","ping":86},{"user_id":196,"name":"Servitz","steam_id":76561198194446835,"connected_time":959000000000,"state":"active","ping":130},{"user_id":184,"name":"muddy","steam_id":76561198035015260,"connected_time":1602000000000,"state":"active","ping":82},{"user_id":185,"name":"W + M1 Pyro","steam_id":76561197996783330,"connected_time":1575000000000,"state":"active","ping":134},{"user_id":178,"name":"Matt","steam_id":76561199122703238,"connected_time":2267000000000,"state":"active","ping":89},{"user_id":169,"name":"amagicowl","steam_id":76561199060487814,"connected_time":3327000000000,"state":"active","ping":51},{"user_id":173,"name":"glue eater","steam_id":76561198210322871,"connected_time":2984000000000,"state":"active","ping":65},{"user_id":202,"name":"lavener","steam_id":76561199069518286,"connected_time":206000000000,"state":"active","ping":68},{"user_id":186,"name":"Hovg9000.TV","steam_id":76561199191556710,"connected_time":1563000000000,"state":"active","ping":103},{"user_id":193,"name":"o o o o o o o o o","steam_id":76561197993757506,"connected_time":1281000000000,"state":"active","ping":75},{"user_id":195,"name":"Tyler\u0026Fingers","steam_id":76561198085154485,"connected_time":1012000000000,"state":"active","ping":135},{"user_id":198,"name":"FearFraaz","steam_id":76561198054218427,"connected_time":690000000000,"state":"active","ping":167},{"user_id":200,"name":"Dev","steam_id":76561198388276870,"connected_time":453000000000,"state":"active","ping":119},{"user_id":190,"name":"Mignyanne :3","steam_id":76561198048754056,"connected_time":1521000000000,"state":"active","ping":67},{"user_id":204,"name":"PBxJAY","steam_id":76561198402471788,"connected_time":126000000000,"state":"active","ping":98},{"user_id":197,"name":"blizz","steam_id":76561199139715539,"connected_time":753000000000,"state":"active","ping":63},{"user_id":191,"name":"LitlToast","steam_id":76561198353473171,"connected_time":1518000000000,"state":"active","ping":124}]},{"server_id":119,"name":"Uncletopia | Seattle | 2 | All Maps","name_short":"sea-2","host":"sea-1.us.uncletopia.com","port":27025,"enabled":true,"region":"us-west","cc":"us","latitude":47.608013,"longitude":-122.33517,"reserved":0,"last_update":"0001-01-01T00:00:00Z","name_a2s":"Uncletopia | Seattle | 2 | All Maps","protocol":17,"map":"cp_mercenarypark","folder":"tf","game":"Team Fortress","app_id":440,"player_count":21,"max_players":24,"Bots":0,"server_type":"Dedicated","server_os":"Linux","password":true,"vac":true,"version":"7757534","steam_id":85568392924469998,"keywords":["cp","nocrits","nodmgspread","uncletopia"],"game_id":440,"stv_port":27026,"stv_name":"Uncletopia | Seattle | 2 | All Maps | STV","players":[{"user_id":229,"name":"SuperFresh","steam_id":76561198200723198,"connected_time":1982000000000,"state":"active","ping":87},{"user_id":200,"name":"Wounded","steam_id":76561199440954924,"connected_time":4560000000000,"state":"active","ping":133},{"user_id":248,"name":"mini-sentry","steam_id":76561199088135362,"connected_time":249000000000,"state":"active","ping":88},{"user_id":241,"name":"SAD MOSCOVIA","steam_id":76561198101081520,"connected_time":836000000000,"state":"active","ping":75},{"user_id":249,"name":"hidden tiger, crouching pootis","steam_id":76561198986534519,"connected_time":230000000000,"state":"active","ping":45},{"user_id":156,"name":"fox news goblin","steam_id":76561198167648580,"connected_time":7200000000000,"state":"active","ping":73},{"user_id":250,"name":"porfer","steam_id":76561199118049168,"connected_time":173000000000,"state":"active","ping":80},{"user_id":227,"name":"Biosock Infiknit","steam_id":76561198072693794,"connected_time":2017000000000,"state":"active","ping":110},{"user_id":180,"name":"wizorb","steam_id":76561198002172674,"connected_time":5601000000000,"state":"active","ping":81},{"user_id":245,"name":"no vc no c","steam_id":76561197989503095,"connected_time":709000000000,"state":"active","ping":152},{"user_id":181,"name":"Spooky","steam_id":76561198030817605,"connected_time":5596000000000,"state":"active","ping":35},{"user_id":196,"name":"Dob Bole","steam_id":76561198056367220,"connected_time":4827000000000,"state":"active","ping":75},{"user_id":228,"name":"hack fraud","steam_id":76561198015036066,"connected_time":2009000000000,"state":"active","ping":87},{"user_id":218,"name":"Pombley","steam_id":76561198141227263,"connected_time":2792000000000,"state":"active","ping":123},{"user_id":246,"name":"lights","steam_id":76561198049192689,"connected_time":599000000000,"state":"active","ping":78},{"user_id":236,"name":"RagingBagon","steam_id":76561198255453127,"connected_time":1644000000000,"state":"active","ping":71},{"user_id":247,"name":"serious jester","steam_id":76561198079609974,"connected_time":593000000000,"state":"active","ping":89},{"user_id":251,"name":"robertJMP","steam_id":76561199066260919,"connected_time":155000000000,"state":"active","ping":218},{"user_id":231,"name":"Gavial the Invincible","steam_id":76561198348354629,"connected_time":1913000000000,"state":"active","ping":63},{"user_id":192,"name":"Kiwimpediment","steam_id":76561198322781400,"connected_time":5273000000000,"state":"active","ping":137},{"user_id":240,"name":"DVD Copy of Men in Black II","steam_id":76561198080067715,"connected_time":988000000000,"state":"active","ping":107}]},{"server_id":406,"name":"Uncletopia | Seattle | 3 | Stopwatch Beta","name_short":"sea-3","host":"sea-1.us.uncletopia.com","port":27035,"enabled":true,"region":"us-west","cc":"us","latitude":47.608013,"longitude":-122.33517,"reserved":0,"last_update":"0001-01-01T00:00:00Z","name_a2s":"Uncletopia | Seattle | 3 | Stopwatch Beta","protocol":17,"map":"workshop/koth_product_final.ugc454272353","folder":"tf","game":"Team Fortress","app_id":440,"player_count":0,"max_players":24,"Bots":0,"server_type":"Dedicated","server_os":"Linux","password":true,"vac":true,"version":"7757534","steam_id":85568392924515217,"keywords":["cp","nocrits","nodmgspread","uncletopia"],"game_id":440,"stv_port":27036,"stv_name":"Uncletopia | Seattle | 3 | Stopwatch Beta | STV","players":null},{"server_id":17,"name":"Uncletopia | San Francisco | 1 | All Maps","name_short":"sfo-1","host":"sfo-1.us.uncletopia.com","port":27015,"enabled":true,"region":"us-west","cc":"us","latitude":37.77397,"longitude":-122.4313,"reserved":0,"last_update":"0001-01-01T00:00:00Z","name_a2s":"Uncletopia | San Francisco | 1 | All Maps","protocol":17,"map":"pl_badwater","folder":"tf","game":"Team Fortress","app_id":440,"player_count":24,"max_players":24,"Bots":0,"server_type":"Dedicated","server_os":"Linux","password":true,"vac":true,"version":"7757534","steam_id":85568392924469999,"keywords":["nocrits","nodmgspread","payload","uncletopia"],"game_id":440,"stv_port":27016,"stv_name":"Uncletopia | San Francisco | 1 | All Maps | STV","players":[{"user_id":6,"name":"Penne","steam_id":76561198982393756,"connected_time":3942000000000,"state":"active","ping":50},{"user_id":7,"name":"Goat","steam_id":76561198068447650,"connected_time":3811000000000,"state":"active","ping":92},{"user_id":60,"name":"alexace2007","steam_id":76561199129494729,"connected_time":335000000000,"state":"active","ping":109},{"user_id":67,"name":"Holy","steam_id":76561198147523300,"connected_time":17000000000,"state":"spawning","ping":42},{"user_id":39,"name":"walterhwhite","steam_id":76561199433675789,"connected_time":1415000000000,"state":"active","ping":64},{"user_id":59,"name":"Liquid Rage","steam_id":76561198797597686,"connected_time":404000000000,"state":"active","ping":114},{"user_id":46,"name":"Scoron","steam_id":76561198062099305,"connected_time":1048000000000,"state":"active","ping":61},{"user_id":52,"name":"Toto by Africa","steam_id":76561198138932309,"connected_time":910000000000,"state":"active","ping":109},{"user_id":40,"name":"ChefBev","steam_id":76561198189448113,"connected_time":1390000000000,"state":"active","ping":131},{"user_id":20,"name":"owl","steam_id":76561198105374054,"connected_time":2045000000000,"state":"active","ping":71},{"user_id":41,"name":"dweamy","steam_id":76561198119181880,"connected_time":1387000000000,"state":"active","ping":77},{"user_id":53,"name":"Quesso0","steam_id":76561198976607799,"connected_time":769000000000,"state":"active","ping":76},{"user_id":44,"name":"usedhalfcart","steam_id":76561198072621852,"connected_time":1074000000000,"state":"active","ping":89},{"user_id":58,"name":"Taco","steam_id":76561198158621392,"connected_time":517000000000,"state":"active","ping":133},{"user_id":37,"name":"coolestdude2496","steam_id":76561198257151145,"connected_time":1608000000000,"state":"active","ping":33},{"user_id":62,"name":"Lizardman","steam_id":76561198022410505,"connected_time":279000000000,"state":"active","ping":55},{"user_id":45,"name":"Pinto","steam_id":76561199105386998,"connected_time":1066000000000,"state":"active","ping":93},{"user_id":66,"name":"Unreliable Narrator","steam_id":76561198021303959,"connected_time":132000000000,"state":"active","ping":104},{"user_id":48,"name":"Spruce_fox","steam_id":76561198424946403,"connected_time":1031000000000,"state":"active","ping":50},{"user_id":49,"name":"dAiLyGrInD","steam_id":76561198163531915,"connected_time":1006000000000,"state":"active","ping":104},{"user_id":50,"name":"Poptart From Mars","steam_id":76561197979930960,"connected_time":993000000000,"state":"active","ping":106},{"user_id":57,"name":"Bombat","steam_id":76561198083096946,"connected_time":607000000000,"state":"active","ping":80},{"user_id":65,"name":"lol","steam_id":76561198026491738,"connected_time":195000000000,"state":"active","ping":66},{"user_id":64,"name":"Nezzie","steam_id":76561198208259219,"connected_time":258000000000,"state":"active","ping":113}]},{"server_id":18,"name":"Uncletopia | San Francisco | 2 | All Maps","name_short":"sfo-2","host":"sfo-1.us.uncletopia.com","port":27025,"enabled":true,"region":"us-west","cc":"us","latitude":37.77397,"longitude":-122.4313,"reserved":0,"last_update":"0001-01-01T00:00:00Z","name_a2s":"Uncletopia | San Francisco | 2 | All Maps","protocol":17,"map":"koth_highpass","folder":"tf","game":"Team Fortress","app_id":440,"player_count":0,"max_players":24,"Bots":0,"server_type":"Dedicated","server_os":"Linux","password":true,"vac":true,"version":"7757534","steam_id":85568392924470000,"keywords":["cp","nocrits","nodmgspread","uncletopia"],"game_id":440,"stv_port":27026,"stv_name":"Uncletopia | San Francisco | 2 | All Maps | STV","players":null},{"server_id":19,"name":"Uncletopia | San Francisco | 3 | Stopwatch Beta","name_short":"sfo-3","host":"sfo-1.us.uncletopia.com","port":27035,"enabled":true,"region":"us-west","cc":"us","latitude":37.77397,"longitude":-122.4313,"reserved":0,"last_update":"0001-01-01T00:00:00Z","name_a2s":"Uncletopia | San Francisco | 3 | Stopwatch Beta","protocol":17,"map":"koth_lakeside_final","folder":"tf","game":"Team Fortress","app_id":440,"player_count":0,"max_players":24,"Bots":0,"server_type":"Dedicated","server_os":"Linux","password":true,"vac":true,"version":"7757534","steam_id":85568392924742824,"keywords":["cp","nocrits","nodmgspread","uncletopia"],"game_id":440,"stv_port":27036,"stv_name":"Uncletopia | San Francisco | 3 | Stopwatch Beta | STV","players":null},{"server_id":20,"name":"Uncletopia | San Francisco | 4 | Community","name_short":"sfo-4","host":"sfo-1.us.uncletopia.com","port":27045,"enabled":true,"region":"us-west","cc":"us","latitude":37.77397,"longitude":-122.4313,"reserved":0,"last_update":"0001-01-01T00:00:00Z","name_a2s":"Uncletopia | San Francisco | 4 | Community","protocol":17,"map":"workshop/cp_kalinka_rc6a.ugc1272700588","folder":"tf","game":"Team Fortress","app_id":440,"player_count":0,"max_players":24,"Bots":0,"server_type":"Dedicated","server_os":"Linux","password":true,"vac":true,"version":"7757534","steam_id":85568392924742826,"keywords":["cp","nocrits","nodmgspread","uncletopia"],"game_id":440,"stv_port":27046,"stv_name":"Uncletopia | San Francisco | 4 | Community | STV","players":null},{"server_id":141,"name":"Uncletopia | Sydney | 1 | All Maps","name_short":"syd-1","host":"syd-1.au.uncletopia.com","port":27015,"enabled":true,"region":"au","cc":"au","latitude":-33.865143,"longitude":151.2099,"reserved":0,"last_update":"0001-01-01T00:00:00Z","name_a2s":"Uncletopia | Sydney | 1 | All Maps","protocol":17,"map":"koth_badlands","folder":"tf","game":"Team Fortress","app_id":440,"player_count":0,"max_players":24,"Bots":0,"server_type":"Dedicated","server_os":"Linux","password":true,"vac":true,"version":"7757534","steam_id":85568392924470001,"keywords":["cp","nocrits","nodmgspread","uncletopia"],"game_id":440,"stv_port":27016,"stv_name":"Uncletopia | Sydney | 1 | All Maps | STV","players":null},{"server_id":123,"name":"Uncletopia | Sydney | 2 | All Maps","name_short":"syd-2","host":"syd-1.au.uncletopia.com","port":27025,"enabled":true,"region":"au","cc":"au","latitude":-33.865143,"longitude":151.2099,"reserved":0,"last_update":"0001-01-01T00:00:00Z","name_a2s":"Uncletopia | Sydney | 2 | All Maps","protocol":17,"map":"koth_highpass","folder":"tf","game":"Team Fortress","app_id":440,"player_count":0,"max_players":24,"Bots":0,"server_type":"Dedicated","server_os":"Linux","password":true,"vac":true,"version":"7757534","steam_id":85568392924470002,"keywords":["cp","nocrits","nodmgspread","uncletopia"],"game_id":440,"stv_port":27026,"stv_name":"Uncletopia | Sydney | 2 | All Maps | STV","players":null},{"server_id":395,"name":"Uncletopia | Sydney | 3 | All Maps","name_short":"syd-3","host":"syd-1.au.uncletopia.com","port":27035,"enabled":true,"region":"au","cc":"au","latitude":-33.865143,"longitude":151.2099,"reserved":0,"last_update":"0001-01-01T00:00:00Z","name_a2s":"Uncletopia | Sydney | 3 | All Maps","protocol":17,"map":"pl_frontier_final","folder":"tf","game":"Team Fortress","app_id":440,"player_count":0,"max_players":24,"Bots":0,"server_type":"Dedicated","server_os":"Linux","password":true,"vac":true,"version":"7757534","steam_id":85568392925194467,"keywords":["nocrits","nodmgspread","payload","uncletopia"],"game_id":440,"stv_port":27036,"stv_name":"Uncletopia | Sydney | 3 | All Maps | STV","players":null},{"server_id":396,"name":"Uncletopia | Sydney | 4 | All Maps","name_short":"syd-4","host":"syd-1.au.uncletopia.com","port":27045,"enabled":true,"region":"au","cc":"au","latitude":-33.865143,"longitude":151.2099,"reserved":0,"last_update":"0001-01-01T00:00:00Z","name_a2s":"Uncletopia | Sydney | 4 | All Maps","protocol":17,"map":"koth_highpass","folder":"tf","game":"Team Fortress","app_id":440,"player_count":0,"max_players":24,"Bots":0,"server_type":"Dedicated","server_os":"Linux","password":true,"vac":true,"version":"7757534","steam_id":85568392925397958,"keywords":["cp","nocrits","nodmgspread","uncletopia"],"game_id":440,"stv_port":27046,"stv_name":"Uncletopia | Sydney | 4 | All Maps | STV","players":null},{"server_id":58,"name":"Uncletopia | Sydney | 5 | Stopwatch Beta","name_short":"syd-5","host":"syd-1.au.uncletopia.com","port":27055,"enabled":true,"region":"au","cc":"au","latitude":-33.865143,"longitude":151.2099,"reserved":0,"last_update":"0001-01-01T00:00:00Z","name_a2s":"Uncletopia | Sydney | 5 | Stopwatch Beta","protocol":17,"map":"koth_lakeside_final","folder":"tf","game":"Team Fortress","app_id":440,"player_count":0,"max_players":24,"Bots":0,"server_type":"Dedicated","server_os":"Linux","password":true,"vac":true,"version":"7757534","steam_id":85568392925397959,"keywords":["cp","nocrits","nodmgspread","uncletopia"],"game_id":440,"stv_port":27056,"stv_name":"Uncletopia | Sydney | 5 | Stopwatch Beta | STV","players":null},{"server_id":59,"name":"Uncletopia | Sydney | 6 | Community","name_short":"syd-6","host":"syd-1.au.uncletopia.com","port":27065,"enabled":true,"region":"au","cc":"au","latitude":-33.865143,"longitude":151.2099,"reserved":0,"last_update":"0001-01-01T00:00:00Z","name_a2s":"Uncletopia | Sydney | 6 | Community","protocol":17,"map":"workshop/koth_ashville_final.ugc2130459942","folder":"tf","game":"Team Fortress","app_id":440,"player_count":0,"max_players":24,"Bots":0,"server_type":"Dedicated","server_os":"Linux","password":true,"vac":true,"version":"7757534","steam_id":85568392925397960,"keywords":["cp","nocrits","nodmgspread","uncletopia"],"game_id":440,"stv_port":27066,"stv_name":"Uncletopia | Sydney | 6 | Community | STV","players":null},{"server_id":49,"name":"Uncletopia | Warsaw | 1 | All Maps","name_short":"waw-1","host":"waw-1.pl.uncletopia.com","port":27015,"enabled":true,"region":"eu","cc":"pl","latitude":52.2297,"longitude":21.017532,"reserved":0,"last_update":"0001-01-01T00:00:00Z","name_a2s":"","protocol":0,"map":"","folder":"","game":"","app_id":0,"player_count":0,"max_players":0,"Bots":0,"server_type":"","server_os":"","password":false,"vac":false,"version":"","steam_id":0,"keywords":null,"game_id":0,"stv_port":0,"stv_name":"","players":null},{"server_id":50,"name":"Uncletopia | Warsaw | 2 | All Maps","name_short":"waw-2","host":"waw-1.pl.uncletopia.com","port":27025,"enabled":true,"region":"eu","cc":"pl","latitude":52.2297,"longitude":21.017532,"reserved":0,"last_update":"0001-01-01T00:00:00Z","name_a2s":"Uncletopia | Warsaw | 2 | All Maps","protocol":17,"map":"koth_viaduct","folder":"tf","game":"Team Fortress","app_id":440,"player_count":0,"max_players":24,"Bots":0,"server_type":"Dedicated","server_os":"Linux","password":true,"vac":true,"version":"7757534","steam_id":85568392925397851,"keywords":["cp","nocrits","nodmgspread","uncletopia"],"game_id":440,"stv_port":27026,"stv_name":"Uncletopia | Warsaw | 2 | All Maps | STV","players":null},{"server_id":51,"name":"Uncletopia | Warsaw | 3 | All Maps","name_short":"waw-3","host":"waw-1.pl.uncletopia.com","port":27035,"enabled":true,"region":"eu","cc":"pl","latitude":52.2297,"longitude":21.017532,"reserved":0,"last_update":"0001-01-01T00:00:00Z","name_a2s":"Uncletopia | Warsaw | 3 | All Maps","protocol":17,"map":"pl_badwater","folder":"tf","game":"Team Fortress","app_id":440,"player_count":0,"max_players":24,"Bots":0,"server_type":"Dedicated","server_os":"Linux","password":true,"vac":true,"version":"7757534","steam_id":85568392925397852,"keywords":["nocrits","nodmgspread","payload","uncletopia"],"game_id":440,"stv_port":27036,"stv_name":"Uncletopia | Warsaw | 3 | All Maps | STV","players":null},{"server_id":52,"name":"Uncletopia | Warsaw | 4 | All Maps","name_short":"waw-4","host":"waw-1.pl.uncletopia.com","port":27045,"enabled":true,"region":"eu","cc":"pl","latitude":52.2297,"longitude":21.017532,"reserved":0,"last_update":"0001-01-01T00:00:00Z","name_a2s":"Uncletopia | Warsaw | 4 | All Maps","protocol":17,"map":"koth_lakeside_final","folder":"tf","game":"Team Fortress","app_id":440,"player_count":0,"max_players":24,"Bots":0,"server_type":"Dedicated","server_os":"Linux","password":true,"vac":true,"version":"7757534","steam_id":85568392925397853,"keywords":["cp","nocrits","nodmgspread","uncletopia"],"game_id":440,"stv_port":27046,"stv_name":"Uncletopia | Warsaw | 4 | All Maps | STV","players":null},{"server_id":53,"name":"Uncletopia | Warsaw | 5 | Stopwatch Beta","name_short":"waw-5","host":"waw-1.pl.uncletopia.com","port":27055,"enabled":true,"region":"eu","cc":"pl","latitude":52.2297,"longitude":21.017532,"reserved":0,"last_update":"0001-01-01T00:00:00Z","name_a2s":"Uncletopia | Warsaw | 5 | Stopwatch Beta","protocol":17,"map":"pl_borneo","folder":"tf","game":"Team Fortress","app_id":440,"player_count":0,"max_players":24,"Bots":0,"server_type":"Dedicated","server_os":"Linux","password":true,"vac":true,"version":"7757534","steam_id":85568392925397854,"keywords":["nocrits","nodmgspread","payload","uncletopia"],"game_id":440,"stv_port":27056,"stv_name":"Uncletopia | Warsaw | 5 | Stopwatch Beta | STV","players":null},{"server_id":54,"name":"Uncletopia | Warsaw | 6 | Community","name_short":"waw-6","host":"waw-1.pl.uncletopia.com","port":27065,"enabled":true,"region":"eu","cc":"pl","latitude":52.2297,"longitude":21.017532,"reserved":0,"last_update":"0001-01-01T00:00:00Z","name_a2s":"Uncletopia | Warsaw | 6 | Community","protocol":17,"map":"koth_lakeside_final","folder":"tf","game":"Team Fortress","app_id":440,"player_count":0,"max_players":24,"Bots":0,"server_type":"Dedicated","server_os":"Linux","password":true,"vac":true,"version":"7757534","steam_id":85568392925397856,"keywords":["cp","nocrits","nodmgspread","uncletopia"],"game_id":440,"stv_port":27066,"stv_name":"Uncletopia | Warsaw | 6 | Community | STV","players":null}]}