{"status":true,"message":"","result":[{"server_id":9,"name":"Uncletopia | Atlanta | 1 | All Maps","name_short":"atl-1","host":"atl-1.us.uncletopia.com","port":27015,"enabled":true,"region":"us-east","cc":"us","latitude":33.753746,"longitude":-84.38633,"reserved":0,"last_update":"0001-01-01T00:00:00Z","name_a2s":"Uncletopia | Atlanta | 1 | All Maps","protocol":17,"map":"pl_borneo","folder":"tf","game":"Team Fortress","app_id":440,"player_count":24,"max_players":24,"Bots":0,"server_type":"Dedicated","server_os":"Linux","password":true,"vac":true,"version":"7961495","steam_id":85568392924469982,"keywords":["nocrits","nodmgspread","payload","uncletopia"],"game_id":440,"stv_port":27016,"stv_name":"Uncletopia | Atlanta | 1 | All Maps | STV","players":[{"user_id":374,"name":"row","steam_id":76561198040946044,"connected_time":6871000000000,"state":"active","ping":63},{"user_id":285,"name":"Ashes!","steam_id":76561197998475441,"connected_time":13421000000000,"state":"active","ping":78},{"user_id":447,"name":"bobbymcbobington","steam_id":76561199089411172,"connected_time":218000000000,"state":"active","ping":292},{"user_id":436,"name":"Splexiey","steam_id":76561199122155213,"connected_time":1052000000000,"state":"active","ping":77},{"user_id":437,"name":"101_the_Robot","steam_id":76561198331039848,"connected_time":1045000000000,"state":"active","ping":100},{"user_id":438,"name":"_Ya_Boy_Alpha_","steam_id":76561198835295433,"connected_time":1039000000000,"state":"active","ping":117},{"user_id":411,"name":"neun_o2","steam_id":76561198795862574,"connected_time":3503000000000,"state":"active","ping":74},{"user_id":446,"name":"ShadowWasUhOh","steam_id":76561198400361935,"connected_time":300000000000,"state":"active","ping":60},{"user_id":313,"name":"CoffeeZombee","steam_id":76561198172708053,"connected_time":11073000000000,"state":"active","ping":67},{"user_id":433,"name":"Mal","steam_id":76561198066074151,"connected_time":1123000000000,"state":"active","ping":62},{"user_id":377,"name":"The CEO of cement","steam_id":76561199107177460,"connected_time":6802000000000,"state":"active","ping":113},{"user_id":425,"name":"Squigly","steam_id":76561198084811625,"connected_time":2289000000000,"state":"active","ping":89},{"user_id":415,"name":"yes daddy","steam_id":76561198166100997,"connected_time":3355000000000,"state":"active","ping":62},{"user_id":319,"name":"lynt","steam_id":76561198988333976,"connected_time":10492000000000,"state":"active","ping":42},{"user_id":443,"name":"A/funny/dream","steam_id":76561198354481597,"connected_time":610000000000,"state":"active","ping":59},{"user_id":432,"name":"why","steam_id":76561199059732212,"connected_time":1194000000000,"state":"active","ping":55},{"user_id":440,"name":"Johnny Lawrence #JohnnyMaxxing","steam_id":76561199367141671,"connected_time":975000000000,"state":"active","ping":61},{"user_id":431,"name":"eish","steam_id":76561198089463603,"connected_time":1493000000000,"state":"active","ping":118},{"user_id":430,"name":"AckWhack","steam_id":76561199060503258,"connected_time":1515000000000,"state":"active","ping":106},{"user_id":409,"name":"reis","steam_id":76561199232952016,"connected_time":3779000000000,"state":"active","ping":176},{"user_id":442,"name":"Blippity Blop","steam_id":76561198830927973,"connected_time":778000000000,"state":"active","ping":97},{"user_id":445,"name":"loot","steam_id":76561198069954956,"connected_time":437000000000,"state":"active","ping":46},{"user_id":444,"name":"-=Bits=-Dinkleberg","steam_id":76561198080367616,"connected_time":581000000000,"state":"active","ping":67},{"user_id":426,"name":"he suckin on my rick til i mort","steam_id":76561198310711692,"connected_time":2289000000000,"state":"active","ping":168}]},{"server_id":104,"name":"Uncletopia | Atlanta | 2 | All Maps","name_short":"atl-2","host":"atl-1.us.uncletopia.com","port":27025,"enabled":true,"region":"us-east","cc":"us","latitude":33.753746,"longitude":-84.38633,"reserved":0,"last_update":"0001-01-01T00:00:00Z","name_a2s":"Uncletopia | Atlanta | 2 | All Maps","protocol":17,"map":"koth_cascade","folder":"tf","game":"Team Fortress","app_id":440,"player_count":0,"max_players":24,"Bots":0,"server_type":"Dedicated","server_os":"Linux","password":true,"vac":true,"version":"7961495","steam_id":85568392924469983,"keywords":["cp","nocrits","nodmgspread","uncletopia"],"game_id":440,"stv_port":27026,"stv_name":"Uncletopia | Atlanta | 2 | All Maps | STV","players":null},{"server_id":400,"name":"Uncletopia | Atlanta | 3 | Stopwatch","name_short":"atl-3","host":"atl-1.us.uncletopia.com","port":27035,"enabled":true,"region":"us-east","cc":"us","latitude":33.753746,"longitude":-84.38633,"reserved":0,"last_update":"0001-01-01T00:00:00Z","name_a2s":"Uncletopia | Atlanta | 3 | Stopwatch","protocol":17,"map":"cp_metalworks","folder":"tf","game":"Team Fortress","app_id":440,"player_count":16,"max_players":24,"Bots":0,"server_type":"Dedicated","server_os":"Linux","password":true,"vac":true,"version":"7961495","steam_id":85568392924515187,"keywords":["cp","nocrits","nodmgspread","uncletopia"],"game_id":440,"stv_port":27036,"stv_name":"Uncletopia | Atlanta | 3 | Stopwatch | STV","players":[{"user_id":118,"name":"A-Side","steam_id":76561199188699397,"connected_time":1025000000000,"state":"active","ping":85},{"user_id":129,"name":"Whimsical Bruh","steam_id":76561199069973423,"connected_time":256000000000,"state":"active","ping":43},{"user_id":130,"name":"a box‚Ñ¢","steam_id":76561198159275352,"connected_time":248000000000,"state":"active","ping":38},{"user_id":131,"name":"leek","steam_id":76561198144731384,"connected_time":223000000000,"state":"active","ping":39},{"user_id":132,"name":"ark","steam_id":76561198041066271,"connected_time":125000000000,"state":"active","ping":80},{"user_id":133,"name":"speaker","steam_id":76561198016067244,"connected_time":103000000000,"state":"active","ping":51},{"user_id":89,"name":"Grandpa¬¥s Last Drop of Cum","steam_id":76561198079516696,"connected_time":1891000000000,"state":"active","ping":94},{"user_id":90,"name":"box","steam_id":76561198985635309,"connected_time":1887000000000,"state":"active","ping":82},{"user_id":125,"name":"nav","steam_id":76561198872608266,"connected_time":353000000000,"state":"active","ping":60},{"user_id":106,"name":"TF2C | fac","steam_id":76561198009818412,"connected_time":1374000000000,"state":"active","ping":60},{"user_id":107,"name":"·πΩ‚ßâ cookie","steam_id":76561197998884823,"connected_time":1352000000000,"state":"active","ping":86},{"user_id":134,"name":"helsikifarter","steam_id":76561199256059289,"connected_time":62000000000,"state":"active","ping":55},{"user_id":108,"name":"Kmann","steam_id":76561199229843447,"connected_time":1343000000000,"state":"active","ping":85},{"user_id":109,"name":"retard man from retard land","steam_id":76561198984228021,"connected_time":1301000000000,"state":"active","ping":66},{"user_id":98,"name":"basilberry","steam_id":76561198145275937,"connected_time":1560000000000,"state":"active","ping":95},{"user_id":120,"name":"Yoshimelon","steam_id":76561198253054325,"connected_time":852000000000,"state":"active","ping":70}]},{"server_id":401,"name":"Uncletopia | Atlanta | 4 | Community","name_short":"atl-4","host":"atl-1.us.uncletopia.com","port":27045,"enabled":true,"region":"us-east","cc":"us","latitude":33.753746,"longitude":-84.38633,"reserved":0,"last_update":"0001-01-01T00:00:00Z","name_a2s":"Uncletopia | Atlanta | 4 | Community","protocol":17,"map":"workshop/koth_ashville_final.ugc2130459942","folder":"tf","game":"Team Fortress","app_id":440,"player_count":0,"max_players":24,"Bots":0,"server_type":"Dedicated","server_os":"Linux","password":true,"vac":true,"version":"7961495","steam_id":85568392924515188,"keywords":["cp","nocrits","nodmgspread","uncletopia"],"game_id":440,"stv_port":27046,"stv_name":"Uncletopia | Atlanta | 4 | Community | STV","players":null},{"server_id":2,"name":"Uncletopia | Chicago | 1 | All Maps","name_short":"chi-1","host":"chi-1.us.uncletopia.com","port":27015,"enabled":true,"region":"us-central","cc":"us","latitude":41.881832,"longitude":-87.62318,"reserved":0,"last_update":"0001-01-01T00:00:00Z","name_a2s":"Uncletopia | Chicago | 1 | All Maps","protocol":17,"map":"pl_borneo","folder":"tf","game":"Team Fortress","app_id":440,"player_count":20,"max_players":24,"Bots":0,"server_type":"Dedicated","server_os":"Linux","password":true,"vac":true,"version":"7961495","steam_id":85568392924469984,"keywords":["nocrits","nodmgspread","payload","uncletopia"],"game_id":440,"stv_port":27016,"stv_name":"Uncletopia | Chicago | 1 | All Maps | STV","players":[{"user_id":316,"name":"Das Anchor","steam_id":76561198060173151,"connected_time":1025000000000,"state":"active","ping":92},{"user_id":297,"name":"Ganondorf","steam_id":76561198010421059,"connected_time":2045000000000,"state":"active","ping":53},{"user_id":327,"name":"SoundKitKiller","steam_id":76561198053535873,"connected_time":549000000000,"state":"active","ping":77},{"user_id":320,"name":"Comfy!","steam_id":76561198008818346,"connected_time":858000000000,"state":"active","ping":77},{"user_id":325,"name":"ZYNTERLINKED","steam_id":76561198241948526,"connected_time":580000000000,"state":"active","ping":59},{"user_id":230,"name":"ZonedIn","steam_id":76561198042395286,"connected_time":6221000000000,"state":"active","ping":91},{"user_id":287,"name":"Robogineer","steam_id":76561198026994739,"connected_time":2716000000000,"state":"active","ping":94},{"user_id":331,"name":"Siz","steam_id":76561198072962154,"connected_time":83000000000,"state":"active","ping":59},{"user_id":272,"name":"Your Local Queer Librarian","steam_id":76561198013077080,"connected_time":4036000000000,"state":"active","ping":55},{"user_id":326,"name":"purple diesel","steam_id":76561197976548449,"connected_time":566000000000,"state":"active","ping":86},{"user_id":301,"name":"Astoriae, Lover of Furriness","steam_id":76561199090168858,"connected_time":1819000000000,"state":"active","ping":62},{"user_id":318,"name":"JOOOOOOOOOOOOO!!!!!!","steam_id":76561199101638460,"connected_time":941000000000,"state":"active","ping":76},{"user_id":274,"name":"fried rice","steam_id":76561198928939100,"connected_time":3514000000000,"state":"active","ping":69},{"user_id":328,"name":"Catgirl Inbreastigator","steam_id":76561198037289982,"connected_time":339000000000,"state":"active","ping":103},{"user_id":319,"name":"Dzhoshua","steam_id":76561198071915251,"connected_time":938000000000,"state":"active","ping":58},{"user_id":323,"name":"Rulers Reach fan","steam_id":76561198367340750,"connected_time":815000000000,"state":"active","ping":60},{"user_id":280,"name":"TittyBoii69","steam_id":76561198096412234,"connected_time":2939000000000,"state":"active","ping":62},{"user_id":265,"name":"DanO Tron ex","steam_id":76561198380959442,"connected_time":4639000000000,"state":"active","ping":87},{"user_id":324,"name":"redarcher42","steam_id":76561199027887687,"connected_time":784000000000,"state":"active","ping":76},{"user_id":330,"name":"Black Rose Oncore","steam_id":76561198040489960,"connected_time":121000000000,"state":"active","ping":58}]},{"server_id":106,"name":"Uncletopia | Chicago | 2 | All Maps","name_short":"chi-2","host":"chi-1.us.uncletopia.com","port":27025,"enabled":true,"region":"us-central","cc":"us","latitude":41.881832,"longitude":-87.62318,"reserved":0,"last_update":"0001-01-01T00:00:00Z","name_a2s":"Uncletopia | Chicago | 2 | All Maps","protocol":17,"map":"pl_pier","folder":"tf","game":"Team Fortress","app_id":440,"player_count":25,"max_players":24,"Bots":0,"server_type":"Dedicated","server_os":"Linux","password":true,"vac":true,"version":"7961495","steam_id":85568392924469985,"keywords":["nocrits","nodmgspread","payload","uncletopia"],"game_id":440,"stv_port":27026,"stv_name":"Uncletopia | Chicago | 2 | All Maps | STV","players":[{"user_id":247,"name":"sprot","steam_id":76561198140474431,"connected_time":998000000000,"state":"active","ping":99},{"user_id":261,"name":"floofy","steam_id":76561198389769098,"connected_time":12000000000,"state":"spawning","ping":70},{"user_id":192,"name":"Dosario","steam_id":76561198298095535,"connected_time":4007000000000,"state":"active","ping":108},{"user_id":252,"name":"RoFrogle","steam_id":76561199078941377,"connected_time":325000000000,"state":"active","ping":64},{"user_id":251,"name":"Spirit","steam_id":76561198286792807,"connected_time":370000000000,"state":"active","ping":64},{"user_id":253,"name":"Neopyth","steam_id":76561198031868427,"connected_time":305000000000,"state":"active","ping":55},{"user_id":219,"name":"I Must Frag","steam_id":76561198909415646,"connected_time":3149000000000,"state":"active","ping":76},{"user_id":218,"name":"AUSTIN THEORY","steam_id":76561198288743767,"connected_time":3172000000000,"state":"active","ping":111},{"user_id":222,"name":"Ninjoth","steam_id":76561198038611753,"connected_time":2169000000000,"state":"active","ping":84},{"user_id":195,"name":"Scoot the Burbs","steam_id":76561198079507179,"connected_time":3979000000000,"state":"active","ping":73},{"user_id":254,"name":"D","steam_id":76561198292908619,"connected_time":303000000000,"state":"active","ping":72},{"user_id":255,"name":"Thog","steam_id":76561198093699060,"connected_time":288000000000,"state":"active","ping":56},{"user_id":221,"name":"Lunarthrope","steam_id":76561198292132147,"connected_time":2253000000000,"state":"active","ping":116},{"user_id":260,"name":"gIBBY","steam_id":76561198080099598,"connected_time":163000000000,"state":"active","ping":60},{"user_id":256,"name":"$!*)@#)@#_","steam_id":76561198403055175,"connected_time":279000000000,"state":"active","ping":74},{"user_id":243,"name":"Luxembird","steam_id":76561198079992107,"connected_time":1250000000000,"state":"active","ping":90},{"user_id":239,"name":"dadgummit","steam_id":76561198005806915,"connected_time":1667000000000,"state":"active","ping":60},{"user_id":257,"name":"Useless","steam_id":76561198116079299,"connected_time":277000000000,"state":"active","ping":89},{"user_id":241,"name":"MCMXC","steam_id":76561199017754044,"connected_time":1300000000000,"state":"active","ping":79},{"user_id":246,"name":"Octomal800","steam_id":76561199453595616,"connected_time":1077000000000,"state":"active","ping":75},{"user_id":258,"name":"lil' Wayne","steam_id":76561198050136796,"connected_time":273000000000,"state":"active","ping":86},{"user_id":242,"name":"Dreysidel","steam_id":76561198056496183,"connected_time":1299000000000,"state":"active","ping":69},{"user_id":259,"name":"Ivory","steam_id":76561198978827841,"connected_time":270000000000,"state":"active","ping":53},{"user_id":236,"name":"atlas","steam_id":76561198398383076,"connected_time":1771000000000,"state":"active","ping":112},{"user_id":262,"name":"Mix","steam_id":76561198835593895,"connected_time":10000000000,"state":"spawning","ping":95}]},{"server_id":402,"name":"Uncletopia | Chicago | 3 | All Maps","name_short":"chi-3","host":"chi-1.us.uncletopia.com","port":27035,"enabled":true,"region":"us-central","cc":"us","latitude":41.881832,"longitude":-87.62318,"reserved":0,"last_update":"0001-01-01T00:00:00Z","name_a2s":"Uncletopia | Chicago | 3 | All Maps","protocol":17,"map":"pl_upward","folder":"tf","game":"Team Fortress","app_id":440,"player_count":24,"max_players":24,"Bots":0,"server_type":"Dedicated","server_os":"Linux","password":true,"vac":true,"version":"7961495","steam_id":85568392924515191,"keywords":["nocrits","nodmgspread","payload","uncletopia"],"game_id":440,"stv_port":27036,"stv_name":"Uncletopia | Chicago | 3 | All Maps | STV","players":[{"user_id":653,"name":"Sultan","steam_id":76561198447852406,"connected_time":1166000000000,"state":"active","ping":63},{"user_id":652,"name":"eggo-on-a-stick","steam_id":76561198799357966,"connected_time":1255000000000,"state":"active","ping":90},{"user_id":655,"name":"R@cing74m","steam_id":76561199036177043,"connected_time":814000000000,"state":"active","ping":71},{"user_id":645,"name":"bookreader","steam_id":76561198978568007,"connected_time":1587000000000,"state":"active","ping":53},{"user_id":624,"name":"Bucc ee's Esports","steam_id":76561198148732087,"connected_time":2438000000000,"state":"active","ping":63},{"user_id":646,"name":"babywhoa","steam_id":76561198070854627,"connected_time":1504000000000,"state":"active","ping":110},{"user_id":654,"name":"Discount TaDa #SaveTF2 Repeat.g","steam_id":76561198340196737,"connected_time":1024000000000,"state":"active","ping":90},{"user_id":626,"name":"Major Woody","steam_id":76561198835541533,"connected_time":2395000000000,"state":"active","ping":79},{"user_id":647,"name":"whatever","steam_id":76561197994759007,"connected_time":1466000000000,"state":"active","ping":75},{"user_id":637,"name":"DETCON 1","steam_id":76561198170859755,"connected_time":1811000000000,"state":"active","ping":71},{"user_id":657,"name":"plsplsplslol","steam_id":76561198868084626,"connected_time":691000000000,"state":"active","ping":116},{"user_id":590,"name":"Cubeclassic","steam_id":76561198040823289,"connected_time":4484000000000,"state":"active","ping":71},{"user_id":628,"name":"Cream Corn","steam_id":76561198043791586,"connected_time":2379000000000,"state":"active","ping":54},{"user_id":648,"name":"Vaudeville Villain","steam_id":76561197991063996,"connected_time":1452000000000,"state":"active","ping":62},{"user_id":661,"name":"Crombun","steam_id":76561198031559642,"connected_time":194000000000,"state":"active","ping":78},{"user_id":659,"name":"Deathbling00","steam_id":76561198422497654,"connected_time":559000000000,"state":"active","ping":71},{"user_id":643,"name":"CaptainCupcake69.TTV","steam_id":76561198111951014,"connected_time":1628000000000,"state":"active","ping":83},{"user_id":619,"name":"ArmyGuyIan","steam_id":76561198120926552,"connected_time":2580000000000,"state":"active","ping":68},{"user_id":630,"name":"Burny Sanders","steam_id":76561197961879048,"connected_time":2355000000000,"state":"active","ping":73},{"user_id":656,"name":"That Girl With A K","steam_id":76561198317602350,"connected_time":703000000000,"state":"active","ping":91},{"user_id":584,"name":"Ball Juggler","steam_id":76561198031675881,"connected_time":4844000000000,"state":"active","ping":44},{"user_id":596,"name":"Not Edward Elric","steam_id":76561198091609999,"connected_time":4184000000000,"state":"active","ping":91},{"user_id":651,"name":"Luci‚òÖFer","steam_id":76561199030343810,"connected_time":1408000000000,"state":"active","ping":60},{"user_id":660,"name":"benjamator67","steam_id":76561198209002860,"connected_time":431000000000,"state":"active","ping":41}]},{"server_id":403,"name":"Uncletopia | Chicago | 4 | All Maps","name_short":"chi-4","host":"chi-1.us.uncletopia.com","port":27045,"enabled":true,"region":"us-central","cc":"us","latitude":41.881832,"longitude":-87.62318,"reserved":0,"last_update":"0001-01-01T00:00:00Z","name_a2s":"Uncletopia | Chicago | 4 | All Maps","protocol":17,"map":"cp_mossrock","folder":"tf","game":"Team Fortress","app_id":440,"player_count":18,"max_players":24,"Bots":0,"server_type":"Dedicated","server_os":"Linux","password":true,"vac":true,"version":"7961495","steam_id":85568392924515193,"keywords":["cp","nocrits","nodmgspread","uncletopia"],"game_id":440,"stv_port":27046,"stv_name":"Uncletopia | Chicago | 4 | All Maps | STV","players":[{"user_id":177,"name":"Fenris√∫lfr","steam_id":76561198042012705,"connected_time":195000000000,"state":"active","ping":69},{"user_id":182,"name":"Yarman53","steam_id":76561198099889202,"connected_time":24000000000,"state":"active","ping":43},{"user_id":178,"name":"THE ULTIMATE JOHN","steam_id":76561199082758073,"connected_time":187000000000,"state":"active","ping":58},{"user_id":180,"name":"pinglefingle","steam_id":76561198216580197,"connected_time":138000000000,"state":"active","ping":61},{"user_id":170,"name":"Spike Bones","steam_id":76561198234926120,"connected_time":644000000000,"state":"active","ping":87},{"user_id":161,"name":"Shady Businessman","steam_id":76561198143855968,"connected_time":1319000000000,"state":"active","ping":90},{"user_id":179,"name":"Clarnex","steam_id":76561198032438366,"connected_time":172000000000,"state":"active","ping":153},{"user_id":94,"name":"Shoeshocker","steam_id":76561198174302467,"connected_time":5420000000000,"state":"active","ping":68},{"user_id":139,"name":"Violinja","steam_id":76561198324875899,"connected_time":2532000000000,"state":"active","ping":58},{"user_id":175,"name":"303","steam_id":76561199052840531,"connected_time":248000000000,"state":"active","ping":58},{"user_id":168,"name":"Sir Iasis","steam_id":76561198035666760,"connected_time":718000000000,"state":"active","ping":61},{"user_id":147,"name":".jpg","steam_id":76561198137237377,"connected_time":1915000000000,"state":"active","ping":71},{"user_id":181,"name":"salami girl","steam_id":76561198817968375,"connected_time":103000000000,"state":"active","ping":100},{"user_id":142,"name":"catboy extraordinaire","steam_id":76561197983889333,"connected_time":2407000000000,"state":"active","ping":163},{"user_id":159,"name":"Tero","steam_id":76561198073147972,"connected_time":1369000000000,"state":"active","ping":156},{"user_id":106,"name":"Digitic","steam_id":76561198080295536,"connected_time":4818000000000,"state":"active","ping":77},{"user_id":123,"name":"summerlis","steam_id":76561198165324438,"connected_time":3923000000000,"state":"active","ping":89},{"user_id":174,"name":"Astrocards","steam_id":76561199184079830,"connected_time":333000000000,"state":"active","ping":67}]},{"server_id":36,"name":"Uncletopia | Chicago | 5 | All Maps","name_short":"chi-5","host":"chi-2.us.uncletopia.com","port":27015,"enabled":true,"region":"us-central","cc":"us","latitude":41.881832,"longitude":-87.62318,"reserved":0,"last_update":"0001-01-01T00:00:00Z","name_a2s":"Uncletopia | Chicago | 5 | All Maps","protocol":17,"map":"koth_viaduct","folder":"tf","game":"Team Fortress","app_id":440,"player_count":0,"max_players":24,"Bots":0,"server_type":"Dedicated","server_os":"Linux","password":true,"vac":true,"version":"7961495","steam_id":85568392924866362,"keywords":["cp","nocrits","nodmgspread","uncletopia"],"game_id":440,"stv_port":27016,"stv_name":"Uncletopia | Chicago | 5 | All Maps | STV","players":null},{"server_id":37,"name":"Uncletopia | Chicago | 6 | All Maps","name_short":"chi-6","host":"chi-2.us.uncletopia.com","port":27025,"enabled":true,"region":"us-central","cc":"us","latitude":41.881832,"longitude":-87.62318,"reserved":0,"last_update":"0001-01-01T00:00:00Z","name_a2s":"Uncletopia | Chicago | 6 | All Maps","protocol":17,"map":"koth_harvest_final","folder":"tf","game":"Team Fortress","app_id":440,"player_count":23,"max_players":24,"Bots":0,"server_type":"Dedicated","server_os":"Linux","password":true,"vac":true,"version":"7961495","steam_id":85568392924866363,"keywords":["cp","nocrits","nodmgspread","uncletopia"],"game_id":440,"stv_port":27026,"stv_name":"Uncletopia | Chicago | 6 | All Maps | STV","players":[{"user_id":22,"name":"dark souls boss","steam_id":76561198316610724,"connected_time":1600000000000,"state":"active","ping":89},{"user_id":30,"name":"Girl Cock Enjoyer","steam_id":76561198087675425,"connected_time":1311000000000,"state":"active","ping":41},{"user_id":58,"name":"Gary Budussy","steam_id":76561197969793969,"connected_time":322000000000,"state":"active","ping":52},{"user_id":15,"name":"General Sherman","steam_id":76561198044769376,"connected_time":2751000000000,"state":"active","ping":71},{"user_id":59,"name":"Chuck Shartz M.D.","steam_id":76561198292258115,"connected_time":48000000000,"state":"active","ping":60},{"user_id":33,"name":"Aztea","steam_id":76561198982089893,"connected_time":1132000000000,"state":"active","ping":78},{"user_id":19,"name":"asm_ghost","steam_id":76561199205363547,"connected_time":2554000000000,"state":"active","ping":119},{"user_id":25,"name":"dweamy","steam_id":76561198119181880,"connected_time":1474000000000,"state":"active","ping":75},{"user_id":35,"name":"illness","steam_id":76561198881651324,"connected_time":997000000000,"state":"active","ping":72},{"user_id":56,"name":"Cpt. Voyager","steam_id":76561198107374579,"connected_time":390000000000,"state":"active","ping":45},{"user_id":37,"name":"Fernando Alonso","steam_id":76561198066822788,"connected_time":988000000000,"state":"active","ping":71},{"user_id":38,"name":"10 INCH TGIRL SCHLONG","steam_id":76561198122059018,"connected_time":968000000000,"state":"active","ping":45},{"user_id":52,"name":"mellowhype","steam_id":76561198040675606,"connected_time":674000000000,"state":"active","ping":78},{"user_id":41,"name":"Andrew Weber","steam_id":76561199359977174,"connected_time":857000000000,"state":"active","ping":98},{"user_id":42,"name":"Jefferton","steam_id":76561198406216568,"connected_time":856000000000,"state":"active","ping":74},{"user_id":54,"name":"Astrocircuit","steam_id":76561198014437544,"connected_time":565000000000,"state":"active","ping":67},{"user_id":44,"name":"Bhutch","steam_id":76561198145654275,"connected_time":828000000000,"state":"active","ping":91},{"user_id":57,"name":"neo :)","steam_id":76561199092954930,"connected_time":338000000000,"state":"active","ping":57},{"user_id":47,"name":"delight","steam_id":76561197980280272,"connected_time":737000000000,"state":"active","ping":92},{"user_id":48,"name":"Kyle Kushman","steam_id":76561199257008060,"connected_time":721000000000,"state":"active","ping":71},{"user_id":49,"name":"Big Slime","steam_id":76561198801805642,"connected_time":715000000000,"state":"active","ping":88},{"user_id":50,"name":"otwtomarsoffdabars(spacecore)","steam_id":76561199085974120,"connected_time":715000000000,"state":"active","ping":71},{"user_id":55,"name":"AstronautPug","steam_id":76561198162372709,"connected_time":523000000000,"state":"active","ping":65}]},{"server_id":38,"name":"Uncletopia | Chicago | 7 | Stopwatch","name_short":"chi-7","host":"chi-2.us.uncletopia.com","port":27035,"enabled":true,"region":"us-central","cc":"us","latitude":41.881832,"longitude":-87.62318,"reserved":0,"last_update":"0001-01-01T00:00:00Z","name_a2s":"Uncletopia | Chicago | 7 | Stopwatch","protocol":17,"map":"workshop/koth_bagel_rc6.ugc2514036946","folder":"tf","game":"Team Fortress","app_id":440,"player_count":0,"max_players":24,"Bots":0,"server_type":"Dedicated","server_os":"Linux","password":true,"vac":true,"version":"7961495","steam_id":85568392924866364,"keywords":["cp","nocrits","nodmgspread","uncletopia"],"game_id":440,"stv_port":27036,"stv_name":"Uncletopia | Chicago | 7 | Stopwatch | STV","players":null},{"server_id":39,"name":"Uncletopia | Chicago | 8 | Community","name_short":"chi-8","host":"chi-2.us.uncletopia.com","port":27045,"enabled":true,"region":"us-central","cc":"us","latitude":41.881832,"longitude":-87.62318,"reserved":0,"last_update":"0001-01-01T00:00:00Z","name_a2s":"Uncletopia | Chicago | 8 | Community","protocol":17,"map":"workshop/koth_synthetic_rc6a.ugc1549817316","folder":"tf","game":"Team Fortress","app_id":440,"player_count":0,"max_players":24,"Bots":0,"server_type":"Dedicated","server_os":"Linux","password":true,"vac":true,"version":"7961495","steam_id":85568392924866365,"keywords":["cp","nocrits","nodmgspread","uncletopia"],"game_id":440,"stv_port":27046,"stv_name":"Uncletopia | Chicago | 8 | Community | STV","players":null},{"server_id":8,"name":"Uncletopia | Dallas | 1 | All Maps","name_short":"dal-1","host":"dal-1.us.uncletopia.com","port":27015,"enabled":true,"region":"us-central","cc":"us","latitude":32.779167,"longitude":-96.80889,"reserved":0,"last_update":"0001-01-01T00:00:00Z","name_a2s":"Uncletopia | Dallas | 1 | All Maps","protocol":17,"map":"koth_viaduct","folder":"tf","game":"Team Fortress","app_id":440,"player_count":0,"max_players":24,"Bots":0,"server_type":"Dedicated","server_os":"Linux","password":true,"vac":true,"version":"7961495","steam_id":85568392924469986,"keywords":["cp","nocrits","nodmgspread","uncletopia"],"game_id":440,"stv_port":27016,"stv_name":"Uncletopia | Dallas | 1 | All Maps | STV","players":null},{"server_id":108,"name":"Uncletopia | Dallas | 2 | All Maps","name_short":"dal-2","host":"dal-1.us.uncletopia.com","port":27025,"enabled":true,"region":"us-central","cc":"us","latitude":32.779167,"longitude":-96.80889,"reserved":0,"last_update":"0001-01-01T00:00:00Z","name_a2s":"Uncletopia | Dallas | 2 | All Maps","protocol":17,"map":"pl_thundermountain","folder":"tf","game":"Team Fortress","app_id":440,"player_count":24,"max_players":24,"Bots":0,"server_type":"Dedicated","server_os":"Linux","password":true,"vac":true,"version":"7961495","steam_id":85568392924469988,"keywords":["nocrits","nodmgspread","payload","uncletopia"],"game_id":440,"stv_port":27026,"stv_name":"Uncletopia | Dallas | 2 | All Maps | STV","players":[{"user_id":387,"name":"Frogninja","steam_id":76561198051418374,"connected_time":560000000000,"state":"active","ping":106},{"user_id":404,"name":"FlamingFox","steam_id":76561198107702313,"connected_time":79000000000,"state":"active","ping":67},{"user_id":390,"name":"Pluto*","steam_id":76561198338593690,"connected_time":521000000000,"state":"active","ping":88},{"user_id":393,"name":"BADWOLF42","steam_id":76561198055447523,"connected_time":447000000000,"state":"active","ping":50},{"user_id":345,"name":"what a fukkin","steam_id":76561198298442983,"connected_time":4362000000000,"state":"active","ping":98},{"user_id":369,"name":"K2f","steam_id":76561198049600563,"connected_time":2086000000000,"state":"active","ping":76},{"user_id":391,"name":"Scribbles","steam_id":76561198285010535,"connected_time":504000000000,"state":"active","ping":96},{"user_id":370,"name":"Timmy The Tyrant","steam_id":76561199156409732,"connected_time":2034000000000,"state":"active","ping":45},{"user_id":392,"name":"wajanta","steam_id":76561199040280852,"connected_time":504000000000,"state":"active","ping":61},{"user_id":402,"name":"Camii","steam_id":76561199010425327,"connected_time":192000000000,"state":"active","ping":111},{"user_id":395,"name":"Meet The Taunt","steam_id":76561198253927199,"connected_time":351000000000,"state":"active","ping":167},{"user_id":376,"name":"bruh","steam_id":76561198305505479,"connected_time":1499000000000,"state":"active","ping":33},{"user_id":381,"name":"VaL-ASROC","steam_id":76561198886493635,"connected_time":1163000000000,"state":"active","ping":62},{"user_id":386,"name":"Curse of the Blackened Eye","steam_id":76561198097175164,"connected_time":622000000000,"state":"active","ping":109},{"user_id":399,"name":"KittyLord2488","steam_id":76561199430318253,"connected_time":257000000000,"state":"active","ping":73},{"user_id":397,"name":"master_minion","steam_id":76561198170693990,"connected_time":317000000000,"state":"active","ping":84},{"user_id":400,"name":"Yaoi Boy Princess","steam_id":76561197997343746,"connected_time":251000000000,"state":"active","ping":88},{"user_id":401,"name":"the unionwave","steam_id":76561198354125620,"connected_time":202000000000,"state":"active","ping":59},{"user_id":297,"name":"theManMan","steam_id":76561199488457138,"connected_time":8122000000000,"state":"active","ping":114},{"user_id":405,"name":"Midnight","steam_id":76561198115714484,"connected_time":67000000000,"state":"active","ping":134},{"user_id":385,"name":"UnkownGamerLOL","steam_id":76561198225902368,"connected_time":914000000000,"state":"active","ping":74},{"user_id":312,"name":"Oopsie Daisy ‚ùã","steam_id":76561198042144492,"connected_time":7482000000000,"state":"active","ping":70},{"user_id":380,"name":"Lickity Split","steam_id":76561198132051047,"connected_time":1256000000000,"state":"active","ping":121},{"user_id":403,"name":"John16Mark","steam_id":76561198119445407,"connected_time":142000000000,"state":"active","ping":62}]},{"server_id":404,"name":"Uncletopia | Dallas | 3 | All Maps","name_short":"dal-3","host":"dal-1.us.uncletopia.com","port":27035,"enabled":true,"region":"us-central","cc":"us","latitude":32.779167,"longitude":-96.80889,"reserved":0,"last_update":"0001-01-01T00:00:00Z","name_a2s":"Uncletopia | Dallas | 3 | All Maps","protocol":17,"map":"cp_dustbowl","folder":"tf","game":"Team Fortress","app_id":440,"player_count":0,"max_players":24,"Bots":0,"server_type":"Dedicated","server_os":"Linux","password":true,"vac":true,"version":"7961495","steam_id":85568392924515219,"keywords":["cp","nocrits","nodmgspread","uncletopia"],"game_id":440,"stv_port":27036,"stv_name":"Uncletopia | Dallas | 3 | All Maps | STV","players":null},{"server_id":405,"name":"Uncletopia | Dallas | 4 | Community","name_short":"dal-4","host":"dal-1.us.uncletopia.com","port":27045,"enabled":true,"region":"us-central","cc":"us","latitude":32.779167,"longitude":-96.80889,"reserved":0,"last_update":"0001-01-01T00:00:00Z","name_a2s":"Uncletopia | Dallas | 4 | Community","protocol":17,"map":"workshop/pl_barnblitz_pro7.ugc582280235","folder":"tf","game":"Team Fortress","app_id":440,"player_count":0,"max_players":24,"Bots":0,"server_type":"Dedicated","server_os":"Linux","password":true,"vac":true,"version":"7961495","steam_id":85568392924515220,"keywords":["nocrits","nodmgspread","payload","uncletopia"],"game_id":440,"stv_port":27046,"stv_name":"Uncletopia | Dallas | 4 | Community | STV","players":null},{"server_id":5,"name":"Uncletopia | Frankfurt | 1 | All Maps","name_short":"frk-1","host":"frk-1.de.uncletopia.com","port":27015,"enabled":true,"region":"eu","cc":"de","latitude":50.110924,"longitude":8.682127,"reserved":0,"last_update":"0001-01-01T00:00:00Z","name_a2s":"Uncletopia | Frankfurt | 1 | All Maps","protocol":17,"map":"pl_borneo","folder":"tf","game":"Team Fortress","app_id":440,"player_count":24,"max_players":24,"Bots":0,"server_type":"Dedicated","server_os":"Linux","password":true,"vac":true,"version":"7961495","steam_id":85568392924469989,"keywords":["nocrits","nodmgspread","payload","uncletopia"],"game_id":440,"stv_port":27016,"stv_name":"Uncletopia | Frankfurt | 1 | All Maps | STV","players":[{"user_id":854,"name":"Vagabundas","steam_id":76561198343529494,"connected_time":19000000000,"state":"active","ping":85},{"user_id":847,"name":"catface","steam_id":76561198963378933,"connected_time":1590000000000,"state":"active","ping":50},{"user_id":855,"name":"lawn","steam_id":76561198001243486,"connected_time":9000000000,"state":"spawning","ping":55},{"user_id":849,"name":"ywy","steam_id":76561198088624259,"connected_time":1344000000000,"state":"active","ping":62},{"user_id":837,"name":"√áodar","steam_id":76561198235518444,"connected_time":1816000000000,"state":"active","ping":50},{"user_id":852,"name":"stun","steam_id":76561198276681691,"connected_time":527000000000,"state":"active","ping":59},{"user_id":851,"name":"CEO of Racism","steam_id":76561198042317958,"connected_time":535000000000,"state":"active","ping":60},{"user_id":715,"name":"fish","steam_id":76561198092096689,"connected_time":11787000000000,"state":"active","ping":53},{"user_id":826,"name":"Brian","steam_id":76561198077756206,"connected_time":2782000000000,"state":"active","ping":59},{"user_id":819,"name":"Wattseyy","steam_id":76561198248567360,"connected_time":3099000000000,"state":"active","ping":53},{"user_id":841,"name":"Pipper","steam_id":76561197970326616,"connected_time":1661000000000,"state":"active","ping":67},{"user_id":838,"name":"aqpw","steam_id":76561198346638308,"connected_time":1800000000000,"state":"active","ping":61},{"user_id":787,"name":"Markein","steam_id":76561198360754280,"connected_time":6248000000000,"state":"active","ping":45},{"user_id":850,"name":"Conan the Librarian","steam_id":76561198007224654,"connected_time":547000000000,"state":"active","ping":66},{"user_id":843,"name":"BeZpOnToVyY_PiRoZhoK","steam_id":76561198163138497,"connected_time":1609000000000,"state":"active","ping":88},{"user_id":815,"name":"dick cheese enjoyer","steam_id":76561198077421906,"connected_time":3789000000000,"state":"active","ping":59},{"user_id":844,"name":"Lao","steam_id":76561198004528684,"connected_time":1605000000000,"state":"active","ping":80},{"user_id":853,"name":"tone' (real)","steam_id":76561198055552635,"connected_time":293000000000,"state":"active","ping":56},{"user_id":829,"name":"I only care about points","steam_id":76561198061478257,"connected_time":2545000000000,"state":"active","ping":49},{"user_id":823,"name":"n-b?d!n","steam_id":76561198307037169,"connected_time":3019000000000,"state":"active","ping":66},{"user_id":790,"name":"Silverbolt","steam_id":76561198153165763,"connected_time":6023000000000,"state":"active","ping":67},{"user_id":835,"name":"booba","steam_id":76561198158018284,"connected_time":1992000000000,"state":"active","ping":55},{"user_id":848,"name":"nose.spooner67","steam_id":76561198119324108,"connected_time":1582000000000,"state":"active","ping":57},{"user_id":846,"name":"leave me alone","steam_id":76561198345202997,"connected_time":1599000000000,"state":"active","ping":131}]},{"server_id":110,"name":"Uncletopia | Frankfurt | 2 | All Maps","name_short":"frk-2","host":"frk-1.de.uncletopia.com","port":27025,"enabled":true,"region":"eu","cc":"de","latitude":50.110924,"longitude":8.682127,"reserved":0,"last_update":"0001-01-01T00:00:00Z","name_a2s":"Uncletopia | Frankfurt | 2 | All Maps","protocol":17,"map":"koth_viaduct","folder":"tf","game":"Team Fortress","app_id":440,"player_count":24,"max_players":24,"Bots":0,"server_type":"Dedicated","server_os":"Linux","password":true,"vac":true,"version":"7961495","steam_id":85568392924469990,"keywords":["cp","nocrits","nodmgspread","uncletopia"],"game_id":440,"stv_port":27026,"stv_name":"Uncletopia | Frankfurt | 2 | All Maps | STV","players":[{"user_id":605,"name":"Radom","steam_id":76561198291681674,"connected_time":540000000000,"state":"active","ping":55},{"user_id":600,"name":"DiJin","steam_id":76561198154349638,"connected_time":831000000000,"state":"active","ping":62},{"user_id":569,"name":"God's Goofiest Goober","steam_id":76561198103175187,"connected_time":3286000000000,"state":"active","ping":65},{"user_id":577,"name":"worgeral","steam_id":76561198050781898,"connected_time":2208000000000,"state":"active","ping":61},{"user_id":587,"name":"Rudoss","steam_id":76561198018415787,"connected_time":1466000000000,"state":"active","ping":62},{"user_id":603,"name":"Em","steam_id":76561198057911246,"connected_time":651000000000,"state":"active","ping":82},{"user_id":606,"name":"Chiers","steam_id":76561198073461642,"connected_time":538000000000,"state":"active","ping":52},{"user_id":607,"name":"swallowed 10 pennies please hel","steam_id":76561198055816412,"connected_time":462000000000,"state":"active","ping":61},{"user_id":565,"name":"Snowmotion","steam_id":76561198075022454,"connected_time":3605000000000,"state":"active","ping":58},{"user_id":591,"name":"puddles","steam_id":76561198046196005,"connected_time":1266000000000,"state":"active","ping":39},{"user_id":596,"name":"Doctor Rudy G. Numpad","steam_id":76561198440881106,"connected_time":1073000000000,"state":"active","ping":75},{"user_id":608,"name":"[Sheep] Tomco","steam_id":76561198388549261,"connected_time":348000000000,"state":"active","ping":75},{"user_id":590,"name":"mq","steam_id":76561198091888948,"connected_time":1306000000000,"state":"active","ping":52},{"user_id":571,"name":"CodaxTheVulture","steam_id":76561198079028652,"connected_time":2315000000000,"state":"active","ping":64},{"user_id":564,"name":"UltimateAura","steam_id":76561198338361324,"connected_time":3663000000000,"state":"active","ping":41},{"user_id":609,"name":"Ritmic Mortal","steam_id":76561198352862033,"connected_time":274000000000,"state":"active","ping":97},{"user_id":593,"name":"SendBob","steam_id":76561198151981614,"connected_time":1220000000000,"state":"active","ping":86},{"user_id":599,"name":"MAGik","steam_id":76561198085793729,"connected_time":842000000000,"state":"active","ping":79},{"user_id":601,"name":"KrAk3rs","steam_id":76561198298179344,"connected_time":789000000000,"state":"active","ping":60},{"user_id":611,"name":"Aaron","steam_id":76561197990046953,"connected_time":131000000000,"state":"active","ping":67},{"user_id":588,"name":"American Chjeff (‚ú™oficial)","steam_id":76561198019917466,"connected_time":1463000000000,"state":"active","ping":71},{"user_id":602,"name":"Vershal Smershal","steam_id":76561198116223995,"connected_time":788000000000,"state":"active","ping":60},{"user_id":612,"name":"Œ© ScAVENGE Œ©","steam_id":76561198034375627,"connected_time":110000000000,"state":"active","ping":55},{"user_id":584,"name":"kavun","steam_id":76561198023461869,"connected_time":1818000000000,"state":"active","ping":78}]},{"server_id":308,"name":"Uncletopia | Frankfurt | 3 | All Maps","name_short":"frk-3","host":"frk-1.de.uncletopia.com","port":27035,"enabled":true,"region":"eu","cc":"de","latitude":50.110924,"longitude":8.682127,"reserved":0,"last_update":"0001-01-01T00:00:00Z","name_a2s":"Uncletopia | Frankfurt | 3 | All Maps","protocol":17,"map":"cp_altitude","folder":"tf","game":"Team Fortress","app_id":440,"player_count":20,"max_players":24,"Bots":0,"server_type":"Dedicated","server_os":"Linux","password":true,"vac":true,"version":"7961495","steam_id":85568392924504274,"keywords":["cp","nocrits","nodmgspread","uncletopia"],"game_id":440,"stv_port":27036,"stv_name":"Uncletopia | Frankfurt | 3 | All Maps | STV","players":[{"user_id":770,"name":"Kingsley","steam_id":76561198210210543,"connected_time":613000000000,"state":"active","ping":62},{"user_id":782,"name":"tjuv","steam_id":76561198214848887,"connected_time":120000000000,"state":"active","ping":60},{"user_id":758,"name":"decriminalise goblins","steam_id":76561198048257605,"connected_time":1105000000000,"state":"active","ping":76},{"user_id":752,"name":"Monkey","steam_id":76561199008411791,"connected_time":2046000000000,"state":"active","ping":85},{"user_id":783,"name":"Endi","steam_id":76561198914938199,"connected_time":60000000000,"state":"active","ping":86},{"user_id":763,"name":"Industrial Revolution","steam_id":76561198230811124,"connected_time":811000000000,"state":"active","ping":46},{"user_id":760,"name":"Mega Saturn","steam_id":76561198024750500,"connected_time":1065000000000,"state":"active","ping":85},{"user_id":768,"name":"HazelForest","steam_id":76561198171827033,"connected_time":653000000000,"state":"active","ping":63},{"user_id":764,"name":"JosepXXL","steam_id":76561198407124695,"connected_time":769000000000,"state":"active","ping":85},{"user_id":784,"name":"Glorious Leader Xi Jinping","steam_id":76561198293811839,"connected_time":9000000000,"state":"spawning","ping":91},{"user_id":766,"name":"caramelldancin'","steam_id":76561198193357946,"connected_time":719000000000,"state":"active","ping":97},{"user_id":680,"name":"random gaming","steam_id":76561198087970118,"connected_time":7301000000000,"state":"active","ping":61},{"user_id":769,"name":"boxing time","steam_id":76561198231966088,"connected_time":634000000000,"state":"active","ping":63},{"user_id":585,"name":"Papa Cheese","steam_id":76561198276351496,"connected_time":13359000000000,"state":"active","ping":55},{"user_id":771,"name":"rabo","steam_id":76561198935212237,"connected_time":607000000000,"state":"active","ping":157},{"user_id":682,"name":"Doctor Medic","steam_id":76561198100957443,"connected_time":7295000000000,"state":"active","ping":71},{"user_id":774,"name":"MG","steam_id":76561197992591715,"connected_time":480000000000,"state":"active","ping":63},{"user_id":775,"name":"Dream","steam_id":76561198802024369,"connected_time":458000000000,"state":"active","ping":45},{"user_id":776,"name":"Coramari Derifey","steam_id":76561198092035222,"connected_time":444000000000,"state":"active","ping":95},{"user_id":778,"name":"CzechMate #SaveTF2","steam_id":76561198012687703,"connected_time":377000000000,"state":"active","ping":48}]},{"server_id":309,"name":"Uncletopia | Frankfurt | 4 | All Maps","name_short":"frk-4","host":"frk-1.de.uncletopia.com","port":27045,"enabled":true,"region":"eu","cc":"de","latitude":50.110924,"longitude":8.682127,"reserved":0,"last_update":"0001-01-01T00:00:00Z","name_a2s":"Uncletopia | Frankfurt | 4 | All Maps","protocol":17,"map":"koth_lakeside_final","folder":"tf","game":"Team Fortress","app_id":440,"player_count":0,"max_players":24,"Bots":0,"server_type":"Dedicated","server_os":"Linux","password":true,"vac":true,"version":"7961495","steam_id":85568392924504275,"keywords":["cp","nocrits","nodmgspread","uncletopia"],"game_id":440,"stv_port":27046,"stv_name":"Uncletopia | Frankfurt | 4 | All Maps | STV","players":null},{"server_id":310,"name":"Uncletopia | Frankfurt | 5 | All Maps","name_short":"frk-5","host":"frk-1.de.uncletopia.com","port":27055,"enabled":true,"region":"eu","cc":"de","latitude":50.110924,"longitude":8.682127,"reserved":0,"last_update":"0001-01-01T00:00:00Z","name_a2s":"Uncletopia | Frankfurt | 5 | All Maps","protocol":17,"map":"pl_snowycoast","folder":"tf","game":"Team Fortress","app_id":440,"player_count":0,"max_players":24,"Bots":0,"server_type":"Dedicated","server_os":"Linux","password":true,"vac":true,"version":"7961495","steam_id":85568392924504277,"keywords":["nocrits","nodmgspread","payload","uncletopia"],"game_id":440,"stv_port":27056,"stv_name":"Uncletopia | Frankfurt | 5 | All Maps | STV","players":null},{"server_id":311,"name":"Uncletopia | Frankfurt | 6 | All Maps","name_short":"frk-6","host":"frk-1.de.uncletopia.com","port":27065,"enabled":true,"region":"eu","cc":"de","latitude":50.110924,"longitude":8.682127,"reserved":0,"last_update":"0001-01-01T00:00:00Z","name_a2s":"Uncletopia | Frankfurt | 6 | All Maps","protocol":17,"map":"pl_snowycoast","folder":"tf","game":"Team Fortress","app_id":440,"player_count":24,"max_players":24,"Bots":0,"server_type":"Dedicated","server_os":"Linux","password":true,"vac":true,"version":"7961495","steam_id":85568392924504278,"keywords":["nocrits","nodmgspread","payload","uncletopia"],"game_id":440,"stv_port":27066,"stv_name":"Uncletopia | Frankfurt | 6 | All Maps | STV","players":[{"user_id":548,"name":"R4smR üçû","steam_id":76561198153255400,"connected_time":529000000000,"state":"active","ping":114},{"user_id":521,"name":"Jureron","steam_id":76561198097535175,"connected_time":2384000000000,"state":"active","ping":60},{"user_id":544,"name":"simonjohna646","steam_id":76561199403481880,"connected_time":1397000000000,"state":"active","ping":146},{"user_id":525,"name":"FoOzTV","steam_id":76561197998636728,"connected_time":2261000000000,"state":"active","ping":60},{"user_id":522,"name":"DaveRISK","steam_id":76561198143854076,"connected_time":2379000000000,"state":"active","ping":91},{"user_id":523,"name":"slnc","steam_id":76561198041151496,"connected_time":2362000000000,"state":"active","ping":70},{"user_id":559,"name":"Drpostman","steam_id":76561198110817061,"connected_time":125000000000,"state":"active","ping":77},{"user_id":532,"name":"Pancake Medic","steam_id":76561199018423214,"connected_time":2081000000000,"state":"active","ping":67},{"user_id":520,"name":"herbal tea","steam_id":76561198179711137,"connected_time":2426000000000,"state":"active","ping":58},{"user_id":547,"name":"OneSolidJunky","steam_id":76561199086682942,"connected_time":677000000000,"state":"active","ping":140},{"user_id":550,"name":"LionKing","steam_id":76561198023399545,"connected_time":360000000000,"state":"active","ping":54},{"user_id":551,"name":"beckler","steam_id":76561198029266963,"connected_time":349000000000,"state":"active","ping":43},{"user_id":552,"name":"Sweetcheesus","steam_id":76561198022299033,"connected_time":338000000000,"state":"active","ping":55},{"user_id":533,"name":"golfmastr","steam_id":76561198993144124,"connected_time":2062000000000,"state":"active","ping":71},{"user_id":507,"name":"LILY-CHAN","steam_id":76561198035085893,"connected_time":2858000000000,"state":"active","ping":107},{"user_id":539,"name":"IT‚ÄôS NESTING SEASON","steam_id":76561198015573257,"connected_time":1911000000000,"state":"active","ping":72},{"user_id":553,"name":"Dangerousbros","steam_id":76561198088952519,"connected_time":317000000000,"state":"active","ping":60},{"user_id":554,"name":"Redsy","steam_id":76561198360088412,"connected_time":282000000000,"state":"active","ping":133},{"user_id":555,"name":"Jimmy Poppadopolos","steam_id":76561198044825612,"connected_time":262000000000,"state":"active","ping":57},{"user_id":516,"name":"you're wasting your time","steam_id":76561199282911650,"connected_time":2545000000000,"state":"active","ping":48},{"user_id":556,"name":"Dizzy","steam_id":76561198010192462,"connected_time":252000000000,"state":"active","ping":55},{"user_id":557,"name":"IanCliff","steam_id":76561198217056368,"connected_time":224000000000,"state":"active","ping":78},{"user_id":558,"name":"waj","steam_id":76561198053628243,"connected_time":204000000000,"state":"active","ping":57},{"user_id":560,"name":"Not A Fake Uncletopia Server","steam_id":76561198152871288,"connected_time":112000000000,"state":"active","ping":69}]},{"server_id":23,"name":"Uncletopia | Frankfurt | 7 | Stopwatch","name_short":"frk-7","host":"frk-1.de.uncletopia.com","port":27075,"enabled":true,"region":"eu","cc":"de","latitude":50.110924,"longitude":8.682127,"reserved":0,"last_update":"0001-01-01T00:00:00Z","name_a2s":"Uncletopia | Frankfurt | 7 | Stopwatch","protocol":17,"map":"workshop/pl_badwater_pro_v12.ugc2142942074","folder":"tf","game":"Team Fortress","app_id":440,"player_count":0,"max_players":24,"Bots":0,"server_type":"Dedicated","server_os":"Linux","password":true,"vac":true,"version":"7961495","steam_id":85568392924742827,"keywords":["nocrits","nodmgspread","payload","uncletopia"],"game_id":440,"stv_port":27076,"stv_name":"Uncletopia | Frankfurt | 7 | Stopwatch | STV","players":null},{"server_id":24,"name":"Uncletopia | Frankfurt | 8 | Community","name_short":"frk-8","host":"frk-1.de.uncletopia.com","port":27085,"enabled":true,"region":"eu","cc":"de","latitude":50.110924,"longitude":8.682127,"reserved":0,"last_update":"0001-01-01T00:00:00Z","name_a2s":"Uncletopia | Frankfurt | 8 | Community","protocol":17,"map":"workshop/koth_bagel_rc6.ugc2514036946","folder":"tf","game":"Team Fortress","app_id":440,"player_count":0,"max_players":24,"Bots":0,"server_type":"Dedicated","server_os":"Linux","password":true,"vac":true,"version":"7961495","steam_id":85568392924742828,"keywords":["cp","nocrits","nodmgspread","uncletopia"],"game_id":440,"stv_port":27086,"stv_name":"Uncletopia | Frankfurt | 8 | Community | STV","players":null},{"server_id":202,"name":"Uncletopia | Hong Kong | 1 | All Maps","name_short":"hgk-1","host":"hgk-1.hk.uncletopia.com","port":27015,"enabled":true,"region":"asia","cc":"hk","latitude":22.302711,"longitude":114.177216,"reserved":0,"last_update":"0001-01-01T00:00:00Z","name_a2s":"Uncletopia | Hong Kong | 1 | All Maps","protocol":17,"map":"cp_process_final","folder":"tf","game":"Team Fortress","app_id":440,"player_count":0,"max_players":24,"Bots":0,"server_type":"Dedicated","server_os":"Linux","password":true,"vac":true,"version":"7961495","steam_id":85568392924494504,"keywords":["cp","nocrits","nodmgspread","uncletopia"],"game_id":440,"stv_port":27016,"stv_name":"Uncletopia | Hong Kong | 1 | All Maps | STV","players":null},{"server_id":1,"name":"Uncletopia | Los Angeles | 1 | All Maps","name_short":"lax-1","host":"lax-1.us.uncletopia.com","port":27015,"enabled":true,"region":"us-west","cc":"us","latitude":33.94279,"longitude":-118.41004,"reserved":0,"last_update":"0001-01-01T00:00:00Z","name_a2s":"Uncletopia | Los Angeles | 1 | All Maps","protocol":17,"map":"pl_frontier_final","folder":"tf","game":"Team Fortress","app_id":440,"player_count":23,"max_players":24,"Bots":0,"server_type":"Dedicated","server_os":"Linux","password":true,"vac":true,"version":"7961495","steam_id":85568392924469991,"keywords":["nocrits","nodmgspread","payload","uncletopia"],"game_id":440,"stv_port":27016,"stv_name":"Uncletopia | Los Angeles | 1 | All Maps | STV","players":[{"user_id":201,"name":"Cael","steam_id":76561198136789464,"connected_time":1899000000000,"state":"active","ping":52},{"user_id":193,"name":"[‚òØ] randomshagz*","steam_id":76561197968666646,"connected_time":2560000000000,"state":"active","ping":71},{"user_id":220,"name":"Pluto","steam_id":76561198012630802,"connected_time":539000000000,"state":"active","ping":65},{"user_id":155,"name":"Altruisticailuridae","steam_id":76561198335295596,"connected_time":5043000000000,"state":"active","ping":54},{"user_id":100,"name":"Eden","steam_id":76561198081284664,"connected_time":11409000000000,"state":"active","ping":56},{"user_id":225,"name":"SkadooshPlayz","steam_id":76561198310986662,"connected_time":72000000000,"state":"active","ping":61},{"user_id":179,"name":"aBigPoo","steam_id":76561198425027856,"connected_time":3556000000000,"state":"active","ping":50},{"user_id":199,"name":"paypur -rng","steam_id":76561198214370515,"connected_time":1920000000000,"state":"active","ping":67},{"user_id":153,"name":"Anon","steam_id":76561198109740776,"connected_time":5047000000000,"state":"active","ping":61},{"user_id":226,"name":"engie","steam_id":76561199229629045,"connected_time":40000000000,"state":"active","ping":61},{"user_id":185,"name":"chimpin","steam_id":76561198858089300,"connected_time":3406000000000,"state":"active","ping":127},{"user_id":221,"name":"rew!","steam_id":76561198040212208,"connected_time":530000000000,"state":"active","ping":57},{"user_id":224,"name":"SnappyPython","steam_id":76561198155631884,"connected_time":331000000000,"state":"active","ping":122},{"user_id":195,"name":"FellowAutist","steam_id":76561198053916629,"connected_time":2278000000000,"state":"active","ping":59},{"user_id":169,"name":"TEN∆éT","steam_id":76561198098061578,"connected_time":4302000000000,"state":"active","ping":68},{"user_id":205,"name":"Thiscookieman","steam_id":76561199012117130,"connected_time":1422000000000,"state":"active","ping":95},{"user_id":206,"name":"KaosInfinite","steam_id":76561198009126350,"connected_time":1377000000000,"state":"active","ping":45},{"user_id":177,"name":"CookieMeister","steam_id":76561198112646899,"connected_time":3759000000000,"state":"active","ping":86},{"user_id":217,"name":"Clockwork0613","steam_id":76561198987121123,"connected_time":909000000000,"state":"active","ping":84},{"user_id":200,"name":"moe","steam_id":76561198929586245,"connected_time":1918000000000,"state":"active","ping":42},{"user_id":202,"name":"based, lit, bussin' burrito","steam_id":76561198131567365,"connected_time":1894000000000,"state":"active","ping":67},{"user_id":210,"name":"zinnk","steam_id":76561198092081825,"connected_time":1275000000000,"state":"active","ping":55},{"user_id":223,"name":"Len","steam_id":76561199141913673,"connected_time":520000000000,"state":"active","ping":66}]},{"server_id":112,"name":"Uncletopia | Los Angeles | 2 | All Maps","name_short":"lax-2","host":"lax-1.us.uncletopia.com","port":27025,"enabled":true,"region":"us-west","cc":"us","latitude":33.94279,"longitude":-118.41004,"reserved":0,"last_update":"0001-01-01T00:00:00Z","name_a2s":"Uncletopia | Los Angeles | 2 | All Maps","protocol":17,"map":"koth_highpass","folder":"tf","game":"Team Fortress","app_id":440,"player_count":0,"max_players":24,"Bots":0,"server_type":"Dedicated","server_os":"Linux","password":true,"vac":true,"version":"7961495","steam_id":85568392924469992,"keywords":["cp","nocrits","nodmgspread","uncletopia"],"game_id":440,"stv_port":27026,"stv_name":"Uncletopia | Los Angeles | 2 | All Maps | STV","players":null},{"server_id":324,"name":"Uncletopia | Los Angeles | 3 | All Maps","name_short":"lax-3","host":"lax-1.us.uncletopia.com","port":27035,"enabled":true,"region":"us-west","cc":"us","latitude":33.94279,"longitude":-118.41004,"reserved":0,"last_update":"0001-01-01T00:00:00Z","name_a2s":"Uncletopia | Los Angeles | 3 | All Maps","protocol":17,"map":"pl_upward","folder":"tf","game":"Team Fortress","app_id":440,"player_count":0,"max_players":24,"Bots":0,"server_type":"Dedicated","server_os":"Linux","password":true,"vac":true,"version":"7961495","steam_id":85568392924510198,"keywords":["nocrits","nodmgspread","payload","uncletopia"],"game_id":440,"stv_port":27036,"stv_name":"Uncletopia | Los Angeles | 3 | All Maps | STV","players":null},{"server_id":25,"name":"Uncletopia | Los Angeles | 4 | Stopwatch","name_short":"lax-4","host":"lax-1.us.uncletopia.com","port":27045,"enabled":true,"region":"us-west","cc":"us","latitude":33.94279,"longitude":-118.41004,"reserved":0,"last_update":"0001-01-01T00:00:00Z","name_a2s":"Uncletopia | Los Angeles | 4 | Stopwatch","protocol":17,"map":"pl_barnblitz","folder":"tf","game":"Team Fortress","app_id":440,"player_count":0,"max_players":24,"Bots":0,"server_type":"Dedicated","server_os":"Linux","password":true,"vac":true,"version":"7961495","steam_id":85568392924510199,"keywords":["nocrits","nodmgspread","payload","uncletopia"],"game_id":440,"stv_port":27046,"stv_name":"Uncletopia | Los Angeles | 4 | Stopwatch | STV","players":null},{"server_id":11,"name":"Uncletopia | London | 1 | All Maps","name_short":"lon-1","host":"lon-1.uk.uncletopia.com","port":27015,"enabled":true,"region":"eu","cc":"gb","latitude":51.509865,"longitude":-0.118092,"reserved":0,"last_update":"0001-01-01T00:00:00Z","name_a2s":"Uncletopia | London | 1 | All Maps","protocol":17,"map":"pl_upward","folder":"tf","game":"Team Fortress","app_id":440,"player_count":24,"max_players":24,"Bots":0,"server_type":"Dedicated","server_os":"Linux","password":true,"vac":true,"version":"7961495","steam_id":85568392924367362,"keywords":["nocrits","nodmgspread","payload","uncletopia"],"game_id":440,"stv_port":27016,"stv_name":"Uncletopia | London | 1 | All Maps | STV","players":[{"user_id":704,"name":"sora","steam_id":76561198096547662,"connected_time":3439000000000,"state":"active","ping":52},{"user_id":724,"name":"Marquis de Hoto","steam_id":76561198080687708,"connected_time":1216000000000,"state":"active","ping":73},{"user_id":634,"name":"shooer!","steam_id":76561198110531281,"connected_time":8062000000000,"state":"active","ping":72},{"user_id":716,"name":"gibb (official)","steam_id":76561198074097655,"connected_time":2550000000000,"state":"active","ping":61},{"user_id":728,"name":"puck","steam_id":76561198121260981,"connected_time":168000000000,"state":"active","ping":41},{"user_id":727,"name":"Slifer","steam_id":76561198062255803,"connected_time":632000000000,"state":"active","ping":69},{"user_id":686,"name":"RomAnjentululiantiarion","steam_id":76561198161417211,"connected_time":4364000000000,"state":"active","ping":99},{"user_id":712,"name":"Trans Femtress 2","steam_id":76561198014056212,"connected_time":2847000000000,"state":"active","ping":70},{"user_id":620,"name":"Kahvi","steam_id":76561198723244199,"connected_time":9558000000000,"state":"active","ping":75},{"user_id":713,"name":"Black Tom","steam_id":76561198335730273,"connected_time":2823000000000,"state":"active","ping":64},{"user_id":680,"name":"KnugenIV","steam_id":76561198127091993,"connected_time":4472000000000,"state":"active","ping":96},{"user_id":718,"name":"Clown :o)","steam_id":76561198074657015,"connected_time":2441000000000,"state":"active","ping":57},{"user_id":696,"name":"GoblinGaming (Gabagool)","steam_id":76561198360395476,"connected_time":4009000000000,"state":"active","ping":44},{"user_id":702,"name":"kelpie (eepiest girl)","steam_id":76561198128327529,"connected_time":3499000000000,"state":"active","ping":47},{"user_id":631,"name":"Kphi(i)","steam_id":76561198970587061,"connected_time":8585000000000,"state":"active","ping":59},{"user_id":701,"name":"Velvet","steam_id":76561199394742012,"connected_time":3563000000000,"state":"active","ping":60},{"user_id":708,"name":"‡∂ûaura‡∂û","steam_id":76561198066258544,"connected_time":3262000000000,"state":"active","ping":54},{"user_id":717,"name":"stroyo","steam_id":76561198409592046,"connected_time":2508000000000,"state":"active","ping":62},{"user_id":651,"name":"SKY_","steam_id":76561198080980508,"connected_time":7011000000000,"state":"active","ping":69},{"user_id":729,"name":"BreadBubbles","steam_id":76561198174332826,"connected_time":135000000000,"state":"active","ping":66},{"user_id":720,"name":"albert","steam_id":76561198353496134,"connected_time":1711000000000,"state":"active","ping":50},{"user_id":721,"name":"beebo","steam_id":76561199120277007,"connected_time":1697000000000,"state":"active","ping":58},{"user_id":711,"name":"goff","steam_id":76561198118989010,"connected_time":2856000000000,"state":"active","ping":53},{"user_id":714,"name":"ahh, eto... nya :3c","steam_id":76561198878171763,"connected_time":2759000000000,"state":"active","ping":58}]},{"server_id":114,"name":"Uncletopia | London | 2 | All Maps","name_short":"lon-2","host":"lon-1.uk.uncletopia.com","port":27025,"enabled":true,"region":"eu","cc":"gb","latitude":51.509865,"longitude":-0.118092,"reserved":0,"last_update":"0001-01-01T00:00:00Z","name_a2s":"Uncletopia | London | 2 | All Maps","protocol":17,"map":"cp_sunshine","folder":"tf","game":"Team Fortress","app_id":440,"player_count":24,"max_players":24,"Bots":0,"server_type":"Dedicated","server_os":"Linux","password":true,"vac":true,"version":"7961495","steam_id":85568392924470941,"keywords":["cp","nocrits","nodmgspread","uncletopia"],"game_id":440,"stv_port":27026,"stv_name":"Uncletopia | London | 2 | All Maps | STV","players":[{"user_id":449,"name":"Flopphalla","steam_id":76561198160705564,"connected_time":0,"state":"spawning","ping":11},{"user_id":410,"name":"Flying Squirrel","steam_id":76561198005202791,"connected_time":2387000000000,"state":"active","ping":79},{"user_id":440,"name":"Suetolog","steam_id":76561199053090212,"connected_time":846000000000,"state":"active","ping":60},{"user_id":418,"name":"Spliffendor","steam_id":76561198144020209,"connected_time":2161000000000,"state":"active","ping":53},{"user_id":357,"name":"Hugh","steam_id":76561198976348754,"connected_time":4700000000000,"state":"active","ping":43},{"user_id":435,"name":"IndigoJones","steam_id":76561198050284262,"connected_time":1077000000000,"state":"active","ping":49},{"user_id":414,"name":"gabagool","steam_id":76561198307111838,"connected_time":2338000000000,"state":"active","ping":30},{"user_id":444,"name":"str00dle","steam_id":76561198033926465,"connected_time":465000000000,"state":"active","ping":70},{"user_id":446,"name":"Isaac Boush","steam_id":76561198179746529,"connected_time":231000000000,"state":"active","ping":85},{"user_id":433,"name":"scoot","steam_id":76561198035789194,"connected_time":1197000000000,"state":"active","ping":74},{"user_id":447,"name":"turbo shart","steam_id":76561198012351808,"connected_time":181000000000,"state":"active","ping":44},{"user_id":443,"name":"_420_StopItDudeCmon","steam_id":76561197997146481,"connected_time":510000000000,"state":"active","ping":48},{"user_id":373,"name":"Jaeger","steam_id":76561199392187099,"connected_time":4134000000000,"state":"active","ping":150},{"user_id":428,"name":"BOT Jeremus","steam_id":76561198072981684,"connected_time":1288000000000,"state":"active","ping":45},{"user_id":437,"name":"Peat","steam_id":76561197992168067,"connected_time":1068000000000,"state":"active","ping":70},{"user_id":426,"name":"Pats (Gifted items Collector)","steam_id":76561198418538887,"connected_time":1596000000000,"state":"active","ping":76},{"user_id":442,"name":"penice","steam_id":76561198038976246,"connected_time":646000000000,"state":"active","ping":58},{"user_id":439,"name":"trans werewolf","steam_id":76561198107235989,"connected_time":867000000000,"state":"active","ping":69},{"user_id":438,"name":"Underground Level G","steam_id":76561198317750546,"connected_time":1064000000000,"state":"active","ping":103},{"user_id":420,"name":"Wanderer.","steam_id":76561198021837576,"connected_time":1982000000000,"state":"active","ping":45},{"user_id":416,"name":"tm`","steam_id":76561197993580412,"connected_time":2306000000000,"state":"active","ping":74},{"user_id":421,"name":"WEEP","steam_id":76561199499933159,"connected_time":1976000000000,"state":"active","ping":63},{"user_id":448,"name":"LemonAids","steam_id":76561198151605171,"connected_time":162000000000,"state":"active","ping":115},{"user_id":365,"name":"Snowy","steam_id":76561198169992461,"connected_time":4297000000000,"state":"active","ping":39}]},{"server_id":320,"name":"Uncletopia | London | 3 | All Maps","name_short":"lon-3","host":"lon-1.uk.uncletopia.com","port":27035,"enabled":true,"region":"eu","cc":"gb","latitude":51.509865,"longitude":-0.118092,"reserved":0,"last_update":"0001-01-01T00:00:00Z","name_a2s":"Uncletopia | London | 3 | All Maps","protocol":17,"map":"cp_mercenarypark","folder":"tf","game":"Team Fortress","app_id":440,"player_count":24,"max_players":24,"Bots":0,"server_type":"Dedicated","server_os":"Linux","password":true,"vac":true,"version":"7961495","steam_id":85568392924510192,"keywords":["cp","nocrits","nodmgspread","uncletopia"],"game_id":440,"stv_port":27036,"stv_name":"Uncletopia | London | 3 | All Maps | STV","players":[{"user_id":335,"name":"Hank J Wimbleton","steam_id":76561198408623293,"connected_time":3807000000000,"state":"active","ping":56},{"user_id":387,"name":"My left foot itches","steam_id":76561198078411001,"connected_time":1825000000000,"state":"active","ping":89},{"user_id":404,"name":"pardner","steam_id":76561198451471161,"connected_time":2000000000,"state":"spawning","ping":55},{"user_id":374,"name":"BearWithMe","steam_id":76561198032715989,"connected_time":2014000000000,"state":"active","ping":46},{"user_id":355,"name":"car with air conditioning","steam_id":76561198368514674,"connected_time":2958000000000,"state":"active","ping":52},{"user_id":394,"name":"TheChickenman","steam_id":76561198077160025,"connected_time":1284000000000,"state":"active","ping":45},{"user_id":395,"name":"Yangus","steam_id":76561198147796010,"connected_time":455000000000,"state":"active","ping":54},{"user_id":360,"name":"milk.mp4","steam_id":76561198376723362,"connected_time":2724000000000,"state":"active","ping":68},{"user_id":401,"name":"Brikermaster564","steam_id":76561199059400393,"connected_time":189000000000,"state":"active","ping":84},{"user_id":371,"name":"Cobalt","steam_id":76561198349228196,"connected_time":2086000000000,"state":"active","ping":116},{"user_id":376,"name":"King Nugget","steam_id":76561198134037464,"connected_time":2009000000000,"state":"active","ping":59},{"user_id":396,"name":"Gen","steam_id":76561198021775885,"connected_time":434000000000,"state":"active","ping":46},{"user_id":403,"name":"Doctor Livesey","steam_id":76561198828037534,"connected_time":66000000000,"state":"active","ping":74},{"user_id":378,"name":"merry","steam_id":76561198060242699,"connected_time":1972000000000,"state":"active","ping":57},{"user_id":379,"name":"sleeping souls","steam_id":76561198205464653,"connected_time":1967000000000,"state":"active","ping":57},{"user_id":362,"name":"legalize marijuana","steam_id":76561198988882521,"connected_time":2613000000000,"state":"active","ping":187},{"user_id":315,"name":"C++, Git and Linux Enjoyer","steam_id":76561198277310442,"connected_time":4401000000000,"state":"active","ping":68},{"user_id":380,"name":"Koppa","steam_id":76561197972286376,"connected_time":1958000000000,"state":"active","ping":70},{"user_id":399,"name":"soupalognionycrouton","steam_id":76561199021878433,"connected_time":371000000000,"state":"active","ping":79},{"user_id":383,"name":"Jesse Pikmin","steam_id":76561198042793243,"connected_time":1932000000000,"state":"active","ping":59},{"user_id":384,"name":"the rat","steam_id":76561198079101313,"connected_time":1929000000000,"state":"active","ping":56},{"user_id":402,"name":"Seail_M","steam_id":76561198002405605,"connected_time":176000000000,"state":"active","ping":60},{"user_id":209,"name":"m0‚Åß‚Åß ‚Åß‚Åß‚Åß‚Åßm","steam_id":76561198151388694,"connected_time":12085000000000,"state":"active","ping":76},{"user_id":397,"name":"Violent_Raccoons","steam_id":76561199006002337,"connected_time":414000000000,"state":"active","ping":54}]},{"server_id":321,"name":"Uncletopia | London | 4 | All Maps","name_short":"lon-4","host":"lon-1.uk.uncletopia.com","port":27045,"enabled":true,"region":"eu","cc":"gb","latitude":51.509865,"longitude":-0.118092,"reserved":0,"last_update":"0001-01-01T00:00:00Z","name_a2s":"Uncletopia | London | 4 | All Maps","protocol":17,"map":"cp_dustbowl","folder":"tf","game":"Team Fortress","app_id":440,"player_count":16,"max_players":24,"Bots":0,"server_type":"Dedicated","server_os":"Linux","password":true,"vac":true,"version":"7961495","steam_id":85568392924510193,"keywords":["cp","nocrits","nodmgspread","uncletopia"],"game_id":440,"stv_port":27046,"stv_name":"Uncletopia | London | 4 | All Maps | STV","players":[{"user_id":494,"name":"goz","steam_id":76561198155229347,"connected_time":117000000000,"state":"active","ping":45},{"user_id":410,"name":"free back real estate","steam_id":76561197999437155,"connected_time":3349000000000,"state":"active","ping":52},{"user_id":484,"name":"thorn","steam_id":76561198089287999,"connected_time":828000000000,"state":"active","ping":34},{"user_id":495,"name":"Joshuajxk","steam_id":76561198842175979,"connected_time":39000000000,"state":"active","ping":112},{"user_id":425,"name":"–ü–ò–í–ù–û–ô –†–ï–°–ü–ê–í–ù","steam_id":76561198807724266,"connected_time":2414000000000,"state":"active","ping":83},{"user_id":392,"name":"Nurse=Leave","steam_id":76561198103323356,"connected_time":4835000000000,"state":"active","ping":64},{"user_id":434,"name":"Bill Carr","steam_id":76561198110033943,"connected_time":1992000000000,"state":"active","ping":32},{"user_id":441,"name":"Stefman","steam_id":76561199025104038,"connected_time":1630000000000,"state":"active","ping":33},{"user_id":419,"name":"beer creator","steam_id":76561198039472276,"connected_time":2518000000000,"state":"active","ping":77},{"user_id":491,"name":"iswaxan","steam_id":76561199214988157,"connected_time":267000000000,"state":"active","ping":71},{"user_id":347,"name":"kluri","steam_id":76561198084518962,"connected_time":7050000000000,"state":"active","ping":77},{"user_id":486,"name":"Fried_Dough","steam_id":76561198068746207,"connected_time":801000000000,"state":"active","ping":170},{"user_id":433,"name":"Tornado","steam_id":76561198025684320,"connected_time":2081000000000,"state":"active","ping":40},{"user_id":411,"name":"Mega","steam_id":76561197970389664,"connected_time":3265000000000,"state":"active","ping":50},{"user_id":490,"name":"comic_sans","steam_id":76561198845309519,"connected_time":524000000000,"state":"active","ping":89},{"user_id":477,"name":"Jon","steam_id":76561199380849468,"connected_time":1080000000000,"state":"active","ping":60}]},{"server_id":21,"name":"Uncletopia | London | 5 | All Maps","name_short":"lon-5","host":"lon-1.uk.uncletopia.com","port":27055,"enabled":true,"region":"eu","cc":"gb","latitude":51.509865,"longitude":-0.118092,"reserved":0,"last_update":"0001-01-01T00:00:00Z","name_a2s":"Uncletopia | London | 5 | All Maps","protocol":17,"map":"pl_borneo","folder":"tf","game":"Team Fortress","app_id":440,"player_count":24,"max_players":24,"Bots":0,"server_type":"Dedicated","server_os":"Linux","password":true,"vac":true,"version":"7961495","steam_id":85568392924742829,"keywords":["nocrits","nodmgspread","payload","uncletopia"],"game_id":440,"stv_port":27056,"stv_name":"Uncletopia | London | 5 | All Maps | STV","players":[{"user_id":209,"name":"N O U F E XD","steam_id":76561199386090066,"connected_time":1655000000000,"state":"active","ping":75},{"user_id":219,"name":"finbar","steam_id":76561198056812396,"connected_time":952000000000,"state":"active","ping":73},{"user_id":230,"name":"‚òÜbladee‚òÜdior‚òÜf/w2016‚òÜ","steam_id":76561198082352159,"connected_time":358000000000,"state":"active","ping":105},{"user_id":233,"name":"Steen","steam_id":76561198122992510,"connected_time":249000000000,"state":"active","ping":56},{"user_id":214,"name":"dex","steam_id":76561198095560087,"connected_time":1358000000000,"state":"active","ping":76},{"user_id":226,"name":"Spotmonkey","steam_id":76561198003994092,"connected_time":489000000000,"state":"active","ping":57},{"user_id":211,"name":"Gety0","steam_id":76561198044387185,"connected_time":1395000000000,"state":"active","ping":88},{"user_id":225,"name":"‚òÅ Lou1smeister ‚òÅ","steam_id":76561198004032968,"connected_time":501000000000,"state":"active","ping":69},{"user_id":195,"name":"ha,burger","steam_id":76561199093584225,"connected_time":3362000000000,"state":"active","ping":63},{"user_id":215,"name":"Umby","steam_id":76561198166584580,"connected_time":1294000000000,"state":"active","ping":41},{"user_id":228,"name":"Portal2Player","steam_id":76561198062870114,"connected_time":442000000000,"state":"active","ping":147},{"user_id":229,"name":"Duke Fishlord","steam_id":76561198079928327,"connected_time":431000000000,"state":"active","ping":74},{"user_id":208,"name":"emer","steam_id":76561198001420975,"connected_time":1802000000000,"state":"active","ping":97},{"user_id":201,"name":"‚ô° Cursed ‚ô°","steam_id":76561199161458959,"connected_time":2698000000000,"state":"active","ping":169},{"user_id":234,"name":"Average Blahaj Enjoyer","steam_id":76561198022290284,"connected_time":171000000000,"state":"active","ping":104},{"user_id":223,"name":"footballween","steam_id":76561198796143531,"connected_time":604000000000,"state":"active","ping":60},{"user_id":176,"name":"FreyjaBreadWitch","steam_id":76561199211405367,"connected_time":4632000000000,"state":"active","ping":102},{"user_id":224,"name":"El Chubacabre","steam_id":76561199220322070,"connected_time":514000000000,"state":"active","ping":56},{"user_id":154,"name":"raebbitos","steam_id":76561198167580006,"connected_time":6073000000000,"state":"active","ping":54},{"user_id":217,"name":"Victoria Wood (as seen on TV)","steam_id":76561198066243851,"connected_time":1224000000000,"state":"active","ping":51},{"user_id":188,"name":"paypig","steam_id":76561198035137115,"connected_time":3875000000000,"state":"active","ping":44},{"user_id":192,"name":"avenje","steam_id":76561198155824845,"connected_time":3671000000000,"state":"active","ping":51},{"user_id":232,"name":"Archer","steam_id":76561198132860299,"connected_time":295000000000,"state":"active","ping":56}]},{"server_id":22,"name":"Uncletopia | London | 6 | All Maps","name_short":"lon-6","host":"lon-1.uk.uncletopia.com","port":27065,"enabled":true,"region":"eu","cc":"gb","latitude":51.509865,"longitude":-0.118092,"reserved":0,"last_update":"0001-01-01T00:00:00Z","name_a2s":"Uncletopia | London | 6 | All Maps","protocol":17,"map":"pl_borneo","folder":"tf","game":"Team Fortress","app_id":440,"player_count":0,"max_players":24,"Bots":0,"server_type":"Dedicated","server_os":"Linux","password":true,"vac":true,"version":"7961495","steam_id":85568392924742830,"keywords":["nocrits","nodmgspread","payload","uncletopia"],"game_id":440,"stv_port":27066,"stv_name":"Uncletopia | London | 6 | All Maps | STV","players":null},{"server_id":40,"name":"Uncletopia | London | 7 | Stopwatch","name_short":"lon-7","host":"lon-1.uk.uncletopia.com","port":27075,"enabled":true,"region":"eu","cc":"gb","latitude":51.509865,"longitude":-0.118092,"reserved":0,"last_update":"0001-01-01T00:00:00Z","name_a2s":"Uncletopia | London | 7 | Stopwatch","protocol":17,"map":"workshop/koth_ashville_final.ugc2130459942","folder":"tf","game":"Team Fortress","app_id":440,"player_count":0,"max_players":24,"Bots":0,"server_type":"Dedicated","server_os":"Linux","password":true,"vac":true,"version":"7961495","steam_id":85568392924964314,"keywords":["cp","nocrits","nodmgspread","uncletopia"],"game_id":440,"stv_port":27076,"stv_name":"Uncletopia | London | 7 | Stopwatch | STV","players":null},{"server_id":41,"name":"Uncletopia | London | 8 | Community","name_short":"lon-8","host":"lon-1.uk.uncletopia.com","port":27085,"enabled":true,"region":"eu","cc":"gb","latitude":51.509865,"longitude":-0.118092,"reserved":0,"last_update":"0001-01-01T00:00:00Z","name_a2s":"Uncletopia | London | 8 | Community","protocol":17,"map":"workshop/koth_slaughter_rc1.ugc1712845210","folder":"tf","game":"Team Fortress","app_id":440,"player_count":0,"max_players":24,"Bots":0,"server_type":"Dedicated","server_os":"Linux","password":true,"vac":true,"version":"7961495","steam_id":85568392924964315,"keywords":["cp","nocrits","nodmgspread","uncletopia"],"game_id":440,"stv_port":27086,"stv_name":"Uncletopia | London | 8 | Community | STV","players":null},{"server_id":300,"name":"Uncletopia | Montr√©al | 1 | One Thousand Uncles","name_short":"mtl-1","host":"mtl-1.ca.uncletopia.com","port":27015,"enabled":true,"region":"us-east","cc":"ca","latitude":45.50889,"longitude":-73.56167,"reserved":0,"last_update":"0001-01-01T00:00:00Z","name_a2s":"","protocol":0,"map":"","folder":"","game":"","app_id":0,"player_count":5,"max_players":0,"Bots":0,"server_type":"","server_os":"","password":false,"vac":false,"version":"","steam_id":0,"keywords":null,"game_id":0,"stv_port":0,"stv_name":"","players":[{"user_id":205,"name":"PiRA","steam_id":76561197962440292,"connected_time":1873000000000,"state":"active","ping":40},{"user_id":222,"name":"duck ü¶Ü","steam_id":76561197998344127,"connected_time":1764000000000,"state":"active","ping":89},{"user_id":223,"name":"Rhutebeer","steam_id":76561198018302761,"connected_time":1537000000000,"state":"active","ping":94},{"user_id":224,"name":"Waaagh!","steam_id":76561197995317887,"connected_time":1135000000000,"state":"active","ping":31},{"user_id":225,"name":"Enzo","steam_id":76561197975076681,"connected_time":392000000000,"state":"active","ping":62}]},{"server_id":301,"name":"Uncletopia | Montr√©al | 2 | One Thousand Uncles","name_short":"mtl-2","host":"mtl-1.ca.uncletopia.com","port":27025,"enabled":true,"region":"us-east","cc":"ca","latitude":45.50889,"longitude":-73.56167,"reserved":0,"last_update":"0001-01-01T00:00:00Z","name_a2s":"","protocol":0,"map":"","folder":"","game":"","app_id":0,"player_count":0,"max_players":0,"Bots":0,"server_type":"","server_os":"","password":false,"vac":false,"version":"","steam_id":0,"keywords":null,"game_id":0,"stv_port":0,"stv_name":"","players":null},{"server_id":302,"name":"Uncletopia | Montr√©al | 3 | One Thousand Uncles","name_short":"mtl-3","host":"mtl-1.ca.uncletopia.com","port":27035,"enabled":true,"region":"us-east","cc":"ca","latitude":45.50889,"longitude":-73.56167,"reserved":0,"last_update":"0001-01-01T00:00:00Z","name_a2s":"","protocol":0,"map":"","folder":"","game":"","app_id":0,"player_count":0,"max_players":0,"Bots":0,"server_type":"","server_os":"","password":false,"vac":false,"version":"","steam_id":0,"keywords":null,"game_id":0,"stv_port":0,"stv_name":"","players":null},{"server_id":13,"name":"Uncletopia | New York City | 1 | All Maps","name_short":"nyc-1","host":"nyc-1.us.uncletopia.com","port":27015,"enabled":true,"region":"us-east","cc":"us","latitude":40.73061,"longitude":-73.93524,"reserved":0,"last_update":"0001-01-01T00:00:00Z","name_a2s":"Uncletopia | New York City | 1 | All Maps","protocol":17,"map":"pl_frontier_final","folder":"tf","game":"Team Fortress","app_id":440,"player_count":20,"max_players":24,"Bots":0,"server_type":"Dedicated","server_os":"Linux","password":true,"vac":true,"version":"7961495","steam_id":85568392924469993,"keywords":["nocrits","nodmgspread","payload","uncletopia"],"game_id":440,"stv_port":27016,"stv_name":"Uncletopia | New York City | 1 | All Maps | STV","players":[{"user_id":283,"name":"Rummy the Blargh-gineer","steam_id":76561197997192800,"connected_time":330000000000,"state":"active","ping":58},{"user_id":281,"name":"Draco6257","steam_id":76561199147322448,"connected_time":598000000000,"state":"active","ping":34},{"user_id":246,"name":"George Washington","steam_id":76561199079034911,"connected_time":2144000000000,"state":"active","ping":61},{"user_id":267,"name":"jakobeo","steam_id":76561198415106043,"connected_time":1189000000000,"state":"active","ping":55},{"user_id":272,"name":"just squid","steam_id":76561198088355581,"connected_time":1039000000000,"state":"active","ping":109},{"user_id":254,"name":"Havok","steam_id":76561198063455003,"connected_time":1659000000000,"state":"active","ping":50},{"user_id":273,"name":"ren","steam_id":76561198120134814,"connected_time":923000000000,"state":"active","ping":154},{"user_id":252,"name":"Kraftlos","steam_id":76561198074350350,"connected_time":1758000000000,"state":"active","ping":59},{"user_id":279,"name":"Prismatic","steam_id":76561198400959313,"connected_time":699000000000,"state":"active","ping":75},{"user_id":284,"name":"jamzine","steam_id":76561198186168293,"connected_time":160000000000,"state":"active","ping":52},{"user_id":275,"name":"ndvr (femboy (REAL))","steam_id":76561199379200102,"connected_time":805000000000,"state":"active","ping":55},{"user_id":247,"name":"SalsaDaddy","steam_id":76561198358869108,"connected_time":2128000000000,"state":"active","ping":69},{"user_id":282,"name":"StretchySnail59","steam_id":76561198073535005,"connected_time":577000000000,"state":"active","ping":67},{"user_id":280,"name":"JobsDone2","steam_id":76561198159158870,"connected_time":623000000000,"state":"active","ping":44},{"user_id":276,"name":"2002 Toyota Corolla VE","steam_id":76561198149172070,"connected_time":802000000000,"state":"active","ping":80},{"user_id":265,"name":"Mythic","steam_id":76561198028616665,"connected_time":1339000000000,"state":"active","ping":60},{"user_id":277,"name":"Hi, I'm Jesus","steam_id":76561198015327152,"connected_time":774000000000,"state":"active","ping":45},{"user_id":209,"name":"Big Bill Haywood","steam_id":76561198142290733,"connected_time":4412000000000,"state":"active","ping":55},{"user_id":258,"name":"Winter the Witchie","steam_id":76561198151971178,"connected_time":1616000000000,"state":"active","ping":73},{"user_id":244,"name":"Hot Cheese Sundae","steam_id":76561198061189527,"connected_time":2207000000000,"state":"active","ping":83}]},{"server_id":14,"name":"Uncletopia | New York City | 2 | All Maps","name_short":"nyc-2","host":"nyc-1.us.uncletopia.com","port":27025,"enabled":true,"region":"us-east","cc":"us","latitude":40.73061,"longitude":-73.93524,"reserved":0,"last_update":"0001-01-01T00:00:00Z","name_a2s":"Uncletopia | New York City | 2 | All Maps","protocol":17,"map":"pl_badwater","folder":"tf","game":"Team Fortress","app_id":440,"player_count":24,"max_players":24,"Bots":0,"server_type":"Dedicated","server_os":"Linux","password":true,"vac":true,"version":"7961495","steam_id":85568392924469994,"keywords":["nocrits","nodmgspread","payload","uncletopia"],"game_id":440,"stv_port":27026,"stv_name":"Uncletopia | New York City | 2 | All Maps | STV","players":[{"user_id":111,"name":"‚ú® Rarity ‚ú®","steam_id":76561199172206856,"connected_time":3059000000000,"state":"active","ping":120},{"user_id":127,"name":"Ting","steam_id":76561198111669760,"connected_time":2667000000000,"state":"active","ping":117},{"user_id":147,"name":"mr poop","steam_id":76561199195196632,"connected_time":1094000000000,"state":"active","ping":83},{"user_id":91,"name":"AbbyRoads","steam_id":76561198868564212,"connected_time":4176000000000,"state":"active","ping":75},{"user_id":144,"name":"The Guy","steam_id":76561198799183693,"connected_time":1176000000000,"state":"active","ping":78},{"user_id":155,"name":"Feared Gamer","steam_id":76561198350127514,"connected_time":763000000000,"state":"active","ping":47},{"user_id":151,"name":"Squope","steam_id":76561198983129293,"connected_time":873000000000,"state":"active","ping":52},{"user_id":152,"name":"filthy white trash","steam_id":76561198154176367,"connected_time":815000000000,"state":"active","ping":89},{"user_id":156,"name":"Rumplestiltskin","steam_id":76561198319600069,"connected_time":735000000000,"state":"active","ping":62},{"user_id":172,"name":"poke_ravi","steam_id":76561198006619886,"connected_time":193000000000,"state":"active","ping":53},{"user_id":168,"name":"demoman who drinks demoham","steam_id":76561198981593713,"connected_time":565000000000,"state":"active","ping":147},{"user_id":154,"name":"Karrot","steam_id":76561198058970903,"connected_time":803000000000,"state":"active","ping":85},{"user_id":173,"name":"D-Girl Fights God","steam_id":76561198062937822,"connected_time":87000000000,"state":"active","ping":48},{"user_id":159,"name":"warhawkgamer11","steam_id":76561198081119223,"connected_time":694000000000,"state":"active","ping":92},{"user_id":160,"name":"Zimil","steam_id":76561199187045818,"connected_time":678000000000,"state":"active","ping":93},{"user_id":165,"name":"Plashe","steam_id":76561198146667385,"connected_time":626000000000,"state":"active","ping":82},{"user_id":170,"name":"Arcelite","steam_id":76561198007089716,"connected_time":431000000000,"state":"active","ping":63},{"user_id":162,"name":"Pyroneer","steam_id":76561199368746761,"connected_time":653000000000,"state":"active","ping":155},{"user_id":142,"name":"LeGamingProPlays","steam_id":76561198121304032,"connected_time":1782000000000,"state":"active","ping":78},{"user_id":163,"name":"greydog","steam_id":76561198165934551,"connected_time":648000000000,"state":"active","ping":48},{"user_id":166,"name":"The Fiend","steam_id":76561199229771413,"connected_time":582000000000,"state":"active","ping":84},{"user_id":167,"name":"The jesus guy (FRNK)","steam_id":76561198237997622,"connected_time":580000000000,"state":"active","ping":160},{"user_id":129,"name":"Willham","steam_id":76561198065755781,"connected_time":2498000000000,"state":"active","ping":100},{"user_id":171,"name":"sillylokisparkles","steam_id":76561198872251615,"connected_time":337000000000,"state":"active","ping":75}]},{"server_id":15,"name":"Uncletopia | New York City | 3 | Stopwatch","name_short":"nyc-3","host":"nyc-1.us.uncletopia.com","port":27035,"enabled":true,"region":"us-east","cc":"us","latitude":40.73061,"longitude":-73.93524,"reserved":0,"last_update":"0001-01-01T00:00:00Z","name_a2s":"Uncletopia | New York City | 3 | Stopwatch","protocol":17,"map":"pl_swiftwater_final1","folder":"tf","game":"Team Fortress","app_id":440,"player_count":0,"max_players":24,"Bots":0,"server_type":"Dedicated","server_os":"Linux","password":true,"vac":true,"version":"7961495","steam_id":85568392924742820,"keywords":["nocrits","nodmgspread","payload","uncletopia"],"game_id":440,"stv_port":27036,"stv_name":"Uncletopia | New York City | 3 | Stopwatch | STV","players":null},{"server_id":16,"name":"Uncletopia | New York City | 4 | Community","name_short":"nyc-4","host":"nyc-1.us.uncletopia.com","port":27045,"enabled":true,"region":"us-east","cc":"us","latitude":40.73061,"longitude":-73.93524,"reserved":0,"last_update":"0001-01-01T00:00:00Z","name_a2s":"Uncletopia | New York City | 4 | Community","protocol":17,"map":"workshop/koth_product_final.ugc454272353","folder":"tf","game":"Team Fortress","app_id":440,"player_count":11,"max_players":24,"Bots":0,"server_type":"Dedicated","server_os":"Linux","password":true,"vac":true,"version":"7961495","steam_id":85568392924742821,"keywords":["cp","nocrits","nodmgspread","uncletopia"],"game_id":440,"stv_port":27046,"stv_name":"Uncletopia | New York City | 4 | Community | STV","players":[{"user_id":32,"name":"Gary","steam_id":76561199466597572,"connected_time":999000000000,"state":"active","ping":87},{"user_id":33,"name":"Varie","steam_id":76561199454930210,"connected_time":495000000000,"state":"active","ping":91},{"user_id":14,"name":"WeebyGhost","steam_id":76561199009304339,"connected_time":4534000000000,"state":"active","ping":67},{"user_id":15,"name":"superbug3003","steam_id":76561198311447642,"connected_time":4515000000000,"state":"active","ping":58},{"user_id":27,"name":"Drewey","steam_id":76561198369218784,"connected_time":2373000000000,"state":"active","ping":73},{"user_id":23,"name":"faire","steam_id":76561198350747953,"connected_time":2710000000000,"state":"active","ping":50},{"user_id":37,"name":"aofi the flat tgirl","steam_id":76561199172110503,"connected_time":347000000000,"state":"active","ping":85},{"user_id":28,"name":"Nyma_LeVrai","steam_id":76561198361423429,"connected_time":2165000000000,"state":"active","ping":73},{"user_id":38,"name":"duckman12345","steam_id":76561199504796335,"connected_time":240000000000,"state":"active","ping":59},{"user_id":40,"name":"Shrebbie","steam_id":76561198875230824,"connected_time":205000000000,"state":"active","ping":38},{"user_id":41,"name":"hellishBells","steam_id":76561199118782381,"connected_time":94000000000,"state":"active","ping":51}]},{"server_id":142,"name":"Uncletopia | S√£o Paulo | 1 | All Maps","name_short":"sao-1","host":"sao-1.br.uncletopia.com","port":27015,"enabled":true,"region":"sa","cc":"br","latitude":-23.533773,"longitude":-46.62529,"reserved":0,"last_update":"0001-01-01T00:00:00Z","name_a2s":"Uncletopia | S√£o Paulo | 1 | All Maps","protocol":17,"map":"koth_cascade","folder":"tf","game":"Team Fortress","app_id":440,"player_count":0,"max_players":24,"Bots":0,"server_type":"Dedicated","server_os":"Linux","password":true,"vac":true,"version":"7961495","steam_id":85568392924469996,"keywords":["cp","nocrits","nodmgspread","uncletopia"],"game_id":440,"stv_port":27016,"stv_name":"Uncletopia | S√£o Paulo | 1 | All Maps | STV","players":null},{"server_id":143,"name":"Uncletopia | S√£o Paulo | 2 | Community","name_short":"sao-2","host":"sao-2.br.uncletopia.com","port":27015,"enabled":true,"region":"sa","cc":"br","latitude":-23.533773,"longitude":-46.62529,"reserved":0,"last_update":"0001-01-01T00:00:00Z","name_a2s":"Uncletopia | S√£o Paulo | 2 | Community","protocol":17,"map":"workshop/koth_product_final.ugc454272353","folder":"tf","game":"Team Fortress","app_id":440,"player_count":0,"max_players":24,"Bots":0,"server_type":"Dedicated","server_os":"Linux","password":true,"vac":true,"version":"7961495","steam_id":85568392924485349,"keywords":["cp","nocrits","nodmgspread","uncletopia"],"game_id":440,"stv_port":27016,"stv_name":"Uncletopia | S√£o Paulo | 2 | Community | STV","players":null},{"server_id":7,"name":"Uncletopia | Seattle | 1 | All Maps","name_short":"sea-1","host":"sea-1.us.uncletopia.com","port":27015,"enabled":true,"region":"us-west","cc":"us","latitude":47.608013,"longitude":-122.33517,"reserved":0,"last_update":"0001-01-01T00:00:00Z","name_a2s":"Uncletopia | Seattle | 1 | All Maps","protocol":17,"map":"pl_badwater","folder":"tf","game":"Team Fortress","app_id":440,"player_count":24,"max_players":24,"Bots":0,"server_type":"Dedicated","server_os":"Linux","password":true,"vac":true,"version":"7961495","steam_id":85568392924469997,"keywords":["nocrits","nodmgspread","payload","uncletopia"],"game_id":440,"stv_port":27016,"stv_name":"Uncletopia | Seattle | 1 | All Maps | STV","players":[{"user_id":291,"name":"jacix3 [silly doggie :3]","steam_id":76561198205004165,"connected_time":7027000000000,"state":"active","ping":48},{"user_id":373,"name":"[DATS‚û°] Sugar Meowth","steam_id":76561197995251793,"connected_time":804000000000,"state":"active","ping":39},{"user_id":354,"name":"Twitch.tv/Jinx_VM","steam_id":76561198280150602,"connected_time":1858000000000,"state":"active","ping":44},{"user_id":351,"name":"MerkZ","steam_id":76561198047620432,"connected_time":1903000000000,"state":"active","ping":72},{"user_id":364,"name":"Browix_Phoenix","steam_id":76561199076123618,"connected_time":1681000000000,"state":"active","ping":74},{"user_id":382,"name":"Tenzin Gyatso","steam_id":76561198258980884,"connected_time":514000000000,"state":"active","ping":46},{"user_id":353,"name":"Fox","steam_id":76561198076635466,"connected_time":1869000000000,"state":"active","ping":104},{"user_id":367,"name":"Nom Skirrett","steam_id":76561198014600788,"connected_time":1512000000000,"state":"active","ping":60},{"user_id":381,"name":"Micheal Jackson","steam_id":76561199053372373,"connected_time":573000000000,"state":"active","ping":114},{"user_id":334,"name":"The Population of Sweden","steam_id":76561198202201644,"connected_time":2696000000000,"state":"active","ping":40},{"user_id":384,"name":"Turban Grease","steam_id":76561198072052434,"connected_time":191000000000,"state":"active","ping":50},{"user_id":370,"name":"Eraser cat","steam_id":76561199045570463,"connected_time":1133000000000,"state":"active","ping":49},{"user_id":380,"name":"NightHawk","steam_id":76561198276385639,"connected_time":593000000000,"state":"active","ping":90},{"user_id":385,"name":"C-Kitt","steam_id":76561199048854572,"connected_time":90000000000,"state":"active","ping":177},{"user_id":376,"name":"tom myers comedian","steam_id":76561198004619616,"connected_time":778000000000,"state":"active","ping":75},{"user_id":328,"name":"smeasly","steam_id":76561198028718812,"connected_time":3267000000000,"state":"active","ping":44},{"user_id":388,"name":"bladees realest, saddest verse","steam_id":76561198098099826,"connected_time":29000000000,"state":"spawning","ping":89},{"user_id":369,"name":"Walter White","steam_id":76561199102963294,"connected_time":1413000000000,"state":"active","ping":63},{"user_id":387,"name":"Major Rabbit","steam_id":76561198086047613,"connected_time":58000000000,"state":"active","ping":114},{"user_id":318,"name":"Moomin","steam_id":76561198072726213,"connected_time":4435000000000,"state":"active","ping":63},{"user_id":333,"name":"Dimple","steam_id":76561198980324190,"connected_time":2702000000000,"state":"active","ping":60},{"user_id":383,"name":"The local hobo","steam_id":76561198289650060,"connected_time":368000000000,"state":"active","ping":78},{"user_id":319,"name":"RyInc","steam_id":76561198874261643,"connected_time":4434000000000,"state":"active","ping":92},{"user_id":377,"name":"hl3 hot gay sex","steam_id":76561199122281764,"connected_time":777000000000,"state":"active","ping":80}]},{"server_id":119,"name":"Uncletopia | Seattle | 2 | All Maps","name_short":"sea-2","host":"sea-1.us.uncletopia.com","port":27025,"enabled":true,"region":"us-west","cc":"us","latitude":47.608013,"longitude":-122.33517,"reserved":0,"last_update":"0001-01-01T00:00:00Z","name_a2s":"Uncletopia | Seattle | 2 | All Maps","protocol":17,"map":"pl_upward","folder":"tf","game":"Team Fortress","app_id":440,"player_count":0,"max_players":24,"Bots":0,"server_type":"Dedicated","server_os":"Linux","password":true,"vac":true,"version":"7961495","steam_id":85568392924469998,"keywords":["nocrits","nodmgspread","payload","uncletopia"],"game_id":440,"stv_port":27026,"stv_name":"Uncletopia | Seattle | 2 | All Maps | STV","players":null},{"server_id":406,"name":"Uncletopia | Seattle | 3 | Stopwatch","name_short":"sea-3","host":"sea-1.us.uncletopia.com","port":27035,"enabled":true,"region":"us-west","cc":"us","latitude":47.608013,"longitude":-122.33517,"reserved":0,"last_update":"0001-01-01T00:00:00Z","name_a2s":"Uncletopia | Seattle | 3 | Stopwatch","protocol":17,"map":"workshop/pl_barnblitz_pro7.ugc582280235","folder":"tf","game":"Team Fortress","app_id":440,"player_count":0,"max_players":24,"Bots":0,"server_type":"Dedicated","server_os":"Linux","password":true,"vac":true,"version":"7961495","steam_id":85568392924515217,"keywords":["nocrits","nodmgspread","payload","uncletopia"],"game_id":440,"stv_port":27036,"stv_name":"Uncletopia | Seattle | 3 | Stopwatch | STV","players":null},{"server_id":17,"name":"Uncletopia | San Francisco | 1 | All Maps","name_short":"sfo-1","host":"sfo-1.us.uncletopia.com","port":27015,"enabled":true,"region":"us-west","cc":"us","latitude":37.77397,"longitude":-122.4313,"reserved":0,"last_update":"0001-01-01T00:00:00Z","name_a2s":"Uncletopia | San Francisco | 1 | All Maps","protocol":17,"map":"koth_cascade","folder":"tf","game":"Team Fortress","app_id":440,"player_count":0,"max_players":24,"Bots":0,"server_type":"Dedicated","server_os":"Linux","password":true,"vac":true,"version":"7961495","steam_id":85568392924469999,"keywords":["cp","nocrits","nodmgspread","uncletopia"],"game_id":440,"stv_port":27016,"stv_name":"Uncletopia | San Francisco | 1 | All Maps | STV","players":null},{"server_id":18,"name":"Uncletopia | San Francisco | 2 | All Maps","name_short":"sfo-2","host":"sfo-1.us.uncletopia.com","port":27025,"enabled":true,"region":"us-west","cc":"us","latitude":37.77397,"longitude":-122.4313,"reserved":0,"last_update":"0001-01-01T00:00:00Z","name_a2s":"Uncletopia | San Francisco | 2 | All Maps","protocol":17,"map":"cp_altitude","folder":"tf","game":"Team Fortress","app_id":440,"player_count":0,"max_players":24,"Bots":0,"server_type":"Dedicated","server_os":"Linux","password":true,"vac":true,"version":"7961495","steam_id":85568392924470000,"keywords":["cp","nocrits","nodmgspread","uncletopia"],"game_id":440,"stv_port":27026,"stv_name":"Uncletopia | San Francisco | 2 | All Maps | STV","players":null},{"server_id":19,"name":"Uncletopia | San Francisco | 3 | Stopwatch","name_short":"sfo-3","host":"sfo-1.us.uncletopia.com","port":27035,"enabled":true,"region":"us-west","cc":"us","latitude":37.77397,"longitude":-122.4313,"reserved":0,"last_update":"0001-01-01T00:00:00Z","name_a2s":"Uncletopia | San Francisco | 3 | Stopwatch","protocol":17,"map":"workshop/koth_product_final.ugc454272353","folder":"tf","game":"Team Fortress","app_id":440,"player_count":0,"max_players":24,"Bots":0,"server_type":"Dedicated","server_os":"Linux","password":true,"vac":true,"version":"7961495","steam_id":85568392924742824,"keywords":["cp","nocrits","nodmgspread","uncletopia"],"game_id":440,"stv_port":27036,"stv_name":"Uncletopia | San Francisco | 3 | Stopwatch | STV","players":null},{"server_id":20,"name":"Uncletopia | San Francisco | 4 | Community","name_short":"sfo-4","host":"sfo-1.us.uncletopia.com","port":27045,"enabled":true,"region":"us-west","cc":"us","latitude":37.77397,"longitude":-122.4313,"reserved":0,"last_update":"0001-01-01T00:00:00Z","name_a2s":"Uncletopia | San Francisco | 4 | Community","protocol":17,"map":"workshop/pl_badwater_pro_v12.ugc2142942074","folder":"tf","game":"Team Fortress","app_id":440,"player_count":0,"max_players":24,"Bots":0,"server_type":"Dedicated","server_os":"Linux","password":true,"vac":true,"version":"7961495","steam_id":85568392924742826,"keywords":["nocrits","nodmgspread","payload","uncletopia"],"game_id":440,"stv_port":27046,"stv_name":"Uncletopia | San Francisco | 4 | Community | STV","players":null},{"server_id":141,"name":"Uncletopia | Sydney | 1 | All Maps","name_short":"syd-1","host":"syd-1.au.uncletopia.com","port":27015,"enabled":true,"region":"au","cc":"au","latitude":-33.865143,"longitude":151.2099,"reserved":0,"last_update":"0001-01-01T00:00:00Z","name_a2s":"Uncletopia | Sydney | 1 | All Maps","protocol":17,"map":"koth_viaduct","folder":"tf","game":"Team Fortress","app_id":440,"player_count":0,"max_players":24,"Bots":0,"server_type":"Dedicated","server_os":"Linux","password":true,"vac":true,"version":"7961495","steam_id":85568392924470001,"keywords":["cp","nocrits","nodmgspread","uncletopia"],"game_id":440,"stv_port":27016,"stv_name":"Uncletopia | Sydney | 1 | All Maps | STV","players":null},{"server_id":123,"name":"Uncletopia | Sydney | 2 | All Maps","name_short":"syd-2","host":"syd-1.au.uncletopia.com","port":27025,"enabled":true,"region":"au","cc":"au","latitude":-33.865143,"longitude":151.2099,"reserved":0,"last_update":"0001-01-01T00:00:00Z","name_a2s":"Uncletopia | Sydney | 2 | All Maps","protocol":17,"map":"koth_lakeside_final","folder":"tf","game":"Team Fortress","app_id":440,"player_count":0,"max_players":24,"Bots":0,"server_type":"Dedicated","server_os":"Linux","password":true,"vac":true,"version":"7961495","steam_id":85568392924470002,"keywords":["cp","nocrits","nodmgspread","uncletopia"],"game_id":440,"stv_port":27026,"stv_name":"Uncletopia | Sydney | 2 | All Maps | STV","players":null},{"server_id":395,"name":"Uncletopia | Sydney | 3 | All Maps","name_short":"syd-3","host":"syd-1.au.uncletopia.com","port":27035,"enabled":true,"region":"au","cc":"au","latitude":-33.865143,"longitude":151.2099,"reserved":0,"last_update":"0001-01-01T00:00:00Z","name_a2s":"Uncletopia | Sydney | 3 | All Maps","protocol":17,"map":"pl_frontier_final","folder":"tf","game":"Team Fortress","app_id":440,"player_count":6,"max_players":24,"Bots":0,"server_type":"Dedicated","server_os":"Linux","password":true,"vac":true,"version":"7961495","steam_id":85568392925194467,"keywords":["nocrits","nodmgspread","payload","uncletopia"],"game_id":440,"stv_port":27036,"stv_name":"Uncletopia | Sydney | 3 | All Maps | STV","players":[{"user_id":4,"name":"R.C.","steam_id":76561198872029573,"connected_time":688000000000,"state":"active","ping":256},{"user_id":5,"name":"CrusaderFred","steam_id":76561199098142841,"connected_time":686000000000,"state":"active","ping":268},{"user_id":6,"name":"triple","steam_id":76561198073566537,"connected_time":625000000000,"state":"active","ping":33},{"user_id":7,"name":"Saint Patrick #TomJonesFan","steam_id":76561198336999112,"connected_time":411000000000,"state":"active","ping":54},{"user_id":8,"name":"Alright","steam_id":76561198075411902,"connected_time":359000000000,"state":"active","ping":56},{"user_id":9,"name":"Sgetty","steam_id":76561198308484080,"connected_time":271000000000,"state":"active","ping":52}]},{"server_id":396,"name":"Uncletopia | Sydney | 4 | All Maps","name_short":"syd-4","host":"syd-1.au.uncletopia.com","port":27045,"enabled":true,"region":"au","cc":"au","latitude":-33.865143,"longitude":151.2099,"reserved":0,"last_update":"0001-01-01T00:00:00Z","name_a2s":"Uncletopia | Sydney | 4 | All Maps","protocol":17,"map":"cp_process_final","folder":"tf","game":"Team Fortress","app_id":440,"player_count":0,"max_players":24,"Bots":0,"server_type":"Dedicated","server_os":"Linux","password":true,"vac":true,"version":"7961495","steam_id":85568392925397958,"keywords":["cp","nocrits","nodmgspread","uncletopia"],"game_id":440,"stv_port":27046,"stv_name":"Uncletopia | Sydney | 4 | All Maps | STV","players":null},{"server_id":58,"name":"Uncletopia | Sydney | 5 | Stopwatch","name_short":"syd-5","host":"syd-1.au.uncletopia.com","port":27055,"enabled":true,"region":"au","cc":"au","latitude":-33.865143,"longitude":151.2099,"reserved":0,"last_update":"0001-01-01T00:00:00Z","name_a2s":"Uncletopia | Sydney | 5 | Stopwatch","protocol":17,"map":"pl_frontier_final","folder":"tf","game":"Team Fortress","app_id":440,"player_count":0,"max_players":24,"Bots":0,"server_type":"Dedicated","server_os":"Linux","password":true,"vac":true,"version":"7961495","steam_id":85568392925397959,"keywords":["nocrits","nodmgspread","payload","uncletopia"],"game_id":440,"stv_port":27056,"stv_name":"Uncletopia | Sydney | 5 | Stopwatch | STV","players":null},{"server_id":59,"name":"Uncletopia | Sydney | 6 | Community","name_short":"syd-6","host":"syd-1.au.uncletopia.com","port":27065,"enabled":true,"region":"au","cc":"au","latitude":-33.865143,"longitude":151.2099,"reserved":0,"last_update":"0001-01-01T00:00:00Z","name_a2s":"Uncletopia | Sydney | 6 | Community","protocol":17,"map":"cp_sunshine","folder":"tf","game":"Team Fortress","app_id":440,"player_count":0,"max_players":24,"Bots":0,"server_type":"Dedicated","server_os":"Linux","password":true,"vac":true,"version":"7961495","steam_id":85568392925397960,"keywords":["cp","nocrits","nodmgspread","uncletopia"],"game_id":440,"stv_port":27066,"stv_name":"Uncletopia | Sydney | 6 | Community | STV","players":null},{"server_id":49,"name":"Uncletopia | Warsaw | 1 | One Thousand Uncles","name_short":"waw-1","host":"waw-1.pl.uncletopia.com","port":27015,"enabled":true,"region":"eu","cc":"pl","latitude":52.2297,"longitude":21.017532,"reserved":0,"last_update":"0001-01-01T00:00:00Z","name_a2s":"Uncletopia | Warsaw | 1 | One Thousand Uncles","protocol":17,"map":"pl_badwater","folder":"tf","game":"Team Fortress","app_id":440,"player_count":0,"max_players":32,"Bots":0,"server_type":"Dedicated","server_os":"Linux","password":true,"vac":true,"version":"7961495","steam_id":85568392925397850,"keywords":["alltalk","danepve","increased_maxplayers","nocrits","norespawntime","payload","uncletopia"],"game_id":440,"stv_port":0,"stv_name":"","players":null},{"server_id":50,"name":"Uncletopia | Warsaw | 2 | One Thousand Uncles","name_short":"waw-2","host":"waw-1.pl.uncletopia.com","port":27025,"enabled":true,"region":"eu","cc":"pl","latitude":52.2297,"longitude":21.017532,"reserved":0,"last_update":"0001-01-01T00:00:00Z","name_a2s":"Uncletopia | Warsaw | 2 | One Thousand Uncles","protocol":17,"map":"pl_badwater","folder":"tf","game":"Team Fortress","app_id":440,"player_count":23,"max_players":32,"Bots":16,"server_type":"Dedicated","server_os":"Linux","password":true,"vac":true,"version":"7961495","steam_id":85568392925397851,"keywords":["alltalk","bots","danepve","increased_maxplayers","nocrits","norespawntime","payload","uncletopia"],"game_id":440,"stv_port":0,"stv_name":"","players":[{"user_id":511,"name":"muwi","steam_id":76561198379039743,"connected_time":2397000000000,"state":"active","ping":97},{"user_id":418,"name":"The Detective","steam_id":76561198362995682,"connected_time":11357000000000,"state":"active","ping":93},{"user_id":537,"name":"Mr_Pulse_","steam_id":76561198095001602,"connected_time":535000000000,"state":"active","ping":96},{"user_id":512,"name":"chadGPT","steam_id":76561197994732044,"connected_time":2283000000000,"state":"active","ping":45},{"user_id":486,"name":"Voks_","steam_id":76561198159687785,"connected_time":5096000000000,"state":"active","ping":65},{"user_id":517,"name":"EL WIWI","steam_id":76561198134378108,"connected_time":1311000000000,"state":"active","ping":108},{"user_id":520,"name":"Nari","steam_id":76561199220038535,"connected_time":862000000000,"state":"active","ping":171}]},{"server_id":51,"name":"Uncletopia | Warsaw | 3 | All Maps","name_short":"waw-3","host":"waw-1.pl.uncletopia.com","port":27035,"enabled":true,"region":"eu","cc":"pl","latitude":52.2297,"longitude":21.017532,"reserved":0,"last_update":"0001-01-01T00:00:00Z","name_a2s":"Uncletopia | Warsaw | 3 | All Maps","protocol":17,"map":"koth_viaduct","folder":"tf","game":"Team Fortress","app_id":440,"player_count":0,"max_players":24,"Bots":0,"server_type":"Dedicated","server_os":"Linux","password":true,"vac":true,"version":"7961495","steam_id":85568392925397852,"keywords":["cp","nocrits","nodmgspread","uncletopia"],"game_id":440,"stv_port":27036,"stv_name":"Uncletopia | Warsaw | 3 | All Maps | STV","players":null},{"server_id":52,"name":"Uncletopia | Warsaw | 4 | All Maps","name_short":"waw-4","host":"waw-1.pl.uncletopia.com","port":27045,"enabled":true,"region":"eu","cc":"pl","latitude":52.2297,"longitude":21.017532,"reserved":0,"last_update":"0001-01-01T00:00:00Z","name_a2s":"Uncletopia | Warsaw | 4 | All Maps","protocol":17,"map":"koth_viaduct","folder":"tf","game":"Team Fortress","app_id":440,"player_count":0,"max_players":24,"Bots":0,"server_type":"Dedicated","server_os":"Linux","password":true,"vac":true,"version":"7961495","steam_id":85568392925397853,"keywords":["cp","nocrits","nodmgspread","uncletopia"],"game_id":440,"stv_port":27046,"stv_name":"Uncletopia | Warsaw | 4 | All Maps | STV","players":null},{"server_id":53,"name":"Uncletopia | Warsaw | 5 | Stopwatch","name_short":"waw-5","host":"waw-1.pl.uncletopia.com","port":27055,"enabled":true,"region":"eu","cc":"pl","latitude":52.2297,"longitude":21.017532,"reserved":0,"last_update":"0001-01-01T00:00:00Z","name_a2s":"Uncletopia | Warsaw | 5 | Stopwatch","protocol":17,"map":"workshop/koth_ashville_final.ugc2130459942","folder":"tf","game":"Team Fortress","app_id":440,"player_count":0,"max_players":24,"Bots":0,"server_type":"Dedicated","server_os":"Linux","password":true,"vac":true,"version":"7961495","steam_id":85568392925397854,"keywords":["cp","nocrits","nodmgspread","uncletopia"],"game_id":440,"stv_port":27056,"stv_name":"Uncletopia | Warsaw | 5 | Stopwatch | STV","players":null},{"server_id":54,"name":"Uncletopia | Warsaw | 6 | Community","name_short":"waw-6","host":"waw-1.pl.uncletopia.com","port":27065,"enabled":true,"region":"eu","cc":"pl","latitude":52.2297,"longitude":21.017532,"reserved":0,"last_update":"0001-01-01T00:00:00Z","name_a2s":"Uncletopia | Warsaw | 6 | Community","protocol":17,"map":"workshop/koth_ashville_final.ugc2130459942","folder":"tf","game":"Team Fortress","app_id":440,"player_count":0,"max_players":24,"Bots":0,"server_type":"Dedicated","server_os":"Linux","password":true,"vac":true,"version":"7961495","steam_id":85568392925397856,"keywords":["cp","nocrits","nodmgspread","uncletopia"],"game_id":440,"stv_port":27066,"stv_name":"Uncletopia | Warsaw | 6 | Community | STV","players":null}]}