{"status":true,"message":"","result":[{"server_id":9,"name":"Uncletopia | Atlanta | 1 | All Maps","name_short":"atl-1","host":"atl-1.us.uncletopia.com","port":27015,"enabled":true,"region":"us-east","cc":"us","latitude":33.753746,"longitude":-84.38633,"reserved":0,"last_update":"0001-01-01T00:00:00Z","name_a2s":"Uncletopia | Atlanta | 1 | All Maps","protocol":17,"map":"cp_dustbowl","folder":"tf","game":"Team Fortress","app_id":440,"player_count":0,"max_players":24,"Bots":0,"server_type":"Dedicated","server_os":"Linux","password":true,"vac":true,"version":"7961495","steam_id":85568392924469982,"keywords":["cp","nocrits","nodmgspread","uncletopia"],"game_id":440,"stv_port":27016,"stv_name":"Uncletopia | Atlanta | 1 | All Maps | STV","players":null},{"server_id":104,"name":"Uncletopia | Atlanta | 2 | All Maps","name_short":"atl-2","host":"atl-1.us.uncletopia.com","port":27025,"enabled":true,"region":"us-east","cc":"us","latitude":33.753746,"longitude":-84.38633,"reserved":0,"last_update":"0001-01-01T00:00:00Z","name_a2s":"Uncletopia | Atlanta | 2 | All Maps","protocol":17,"map":"koth_cascade","folder":"tf","game":"Team Fortress","app_id":440,"player_count":0,"max_players":24,"Bots":0,"server_type":"Dedicated","server_os":"Linux","password":true,"vac":true,"version":"7961495","steam_id":85568392924469983,"keywords":["cp","nocrits","nodmgspread","uncletopia"],"game_id":440,"stv_port":27026,"stv_name":"Uncletopia | Atlanta | 2 | All Maps | STV","players":null},{"server_id":400,"name":"Uncletopia | Atlanta | 3 | Stopwatch","name_short":"atl-3","host":"atl-1.us.uncletopia.com","port":27035,"enabled":true,"region":"us-east","cc":"us","latitude":33.753746,"longitude":-84.38633,"reserved":0,"last_update":"0001-01-01T00:00:00Z","name_a2s":"Uncletopia | Atlanta | 3 | Stopwatch","protocol":17,"map":"pl_badwater","folder":"tf","game":"Team Fortress","app_id":440,"player_count":0,"max_players":24,"Bots":0,"server_type":"Dedicated","server_os":"Linux","password":true,"vac":true,"version":"7961495","steam_id":85568392924515187,"keywords":["nocrits","nodmgspread","payload","uncletopia"],"game_id":440,"stv_port":27036,"stv_name":"Uncletopia | Atlanta | 3 | Stopwatch | STV","players":null},{"server_id":401,"name":"Uncletopia | Atlanta | 4 | Community","name_short":"atl-4","host":"atl-1.us.uncletopia.com","port":27045,"enabled":true,"region":"us-east","cc":"us","latitude":33.753746,"longitude":-84.38633,"reserved":0,"last_update":"0001-01-01T00:00:00Z","name_a2s":"Uncletopia | Atlanta | 4 | Community","protocol":17,"map":"cp_sunshine","folder":"tf","game":"Team Fortress","app_id":440,"player_count":0,"max_players":24,"Bots":0,"server_type":"Dedicated","server_os":"Linux","password":true,"vac":true,"version":"7961495","steam_id":85568392924515188,"keywords":["cp","nocrits","nodmgspread","uncletopia"],"game_id":440,"stv_port":27046,"stv_name":"Uncletopia | Atlanta | 4 | Community | STV","players":null},{"server_id":2,"name":"Uncletopia | Chicago | 1 | All Maps","name_short":"chi-1","host":"chi-1.us.uncletopia.com","port":27015,"enabled":true,"region":"us-central","cc":"us","latitude":41.881832,"longitude":-87.62318,"reserved":0,"last_update":"0001-01-01T00:00:00Z","name_a2s":"Uncletopia | Chicago | 1 | All Maps","protocol":17,"map":"cp_dustbowl","folder":"tf","game":"Team Fortress","app_id":440,"player_count":24,"max_players":24,"Bots":0,"server_type":"Dedicated","server_os":"Linux","password":true,"vac":true,"version":"7961495","steam_id":85568392924469984,"keywords":["cp","nocrits","nodmgspread","uncletopia"],"game_id":440,"stv_port":27016,"stv_name":"Uncletopia | Chicago | 1 | All Maps | STV","players":[{"user_id":19,"name":"OH BOY","steam_id":76561199052273428,"connected_time":2794000000000,"state":"active","ping":52},{"user_id":63,"name":"dawgamez","steam_id":76561198089293509,"connected_time":438000000000,"state":"active","ping":85},{"user_id":21,"name":"Bunner","steam_id":76561198074464842,"connected_time":2334000000000,"state":"active","ping":98},{"user_id":57,"name":"..........","steam_id":76561198417854942,"connected_time":660000000000,"state":"active","ping":62},{"user_id":72,"name":"Cutcleaner","steam_id":76561199000925667,"connected_time":215000000000,"state":"active","ping":83},{"user_id":56,"name":"Reed","steam_id":76561198102058669,"connected_time":728000000000,"state":"active","ping":61},{"user_id":28,"name":"Jaeger","steam_id":76561199392187099,"connected_time":1712000000000,"state":"active","ping":77},{"user_id":75,"name":"melancholy","steam_id":76561198024301465,"connected_time":47000000000,"state":"active","ping":58},{"user_id":40,"name":"viviekat","steam_id":76561198296879897,"connected_time":1231000000000,"state":"active","ping":76},{"user_id":71,"name":"BOUZENZEL","steam_id":76561198095000722,"connected_time":251000000000,"state":"active","ping":59},{"user_id":32,"name":"Mr Bootylicious","steam_id":76561199075353403,"connected_time":1590000000000,"state":"active","ping":60},{"user_id":60,"name":"Apache","steam_id":76561198279344571,"connected_time":609000000000,"state":"active","ping":68},{"user_id":74,"name":"plsplsplslol","steam_id":76561198868084626,"connected_time":103000000000,"state":"active","ping":115},{"user_id":58,"name":"Astra","steam_id":76561198040217532,"connected_time":658000000000,"state":"active","ping":59},{"user_id":59,"name":"Ice Tray","steam_id":76561198156184504,"connected_time":640000000000,"state":"active","ping":86},{"user_id":62,"name":"0bliv","steam_id":76561198122715915,"connected_time":528000000000,"state":"active","ping":180},{"user_id":61,"name":"Dog","steam_id":76561198450992953,"connected_time":607000000000,"state":"active","ping":113},{"user_id":65,"name":"Bogg","steam_id":76561198111417325,"connected_time":408000000000,"state":"active","ping":61},{"user_id":52,"name":"crabbykiwi","steam_id":76561199066448466,"connected_time":907000000000,"state":"active","ping":65},{"user_id":66,"name":"e doctor","steam_id":76561198081851446,"connected_time":390000000000,"state":"active","ping":45},{"user_id":67,"name":"Clean Lines","steam_id":76561197960691518,"connected_time":388000000000,"state":"active","ping":57},{"user_id":68,"name":"senkyetsu","steam_id":76561198405788214,"connected_time":353000000000,"state":"active","ping":63},{"user_id":69,"name":"Poopisviel Von Einzbern","steam_id":76561198259260433,"connected_time":329000000000,"state":"active","ping":84},{"user_id":70,"name":"TeeTree","steam_id":76561198862307874,"connected_time":302000000000,"state":"active","ping":84}]},{"server_id":106,"name":"Uncletopia | Chicago | 2 | All Maps","name_short":"chi-2","host":"chi-1.us.uncletopia.com","port":27025,"enabled":true,"region":"us-central","cc":"us","latitude":41.881832,"longitude":-87.62318,"reserved":0,"last_update":"0001-01-01T00:00:00Z","name_a2s":"Uncletopia | Chicago | 2 | All Maps","protocol":17,"map":"pl_borneo","folder":"tf","game":"Team Fortress","app_id":440,"player_count":24,"max_players":24,"Bots":0,"server_type":"Dedicated","server_os":"Linux","password":true,"vac":true,"version":"7961495","steam_id":85568392924469985,"keywords":["nocrits","nodmgspread","payload","uncletopia"],"game_id":440,"stv_port":27026,"stv_name":"Uncletopia | Chicago | 2 | All Maps | STV","players":[{"user_id":100,"name":"lu","steam_id":76561198080731872,"connected_time":1940000000000,"state":"active","ping":74},{"user_id":20,"name":"Snitzman","steam_id":76561198068303272,"connected_time":7918000000000,"state":"active","ping":99},{"user_id":117,"name":"your fwiend","steam_id":76561198154773643,"connected_time":544000000000,"state":"active","ping":73},{"user_id":91,"name":"hearthian","steam_id":76561198113235260,"connected_time":3190000000000,"state":"active","ping":97},{"user_id":118,"name":"Novaya","steam_id":76561198263560946,"connected_time":537000000000,"state":"active","ping":62},{"user_id":126,"name":"Greg_M74","steam_id":76561198823492311,"connected_time":108000000000,"state":"active","ping":67},{"user_id":112,"name":"Mburesh","steam_id":76561198137460717,"connected_time":1295000000000,"state":"active","ping":54},{"user_id":128,"name":"Mr.Epip","steam_id":76561198409301649,"connected_time":90000000000,"state":"active","ping":102},{"user_id":122,"name":"Windup Monkey in a Human Suit","steam_id":76561198119501444,"connected_time":485000000000,"state":"active","ping":98},{"user_id":51,"name":"Obelisk","steam_id":76561198049416866,"connected_time":5923000000000,"state":"active","ping":100},{"user_id":107,"name":"agless","steam_id":76561198045248344,"connected_time":1756000000000,"state":"active","ping":59},{"user_id":119,"name":"Heartgold","steam_id":76561199062592062,"connected_time":532000000000,"state":"active","ping":80},{"user_id":104,"name":"Sunshine","steam_id":76561198885528098,"connected_time":1863000000000,"state":"active","ping":74},{"user_id":92,"name":"NotoriousThicc","steam_id":76561198244650474,"connected_time":2665000000000,"state":"active","ping":105},{"user_id":105,"name":"goonaguunagleet","steam_id":76561198081556584,"connected_time":1850000000000,"state":"active","ping":59},{"user_id":93,"name":"Chicken","steam_id":76561198855273194,"connected_time":2619000000000,"state":"active","ping":66},{"user_id":120,"name":"GoodleShoes/ttv","steam_id":76561198030993521,"connected_time":498000000000,"state":"active","ping":70},{"user_id":121,"name":"Naffty","steam_id":76561198119734981,"connected_time":498000000000,"state":"active","ping":60},{"user_id":44,"name":"Woke Portugal Agenda","steam_id":76561198083276946,"connected_time":6825000000000,"state":"active","ping":69},{"user_id":111,"name":"Kiss Master","steam_id":76561198289572271,"connected_time":1316000000000,"state":"active","ping":74},{"user_id":129,"name":"dinnerboy","steam_id":76561198236966240,"connected_time":61000000000,"state":"active","ping":46},{"user_id":125,"name":"gulch","steam_id":76561199227946025,"connected_time":235000000000,"state":"active","ping":70},{"user_id":94,"name":"CabezaGrande","steam_id":76561197972555502,"connected_time":2611000000000,"state":"active","ping":70},{"user_id":90,"name":"2.5 in. hard ;(","steam_id":76561198106217716,"connected_time":3346000000000,"state":"active","ping":85}]},{"server_id":402,"name":"Uncletopia | Chicago | 3 | All Maps","name_short":"chi-3","host":"chi-1.us.uncletopia.com","port":27035,"enabled":true,"region":"us-central","cc":"us","latitude":41.881832,"longitude":-87.62318,"reserved":0,"last_update":"0001-01-01T00:00:00Z","name_a2s":"Uncletopia | Chicago | 3 | All Maps","protocol":17,"map":"cp_dustbowl","folder":"tf","game":"Team Fortress","app_id":440,"player_count":0,"max_players":24,"Bots":0,"server_type":"Dedicated","server_os":"Linux","password":true,"vac":true,"version":"7961495","steam_id":85568392924515191,"keywords":["cp","nocrits","nodmgspread","uncletopia"],"game_id":440,"stv_port":27036,"stv_name":"Uncletopia | Chicago | 3 | All Maps | STV","players":null},{"server_id":403,"name":"Uncletopia | Chicago | 4 | All Maps","name_short":"chi-4","host":"chi-1.us.uncletopia.com","port":27045,"enabled":true,"region":"us-central","cc":"us","latitude":41.881832,"longitude":-87.62318,"reserved":0,"last_update":"0001-01-01T00:00:00Z","name_a2s":"Uncletopia | Chicago | 4 | All Maps","protocol":17,"map":"pl_borneo","folder":"tf","game":"Team Fortress","app_id":440,"player_count":24,"max_players":24,"Bots":0,"server_type":"Dedicated","server_os":"Linux","password":true,"vac":true,"version":"7961495","steam_id":85568392924515193,"keywords":["nocrits","nodmgspread","payload","uncletopia"],"game_id":440,"stv_port":27046,"stv_name":"Uncletopia | Chicago | 4 | All Maps | STV","players":[{"user_id":255,"name":"SexySpectacles","steam_id":76561198211449103,"connected_time":6591000000000,"state":"active","ping":51},{"user_id":272,"name":"Voids","steam_id":76561198128386726,"connected_time":4843000000000,"state":"active","ping":83},{"user_id":307,"name":"Just PYE","steam_id":76561199439622967,"connected_time":772000000000,"state":"active","ping":96},{"user_id":270,"name":"ATL 1 | Save your wifi","steam_id":76561198286147372,"connected_time":4943000000000,"state":"active","ping":75},{"user_id":289,"name":"my pitbull eats women under 5'7","steam_id":76561198142756572,"connected_time":3726000000000,"state":"active","ping":74},{"user_id":290,"name":"Punchy","steam_id":76561198200000641,"connected_time":3681000000000,"state":"active","ping":58},{"user_id":282,"name":"Dr.Inkmix(femboy)","steam_id":76561198854070384,"connected_time":4264000000000,"state":"active","ping":115},{"user_id":292,"name":"Milkmur","steam_id":76561198210043821,"connected_time":2836000000000,"state":"active","ping":69},{"user_id":207,"name":"ATL1 | cola","steam_id":76561198374390458,"connected_time":12253000000000,"state":"active","ping":81},{"user_id":311,"name":"Kung fu MUNGUS","steam_id":76561198069281556,"connected_time":352000000000,"state":"active","ping":75},{"user_id":248,"name":"Horrowes","steam_id":76561198318446417,"connected_time":8497000000000,"state":"active","ping":83},{"user_id":295,"name":"Albino Jellyfish","steam_id":76561198208561097,"connected_time":2297000000000,"state":"active","ping":52},{"user_id":308,"name":"Zing","steam_id":76561198097160898,"connected_time":772000000000,"state":"active","ping":47},{"user_id":302,"name":"Chubbles","steam_id":76561198237619472,"connected_time":1815000000000,"state":"active","ping":76},{"user_id":303,"name":"Waesel","steam_id":76561198069188177,"connected_time":1807000000000,"state":"active","ping":74},{"user_id":312,"name":"why","steam_id":76561199059732212,"connected_time":301000000000,"state":"active","ping":69},{"user_id":296,"name":"Little Skull Boi","steam_id":76561198093595888,"connected_time":2027000000000,"state":"active","ping":100},{"user_id":288,"name":"Cheese4Everyone","steam_id":76561198022333985,"connected_time":3806000000000,"state":"active","ping":73},{"user_id":252,"name":"Kilphax","steam_id":76561197993814144,"connected_time":7617000000000,"state":"active","ping":65},{"user_id":293,"name":"freyja","steam_id":76561198249206656,"connected_time":2795000000000,"state":"active","ping":91},{"user_id":306,"name":"HUMBY","steam_id":76561198065045867,"connected_time":1454000000000,"state":"active","ping":85},{"user_id":300,"name":"Antifa Supersoldier","steam_id":76561198141816516,"connected_time":1979000000000,"state":"active","ping":63},{"user_id":275,"name":"Heathcliff","steam_id":76561198044288534,"connected_time":4745000000000,"state":"active","ping":98},{"user_id":285,"name":"C Papi","steam_id":76561198027779564,"connected_time":3907000000000,"state":"active","ping":60}]},{"server_id":36,"name":"Uncletopia | Chicago | 5 | All Maps","name_short":"chi-5","host":"chi-2.us.uncletopia.com","port":27015,"enabled":true,"region":"us-central","cc":"us","latitude":41.881832,"longitude":-87.62318,"reserved":0,"last_update":"0001-01-01T00:00:00Z","name_a2s":"Uncletopia | Chicago | 5 | All Maps","protocol":17,"map":"pl_rumford_event","folder":"tf","game":"Team Fortress","app_id":440,"player_count":24,"max_players":24,"Bots":0,"server_type":"Dedicated","server_os":"Linux","password":true,"vac":true,"version":"7961495","steam_id":85568392924866362,"keywords":["nocrits","nodmgspread","payload","uncletopia"],"game_id":440,"stv_port":27016,"stv_name":"Uncletopia | Chicago | 5 | All Maps | STV","players":[{"user_id":198,"name":"ToiletGamer300","steam_id":76561199503311487,"connected_time":252000000000,"state":"active","ping":174},{"user_id":188,"name":"the keebler","steam_id":76561199486326945,"connected_time":772000000000,"state":"active","ping":77},{"user_id":183,"name":"Eomy","steam_id":76561198297783627,"connected_time":1717000000000,"state":"active","ping":82},{"user_id":157,"name":"Truly Cryo","steam_id":76561198347497484,"connected_time":3955000000000,"state":"active","ping":80},{"user_id":196,"name":"hgvgdwa","steam_id":76561198156499356,"connected_time":559000000000,"state":"active","ping":149},{"user_id":177,"name":"Goldensliv","steam_id":76561198161673891,"connected_time":1901000000000,"state":"active","ping":91},{"user_id":189,"name":"/\\/Mr. Phoenix/\\/","steam_id":76561198258944941,"connected_time":748000000000,"state":"active","ping":68},{"user_id":201,"name":"Scribble","steam_id":76561198046115675,"connected_time":26000000000,"state":"spawning","ping":61},{"user_id":184,"name":"Luca!","steam_id":76561198137880777,"connected_time":1413000000000,"state":"active","ping":89},{"user_id":195,"name":"incredirocks","steam_id":76561198061079993,"connected_time":579000000000,"state":"active","ping":54},{"user_id":170,"name":"Goat","steam_id":76561198068447650,"connected_time":3008000000000,"state":"active","ping":71},{"user_id":193,"name":"Pythor P. Chumsworth","steam_id":76561199030805574,"connected_time":623000000000,"state":"active","ping":69},{"user_id":169,"name":"SpongedSocks","steam_id":76561198374009086,"connected_time":3020000000000,"state":"active","ping":70},{"user_id":191,"name":"Renota","steam_id":76561198058224488,"connected_time":706000000000,"state":"active","ping":92},{"user_id":192,"name":"oak","steam_id":76561198029074734,"connected_time":639000000000,"state":"active","ping":58},{"user_id":166,"name":"A Trigger Happy Chipmunk","steam_id":76561198013608736,"connected_time":3241000000000,"state":"active","ping":49},{"user_id":133,"name":"Kerpal45","steam_id":76561198153340350,"connected_time":5169000000000,"state":"active","ping":89},{"user_id":197,"name":"He rolls his own","steam_id":76561198058162684,"connected_time":518000000000,"state":"active","ping":85},{"user_id":175,"name":"TinyTator","steam_id":76561198799282234,"connected_time":2158000000000,"state":"active","ping":86},{"user_id":171,"name":"gooselover42069","steam_id":76561198059562839,"connected_time":2988000000000,"state":"active","ping":56},{"user_id":181,"name":"BLOCKHEAD","steam_id":76561198808224331,"connected_time":1814000000000,"state":"active","ping":105},{"user_id":152,"name":"Sprit ♥","steam_id":76561198268780781,"connected_time":4312000000000,"state":"active","ping":59},{"user_id":172,"name":"King","steam_id":76561198039763676,"connected_time":2969000000000,"state":"active","ping":68},{"user_id":167,"name":"Genetic Komodo (He/Him)","steam_id":76561198174806758,"connected_time":3233000000000,"state":"active","ping":72}]},{"server_id":37,"name":"Uncletopia | Chicago | 6 | All Maps","name_short":"chi-6","host":"chi-2.us.uncletopia.com","port":27025,"enabled":true,"region":"us-central","cc":"us","latitude":41.881832,"longitude":-87.62318,"reserved":0,"last_update":"0001-01-01T00:00:00Z","name_a2s":"Uncletopia | Chicago | 6 | All Maps","protocol":17,"map":"cp_process_final","folder":"tf","game":"Team Fortress","app_id":440,"player_count":0,"max_players":24,"Bots":0,"server_type":"Dedicated","server_os":"Linux","password":true,"vac":true,"version":"7961495","steam_id":85568392924866363,"keywords":["cp","nocrits","nodmgspread","uncletopia"],"game_id":440,"stv_port":27026,"stv_name":"Uncletopia | Chicago | 6 | All Maps | STV","players":null},{"server_id":38,"name":"Uncletopia | Chicago | 7 | Stopwatch","name_short":"chi-7","host":"chi-2.us.uncletopia.com","port":27035,"enabled":true,"region":"us-central","cc":"us","latitude":41.881832,"longitude":-87.62318,"reserved":0,"last_update":"0001-01-01T00:00:00Z","name_a2s":"Uncletopia | Chicago | 7 | Stopwatch","protocol":17,"map":"workshop/koth_ramjam_rc1.ugc459778887","folder":"tf","game":"Team Fortress","app_id":440,"player_count":0,"max_players":24,"Bots":0,"server_type":"Dedicated","server_os":"Linux","password":true,"vac":true,"version":"7961495","steam_id":85568392924866364,"keywords":["cp","nocrits","nodmgspread","uncletopia"],"game_id":440,"stv_port":27036,"stv_name":"Uncletopia | Chicago | 7 | Stopwatch | STV","players":null},{"server_id":39,"name":"Uncletopia | Chicago | 8 | Community","name_short":"chi-8","host":"chi-2.us.uncletopia.com","port":27045,"enabled":true,"region":"us-central","cc":"us","latitude":41.881832,"longitude":-87.62318,"reserved":0,"last_update":"0001-01-01T00:00:00Z","name_a2s":"Uncletopia | Chicago | 8 | Community","protocol":17,"map":"pl_pier","folder":"tf","game":"Team Fortress","app_id":440,"player_count":0,"max_players":24,"Bots":0,"server_type":"Dedicated","server_os":"Linux","password":true,"vac":true,"version":"7961495","steam_id":85568392924866365,"keywords":["nocrits","nodmgspread","payload","uncletopia"],"game_id":440,"stv_port":27046,"stv_name":"Uncletopia | Chicago | 8 | Community | STV","players":null},{"server_id":8,"name":"Uncletopia | Dallas | 1 | All Maps","name_short":"dal-1","host":"dal-1.us.uncletopia.com","port":27015,"enabled":true,"region":"us-central","cc":"us","latitude":32.779167,"longitude":-96.80889,"reserved":0,"last_update":"0001-01-01T00:00:00Z","name_a2s":"Uncletopia | Dallas | 1 | All Maps","protocol":17,"map":"pl_swiftwater_final1","folder":"tf","game":"Team Fortress","app_id":440,"player_count":0,"max_players":24,"Bots":0,"server_type":"Dedicated","server_os":"Linux","password":true,"vac":true,"version":"7961495","steam_id":85568392924469986,"keywords":["nocrits","nodmgspread","payload","uncletopia"],"game_id":440,"stv_port":27016,"stv_name":"Uncletopia | Dallas | 1 | All Maps | STV","players":null},{"server_id":108,"name":"Uncletopia | Dallas | 2 | All Maps","name_short":"dal-2","host":"dal-1.us.uncletopia.com","port":27025,"enabled":true,"region":"us-central","cc":"us","latitude":32.779167,"longitude":-96.80889,"reserved":0,"last_update":"0001-01-01T00:00:00Z","name_a2s":"Uncletopia | Dallas | 2 | All Maps","protocol":17,"map":"pl_swiftwater_final1","folder":"tf","game":"Team Fortress","app_id":440,"player_count":13,"max_players":24,"Bots":0,"server_type":"Dedicated","server_os":"Linux","password":true,"vac":true,"version":"7961495","steam_id":85568392924469988,"keywords":["nocrits","nodmgspread","payload","uncletopia"],"game_id":440,"stv_port":27026,"stv_name":"Uncletopia | Dallas | 2 | All Maps | STV","players":[{"user_id":92,"name":"Walmart Employee","steam_id":76561198840373909,"connected_time":571000000000,"state":"active","ping":92},{"user_id":96,"name":"Kuyumiester","steam_id":76561198126835302,"connected_time":11000000000,"state":"spawning","ping":71},{"user_id":86,"name":"Tlaloc","steam_id":76561198375215983,"connected_time":1724000000000,"state":"active","ping":120},{"user_id":97,"name":"Trapilicious","steam_id":76561198061430457,"connected_time":11000000000,"state":"active","ping":84},{"user_id":67,"name":"bdkaine1","steam_id":76561198133545467,"connected_time":2569000000000,"state":"active","ping":60},{"user_id":90,"name":"rat","steam_id":76561198272622003,"connected_time":810000000000,"state":"active","ping":77},{"user_id":95,"name":"Schwartzy","steam_id":76561198098576795,"connected_time":92000000000,"state":"active","ping":41},{"user_id":98,"name":"NeoWolf","steam_id":76561198144759784,"connected_time":0,"state":"spawning","ping":39},{"user_id":83,"name":"kat","steam_id":76561198099191938,"connected_time":1933000000000,"state":"active","ping":66},{"user_id":69,"name":"Chet Dingus","steam_id":76561198205181788,"connected_time":2535000000000,"state":"active","ping":95},{"user_id":81,"name":"mkl","steam_id":76561197986401685,"connected_time":1957000000000,"state":"active","ping":51},{"user_id":50,"name":"Franticraven177","steam_id":76561198334105579,"connected_time":4554000000000,"state":"active","ping":76},{"user_id":84,"name":"Mr. Noodle","steam_id":76561198037803087,"connected_time":1904000000000,"state":"active","ping":61}]},{"server_id":404,"name":"Uncletopia | Dallas | 3 | All Maps","name_short":"dal-3","host":"dal-1.us.uncletopia.com","port":27035,"enabled":true,"region":"us-central","cc":"us","latitude":32.779167,"longitude":-96.80889,"reserved":0,"last_update":"0001-01-01T00:00:00Z","name_a2s":"Uncletopia | Dallas | 3 | All Maps","protocol":17,"map":"pl_badwater","folder":"tf","game":"Team Fortress","app_id":440,"player_count":0,"max_players":24,"Bots":0,"server_type":"Dedicated","server_os":"Linux","password":true,"vac":true,"version":"7961495","steam_id":85568392924515219,"keywords":["nocrits","nodmgspread","payload","uncletopia"],"game_id":440,"stv_port":27036,"stv_name":"Uncletopia | Dallas | 3 | All Maps | STV","players":null},{"server_id":405,"name":"Uncletopia | Dallas | 4 | Community","name_short":"dal-4","host":"dal-1.us.uncletopia.com","port":27045,"enabled":true,"region":"us-central","cc":"us","latitude":32.779167,"longitude":-96.80889,"reserved":0,"last_update":"0001-01-01T00:00:00Z","name_a2s":"Uncletopia | Dallas | 4 | Community","protocol":17,"map":"workshop/cp_villa_b19.ugc2113052569","folder":"tf","game":"Team Fortress","app_id":440,"player_count":0,"max_players":24,"Bots":0,"server_type":"Dedicated","server_os":"Linux","password":true,"vac":true,"version":"7961495","steam_id":85568392924515220,"keywords":["cp","nocrits","nodmgspread","uncletopia"],"game_id":440,"stv_port":27046,"stv_name":"Uncletopia | Dallas | 4 | Community | STV","players":null},{"server_id":5,"name":"Uncletopia | Frankfurt | 1 | All Maps","name_short":"frk-1","host":"frk-1.de.uncletopia.com","port":27015,"enabled":true,"region":"eu","cc":"de","latitude":50.110924,"longitude":8.682127,"reserved":0,"last_update":"0001-01-01T00:00:00Z","name_a2s":"Uncletopia | Frankfurt | 1 | All Maps","protocol":17,"map":"pl_upward","folder":"tf","game":"Team Fortress","app_id":440,"player_count":24,"max_players":24,"Bots":0,"server_type":"Dedicated","server_os":"Linux","password":true,"vac":true,"version":"7961495","steam_id":85568392924469989,"keywords":["nocrits","nodmgspread","payload","uncletopia"],"game_id":440,"stv_port":27016,"stv_name":"Uncletopia | Frankfurt | 1 | All Maps | STV","players":[{"user_id":297,"name":"cister0","steam_id":76561198130195469,"connected_time":7331000000000,"state":"active","ping":72},{"user_id":376,"name":"Ziemniaczki","steam_id":76561198061866742,"connected_time":831000000000,"state":"active","ping":55},{"user_id":282,"name":"Carry Krypl","steam_id":76561198136938121,"connected_time":8170000000000,"state":"active","ping":58},{"user_id":357,"name":"Glonkdod","steam_id":76561198035119964,"connected_time":2949000000000,"state":"active","ping":47},{"user_id":395,"name":"Duke Fishlord","steam_id":76561198079928327,"connected_time":172000000000,"state":"active","ping":59},{"user_id":397,"name":"Muffin","steam_id":76561198134575280,"connected_time":107000000000,"state":"active","ping":48},{"user_id":379,"name":"Kekeke","steam_id":76561198063672270,"connected_time":804000000000,"state":"active","ping":99},{"user_id":373,"name":"Marty™","steam_id":76561198060073673,"connected_time":1138000000000,"state":"active","ping":60},{"user_id":380,"name":"LEGEND FUMO.","steam_id":76561198061033903,"connected_time":789000000000,"state":"active","ping":51},{"user_id":365,"name":"glyph","steam_id":76561197980736364,"connected_time":2531000000000,"state":"active","ping":68},{"user_id":381,"name":"пупундель","steam_id":76561198370603695,"connected_time":785000000000,"state":"active","ping":75},{"user_id":378,"name":"Gugu gaga","steam_id":76561198161822358,"connected_time":821000000000,"state":"active","ping":60},{"user_id":348,"name":"so cute it kils","steam_id":76561198256660599,"connected_time":3921000000000,"state":"active","ping":64},{"user_id":349,"name":"Chopperson_","steam_id":76561198873728497,"connected_time":3881000000000,"state":"active","ping":118},{"user_id":313,"name":"finbar","steam_id":76561198056812396,"connected_time":6695000000000,"state":"active","ping":82},{"user_id":387,"name":"[K.sTyLe] fabinhO;","steam_id":76561197982416891,"connected_time":618000000000,"state":"active","ping":55},{"user_id":359,"name":"Wir suchen dich!","steam_id":76561198307613521,"connected_time":2618000000000,"state":"active","ping":73},{"user_id":360,"name":"CerealKiller154","steam_id":76561198831177630,"connected_time":2613000000000,"state":"active","ping":77},{"user_id":390,"name":"I Cant Aim","steam_id":76561199241354828,"connected_time":472000000000,"state":"active","ping":103},{"user_id":324,"name":"Lord of the Ping","steam_id":76561198019648669,"connected_time":6192000000000,"state":"active","ping":57},{"user_id":396,"name":"Jumanji144","steam_id":76561198869936829,"connected_time":168000000000,"state":"active","ping":55},{"user_id":338,"name":"Head empty","steam_id":76561198067561269,"connected_time":5298000000000,"state":"active","ping":57},{"user_id":294,"name":"Ratman","steam_id":76561198121888714,"connected_time":8008000000000,"state":"active","ping":70},{"user_id":393,"name":"GogsCrunchyNuts","steam_id":76561198150599213,"connected_time":273000000000,"state":"active","ping":94}]},{"server_id":110,"name":"Uncletopia | Frankfurt | 2 | All Maps","name_short":"frk-2","host":"frk-1.de.uncletopia.com","port":27025,"enabled":true,"region":"eu","cc":"de","latitude":50.110924,"longitude":8.682127,"reserved":0,"last_update":"0001-01-01T00:00:00Z","name_a2s":"Uncletopia | Frankfurt | 2 | All Maps","protocol":17,"map":"pl_pier","folder":"tf","game":"Team Fortress","app_id":440,"player_count":24,"max_players":24,"Bots":0,"server_type":"Dedicated","server_os":"Linux","password":true,"vac":true,"version":"7961495","steam_id":85568392924469990,"keywords":["nocrits","nodmgspread","payload","uncletopia"],"game_id":440,"stv_port":27026,"stv_name":"Uncletopia | Frankfurt | 2 | All Maps | STV","players":[{"user_id":380,"name":"Mael-chan\u003c3","steam_id":76561197996852498,"connected_time":1427000000000,"state":"active","ping":44},{"user_id":385,"name":"cirrem","steam_id":76561198265192382,"connected_time":1403000000000,"state":"active","ping":56},{"user_id":392,"name":"noot","steam_id":76561198148074472,"connected_time":945000000000,"state":"active","ping":35},{"user_id":408,"name":"WhiteSoldier","steam_id":76561198123392226,"connected_time":165000000000,"state":"spawning","ping":74},{"user_id":313,"name":"Exoduc","steam_id":76561198121166441,"connected_time":5934000000000,"state":"active","ping":74},{"user_id":398,"name":"Lio2077","steam_id":76561199075235973,"connected_time":732000000000,"state":"active","ping":82},{"user_id":344,"name":"julidulen","steam_id":76561199225661729,"connected_time":3714000000000,"state":"active","ping":48},{"user_id":409,"name":"FistfulOfKittens","steam_id":76561198323611129,"connected_time":100000000000,"state":"active","ping":66},{"user_id":404,"name":"Alpharen_22","steam_id":76561198803349451,"connected_time":332000000000,"state":"active","ping":91},{"user_id":394,"name":"ra","steam_id":76561198147277460,"connected_time":921000000000,"state":"active","ping":54},{"user_id":395,"name":"AJIJI4X HA TP3B3JI4X","steam_id":76561198144879361,"connected_time":913000000000,"state":"active","ping":108},{"user_id":382,"name":"Cöffee","steam_id":76561198115131952,"connected_time":1423000000000,"state":"active","ping":103},{"user_id":397,"name":"TJ1212","steam_id":76561199013575313,"connected_time":759000000000,"state":"active","ping":66},{"user_id":387,"name":"so no head ?","steam_id":76561198237560644,"connected_time":1191000000000,"state":"active","ping":96},{"user_id":191,"name":"[UM-monster","steam_id":76561198085098243,"connected_time":14171000000000,"state":"active","ping":111},{"user_id":345,"name":"Purrplehaze","steam_id":76561198297604298,"connected_time":3708000000000,"state":"active","ping":81},{"user_id":399,"name":"smell_my_cheese","steam_id":76561198008517427,"connected_time":706000000000,"state":"active","ping":54},{"user_id":341,"name":"Charles Darwin","steam_id":76561197973496139,"connected_time":3958000000000,"state":"active","ping":69},{"user_id":406,"name":"gamerkiddo","steam_id":76561198047380360,"connected_time":292000000000,"state":"active","ping":48},{"user_id":383,"name":"tealoverr.190","steam_id":76561199028497703,"connected_time":1422000000000,"state":"active","ping":105},{"user_id":362,"name":"Keroz1n","steam_id":76561197998681491,"connected_time":2438000000000,"state":"active","ping":60},{"user_id":384,"name":"Mafew","steam_id":76561198119993886,"connected_time":1418000000000,"state":"active","ping":68},{"user_id":407,"name":"Ozzie","steam_id":76561197992915315,"connected_time":271000000000,"state":"active","ping":87},{"user_id":391,"name":"GregerUlander","steam_id":76561198152375055,"connected_time":1128000000000,"state":"active","ping":83}]},{"server_id":308,"name":"Uncletopia | Frankfurt | 3 | All Maps","name_short":"frk-3","host":"frk-1.de.uncletopia.com","port":27035,"enabled":true,"region":"eu","cc":"de","latitude":50.110924,"longitude":8.682127,"reserved":0,"last_update":"0001-01-01T00:00:00Z","name_a2s":"Uncletopia | Frankfurt | 3 | All Maps","protocol":17,"map":"cp_altitude","folder":"tf","game":"Team Fortress","app_id":440,"player_count":24,"max_players":24,"Bots":0,"server_type":"Dedicated","server_os":"Linux","password":true,"vac":true,"version":"7961495","steam_id":85568392924504274,"keywords":["cp","nocrits","nodmgspread","uncletopia"],"game_id":440,"stv_port":27036,"stv_name":"Uncletopia | Frankfurt | 3 | All Maps | STV","players":[{"user_id":397,"name":"crizzl","steam_id":76561197983130737,"connected_time":321000000000,"state":"active","ping":45},{"user_id":342,"name":"GMsU | AuxiliusM","steam_id":76561198071903356,"connected_time":3272000000000,"state":"active","ping":45},{"user_id":400,"name":"I have no enemies","steam_id":76561198809430255,"connected_time":205000000000,"state":"active","ping":54},{"user_id":375,"name":"asmv","steam_id":76561198162108345,"connected_time":1072000000000,"state":"active","ping":43},{"user_id":352,"name":"Technic","steam_id":76561198128096130,"connected_time":2177000000000,"state":"active","ping":48},{"user_id":403,"name":"Gustav Painter","steam_id":76561198040664290,"connected_time":116000000000,"state":"active","ping":56},{"user_id":376,"name":"Kacperos12","steam_id":76561198044168268,"connected_time":1068000000000,"state":"active","ping":107},{"user_id":396,"name":"Tigerente","steam_id":76561198075855969,"connected_time":363000000000,"state":"active","ping":56},{"user_id":370,"name":"tallen","steam_id":76561198061708595,"connected_time":1090000000000,"state":"active","ping":74},{"user_id":398,"name":"nejby","steam_id":76561198124832334,"connected_time":292000000000,"state":"active","ping":72},{"user_id":377,"name":"FoOzTV","steam_id":76561197998636728,"connected_time":1068000000000,"state":"active","ping":58},{"user_id":332,"name":"GMsU | Acoul","steam_id":76561198229222992,"connected_time":3882000000000,"state":"active","ping":47},{"user_id":382,"name":"Zenhard","steam_id":76561198099744014,"connected_time":970000000000,"state":"active","ping":79},{"user_id":388,"name":"ssx tricky \\\\\\ dryg","steam_id":76561197994299134,"connected_time":572000000000,"state":"active","ping":61},{"user_id":380,"name":"Kirre","steam_id":76561198446872726,"connected_time":1027000000000,"state":"active","ping":73},{"user_id":389,"name":"Mébh Óg MacTíre","steam_id":76561198346399624,"connected_time":549000000000,"state":"active","ping":71},{"user_id":394,"name":"Stabing spy","steam_id":76561198847888227,"connected_time":459000000000,"state":"active","ping":77},{"user_id":402,"name":"тукку ирма","steam_id":76561197998715016,"connected_time":170000000000,"state":"active","ping":62},{"user_id":385,"name":"radu","steam_id":76561198067346802,"connected_time":807000000000,"state":"active","ping":71},{"user_id":404,"name":"retzerbil","steam_id":76561198015304794,"connected_time":104000000000,"state":"active","ping":47},{"user_id":395,"name":"B_Ka","steam_id":76561198800270770,"connected_time":406000000000,"state":"active","ping":69},{"user_id":381,"name":"not a nihilist","steam_id":76561198004340466,"connected_time":988000000000,"state":"active","ping":52},{"user_id":371,"name":"Visphiric - Ping Comms Only","steam_id":76561198071938027,"connected_time":1090000000000,"state":"active","ping":56},{"user_id":405,"name":"Ardello","steam_id":76561198864484125,"connected_time":55000000000,"state":"spawning","ping":128}]},{"server_id":309,"name":"Uncletopia | Frankfurt | 4 | All Maps","name_short":"frk-4","host":"frk-1.de.uncletopia.com","port":27045,"enabled":true,"region":"eu","cc":"de","latitude":50.110924,"longitude":8.682127,"reserved":0,"last_update":"0001-01-01T00:00:00Z","name_a2s":"Uncletopia | Frankfurt | 4 | All Maps","protocol":17,"map":"pl_frontier_final","folder":"tf","game":"Team Fortress","app_id":440,"player_count":24,"max_players":24,"Bots":0,"server_type":"Dedicated","server_os":"Linux","password":true,"vac":true,"version":"7961495","steam_id":85568392924504275,"keywords":["nocrits","nodmgspread","payload","uncletopia"],"game_id":440,"stv_port":27046,"stv_name":"Uncletopia | Frankfurt | 4 | All Maps | STV","players":[{"user_id":139,"name":"Doriian","steam_id":76561198071438810,"connected_time":3234000000000,"state":"active","ping":75},{"user_id":179,"name":"dannymon","steam_id":76561198150123106,"connected_time":88000000000,"state":"active","ping":52},{"user_id":54,"name":"Coldynator","steam_id":76561198042224175,"connected_time":5574000000000,"state":"active","ping":80},{"user_id":165,"name":"Avoonix","steam_id":76561198186954897,"connected_time":1364000000000,"state":"active","ping":64},{"user_id":175,"name":"Yassine","steam_id":76561198140565712,"connected_time":533000000000,"state":"active","ping":56},{"user_id":177,"name":"cashman","steam_id":76561198120982862,"connected_time":318000000000,"state":"active","ping":45},{"user_id":172,"name":"tiamat","steam_id":76561198116027948,"connected_time":652000000000,"state":"active","ping":96},{"user_id":173,"name":"zulfie","steam_id":76561198117390056,"connected_time":632000000000,"state":"active","ping":58},{"user_id":143,"name":"sloppy transgirl toppy","steam_id":76561198057092208,"connected_time":3163000000000,"state":"active","ping":65},{"user_id":156,"name":"Artemis","steam_id":76561198199091801,"connected_time":1994000000000,"state":"active","ping":45},{"user_id":157,"name":"Paramedic_101","steam_id":76561198157205078,"connected_time":1986000000000,"state":"active","ping":78},{"user_id":161,"name":"Virtual Mage","steam_id":76561198180779897,"connected_time":1948000000000,"state":"active","ping":59},{"user_id":145,"name":"Random","steam_id":76561199079951047,"connected_time":3031000000000,"state":"active","ping":102},{"user_id":163,"name":"I watch solarlight","steam_id":76561199143232222,"connected_time":1714000000000,"state":"active","ping":110},{"user_id":170,"name":"Daredevil","steam_id":76561198153488940,"connected_time":1022000000000,"state":"active","ping":60},{"user_id":168,"name":"G_raff","steam_id":76561199048512726,"connected_time":1348000000000,"state":"active","ping":72},{"user_id":159,"name":"Tomato","steam_id":76561199124472513,"connected_time":1969000000000,"state":"active","ping":118},{"user_id":158,"name":"Anet1k","steam_id":76561198137123138,"connected_time":1979000000000,"state":"active","ping":50},{"user_id":112,"name":"Homosapien","steam_id":76561197972035953,"connected_time":4726000000000,"state":"active","ping":46},{"user_id":178,"name":"DozzeD","steam_id":76561198815257504,"connected_time":280000000000,"state":"active","ping":57},{"user_id":174,"name":"Stefman","steam_id":76561199025104038,"connected_time":608000000000,"state":"active","ping":55},{"user_id":176,"name":"Gabys","steam_id":76561198282892553,"connected_time":356000000000,"state":"active","ping":74},{"user_id":148,"name":"Madkey99","steam_id":76561198251164426,"connected_time":2967000000000,"state":"active","ping":67},{"user_id":102,"name":"SuntanPikachu","steam_id":76561198121242476,"connected_time":4849000000000,"state":"active","ping":69}]},{"server_id":310,"name":"Uncletopia | Frankfurt | 5 | All Maps","name_short":"frk-5","host":"frk-1.de.uncletopia.com","port":27055,"enabled":true,"region":"eu","cc":"de","latitude":50.110924,"longitude":8.682127,"reserved":0,"last_update":"0001-01-01T00:00:00Z","name_a2s":"Uncletopia | Frankfurt | 5 | All Maps","protocol":17,"map":"pl_snowycoast","folder":"tf","game":"Team Fortress","app_id":440,"player_count":24,"max_players":24,"Bots":0,"server_type":"Dedicated","server_os":"Linux","password":true,"vac":true,"version":"7961495","steam_id":85568392924504277,"keywords":["nocrits","nodmgspread","payload","uncletopia"],"game_id":440,"stv_port":27056,"stv_name":"Uncletopia | Frankfurt | 5 | All Maps | STV","players":[{"user_id":503,"name":"Piox","steam_id":76561198125689157,"connected_time":2103000000000,"state":"active","ping":76},{"user_id":540,"name":"NALA","steam_id":76561198039806469,"connected_time":140000000000,"state":"active","ping":68},{"user_id":524,"name":"Mich2L","steam_id":76561198015423985,"connected_time":805000000000,"state":"active","ping":84},{"user_id":523,"name":"limbicsystem","steam_id":76561198025612680,"connected_time":830000000000,"state":"active","ping":67},{"user_id":504,"name":"taste Fanta through your balls","steam_id":76561198823497252,"connected_time":2037000000000,"state":"active","ping":48},{"user_id":502,"name":"cl_skinnyboi 1","steam_id":76561198042864708,"connected_time":2140000000000,"state":"active","ping":61},{"user_id":446,"name":"relaX","steam_id":76561198354409001,"connected_time":5631000000000,"state":"active","ping":115},{"user_id":486,"name":"three rats in a trenchcoat","steam_id":76561197983889333,"connected_time":2970000000000,"state":"active","ping":62},{"user_id":525,"name":"SalCrabber deluxe","steam_id":76561198275942961,"connected_time":785000000000,"state":"active","ping":42},{"user_id":526,"name":"ChikChak","steam_id":76561198010518376,"connected_time":781000000000,"state":"active","ping":76},{"user_id":527,"name":"BIG Dave Gaming","steam_id":76561199170843929,"connected_time":776000000000,"state":"active","ping":58},{"user_id":512,"name":"tequila sunset","steam_id":76561198315969106,"connected_time":1121000000000,"state":"active","ping":91},{"user_id":538,"name":"The OBSERVER","steam_id":76561198966358094,"connected_time":301000000000,"state":"active","ping":49},{"user_id":475,"name":"_Alonso","steam_id":76561198041893314,"connected_time":3368000000000,"state":"active","ping":52},{"user_id":528,"name":"I919I","steam_id":76561198141049923,"connected_time":736000000000,"state":"active","ping":73},{"user_id":529,"name":"Katta363","steam_id":76561198877144992,"connected_time":733000000000,"state":"active","ping":73},{"user_id":536,"name":"Eliazz","steam_id":76561198374651481,"connected_time":576000000000,"state":"active","ping":72},{"user_id":541,"name":"Sensa","steam_id":76561198170939811,"connected_time":41000000000,"state":"active","ping":55},{"user_id":532,"name":"stopydapbip","steam_id":76561198332245230,"connected_time":685000000000,"state":"active","ping":74},{"user_id":506,"name":"rts","steam_id":76561199090876980,"connected_time":2005000000000,"state":"active","ping":79},{"user_id":507,"name":"chocy milk addict","steam_id":76561199042178118,"connected_time":1992000000000,"state":"active","ping":74},{"user_id":535,"name":"AIDS MEDIC","steam_id":76561198042774930,"connected_time":591000000000,"state":"active","ping":82},{"user_id":539,"name":"Croix","steam_id":76561198059642945,"connected_time":280000000000,"state":"active","ping":52},{"user_id":509,"name":"Doctor Mobius","steam_id":76561197971281806,"connected_time":1471000000000,"state":"active","ping":61}]},{"server_id":311,"name":"Uncletopia | Frankfurt | 6 | All Maps","name_short":"frk-6","host":"frk-1.de.uncletopia.com","port":27065,"enabled":true,"region":"eu","cc":"de","latitude":50.110924,"longitude":8.682127,"reserved":0,"last_update":"0001-01-01T00:00:00Z","name_a2s":"Uncletopia | Frankfurt | 6 | All Maps","protocol":17,"map":"koth_highpass","folder":"tf","game":"Team Fortress","app_id":440,"player_count":0,"max_players":24,"Bots":0,"server_type":"Dedicated","server_os":"Linux","password":true,"vac":true,"version":"7961495","steam_id":85568392924504278,"keywords":["cp","nocrits","nodmgspread","uncletopia"],"game_id":440,"stv_port":27066,"stv_name":"Uncletopia | Frankfurt | 6 | All Maps | STV","players":null},{"server_id":23,"name":"Uncletopia | Frankfurt | 7 | Stopwatch","name_short":"frk-7","host":"frk-1.de.uncletopia.com","port":27075,"enabled":true,"region":"eu","cc":"de","latitude":50.110924,"longitude":8.682127,"reserved":0,"last_update":"0001-01-01T00:00:00Z","name_a2s":"Uncletopia | Frankfurt | 7 | Stopwatch","protocol":17,"map":"pl_frontier_final","folder":"tf","game":"Team Fortress","app_id":440,"player_count":0,"max_players":24,"Bots":0,"server_type":"Dedicated","server_os":"Linux","password":true,"vac":true,"version":"7961495","steam_id":85568392924742827,"keywords":["nocrits","nodmgspread","payload","uncletopia"],"game_id":440,"stv_port":27076,"stv_name":"Uncletopia | Frankfurt | 7 | Stopwatch | STV","players":null},{"server_id":24,"name":"Uncletopia | Frankfurt | 8 | Community","name_short":"frk-8","host":"frk-1.de.uncletopia.com","port":27085,"enabled":true,"region":"eu","cc":"de","latitude":50.110924,"longitude":8.682127,"reserved":0,"last_update":"0001-01-01T00:00:00Z","name_a2s":"Uncletopia | Frankfurt | 8 | Community","protocol":17,"map":"workshop/koth_product_final.ugc454272353","folder":"tf","game":"Team Fortress","app_id":440,"player_count":0,"max_players":24,"Bots":0,"server_type":"Dedicated","server_os":"Linux","password":true,"vac":true,"version":"7961495","steam_id":85568392924742828,"keywords":["cp","nocrits","nodmgspread","uncletopia"],"game_id":440,"stv_port":27086,"stv_name":"Uncletopia | Frankfurt | 8 | Community | STV","players":null},{"server_id":202,"name":"Uncletopia | Hong Kong | 1 | All Maps","name_short":"hgk-1","host":"hgk-1.hk.uncletopia.com","port":27015,"enabled":true,"region":"asia","cc":"hk","latitude":22.302711,"longitude":114.177216,"reserved":0,"last_update":"0001-01-01T00:00:00Z","name_a2s":"Uncletopia | Hong Kong | 1 | All Maps","protocol":17,"map":"koth_viaduct","folder":"tf","game":"Team Fortress","app_id":440,"player_count":0,"max_players":24,"Bots":0,"server_type":"Dedicated","server_os":"Linux","password":true,"vac":true,"version":"7961495","steam_id":85568392924494504,"keywords":["cp","nocrits","nodmgspread","uncletopia"],"game_id":440,"stv_port":27016,"stv_name":"Uncletopia | Hong Kong | 1 | All Maps | STV","players":null},{"server_id":1,"name":"Uncletopia | Los Angeles | 1 | All Maps","name_short":"lax-1","host":"lax-1.us.uncletopia.com","port":27015,"enabled":true,"region":"us-west","cc":"us","latitude":33.94279,"longitude":-118.41004,"reserved":0,"last_update":"0001-01-01T00:00:00Z","name_a2s":"Uncletopia | Los Angeles | 1 | All Maps","protocol":17,"map":"pl_snowycoast","folder":"tf","game":"Team Fortress","app_id":440,"player_count":0,"max_players":24,"Bots":0,"server_type":"Dedicated","server_os":"Linux","password":true,"vac":true,"version":"7961495","steam_id":85568392924469991,"keywords":["nocrits","nodmgspread","payload","uncletopia"],"game_id":440,"stv_port":27016,"stv_name":"Uncletopia | Los Angeles | 1 | All Maps | STV","players":null},{"server_id":112,"name":"Uncletopia | Los Angeles | 2 | All Maps","name_short":"lax-2","host":"lax-1.us.uncletopia.com","port":27025,"enabled":true,"region":"us-west","cc":"us","latitude":33.94279,"longitude":-118.41004,"reserved":0,"last_update":"0001-01-01T00:00:00Z","name_a2s":"Uncletopia | Los Angeles | 2 | All Maps","protocol":17,"map":"cp_mountainlab","folder":"tf","game":"Team Fortress","app_id":440,"player_count":0,"max_players":24,"Bots":0,"server_type":"Dedicated","server_os":"Linux","password":true,"vac":true,"version":"7961495","steam_id":85568392924469992,"keywords":["cp","nocrits","nodmgspread","uncletopia"],"game_id":440,"stv_port":27026,"stv_name":"Uncletopia | Los Angeles | 2 | All Maps | STV","players":null},{"server_id":324,"name":"Uncletopia | Los Angeles | 3 | All Maps","name_short":"lax-3","host":"lax-1.us.uncletopia.com","port":27035,"enabled":true,"region":"us-west","cc":"us","latitude":33.94279,"longitude":-118.41004,"reserved":0,"last_update":"0001-01-01T00:00:00Z","name_a2s":"Uncletopia | Los Angeles | 3 | All Maps","protocol":17,"map":"pl_frontier_final","folder":"tf","game":"Team Fortress","app_id":440,"player_count":0,"max_players":24,"Bots":0,"server_type":"Dedicated","server_os":"Linux","password":true,"vac":true,"version":"7961495","steam_id":85568392924510198,"keywords":["nocrits","nodmgspread","payload","uncletopia"],"game_id":440,"stv_port":27036,"stv_name":"Uncletopia | Los Angeles | 3 | All Maps | STV","players":null},{"server_id":25,"name":"Uncletopia | Los Angeles | 4 | Stopwatch","name_short":"lax-4","host":"lax-1.us.uncletopia.com","port":27045,"enabled":true,"region":"us-west","cc":"us","latitude":33.94279,"longitude":-118.41004,"reserved":0,"last_update":"0001-01-01T00:00:00Z","name_a2s":"Uncletopia | Los Angeles | 4 | Stopwatch","protocol":17,"map":"pl_barnblitz","folder":"tf","game":"Team Fortress","app_id":440,"player_count":0,"max_players":24,"Bots":0,"server_type":"Dedicated","server_os":"Linux","password":true,"vac":true,"version":"7961495","steam_id":85568392924510199,"keywords":["nocrits","nodmgspread","payload","uncletopia"],"game_id":440,"stv_port":27046,"stv_name":"Uncletopia | Los Angeles | 4 | Stopwatch | STV","players":null},{"server_id":11,"name":"Uncletopia | London | 1 | All Maps","name_short":"lon-1","host":"lon-1.uk.uncletopia.com","port":27015,"enabled":true,"region":"eu","cc":"gb","latitude":51.509865,"longitude":-0.118092,"reserved":0,"last_update":"0001-01-01T00:00:00Z","name_a2s":"Uncletopia | London | 1 | All Maps","protocol":17,"map":"pl_snowycoast","folder":"tf","game":"Team Fortress","app_id":440,"player_count":24,"max_players":24,"Bots":0,"server_type":"Dedicated","server_os":"Linux","password":true,"vac":true,"version":"7961495","steam_id":85568392924367362,"keywords":["nocrits","nodmgspread","payload","uncletopia"],"game_id":440,"stv_port":27016,"stv_name":"Uncletopia | London | 1 | All Maps | STV","players":[{"user_id":569,"name":"ber","steam_id":76561197993892057,"connected_time":9646000000000,"state":"active","ping":89},{"user_id":718,"name":"itsPanzerPanda","steam_id":76561199441946346,"connected_time":2955000000000,"state":"active","ping":145},{"user_id":744,"name":"nudjura","steam_id":76561198281986139,"connected_time":110000000000,"state":"active","ping":42},{"user_id":745,"name":"Kaktus_kak","steam_id":76561198250938524,"connected_time":110000000000,"state":"active","ping":62},{"user_id":724,"name":"emmy","steam_id":76561198066298422,"connected_time":1987000000000,"state":"active","ping":79},{"user_id":748,"name":"SENSITIVITY OVERDRIVE!!!!","steam_id":76561198163615254,"connected_time":89000000000,"state":"active","ping":60},{"user_id":726,"name":"Minimi","steam_id":76561198873850443,"connected_time":1759000000000,"state":"active","ping":43},{"user_id":740,"name":"degu","steam_id":76561198180823942,"connected_time":123000000000,"state":"active","ping":236},{"user_id":727,"name":"whimsy. (live)","steam_id":76561198878171763,"connected_time":1755000000000,"state":"active","ping":53},{"user_id":690,"name":"ACG_Dubsy","steam_id":76561198797308565,"connected_time":4643000000000,"state":"active","ping":55},{"user_id":747,"name":"⚧aura⚧","steam_id":76561198066258544,"connected_time":107000000000,"state":"active","ping":61},{"user_id":725,"name":"ein","steam_id":76561198152162834,"connected_time":1987000000000,"state":"active","ping":106},{"user_id":714,"name":"trite","steam_id":76561197983765323,"connected_time":3126000000000,"state":"active","ping":54},{"user_id":710,"name":"Slifer the Egyptian God Furry","steam_id":76561198062255803,"connected_time":3254000000000,"state":"active","ping":121},{"user_id":738,"name":"KiT","steam_id":76561198043770371,"connected_time":775000000000,"state":"active","ping":74},{"user_id":733,"name":"kelpie","steam_id":76561198128327529,"connected_time":1139000000000,"state":"active","ping":49},{"user_id":736,"name":"shooer!","steam_id":76561198110531281,"connected_time":1021000000000,"state":"active","ping":72},{"user_id":737,"name":"swatton","steam_id":76561198875537106,"connected_time":1014000000000,"state":"active","ping":60},{"user_id":721,"name":"Woman (Real)","steam_id":76561199151823932,"connected_time":2119000000000,"state":"active","ping":88},{"user_id":742,"name":"Egg Soap","steam_id":76561198436817109,"connected_time":122000000000,"state":"active","ping":47},{"user_id":743,"name":"Plep","steam_id":76561198840259819,"connected_time":121000000000,"state":"active","ping":58},{"user_id":701,"name":"albert","steam_id":76561198353496134,"connected_time":4280000000000,"state":"active","ping":55},{"user_id":712,"name":"lillunya ♡","steam_id":76561198330418866,"connected_time":3173000000000,"state":"active","ping":74},{"user_id":662,"name":"bigwish | bmod.tf","steam_id":76561197997859723,"connected_time":6444000000000,"state":"active","ping":84}]},{"server_id":114,"name":"Uncletopia | London | 2 | All Maps","name_short":"lon-2","host":"lon-1.uk.uncletopia.com","port":27025,"enabled":true,"region":"eu","cc":"gb","latitude":51.509865,"longitude":-0.118092,"reserved":0,"last_update":"0001-01-01T00:00:00Z","name_a2s":"Uncletopia | London | 2 | All Maps","protocol":17,"map":"cp_snakewater_final1","folder":"tf","game":"Team Fortress","app_id":440,"player_count":22,"max_players":24,"Bots":0,"server_type":"Dedicated","server_os":"Linux","password":true,"vac":true,"version":"7961495","steam_id":85568392924470941,"keywords":["cp","nocrits","nodmgspread","uncletopia"],"game_id":440,"stv_port":27026,"stv_name":"Uncletopia | London | 2 | All Maps | STV","players":[{"user_id":257,"name":"An Idiot in space","steam_id":76561198011089239,"connected_time":4377000000000,"state":"active","ping":54},{"user_id":258,"name":"Cobalt","steam_id":76561198349228196,"connected_time":4363000000000,"state":"active","ping":53},{"user_id":266,"name":"Mr. Mundy","steam_id":76561198132008918,"connected_time":3630000000000,"state":"active","ping":75},{"user_id":251,"name":"Fat Pigeon","steam_id":76561198817940142,"connected_time":4555000000000,"state":"active","ping":45},{"user_id":150,"name":"Hexagon","steam_id":76561198151205758,"connected_time":9861000000000,"state":"active","ping":56},{"user_id":302,"name":"Waxel","steam_id":76561198208815717,"connected_time":182000000000,"state":"active","ping":80},{"user_id":288,"name":"cao ni ma","steam_id":76561198121177512,"connected_time":1845000000000,"state":"active","ping":62},{"user_id":301,"name":"Egor Pomidor","steam_id":76561199175688390,"connected_time":191000000000,"state":"active","ping":88},{"user_id":287,"name":"Bim Jeam","steam_id":76561198039417163,"connected_time":1855000000000,"state":"active","ping":40},{"user_id":298,"name":"[BLANK] Dude","steam_id":76561198024574260,"connected_time":883000000000,"state":"active","ping":55},{"user_id":265,"name":"Nick","steam_id":76561198036109469,"connected_time":3873000000000,"state":"active","ping":105},{"user_id":290,"name":"EngulfedHorizon","steam_id":76561198060056829,"connected_time":1835000000000,"state":"active","ping":173},{"user_id":274,"name":"Xtis","steam_id":76561198043837480,"connected_time":3108000000000,"state":"active","ping":74},{"user_id":307,"name":"night.s","steam_id":76561198326287823,"connected_time":85000000000,"state":"active","ping":61},{"user_id":281,"name":"jacob","steam_id":76561198010662796,"connected_time":2019000000000,"state":"active","ping":45},{"user_id":259,"name":"Nittugai","steam_id":76561198067366462,"connected_time":4336000000000,"state":"active","ping":73},{"user_id":308,"name":"Repa24","steam_id":76561198033016390,"connected_time":1000000000,"state":"spawning","ping":33},{"user_id":284,"name":"the freak of greek * _ *","steam_id":76561198046873337,"connected_time":1931000000000,"state":"active","ping":52},{"user_id":267,"name":"Farmercy","steam_id":76561198000038039,"connected_time":3601000000000,"state":"active","ping":60},{"user_id":296,"name":"Phat","steam_id":76561198272293356,"connected_time":1356000000000,"state":"active","ping":70},{"user_id":219,"name":"Ullr","steam_id":76561198140547483,"connected_time":6386000000000,"state":"active","ping":42},{"user_id":306,"name":"im not a femboy i swear","steam_id":76561198441084881,"connected_time":136000000000,"state":"active","ping":62}]},{"server_id":320,"name":"Uncletopia | London | 3 | All Maps","name_short":"lon-3","host":"lon-1.uk.uncletopia.com","port":27035,"enabled":true,"region":"eu","cc":"gb","latitude":51.509865,"longitude":-0.118092,"reserved":0,"last_update":"0001-01-01T00:00:00Z","name_a2s":"Uncletopia | London | 3 | All Maps","protocol":17,"map":"pl_upward","folder":"tf","game":"Team Fortress","app_id":440,"player_count":24,"max_players":24,"Bots":0,"server_type":"Dedicated","server_os":"Linux","password":true,"vac":true,"version":"7961495","steam_id":85568392924510192,"keywords":["nocrits","nodmgspread","payload","uncletopia"],"game_id":440,"stv_port":27036,"stv_name":"Uncletopia | London | 3 | All Maps | STV","players":[{"user_id":24,"name":"Tx_madmash \u0026 knuckles","steam_id":76561198924656512,"connected_time":3795000000000,"state":"active","ping":50},{"user_id":113,"name":"dudes who can juggle","steam_id":76561198188642265,"connected_time":86000000000,"state":"active","ping":50},{"user_id":62,"name":"eXenz","steam_id":76561198255136723,"connected_time":2007000000000,"state":"active","ping":61},{"user_id":110,"name":"Francis","steam_id":76561198987134265,"connected_time":346000000000,"state":"active","ping":70},{"user_id":114,"name":"пездюк","steam_id":76561198163244605,"connected_time":69000000000,"state":"spawning","ping":171},{"user_id":115,"name":"JepCabestany","steam_id":76561198123812578,"connected_time":5000000000,"state":"spawning","ping":74},{"user_id":34,"name":"Jethro Tull","steam_id":76561199034041634,"connected_time":2519000000000,"state":"active","ping":66},{"user_id":65,"name":"Endi","steam_id":76561198914938199,"connected_time":1934000000000,"state":"active","ping":105},{"user_id":66,"name":"VolcanicArts","steam_id":76561198063453246,"connected_time":1901000000000,"state":"active","ping":54},{"user_id":37,"name":"you like silly femboys don't yo","steam_id":76561198837586838,"connected_time":2423000000000,"state":"active","ping":67},{"user_id":38,"name":"The worst TF2 player(Real)","steam_id":76561199184873889,"connected_time":2384000000000,"state":"active","ping":81},{"user_id":39,"name":"sprinkle ✧* ༝","steam_id":76561198055871696,"connected_time":2384000000000,"state":"active","ping":45},{"user_id":56,"name":"sam_","steam_id":76561198814734120,"connected_time":2146000000000,"state":"active","ping":122},{"user_id":63,"name":"Jombus Quan","steam_id":76561198240560666,"connected_time":1994000000000,"state":"active","ping":50},{"user_id":47,"name":"boxama","steam_id":76561198040721321,"connected_time":2235000000000,"state":"active","ping":58},{"user_id":49,"name":"im getting me mallet","steam_id":76561198389556655,"connected_time":2232000000000,"state":"active","ping":77},{"user_id":71,"name":"NESS","steam_id":76561197995225318,"connected_time":1365000000000,"state":"active","ping":40},{"user_id":45,"name":"Kili","steam_id":76561198138456346,"connected_time":2250000000000,"state":"active","ping":75},{"user_id":67,"name":"DOKTOR SEX","steam_id":76561198226378616,"connected_time":1820000000000,"state":"active","ping":93},{"user_id":111,"name":"Hoss","steam_id":76561198000169123,"connected_time":320000000000,"state":"active","ping":114},{"user_id":69,"name":"Milk","steam_id":76561198125876588,"connected_time":1377000000000,"state":"active","ping":41},{"user_id":53,"name":"SaltyCupcakes","steam_id":76561198256386417,"connected_time":2223000000000,"state":"active","ping":45},{"user_id":70,"name":"r","steam_id":76561198239927434,"connected_time":1374000000000,"state":"active","ping":71},{"user_id":82,"name":"Dr Bondus Bolongus Dongus","steam_id":76561198378657692,"connected_time":1218000000000,"state":"active","ping":53}]},{"server_id":321,"name":"Uncletopia | London | 4 | All Maps","name_short":"lon-4","host":"lon-1.uk.uncletopia.com","port":27045,"enabled":true,"region":"eu","cc":"gb","latitude":51.509865,"longitude":-0.118092,"reserved":0,"last_update":"0001-01-01T00:00:00Z","name_a2s":"Uncletopia | London | 4 | All Maps","protocol":17,"map":"pl_badwater","folder":"tf","game":"Team Fortress","app_id":440,"player_count":24,"max_players":24,"Bots":0,"server_type":"Dedicated","server_os":"Linux","password":true,"vac":true,"version":"7961495","steam_id":85568392924510193,"keywords":["nocrits","nodmgspread","payload","uncletopia"],"game_id":440,"stv_port":27046,"stv_name":"Uncletopia | London | 4 | All Maps | STV","players":[{"user_id":85,"name":"Testy","steam_id":76561198169996602,"connected_time":498000000000,"state":"active","ping":56},{"user_id":80,"name":"DXD Tech","steam_id":76561198358379587,"connected_time":820000000000,"state":"active","ping":70},{"user_id":86,"name":"𐂃","steam_id":76561198874987906,"connected_time":474000000000,"state":"active","ping":65},{"user_id":24,"name":"gabrielglod928","steam_id":76561199014805744,"connected_time":4818000000000,"state":"active","ping":59},{"user_id":22,"name":"Deez nuts","steam_id":76561199429562693,"connected_time":4944000000000,"state":"active","ping":74},{"user_id":66,"name":"V.Z.C.Szahibe.az amateur","steam_id":76561198015603940,"connected_time":2420000000000,"state":"active","ping":62},{"user_id":78,"name":"Storm's Foreshadow","steam_id":76561198098462526,"connected_time":1334000000000,"state":"active","ping":68},{"user_id":87,"name":"SpicyBoi","steam_id":76561198137845321,"connected_time":468000000000,"state":"active","ping":59},{"user_id":79,"name":"toomas2018(vote for toomas2018)","steam_id":76561199105796083,"connected_time":1296000000000,"state":"active","ping":82},{"user_id":88,"name":"randompixel","steam_id":76561198003941207,"connected_time":416000000000,"state":"active","ping":56},{"user_id":46,"name":"Toa LightMakuta","steam_id":76561198212178104,"connected_time":3389000000000,"state":"active","ping":67},{"user_id":91,"name":"Monkey","steam_id":76561199245342763,"connected_time":246000000000,"state":"active","ping":81},{"user_id":76,"name":"Sex Monster","steam_id":76561199426920744,"connected_time":1760000000000,"state":"active","ping":106},{"user_id":82,"name":"British Disapproval","steam_id":76561198001375260,"connected_time":804000000000,"state":"active","ping":54},{"user_id":93,"name":"d3stint2","steam_id":76561199487880831,"connected_time":58000000000,"state":"active","ping":45},{"user_id":41,"name":"BLÅHAJ","steam_id":76561199353672293,"connected_time":3580000000000,"state":"active","ping":59},{"user_id":42,"name":"Hellbrud","steam_id":76561198040142466,"connected_time":3576000000000,"state":"active","ping":98},{"user_id":73,"name":"Raivop","steam_id":76561197980854307,"connected_time":2187000000000,"state":"active","ping":91},{"user_id":48,"name":"Jarppa!","steam_id":76561197995834786,"connected_time":3172000000000,"state":"active","ping":68},{"user_id":92,"name":"E² FTH","steam_id":76561198066287815,"connected_time":192000000000,"state":"active","ping":117},{"user_id":90,"name":"Barry Burtons no. 1 fan","steam_id":76561198101451654,"connected_time":409000000000,"state":"active","ping":45},{"user_id":58,"name":"Serg","steam_id":76561198218959001,"connected_time":2894000000000,"state":"active","ping":76},{"user_id":77,"name":"modembreaker863","steam_id":76561198871463629,"connected_time":1744000000000,"state":"active","ping":55},{"user_id":84,"name":"Medic who doesn't Heal People","steam_id":76561198073239479,"connected_time":787000000000,"state":"active","ping":59}]},{"server_id":21,"name":"Uncletopia | London | 5 | All Maps","name_short":"lon-5","host":"lon-1.uk.uncletopia.com","port":27055,"enabled":true,"region":"eu","cc":"gb","latitude":51.509865,"longitude":-0.118092,"reserved":0,"last_update":"0001-01-01T00:00:00Z","name_a2s":"Uncletopia | London | 5 | All Maps","protocol":17,"map":"cp_process_final","folder":"tf","game":"Team Fortress","app_id":440,"player_count":23,"max_players":24,"Bots":0,"server_type":"Dedicated","server_os":"Linux","password":true,"vac":true,"version":"7961495","steam_id":85568392924742829,"keywords":["cp","nocrits","nodmgspread","uncletopia"],"game_id":440,"stv_port":27056,"stv_name":"Uncletopia | London | 5 | All Maps | STV","players":[{"user_id":151,"name":"Grey","steam_id":76561198187190267,"connected_time":1559000000000,"state":"active","ping":45},{"user_id":152,"name":"ran is running","steam_id":76561199443185667,"connected_time":1435000000000,"state":"active","ping":157},{"user_id":185,"name":"Bronchius Bonehead","steam_id":76561198133961416,"connected_time":251000000000,"state":"active","ping":51},{"user_id":159,"name":"Luke SpyWalker","steam_id":76561198008643276,"connected_time":1231000000000,"state":"active","ping":70},{"user_id":155,"name":"cislastar","steam_id":76561198027202375,"connected_time":1361000000000,"state":"active","ping":81},{"user_id":170,"name":"shenanigan","steam_id":76561198043452925,"connected_time":641000000000,"state":"active","ping":84},{"user_id":171,"name":"^1MARAMA PALEX","steam_id":76561198311372563,"connected_time":551000000000,"state":"active","ping":75},{"user_id":190,"name":"Crotch Lobster","steam_id":76561199498650640,"connected_time":61000000000,"state":"active","ping":155},{"user_id":172,"name":"milk","steam_id":76561198151231791,"connected_time":534000000000,"state":"active","ping":59},{"user_id":163,"name":"tokss","steam_id":76561198033084982,"connected_time":1043000000000,"state":"active","ping":87},{"user_id":164,"name":"секретный кор","steam_id":76561198295954395,"connected_time":1031000000000,"state":"active","ping":89},{"user_id":174,"name":"Advokat","steam_id":76561198307121174,"connected_time":415000000000,"state":"active","ping":72},{"user_id":175,"name":"Debch1k","steam_id":76561198144985727,"connected_time":400000000000,"state":"active","ping":81},{"user_id":176,"name":"IhateHanzoPlayers","steam_id":76561198377533237,"connected_time":390000000000,"state":"active","ping":68},{"user_id":177,"name":"LePest","steam_id":76561198389887121,"connected_time":390000000000,"state":"active","ping":106},{"user_id":178,"name":"jjkun786","steam_id":76561199438517484,"connected_time":375000000000,"state":"active","ping":40},{"user_id":179,"name":"Bajas","steam_id":76561198179339326,"connected_time":369000000000,"state":"active","ping":89},{"user_id":180,"name":"JimBean","steam_id":76561198018620946,"connected_time":353000000000,"state":"active","ping":55},{"user_id":181,"name":"❤{Femboy}Ledlwz☭","steam_id":76561198379575108,"connected_time":321000000000,"state":"active","ping":83},{"user_id":182,"name":"etc","steam_id":76561197998394797,"connected_time":313000000000,"state":"active","ping":47},{"user_id":184,"name":"Samuel L. Jackson","steam_id":76561198130427881,"connected_time":294000000000,"state":"active","ping":167},{"user_id":188,"name":"nyanezt","steam_id":76561198253734265,"connected_time":143000000000,"state":"active","ping":105},{"user_id":189,"name":"medicinal man","steam_id":76561198202668788,"connected_time":112000000000,"state":"active","ping":63}]},{"server_id":22,"name":"Uncletopia | London | 6 | All Maps","name_short":"lon-6","host":"lon-1.uk.uncletopia.com","port":27065,"enabled":true,"region":"eu","cc":"gb","latitude":51.509865,"longitude":-0.118092,"reserved":0,"last_update":"0001-01-01T00:00:00Z","name_a2s":"Uncletopia | London | 6 | All Maps","protocol":17,"map":"pl_pier","folder":"tf","game":"Team Fortress","app_id":440,"player_count":23,"max_players":24,"Bots":0,"server_type":"Dedicated","server_os":"Linux","password":true,"vac":true,"version":"7961495","steam_id":85568392924742830,"keywords":["nocrits","nodmgspread","payload","uncletopia"],"game_id":440,"stv_port":27066,"stv_name":"Uncletopia | London | 6 | All Maps | STV","players":[{"user_id":209,"name":"The Bread Bringer","steam_id":76561198264079743,"connected_time":3951000000000,"state":"active","ping":44},{"user_id":270,"name":"Palex","steam_id":76561198093219465,"connected_time":1011000000000,"state":"active","ping":44},{"user_id":257,"name":"Alyx","steam_id":76561198064654326,"connected_time":1146000000000,"state":"active","ping":70},{"user_id":191,"name":"Unreliable, funny and dangerous","steam_id":76561198050709790,"connected_time":5051000000000,"state":"active","ping":95},{"user_id":271,"name":"Weegee","steam_id":76561198150308523,"connected_time":990000000000,"state":"active","ping":50},{"user_id":274,"name":"install gentoo","steam_id":76561198185257982,"connected_time":823000000000,"state":"active","ping":72},{"user_id":277,"name":"sz(k)","steam_id":76561198118500940,"connected_time":698000000000,"state":"active","ping":73},{"user_id":286,"name":"FiuffyDaisy!","steam_id":76561198241732704,"connected_time":357000000000,"state":"active","ping":47},{"user_id":288,"name":"idliketibettobefree","steam_id":76561198009148312,"connected_time":153000000000,"state":"active","ping":78},{"user_id":213,"name":"Spinya","steam_id":76561198086653667,"connected_time":3678000000000,"state":"active","ping":59},{"user_id":289,"name":"Germanium_Ge","steam_id":76561198130561775,"connected_time":150000000000,"state":"active","ping":55},{"user_id":280,"name":"Irdi","steam_id":76561198357322167,"connected_time":511000000000,"state":"active","ping":39},{"user_id":244,"name":"LivEssense","steam_id":76561198052476979,"connected_time":1863000000000,"state":"active","ping":90},{"user_id":167,"name":"Ark-e","steam_id":76561198261870909,"connected_time":6544000000000,"state":"active","ping":34},{"user_id":273,"name":"bob","steam_id":76561198448135228,"connected_time":933000000000,"state":"active","ping":135},{"user_id":281,"name":"Ҳєлoъoґĝ","steam_id":76561197977939483,"connected_time":475000000000,"state":"active","ping":58},{"user_id":290,"name":"Rockett","steam_id":76561198056609233,"connected_time":72000000000,"state":"active","ping":55},{"user_id":283,"name":"mały #tf2pickup.pl","steam_id":76561198074409147,"connected_time":465000000000,"state":"active","ping":74},{"user_id":284,"name":"flamingosaurus","steam_id":76561198051455397,"connected_time":445000000000,"state":"active","ping":44},{"user_id":230,"name":"Citromfa","steam_id":76561198427549600,"connected_time":2609000000000,"state":"active","ping":88},{"user_id":214,"name":"DudeoftheRock","steam_id":76561198059401865,"connected_time":3674000000000,"state":"active","ping":53},{"user_id":285,"name":"gaming gamer","steam_id":76561198212488780,"connected_time":393000000000,"state":"active","ping":68},{"user_id":262,"name":"Pvt. Prinny","steam_id":76561198030278562,"connected_time":1103000000000,"state":"active","ping":46}]},{"server_id":40,"name":"Uncletopia | London | 7 | Stopwatch","name_short":"lon-7","host":"lon-1.uk.uncletopia.com","port":27075,"enabled":true,"region":"eu","cc":"gb","latitude":51.509865,"longitude":-0.118092,"reserved":0,"last_update":"0001-01-01T00:00:00Z","name_a2s":"Uncletopia | London | 7 | Stopwatch","protocol":17,"map":"workshop/pl_barnblitz_pro7.ugc582280235","folder":"tf","game":"Team Fortress","app_id":440,"player_count":0,"max_players":24,"Bots":0,"server_type":"Dedicated","server_os":"Linux","password":true,"vac":true,"version":"7961495","steam_id":85568392924964314,"keywords":["nocrits","nodmgspread","payload","uncletopia"],"game_id":440,"stv_port":27076,"stv_name":"Uncletopia | London | 7 | Stopwatch | STV","players":null},{"server_id":41,"name":"Uncletopia | London | 8 | Community","name_short":"lon-8","host":"lon-1.uk.uncletopia.com","port":27085,"enabled":true,"region":"eu","cc":"gb","latitude":51.509865,"longitude":-0.118092,"reserved":0,"last_update":"0001-01-01T00:00:00Z","name_a2s":"Uncletopia | London | 8 | Community","protocol":17,"map":"workshop/pl_barnblitz_pro7.ugc582280235","folder":"tf","game":"Team Fortress","app_id":440,"player_count":23,"max_players":24,"Bots":0,"server_type":"Dedicated","server_os":"Linux","password":true,"vac":true,"version":"7961495","steam_id":85568392924964315,"keywords":["nocrits","nodmgspread","payload","uncletopia"],"game_id":440,"stv_port":27086,"stv_name":"Uncletopia | London | 8 | Community | STV","players":[{"user_id":55,"name":"Vel0city","steam_id":76561198049687798,"connected_time":3840000000000,"state":"active","ping":47},{"user_id":96,"name":"Team Fortress","steam_id":76561198058722801,"connected_time":1109000000000,"state":"active","ping":50},{"user_id":99,"name":"stoppen","steam_id":76561197960281482,"connected_time":1009000000000,"state":"active","ping":71},{"user_id":101,"name":"Demicore","steam_id":76561197976922136,"connected_time":985000000000,"state":"active","ping":70},{"user_id":110,"name":"deflox","steam_id":76561198087450635,"connected_time":784000000000,"state":"active","ping":59},{"user_id":111,"name":"☠The Boio☠","steam_id":76561198114166378,"connected_time":620000000000,"state":"active","ping":76},{"user_id":78,"name":"Ferrariracer5f1","steam_id":76561199229815098,"connected_time":2411000000000,"state":"active","ping":57},{"user_id":114,"name":"Mr.Fix","steam_id":76561199017362445,"connected_time":441000000000,"state":"active","ping":105},{"user_id":88,"name":"moglimbo","steam_id":76561198083937378,"connected_time":1635000000000,"state":"active","ping":47},{"user_id":107,"name":"Tryrn","steam_id":76561198075487436,"connected_time":877000000000,"state":"active","ping":81},{"user_id":102,"name":"(MAC) [BN] Crazyking","steam_id":76561198001668616,"connected_time":978000000000,"state":"active","ping":55},{"user_id":37,"name":"silicon based life form","steam_id":76561199127121346,"connected_time":4797000000000,"state":"active","ping":55},{"user_id":108,"name":"Rock..","steam_id":76561198004641963,"connected_time":865000000000,"state":"active","ping":84},{"user_id":89,"name":"breadbear \u003c3","steam_id":76561198036895007,"connected_time":1608000000000,"state":"active","ping":91},{"user_id":40,"name":"Rodak","steam_id":76561199135986344,"connected_time":4690000000000,"state":"active","ping":59},{"user_id":43,"name":"Mr Fruitypebbles","steam_id":76561198133823242,"connected_time":4475000000000,"state":"active","ping":57},{"user_id":72,"name":"tea for trees too","steam_id":76561198131031404,"connected_time":2822000000000,"state":"active","ping":96},{"user_id":93,"name":"teddy","steam_id":76561198007436837,"connected_time":1272000000000,"state":"active","ping":44},{"user_id":115,"name":"Dr. Funkenstein","steam_id":76561197977816210,"connected_time":424000000000,"state":"active","ping":67},{"user_id":91,"name":"Pixel-Jay","steam_id":76561198853840115,"connected_time":1578000000000,"state":"active","ping":57},{"user_id":79,"name":"Jeremy Pinkman","steam_id":76561198345967214,"connected_time":2277000000000,"state":"active","ping":94},{"user_id":74,"name":"Bavarian Blayer","steam_id":76561198504744583,"connected_time":2796000000000,"state":"active","ping":68},{"user_id":113,"name":"Thisisforyou!","steam_id":76561198052113055,"connected_time":612000000000,"state":"active","ping":117}]},{"server_id":300,"name":"Uncletopia | Montréal | 1 | One Thousand Uncles","name_short":"mtl-1","host":"mtl-1.ca.uncletopia.com","port":27015,"enabled":true,"region":"us-east","cc":"ca","latitude":45.50889,"longitude":-73.56167,"reserved":0,"last_update":"0001-01-01T00:00:00Z","name_a2s":"","protocol":0,"map":"","folder":"","game":"","app_id":0,"player_count":0,"max_players":0,"Bots":0,"server_type":"","server_os":"","password":false,"vac":false,"version":"","steam_id":0,"keywords":null,"game_id":0,"stv_port":0,"stv_name":"","players":null},{"server_id":301,"name":"Uncletopia | Montréal | 2 | One Thousand Uncles","name_short":"mtl-2","host":"mtl-1.ca.uncletopia.com","port":27025,"enabled":true,"region":"us-east","cc":"ca","latitude":45.50889,"longitude":-73.56167,"reserved":0,"last_update":"0001-01-01T00:00:00Z","name_a2s":"","protocol":0,"map":"","folder":"","game":"","app_id":0,"player_count":0,"max_players":0,"Bots":0,"server_type":"","server_os":"","password":false,"vac":false,"version":"","steam_id":0,"keywords":null,"game_id":0,"stv_port":0,"stv_name":"","players":null},{"server_id":302,"name":"Uncletopia | Montréal | 3 | One Thousand Uncles","name_short":"mtl-3","host":"mtl-1.ca.uncletopia.com","port":27035,"enabled":true,"region":"us-east","cc":"ca","latitude":45.50889,"longitude":-73.56167,"reserved":0,"last_update":"0001-01-01T00:00:00Z","name_a2s":"","protocol":0,"map":"","folder":"","game":"","app_id":0,"player_count":0,"max_players":0,"Bots":0,"server_type":"","server_os":"","password":false,"vac":false,"version":"","steam_id":0,"keywords":null,"game_id":0,"stv_port":0,"stv_name":"","players":null},{"server_id":13,"name":"Uncletopia | New York City | 1 | All Maps","name_short":"nyc-1","host":"nyc-1.us.uncletopia.com","port":27015,"enabled":true,"region":"us-east","cc":"us","latitude":40.73061,"longitude":-73.93524,"reserved":0,"last_update":"0001-01-01T00:00:00Z","name_a2s":"Uncletopia | New York City | 1 | All Maps","protocol":17,"map":"koth_highpass","folder":"tf","game":"Team Fortress","app_id":440,"player_count":0,"max_players":24,"Bots":0,"server_type":"Dedicated","server_os":"Linux","password":true,"vac":true,"version":"7961495","steam_id":85568392924469993,"keywords":["cp","nocrits","nodmgspread","uncletopia"],"game_id":440,"stv_port":27016,"stv_name":"Uncletopia | New York City | 1 | All Maps | STV","players":null},{"server_id":14,"name":"Uncletopia | New York City | 2 | All Maps","name_short":"nyc-2","host":"nyc-1.us.uncletopia.com","port":27025,"enabled":true,"region":"us-east","cc":"us","latitude":40.73061,"longitude":-73.93524,"reserved":0,"last_update":"0001-01-01T00:00:00Z","name_a2s":"Uncletopia | New York City | 2 | All Maps","protocol":17,"map":"pl_upward","folder":"tf","game":"Team Fortress","app_id":440,"player_count":24,"max_players":24,"Bots":0,"server_type":"Dedicated","server_os":"Linux","password":true,"vac":true,"version":"7961495","steam_id":85568392924469994,"keywords":["nocrits","nodmgspread","payload","uncletopia"],"game_id":440,"stv_port":27026,"stv_name":"Uncletopia | New York City | 2 | All Maps | STV","players":[{"user_id":91,"name":"The Big","steam_id":76561198078572184,"connected_time":994000000000,"state":"active","ping":79},{"user_id":82,"name":"CHAI","steam_id":76561198119556082,"connected_time":1343000000000,"state":"active","ping":69},{"user_id":109,"name":"cblackburn1099","steam_id":76561198857145620,"connected_time":214000000000,"state":"active","ping":98},{"user_id":58,"name":"emotional suppport e-cigarette","steam_id":76561198172120615,"connected_time":2579000000000,"state":"active","ping":33},{"user_id":92,"name":"MechaSixVII","steam_id":76561198014927379,"connected_time":905000000000,"state":"active","ping":74},{"user_id":96,"name":"Jam Jams","steam_id":76561198128811267,"connected_time":721000000000,"state":"active","ping":101},{"user_id":17,"name":"beats (across the sea)","steam_id":76561199245717718,"connected_time":5073000000000,"state":"active","ping":60},{"user_id":103,"name":"Kartyac","steam_id":76561197991069005,"connected_time":570000000000,"state":"active","ping":72},{"user_id":21,"name":"yer_nerd","steam_id":76561199435454093,"connected_time":4800000000000,"state":"active","ping":61},{"user_id":69,"name":"ndvr (femboy (REAL))","steam_id":76561199379200102,"connected_time":1909000000000,"state":"active","ping":52},{"user_id":105,"name":"non professional nouns.","steam_id":76561198294013916,"connected_time":352000000000,"state":"active","ping":47},{"user_id":112,"name":"ShowGoat","steam_id":76561198050539261,"connected_time":108000000000,"state":"active","ping":58},{"user_id":59,"name":"Fundy","steam_id":76561198044648667,"connected_time":2372000000000,"state":"active","ping":90},{"user_id":98,"name":"Lordofthekevins","steam_id":76561198169066956,"connected_time":667000000000,"state":"active","ping":68},{"user_id":99,"name":"azusa","steam_id":76561197961779026,"connected_time":636000000000,"state":"active","ping":130},{"user_id":61,"name":"sqerkbo","steam_id":76561198080012700,"connected_time":2151000000000,"state":"active","ping":47},{"user_id":104,"name":"scrotal recall","steam_id":76561198135945598,"connected_time":453000000000,"state":"active","ping":75},{"user_id":100,"name":"poppies","steam_id":76561199057269867,"connected_time":603000000000,"state":"active","ping":108},{"user_id":85,"name":"Quick-Fix","steam_id":76561198295501978,"connected_time":1246000000000,"state":"active","ping":94},{"user_id":88,"name":"Isilawuli","steam_id":76561198084150503,"connected_time":1139000000000,"state":"active","ping":45},{"user_id":101,"name":"The One True Luke","steam_id":76561198180891187,"connected_time":602000000000,"state":"active","ping":60},{"user_id":102,"name":"LeGamingProPlays","steam_id":76561198121304032,"connected_time":592000000000,"state":"active","ping":79},{"user_id":111,"name":"Pasta La Vista","steam_id":76561198129450033,"connected_time":126000000000,"state":"active","ping":44},{"user_id":80,"name":"Oddjob","steam_id":76561198976160793,"connected_time":1440000000000,"state":"active","ping":69}]},{"server_id":15,"name":"Uncletopia | New York City | 3 | Stopwatch","name_short":"nyc-3","host":"nyc-1.us.uncletopia.com","port":27035,"enabled":true,"region":"us-east","cc":"us","latitude":40.73061,"longitude":-73.93524,"reserved":0,"last_update":"0001-01-01T00:00:00Z","name_a2s":"Uncletopia | New York City | 3 | Stopwatch","protocol":17,"map":"koth_highpass","folder":"tf","game":"Team Fortress","app_id":440,"player_count":0,"max_players":24,"Bots":0,"server_type":"Dedicated","server_os":"Linux","password":true,"vac":true,"version":"7961495","steam_id":85568392924742820,"keywords":["cp","nocrits","nodmgspread","uncletopia"],"game_id":440,"stv_port":27036,"stv_name":"Uncletopia | New York City | 3 | Stopwatch | STV","players":null},{"server_id":16,"name":"Uncletopia | New York City | 4 | Community","name_short":"nyc-4","host":"nyc-1.us.uncletopia.com","port":27045,"enabled":true,"region":"us-east","cc":"us","latitude":40.73061,"longitude":-73.93524,"reserved":0,"last_update":"0001-01-01T00:00:00Z","name_a2s":"Uncletopia | New York City | 4 | Community","protocol":17,"map":"workshop/koth_slaughter_rc1.ugc1712845210","folder":"tf","game":"Team Fortress","app_id":440,"player_count":0,"max_players":24,"Bots":0,"server_type":"Dedicated","server_os":"Linux","password":true,"vac":true,"version":"7961495","steam_id":85568392924742821,"keywords":["cp","nocrits","nodmgspread","uncletopia"],"game_id":440,"stv_port":27046,"stv_name":"Uncletopia | New York City | 4 | Community | STV","players":null},{"server_id":142,"name":"Uncletopia | São Paulo | 1 | All Maps","name_short":"sao-1","host":"sao-1.br.uncletopia.com","port":27015,"enabled":true,"region":"sa","cc":"br","latitude":-23.533773,"longitude":-46.62529,"reserved":0,"last_update":"0001-01-01T00:00:00Z","name_a2s":"Uncletopia | São Paulo | 1 | All Maps","protocol":17,"map":"koth_lakeside_final","folder":"tf","game":"Team Fortress","app_id":440,"player_count":0,"max_players":24,"Bots":0,"server_type":"Dedicated","server_os":"Linux","password":true,"vac":true,"version":"7961495","steam_id":85568392924469996,"keywords":["cp","nocrits","nodmgspread","uncletopia"],"game_id":440,"stv_port":27016,"stv_name":"Uncletopia | São Paulo | 1 | All Maps | STV","players":null},{"server_id":143,"name":"Uncletopia | São Paulo | 2 | Community","name_short":"sao-2","host":"sao-2.br.uncletopia.com","port":27015,"enabled":true,"region":"sa","cc":"br","latitude":-23.533773,"longitude":-46.62529,"reserved":0,"last_update":"0001-01-01T00:00:00Z","name_a2s":"Uncletopia | São Paulo | 2 | Community","protocol":17,"map":"workshop/koth_ramjam_rc1.ugc459778887","folder":"tf","game":"Team Fortress","app_id":440,"player_count":0,"max_players":24,"Bots":0,"server_type":"Dedicated","server_os":"Linux","password":true,"vac":true,"version":"7961495","steam_id":85568392924485349,"keywords":["cp","nocrits","nodmgspread","uncletopia"],"game_id":440,"stv_port":27016,"stv_name":"Uncletopia | São Paulo | 2 | Community | STV","players":null},{"server_id":7,"name":"Uncletopia | Seattle | 1 | All Maps","name_short":"sea-1","host":"sea-1.us.uncletopia.com","port":27015,"enabled":true,"region":"us-west","cc":"us","latitude":47.608013,"longitude":-122.33517,"reserved":0,"last_update":"0001-01-01T00:00:00Z","name_a2s":"Uncletopia | Seattle | 1 | All Maps","protocol":17,"map":"cp_process_final","folder":"tf","game":"Team Fortress","app_id":440,"player_count":24,"max_players":24,"Bots":0,"server_type":"Dedicated","server_os":"Linux","password":true,"vac":true,"version":"7961495","steam_id":85568392924469997,"keywords":["cp","nocrits","nodmgspread","uncletopia"],"game_id":440,"stv_port":27016,"stv_name":"Uncletopia | Seattle | 1 | All Maps | STV","players":[{"user_id":130,"name":"BooGotShot","steam_id":76561198039062270,"connected_time":7730000000000,"state":"active","ping":93},{"user_id":236,"name":"Envixity_2095","steam_id":76561198839745190,"connected_time":557000000000,"state":"active","ping":70},{"user_id":218,"name":"A Pizza Already","steam_id":76561198064918401,"connected_time":1887000000000,"state":"active","ping":66},{"user_id":229,"name":"Gustavo_Fring_6969","steam_id":76561199373610279,"connected_time":1104000000000,"state":"active","ping":185},{"user_id":233,"name":"lukamine","steam_id":76561198166827208,"connected_time":1001000000000,"state":"active","ping":45},{"user_id":237,"name":"Ephemeral-chan","steam_id":76561197996001672,"connected_time":479000000000,"state":"active","ping":60},{"user_id":194,"name":"Sudsen","steam_id":76561198370603787,"connected_time":3165000000000,"state":"active","ping":61},{"user_id":201,"name":"UnReLinked","steam_id":76561199366044663,"connected_time":2888000000000,"state":"active","ping":45},{"user_id":242,"name":"epic cheeseburger","steam_id":76561198041995180,"connected_time":341000000000,"state":"active","ping":125},{"user_id":205,"name":"Eden","steam_id":76561198081284664,"connected_time":2765000000000,"state":"active","ping":86},{"user_id":235,"name":"Dongus","steam_id":76561197979056451,"connected_time":787000000000,"state":"active","ping":46},{"user_id":245,"name":"Rivi","steam_id":76561198086635699,"connected_time":207000000000,"state":"active","ping":105},{"user_id":246,"name":"Captain Underbelly","steam_id":76561198811270935,"connected_time":203000000000,"state":"active","ping":58},{"user_id":212,"name":"SHUSH nikoOS","steam_id":76561198180020521,"connected_time":2679000000000,"state":"active","ping":148},{"user_id":208,"name":"slime ( ,'' w'' )","steam_id":76561198198984282,"connected_time":2730000000000,"state":"active","ping":121},{"user_id":247,"name":"heavysleftbuttcheek","steam_id":76561199506873249,"connected_time":187000000000,"state":"active","ping":121},{"user_id":227,"name":"Cave Mushroom","steam_id":76561198090419068,"connected_time":1265000000000,"state":"active","ping":61},{"user_id":141,"name":"THE CUMEST LORD","steam_id":76561198061412592,"connected_time":7167000000000,"state":"active","ping":110},{"user_id":243,"name":"Shuko","steam_id":76561197995563378,"connected_time":320000000000,"state":"active","ping":112},{"user_id":249,"name":"sleepy","steam_id":76561198288663776,"connected_time":3000000000,"state":"spawning","ping":65},{"user_id":244,"name":"JumbleHumbles","steam_id":76561198342078520,"connected_time":284000000000,"state":"active","ping":64},{"user_id":248,"name":"Lord Pretty Flocko Jordye","steam_id":76561198962880749,"connected_time":166000000000,"state":"active","ping":40},{"user_id":178,"name":"Korota","steam_id":76561198095891641,"connected_time":5110000000000,"state":"active","ping":100},{"user_id":214,"name":"FloatingQuaker","steam_id":76561198928993208,"connected_time":2659000000000,"state":"active","ping":60}]},{"server_id":119,"name":"Uncletopia | Seattle | 2 | All Maps","name_short":"sea-2","host":"sea-1.us.uncletopia.com","port":27025,"enabled":true,"region":"us-west","cc":"us","latitude":47.608013,"longitude":-122.33517,"reserved":0,"last_update":"0001-01-01T00:00:00Z","name_a2s":"Uncletopia | Seattle | 2 | All Maps","protocol":17,"map":"cp_snakewater_final1","folder":"tf","game":"Team Fortress","app_id":440,"player_count":0,"max_players":24,"Bots":0,"server_type":"Dedicated","server_os":"Linux","password":true,"vac":true,"version":"7961495","steam_id":85568392924469998,"keywords":["cp","nocrits","nodmgspread","uncletopia"],"game_id":440,"stv_port":27026,"stv_name":"Uncletopia | Seattle | 2 | All Maps | STV","players":null},{"server_id":406,"name":"Uncletopia | Seattle | 3 | Stopwatch","name_short":"sea-3","host":"sea-1.us.uncletopia.com","port":27035,"enabled":true,"region":"us-west","cc":"us","latitude":47.608013,"longitude":-122.33517,"reserved":0,"last_update":"0001-01-01T00:00:00Z","name_a2s":"Uncletopia | Seattle | 3 | Stopwatch","protocol":17,"map":"pl_pier","folder":"tf","game":"Team Fortress","app_id":440,"player_count":0,"max_players":24,"Bots":0,"server_type":"Dedicated","server_os":"Linux","password":true,"vac":true,"version":"7961495","steam_id":85568392924515217,"keywords":["nocrits","nodmgspread","payload","uncletopia"],"game_id":440,"stv_port":27036,"stv_name":"Uncletopia | Seattle | 3 | Stopwatch | STV","players":null},{"server_id":17,"name":"Uncletopia | San Francisco | 1 | All Maps","name_short":"sfo-1","host":"sfo-1.us.uncletopia.com","port":27015,"enabled":true,"region":"us-west","cc":"us","latitude":37.77397,"longitude":-122.4313,"reserved":0,"last_update":"0001-01-01T00:00:00Z","name_a2s":"Uncletopia | San Francisco | 1 | All Maps","protocol":17,"map":"koth_cascade","folder":"tf","game":"Team Fortress","app_id":440,"player_count":0,"max_players":24,"Bots":0,"server_type":"Dedicated","server_os":"Linux","password":true,"vac":true,"version":"7961495","steam_id":85568392924469999,"keywords":["cp","nocrits","nodmgspread","uncletopia"],"game_id":440,"stv_port":27016,"stv_name":"Uncletopia | San Francisco | 1 | All Maps | STV","players":null},{"server_id":18,"name":"Uncletopia | San Francisco | 2 | All Maps","name_short":"sfo-2","host":"sfo-1.us.uncletopia.com","port":27025,"enabled":true,"region":"us-west","cc":"us","latitude":37.77397,"longitude":-122.4313,"reserved":0,"last_update":"0001-01-01T00:00:00Z","name_a2s":"Uncletopia | San Francisco | 2 | All Maps","protocol":17,"map":"cp_mountainlab","folder":"tf","game":"Team Fortress","app_id":440,"player_count":19,"max_players":24,"Bots":0,"server_type":"Dedicated","server_os":"Linux","password":true,"vac":true,"version":"7961495","steam_id":85568392924470000,"keywords":["cp","nocrits","nodmgspread","uncletopia"],"game_id":440,"stv_port":27026,"stv_name":"Uncletopia | San Francisco | 2 | All Maps | STV","players":[{"user_id":95,"name":"Logical","steam_id":76561198167315656,"connected_time":2046000000000,"state":"active","ping":92},{"user_id":122,"name":"Shrew","steam_id":76561198085421224,"connected_time":581000000000,"state":"active","ping":61},{"user_id":119,"name":"Bradz","steam_id":76561198175090085,"connected_time":643000000000,"state":"active","ping":75},{"user_id":99,"name":"leaf","steam_id":76561198061516523,"connected_time":1915000000000,"state":"active","ping":105},{"user_id":126,"name":"jadene11","steam_id":76561199369221113,"connected_time":309000000000,"state":"active","ping":65},{"user_id":98,"name":"Mentally Ill Woman","steam_id":76561198072030567,"connected_time":1963000000000,"state":"active","ping":92},{"user_id":101,"name":"♥ur :3 medic gf♥ (51ref/hr)","steam_id":76561198816778484,"connected_time":1534000000000,"state":"active","ping":77},{"user_id":124,"name":"Boone","steam_id":76561198398931575,"connected_time":445000000000,"state":"active","ping":73},{"user_id":125,"name":"big pant","steam_id":76561198249920326,"connected_time":383000000000,"state":"active","ping":67},{"user_id":127,"name":"Breach","steam_id":76561198045060392,"connected_time":110000000000,"state":"active","ping":90},{"user_id":103,"name":"Beta Fish","steam_id":76561198073504861,"connected_time":1451000000000,"state":"active","ping":90},{"user_id":104,"name":"filthycasual","steam_id":76561199138226238,"connected_time":1360000000000,"state":"active","ping":75},{"user_id":106,"name":"Hero Smasher","steam_id":76561198150681669,"connected_time":1337000000000,"state":"active","ping":45},{"user_id":91,"name":"Kiril","steam_id":76561198051433762,"connected_time":2204000000000,"state":"active","ping":101},{"user_id":108,"name":"Dr. Juvenal","steam_id":76561198114553453,"connected_time":1307000000000,"state":"active","ping":64},{"user_id":115,"name":"StaigerDuck","steam_id":76561199190706582,"connected_time":1029000000000,"state":"active","ping":119},{"user_id":111,"name":"Brain Magic","steam_id":76561198010201477,"connected_time":1189000000000,"state":"active","ping":57},{"user_id":117,"name":"williwillinui","steam_id":76561198253202693,"connected_time":985000000000,"state":"active","ping":45},{"user_id":118,"name":"noceof","steam_id":76561198043656816,"connected_time":983000000000,"state":"active","ping":156}]},{"server_id":19,"name":"Uncletopia | San Francisco | 3 | Stopwatch","name_short":"sfo-3","host":"sfo-1.us.uncletopia.com","port":27035,"enabled":true,"region":"us-west","cc":"us","latitude":37.77397,"longitude":-122.4313,"reserved":0,"last_update":"0001-01-01T00:00:00Z","name_a2s":"Uncletopia | San Francisco | 3 | Stopwatch","protocol":17,"map":"pl_pier","folder":"tf","game":"Team Fortress","app_id":440,"player_count":0,"max_players":24,"Bots":0,"server_type":"Dedicated","server_os":"Linux","password":true,"vac":true,"version":"7961495","steam_id":85568392924742824,"keywords":["nocrits","nodmgspread","payload","uncletopia"],"game_id":440,"stv_port":27036,"stv_name":"Uncletopia | San Francisco | 3 | Stopwatch | STV","players":null},{"server_id":20,"name":"Uncletopia | San Francisco | 4 | Community","name_short":"sfo-4","host":"sfo-1.us.uncletopia.com","port":27045,"enabled":true,"region":"us-west","cc":"us","latitude":37.77397,"longitude":-122.4313,"reserved":0,"last_update":"0001-01-01T00:00:00Z","name_a2s":"Uncletopia | San Francisco | 4 | Community","protocol":17,"map":"pl_pier","folder":"tf","game":"Team Fortress","app_id":440,"player_count":0,"max_players":24,"Bots":0,"server_type":"Dedicated","server_os":"Linux","password":true,"vac":true,"version":"7961495","steam_id":85568392924742826,"keywords":["nocrits","nodmgspread","payload","uncletopia"],"game_id":440,"stv_port":27046,"stv_name":"Uncletopia | San Francisco | 4 | Community | STV","players":null},{"server_id":141,"name":"Uncletopia | Sydney | 1 | All Maps","name_short":"syd-1","host":"syd-1.au.uncletopia.com","port":27015,"enabled":true,"region":"au","cc":"au","latitude":-33.865143,"longitude":151.2099,"reserved":0,"last_update":"0001-01-01T00:00:00Z","name_a2s":"Uncletopia | Sydney | 1 | All Maps","protocol":17,"map":"koth_highpass","folder":"tf","game":"Team Fortress","app_id":440,"player_count":0,"max_players":24,"Bots":0,"server_type":"Dedicated","server_os":"Linux","password":true,"vac":true,"version":"7961495","steam_id":85568392924470001,"keywords":["cp","nocrits","nodmgspread","uncletopia"],"game_id":440,"stv_port":27016,"stv_name":"Uncletopia | Sydney | 1 | All Maps | STV","players":null},{"server_id":123,"name":"Uncletopia | Sydney | 2 | All Maps","name_short":"syd-2","host":"syd-1.au.uncletopia.com","port":27025,"enabled":true,"region":"au","cc":"au","latitude":-33.865143,"longitude":151.2099,"reserved":0,"last_update":"0001-01-01T00:00:00Z","name_a2s":"Uncletopia | Sydney | 2 | All Maps","protocol":17,"map":"koth_cascade","folder":"tf","game":"Team Fortress","app_id":440,"player_count":0,"max_players":24,"Bots":0,"server_type":"Dedicated","server_os":"Linux","password":true,"vac":true,"version":"7961495","steam_id":85568392924470002,"keywords":["cp","nocrits","nodmgspread","uncletopia"],"game_id":440,"stv_port":27026,"stv_name":"Uncletopia | Sydney | 2 | All Maps | STV","players":null},{"server_id":395,"name":"Uncletopia | Sydney | 3 | All Maps","name_short":"syd-3","host":"syd-1.au.uncletopia.com","port":27035,"enabled":true,"region":"au","cc":"au","latitude":-33.865143,"longitude":151.2099,"reserved":0,"last_update":"0001-01-01T00:00:00Z","name_a2s":"Uncletopia | Sydney | 3 | All Maps","protocol":17,"map":"koth_highpass","folder":"tf","game":"Team Fortress","app_id":440,"player_count":0,"max_players":24,"Bots":0,"server_type":"Dedicated","server_os":"Linux","password":true,"vac":true,"version":"7961495","steam_id":85568392925194467,"keywords":["cp","nocrits","nodmgspread","uncletopia"],"game_id":440,"stv_port":27036,"stv_name":"Uncletopia | Sydney | 3 | All Maps | STV","players":null},{"server_id":396,"name":"Uncletopia | Sydney | 4 | All Maps","name_short":"syd-4","host":"syd-1.au.uncletopia.com","port":27045,"enabled":true,"region":"au","cc":"au","latitude":-33.865143,"longitude":151.2099,"reserved":0,"last_update":"0001-01-01T00:00:00Z","name_a2s":"Uncletopia | Sydney | 4 | All Maps","protocol":17,"map":"koth_highpass","folder":"tf","game":"Team Fortress","app_id":440,"player_count":0,"max_players":24,"Bots":0,"server_type":"Dedicated","server_os":"Linux","password":true,"vac":true,"version":"7961495","steam_id":85568392925397958,"keywords":["cp","nocrits","nodmgspread","uncletopia"],"game_id":440,"stv_port":27046,"stv_name":"Uncletopia | Sydney | 4 | All Maps | STV","players":null},{"server_id":58,"name":"Uncletopia | Sydney | 5 | Stopwatch","name_short":"syd-5","host":"syd-1.au.uncletopia.com","port":27055,"enabled":true,"region":"au","cc":"au","latitude":-33.865143,"longitude":151.2099,"reserved":0,"last_update":"0001-01-01T00:00:00Z","name_a2s":"Uncletopia | Sydney | 5 | Stopwatch","protocol":17,"map":"pl_frontier_final","folder":"tf","game":"Team Fortress","app_id":440,"player_count":0,"max_players":24,"Bots":0,"server_type":"Dedicated","server_os":"Linux","password":true,"vac":true,"version":"7961495","steam_id":85568392925397959,"keywords":["nocrits","nodmgspread","payload","uncletopia"],"game_id":440,"stv_port":27056,"stv_name":"Uncletopia | Sydney | 5 | Stopwatch | STV","players":null},{"server_id":59,"name":"Uncletopia | Sydney | 6 | Community","name_short":"syd-6","host":"syd-1.au.uncletopia.com","port":27065,"enabled":true,"region":"au","cc":"au","latitude":-33.865143,"longitude":151.2099,"reserved":0,"last_update":"0001-01-01T00:00:00Z","name_a2s":"Uncletopia | Sydney | 6 | Community","protocol":17,"map":"cp_sunshine","folder":"tf","game":"Team Fortress","app_id":440,"player_count":1,"max_players":24,"Bots":0,"server_type":"Dedicated","server_os":"Linux","password":true,"vac":true,"version":"7961495","steam_id":85568392925397960,"keywords":["cp","nocrits","nodmgspread","uncletopia"],"game_id":440,"stv_port":27066,"stv_name":"Uncletopia | Sydney | 6 | Community | STV","players":[{"user_id":3,"name":"Matt VII (7) (seven)","steam_id":76561198065340795,"connected_time":66000000000,"state":"active","ping":50}]},{"server_id":49,"name":"Uncletopia | Warsaw | 1 | One Thousand Uncles","name_short":"waw-1","host":"waw-1.pl.uncletopia.com","port":27015,"enabled":true,"region":"eu","cc":"pl","latitude":52.2297,"longitude":21.017532,"reserved":0,"last_update":"0001-01-01T00:00:00Z","name_a2s":"Uncletopia | Warsaw | 1 | One Thousand Uncles","protocol":17,"map":"koth_highpass","folder":"tf","game":"Team Fortress","app_id":440,"player_count":25,"max_players":32,"Bots":16,"server_type":"Dedicated","server_os":"Linux","password":true,"vac":true,"version":"7961495","steam_id":85568392925397850,"keywords":["alltalk","bots","cp","danepve","increased_maxplayers","nocrits","norespawntime","uncletopia"],"game_id":440,"stv_port":0,"stv_name":"","players":[{"user_id":42,"name":"Zero-Xyfer","steam_id":76561198351621003,"connected_time":22000000000,"state":"active","ping":174},{"user_id":25,"name":"Rayco","steam_id":76561198048013129,"connected_time":1726000000000,"state":"active","ping":66},{"user_id":20,"name":"0scr_","steam_id":76561198042631352,"connected_time":2127000000000,"state":"active","ping":80},{"user_id":29,"name":"Junkie","steam_id":76561199435573349,"connected_time":1369000000000,"state":"active","ping":104},{"user_id":30,"name":"aaaaaa","steam_id":76561198086304421,"connected_time":1335000000000,"state":"active","ping":87},{"user_id":33,"name":"Coac","steam_id":76561198085265740,"connected_time":1191000000000,"state":"active","ping":80},{"user_id":34,"name":"Ironhood","steam_id":76561198200396837,"connected_time":1182000000000,"state":"active","ping":79},{"user_id":40,"name":"Whelchur","steam_id":76561199442895952,"connected_time":366000000000,"state":"active","ping":88},{"user_id":41,"name":"Dell \"Vermineer\" LaFontant","steam_id":76561198371872022,"connected_time":193000000000,"state":"active","ping":88}]},{"server_id":50,"name":"Uncletopia | Warsaw | 2 | One Thousand Uncles","name_short":"waw-2","host":"waw-1.pl.uncletopia.com","port":27025,"enabled":true,"region":"eu","cc":"pl","latitude":52.2297,"longitude":21.017532,"reserved":0,"last_update":"0001-01-01T00:00:00Z","name_a2s":"Uncletopia | Warsaw | 2 | One Thousand Uncles","protocol":17,"map":"cp_dustbowl","folder":"tf","game":"Team Fortress","app_id":440,"player_count":27,"max_players":32,"Bots":16,"server_type":"Dedicated","server_os":"Linux","password":true,"vac":true,"version":"7961495","steam_id":85568392925397851,"keywords":["alltalk","bots","cp","danepve","increased_maxplayers","nocrits","norespawntime","uncletopia"],"game_id":440,"stv_port":0,"stv_name":"","players":[{"user_id":528,"name":"akozako69","steam_id":76561199351679541,"connected_time":1319000000000,"state":"active","ping":66},{"user_id":519,"name":"Skişehirli","steam_id":76561198421239254,"connected_time":1699000000000,"state":"active","ping":105},{"user_id":549,"name":"FarbrorBarbro","steam_id":76561198044432289,"connected_time":385000000000,"state":"active","ping":77},{"user_id":535,"name":"ุุุุุุุุุุ","steam_id":76561198999004934,"connected_time":574000000000,"state":"active","ping":57},{"user_id":557,"name":"Eric Coconut Ⅰ","steam_id":76561198910623003,"connected_time":151000000000,"state":"active","ping":38},{"user_id":511,"name":"Denton","steam_id":76561198367991717,"connected_time":2102000000000,"state":"active","ping":50},{"user_id":555,"name":"Rez","steam_id":76561198410598772,"connected_time":346000000000,"state":"active","ping":58},{"user_id":556,"name":"vurtun","steam_id":76561198857395274,"connected_time":337000000000,"state":"active","ping":60},{"user_id":558,"name":"Zups","steam_id":76561198859439313,"connected_time":92000000000,"state":"active","ping":124},{"user_id":509,"name":"Girl with 4k (pocket pls ❤)","steam_id":76561198091512580,"connected_time":2179000000000,"state":"active","ping":90},{"user_id":520,"name":"Celiek","steam_id":76561198179319610,"connected_time":1640000000000,"state":"active","ping":61}]},{"server_id":51,"name":"Uncletopia | Warsaw | 3 | All Maps","name_short":"waw-3","host":"waw-1.pl.uncletopia.com","port":27035,"enabled":true,"region":"eu","cc":"pl","latitude":52.2297,"longitude":21.017532,"reserved":0,"last_update":"0001-01-01T00:00:00Z","name_a2s":"Uncletopia | Warsaw | 3 | All Maps","protocol":17,"map":"plr_pipeline","folder":"tf","game":"Team Fortress","app_id":440,"player_count":0,"max_players":24,"Bots":0,"server_type":"Dedicated","server_os":"Linux","password":true,"vac":true,"version":"7961495","steam_id":85568392925397852,"keywords":["nocrits","nodmgspread","payload","uncletopia"],"game_id":440,"stv_port":27036,"stv_name":"Uncletopia | Warsaw | 3 | All Maps | STV","players":null},{"server_id":52,"name":"Uncletopia | Warsaw | 4 | All Maps","name_short":"waw-4","host":"waw-1.pl.uncletopia.com","port":27045,"enabled":true,"region":"eu","cc":"pl","latitude":52.2297,"longitude":21.017532,"reserved":0,"last_update":"0001-01-01T00:00:00Z","name_a2s":"Uncletopia | Warsaw | 4 | All Maps","protocol":17,"map":"pl_pier","folder":"tf","game":"Team Fortress","app_id":440,"player_count":0,"max_players":24,"Bots":0,"server_type":"Dedicated","server_os":"Linux","password":true,"vac":true,"version":"7961495","steam_id":85568392925397853,"keywords":["nocrits","nodmgspread","payload","uncletopia"],"game_id":440,"stv_port":27046,"stv_name":"Uncletopia | Warsaw | 4 | All Maps | STV","players":null},{"server_id":53,"name":"Uncletopia | Warsaw | 5 | Stopwatch","name_short":"waw-5","host":"waw-1.pl.uncletopia.com","port":27055,"enabled":true,"region":"eu","cc":"pl","latitude":52.2297,"longitude":21.017532,"reserved":0,"last_update":"0001-01-01T00:00:00Z","name_a2s":"Uncletopia | Warsaw | 5 | Stopwatch","protocol":17,"map":"koth_highpass","folder":"tf","game":"Team Fortress","app_id":440,"player_count":0,"max_players":24,"Bots":0,"server_type":"Dedicated","server_os":"Linux","password":true,"vac":true,"version":"7961495","steam_id":85568392925397854,"keywords":["cp","nocrits","nodmgspread","uncletopia"],"game_id":440,"stv_port":27056,"stv_name":"Uncletopia | Warsaw | 5 | Stopwatch | STV","players":null},{"server_id":54,"name":"Uncletopia | Warsaw | 6 | Community","name_short":"waw-6","host":"waw-1.pl.uncletopia.com","port":27065,"enabled":true,"region":"eu","cc":"pl","latitude":52.2297,"longitude":21.017532,"reserved":0,"last_update":"0001-01-01T00:00:00Z","name_a2s":"Uncletopia | Warsaw | 6 | Community","protocol":17,"map":"workshop/cp_villa_b19.ugc2113052569","folder":"tf","game":"Team Fortress","app_id":440,"player_count":0,"max_players":24,"Bots":0,"server_type":"Dedicated","server_os":"Linux","password":true,"vac":true,"version":"7961495","steam_id":85568392925397856,"keywords":["cp","nocrits","nodmgspread","uncletopia"],"game_id":440,"stv_port":27066,"stv_name":"Uncletopia | Warsaw | 6 | Community | STV","players":null}]}