{"status":true,"message":"","result":[{"server_id":9,"name":"Uncletopia | Atlanta | 1 | All Maps","name_short":"atl-1","host":"atl-1.us.uncletopia.com","port":27015,"enabled":true,"region":"us-east","cc":"us","latitude":33.753746,"longitude":-84.38633,"reserved":0,"last_update":"0001-01-01T00:00:00Z","name_a2s":"Uncletopia | Atlanta | 1 | All Maps","protocol":17,"map":"pl_badwater","folder":"tf","game":"Team Fortress","app_id":440,"player_count":24,"max_players":24,"Bots":0,"server_type":"Dedicated","server_os":"Linux","password":true,"vac":true,"version":"7961495","steam_id":85568392924469982,"keywords":["nocrits","nodmgspread","payload","uncletopia"],"game_id":440,"stv_port":27016,"stv_name":"Uncletopia | Atlanta | 1 | All Maps | STV","players":[{"user_id":553,"name":"mrBoi","steam_id":76561198012015536,"connected_time":162000000000,"state":"active","ping":50},{"user_id":525,"name":"shaderoses","steam_id":76561198070800500,"connected_time":1430000000000,"state":"active","ping":72},{"user_id":503,"name":"Shmoopy","steam_id":76561198030459152,"connected_time":3129000000000,"state":"active","ping":62},{"user_id":535,"name":"atlanta one wire-guided","steam_id":76561198055407168,"connected_time":883000000000,"state":"active","ping":53},{"user_id":349,"name":"Ashes!","steam_id":76561197998475441,"connected_time":14009000000000,"state":"active","ping":68},{"user_id":502,"name":"Onyx","steam_id":76561198275349640,"connected_time":3240000000000,"state":"active","ping":75},{"user_id":494,"name":"Sinta","steam_id":76561198098398841,"connected_time":3696000000000,"state":"active","ping":60},{"user_id":532,"name":"ATL1 | cola","steam_id":76561198374390458,"connected_time":999000000000,"state":"active","ping":64},{"user_id":530,"name":"Bag","steam_id":76561198012395490,"connected_time":1034000000000,"state":"active","ping":59},{"user_id":519,"name":"Echo","steam_id":76561198072092594,"connected_time":1914000000000,"state":"active","ping":56},{"user_id":538,"name":"Heathcliff","steam_id":76561198044288534,"connected_time":425000000000,"state":"active","ping":63},{"user_id":495,"name":"joe","steam_id":76561198045781320,"connected_time":3674000000000,"state":"active","ping":61},{"user_id":454,"name":"Dr.Zarann","steam_id":76561198163952958,"connected_time":9944000000000,"state":"active","ping":69},{"user_id":521,"name":"squirt","steam_id":76561199169486012,"connected_time":1883000000000,"state":"active","ping":48},{"user_id":540,"name":"Dr.Inkmix(femboy)","steam_id":76561198854070384,"connected_time":409000000000,"state":"active","ping":106},{"user_id":443,"name":"Motreir","steam_id":76561198151717946,"connected_time":10804000000000,"state":"active","ping":88},{"user_id":522,"name":"illious","steam_id":76561198169925494,"connected_time":1858000000000,"state":"active","ping":61},{"user_id":496,"name":"Jared","steam_id":76561198027210228,"connected_time":3538000000000,"state":"active","ping":80},{"user_id":548,"name":"walldribble to wall st.","steam_id":76561197973093864,"connected_time":271000000000,"state":"active","ping":76},{"user_id":510,"name":"ATL1 | Uganda #NEOTOKYO°","steam_id":76561199121276474,"connected_time":2066000000000,"state":"active","ping":75},{"user_id":545,"name":"girthmilk","steam_id":76561198054799782,"connected_time":319000000000,"state":"active","ping":55},{"user_id":537,"name":"Hyper","steam_id":76561199102864718,"connected_time":440000000000,"state":"active","ping":76},{"user_id":518,"name":"Boneless Blithen","steam_id":76561197989955619,"connected_time":1917000000000,"state":"active","ping":117},{"user_id":543,"name":"logitchy","steam_id":76561199062753505,"connected_time":389000000000,"state":"active","ping":74}]},{"server_id":104,"name":"Uncletopia | Atlanta | 2 | All Maps","name_short":"atl-2","host":"atl-1.us.uncletopia.com","port":27025,"enabled":true,"region":"us-east","cc":"us","latitude":33.753746,"longitude":-84.38633,"reserved":0,"last_update":"0001-01-01T00:00:00Z","name_a2s":"Uncletopia | Atlanta | 2 | All Maps","protocol":17,"map":"pl_badwater","folder":"tf","game":"Team Fortress","app_id":440,"player_count":24,"max_players":24,"Bots":0,"server_type":"Dedicated","server_os":"Linux","password":true,"vac":true,"version":"7961495","steam_id":85568392924469983,"keywords":["nocrits","nodmgspread","payload","uncletopia"],"game_id":440,"stv_port":27026,"stv_name":"Uncletopia | Atlanta | 2 | All Maps | STV","players":[{"user_id":490,"name":"Young-OG","steam_id":76561198058800479,"connected_time":2676000000000,"state":"active","ping":59},{"user_id":476,"name":"[ibb™]Shadow20X6-ENGI","steam_id":76561198019292755,"connected_time":3545000000000,"state":"active","ping":85},{"user_id":461,"name":"MichelangeloStark","steam_id":76561197976489900,"connected_time":4587000000000,"state":"active","ping":76},{"user_id":501,"name":"Bucket the Blue","steam_id":76561198089269752,"connected_time":2133000000000,"state":"active","ping":91},{"user_id":518,"name":"Mediocre Gaming","steam_id":76561199230467980,"connected_time":869000000000,"state":"active","ping":70},{"user_id":487,"name":"CDBeans","steam_id":76561198046990367,"connected_time":3143000000000,"state":"active","ping":81},{"user_id":528,"name":"Knight Bewion","steam_id":76561198166718271,"connected_time":442000000000,"state":"active","ping":66},{"user_id":519,"name":"SasukeGOD","steam_id":76561199077255310,"connected_time":854000000000,"state":"active","ping":60},{"user_id":460,"name":"femboy gaming","steam_id":76561199084226553,"connected_time":4636000000000,"state":"active","ping":46},{"user_id":520,"name":"EnderPanda3077","steam_id":76561199231748457,"connected_time":823000000000,"state":"active","ping":66},{"user_id":495,"name":"Mecha","steam_id":76561198323389762,"connected_time":2335000000000,"state":"active","ping":60},{"user_id":521,"name":"Artixes","steam_id":76561198379574232,"connected_time":822000000000,"state":"active","ping":44},{"user_id":423,"name":"Festive Conch Shell","steam_id":76561198042072993,"connected_time":6975000000000,"state":"active","ping":71},{"user_id":529,"name":"Talented","steam_id":76561198800259660,"connected_time":439000000000,"state":"active","ping":48},{"user_id":485,"name":"Wulvaryne","steam_id":76561199501209338,"connected_time":3272000000000,"state":"active","ping":97},{"user_id":504,"name":"Wikki94","steam_id":76561198002259122,"connected_time":1802000000000,"state":"active","ping":96},{"user_id":530,"name":"football","steam_id":76561198360969986,"connected_time":368000000000,"state":"active","ping":47},{"user_id":496,"name":"b","steam_id":76561198118211523,"connected_time":2310000000000,"state":"active","ping":62},{"user_id":438,"name":"♥ スナッファー ♥","steam_id":76561198158822845,"connected_time":5772000000000,"state":"active","ping":56},{"user_id":444,"name":"cumgoblin","steam_id":76561198113270138,"connected_time":5631000000000,"state":"active","ping":66},{"user_id":523,"name":"Butters495","steam_id":76561197998689042,"connected_time":810000000000,"state":"active","ping":79},{"user_id":531,"name":"KATSURB","steam_id":76561199172118456,"connected_time":91000000000,"state":"active","ping":48},{"user_id":527,"name":"RGB Lawnmower Toilet","steam_id":76561198045389359,"connected_time":507000000000,"state":"active","ping":85},{"user_id":497,"name":"Monkey Mode","steam_id":76561197961267543,"connected_time":2307000000000,"state":"active","ping":71}]},{"server_id":400,"name":"Uncletopia | Atlanta | 3 | Stopwatch","name_short":"atl-3","host":"atl-1.us.uncletopia.com","port":27035,"enabled":true,"region":"us-east","cc":"us","latitude":33.753746,"longitude":-84.38633,"reserved":0,"last_update":"0001-01-01T00:00:00Z","name_a2s":"Uncletopia | Atlanta | 3 | Stopwatch","protocol":17,"map":"workshop/koth_clearcut_b15.ugc2107050255","folder":"tf","game":"Team Fortress","app_id":440,"player_count":0,"max_players":24,"Bots":0,"server_type":"Dedicated","server_os":"Linux","password":true,"vac":true,"version":"7961495","steam_id":85568392924515187,"keywords":["cp","nocrits","nodmgspread","uncletopia"],"game_id":440,"stv_port":27036,"stv_name":"Uncletopia | Atlanta | 3 | Stopwatch | STV","players":null},{"server_id":401,"name":"Uncletopia | Atlanta | 4 | Community","name_short":"atl-4","host":"atl-1.us.uncletopia.com","port":27045,"enabled":true,"region":"us-east","cc":"us","latitude":33.753746,"longitude":-84.38633,"reserved":0,"last_update":"0001-01-01T00:00:00Z","name_a2s":"Uncletopia | Atlanta | 4 | Community","protocol":17,"map":"workshop/pl_shoreleave_rc2.ugc1238849347","folder":"tf","game":"Team Fortress","app_id":440,"player_count":17,"max_players":24,"Bots":0,"server_type":"Dedicated","server_os":"Linux","password":true,"vac":true,"version":"7961495","steam_id":85568392924515188,"keywords":["nocrits","nodmgspread","payload","uncletopia"],"game_id":440,"stv_port":27046,"stv_name":"Uncletopia | Atlanta | 4 | Community | STV","players":[{"user_id":143,"name":"Conjayb","steam_id":76561198299202063,"connected_time":1142000000000,"state":"active","ping":134},{"user_id":165,"name":"MIKESAVAGE死の商人","steam_id":76561198996777622,"connected_time":48000000000,"state":"active","ping":60},{"user_id":162,"name":"Just washed","steam_id":76561199030160932,"connected_time":115000000000,"state":"active","ping":76},{"user_id":67,"name":"Junk","steam_id":76561198024382753,"connected_time":6532000000000,"state":"active","ping":60},{"user_id":164,"name":"MIKESAVAGE is a BITCH!","steam_id":76561198248636560,"connected_time":60000000000,"state":"active","ping":75},{"user_id":103,"name":"ShellBug","steam_id":76561198144187527,"connected_time":4117000000000,"state":"active","ping":71},{"user_id":166,"name":"FOOL","steam_id":76561198370866973,"connected_time":23000000000,"state":"active","ping":97},{"user_id":167,"name":"Tockbird","steam_id":76561199437964594,"connected_time":17000000000,"state":"active","ping":165},{"user_id":150,"name":"BB Lorexav","steam_id":76561198207565988,"connected_time":814000000000,"state":"active","ping":62},{"user_id":153,"name":"Bunt","steam_id":76561198124477567,"connected_time":704000000000,"state":"active","ping":130},{"user_id":148,"name":"Dakota","steam_id":76561198134092308,"connected_time":887000000000,"state":"spawning","ping":221},{"user_id":137,"name":"Mr. Mistah","steam_id":76561199085278564,"connected_time":1441000000000,"state":"active","ping":97},{"user_id":163,"name":"HEAVEN IS FALLING","steam_id":76561198360470632,"connected_time":93000000000,"state":"active","ping":69},{"user_id":152,"name":"Nideroid","steam_id":76561198215790484,"connected_time":723000000000,"state":"active","ping":78},{"user_id":154,"name":"STG/NGB/610","steam_id":76561198017539604,"connected_time":640000000000,"state":"active","ping":47},{"user_id":125,"name":"Mike Rowe Penis","steam_id":76561198041120471,"connected_time":2679000000000,"state":"active","ping":45},{"user_id":157,"name":"jack merridew","steam_id":76561199206622559,"connected_time":558000000000,"state":"spawning","ping":224}]},{"server_id":2,"name":"Uncletopia | Chicago | 1 | All Maps","name_short":"chi-1","host":"chi-1.us.uncletopia.com","port":27015,"enabled":true,"region":"us-central","cc":"us","latitude":41.881832,"longitude":-87.62318,"reserved":0,"last_update":"0001-01-01T00:00:00Z","name_a2s":"Uncletopia | Chicago | 1 | All Maps","protocol":17,"map":"cp_mountainlab","folder":"tf","game":"Team Fortress","app_id":440,"player_count":23,"max_players":24,"Bots":0,"server_type":"Dedicated","server_os":"Linux","password":true,"vac":true,"version":"7961495","steam_id":85568392924469984,"keywords":["cp","nocrits","nodmgspread","uncletopia"],"game_id":440,"stv_port":27016,"stv_name":"Uncletopia | Chicago | 1 | All Maps | STV","players":[{"user_id":643,"name":"Little Skull Boi","steam_id":76561198093595888,"connected_time":131000000000,"state":"active","ping":98},{"user_id":584,"name":"Dubbs","steam_id":76561197960945604,"connected_time":3800000000000,"state":"active","ping":45},{"user_id":626,"name":"Shitty Pilot","steam_id":76561198042723469,"connected_time":1248000000000,"state":"active","ping":60},{"user_id":627,"name":"gulch","steam_id":76561199227946025,"connected_time":793000000000,"state":"active","ping":59},{"user_id":628,"name":"Natsuki the Scunt","steam_id":76561199175922684,"connected_time":792000000000,"state":"active","ping":100},{"user_id":629,"name":"a pan furry","steam_id":76561199445662628,"connected_time":717000000000,"state":"active","ping":136},{"user_id":644,"name":"RedBatman","steam_id":76561198064252016,"connected_time":116000000000,"state":"active","ping":63},{"user_id":588,"name":"Tibalt Nyahuma","steam_id":76561198034779431,"connected_time":3532000000000,"state":"active","ping":63},{"user_id":631,"name":"Gloomfairy","steam_id":76561198043867915,"connected_time":704000000000,"state":"active","ping":45},{"user_id":632,"name":"Hypenotic","steam_id":76561198357208204,"connected_time":694000000000,"state":"active","ping":61},{"user_id":579,"name":"Snom","steam_id":76561198333827920,"connected_time":4823000000000,"state":"active","ping":88},{"user_id":618,"name":"Celestial Bodies","steam_id":76561198212572955,"connected_time":1574000000000,"state":"active","ping":77},{"user_id":633,"name":"Bheem","steam_id":76561198170453459,"connected_time":689000000000,"state":"active","ping":88},{"user_id":604,"name":"Swiftmend","steam_id":76561197995595692,"connected_time":2402000000000,"state":"active","ping":75},{"user_id":605,"name":"Mysterious Trader","steam_id":76561198881026292,"connected_time":2397000000000,"state":"active","ping":54},{"user_id":635,"name":"HollyBlocky","steam_id":76561198030156100,"connected_time":630000000000,"state":"active","ping":69},{"user_id":636,"name":"...","steam_id":76561199102883421,"connected_time":592000000000,"state":"active","ping":82},{"user_id":639,"name":"ʕ•ᴥ•ʔ the bear","steam_id":76561197989591976,"connected_time":568000000000,"state":"active","ping":64},{"user_id":624,"name":"SpongedSocks","steam_id":76561198374009086,"connected_time":1324000000000,"state":"active","ping":56},{"user_id":611,"name":"tlar","steam_id":76561198060117460,"connected_time":2159000000000,"state":"active","ping":46},{"user_id":645,"name":"A Sun","steam_id":76561198142545364,"connected_time":84000000000,"state":"active","ping":50},{"user_id":641,"name":"on that zaza?","steam_id":76561198038713198,"connected_time":561000000000,"state":"active","ping":74},{"user_id":555,"name":"bird enthusiast","steam_id":76561198087661713,"connected_time":6674000000000,"state":"active","ping":61}]},{"server_id":106,"name":"Uncletopia | Chicago | 2 | All Maps","name_short":"chi-2","host":"chi-1.us.uncletopia.com","port":27025,"enabled":true,"region":"us-central","cc":"us","latitude":41.881832,"longitude":-87.62318,"reserved":0,"last_update":"0001-01-01T00:00:00Z","name_a2s":"Uncletopia | Chicago | 2 | All Maps","protocol":17,"map":"pl_borneo","folder":"tf","game":"Team Fortress","app_id":440,"player_count":24,"max_players":24,"Bots":0,"server_type":"Dedicated","server_os":"Linux","password":true,"vac":true,"version":"7961495","steam_id":85568392924469985,"keywords":["nocrits","nodmgspread","payload","uncletopia"],"game_id":440,"stv_port":27026,"stv_name":"Uncletopia | Chicago | 2 | All Maps | STV","players":[{"user_id":851,"name":"Peluche Marisa","steam_id":76561199011452659,"connected_time":75000000000,"state":"active","ping":113},{"user_id":801,"name":"Brandino!","steam_id":76561198000446932,"connected_time":2986000000000,"state":"active","ping":68},{"user_id":826,"name":"Charlie","steam_id":76561198798127908,"connected_time":623000000000,"state":"active","ping":60},{"user_id":838,"name":"Orb","steam_id":76561198353963523,"connected_time":569000000000,"state":"active","ping":75},{"user_id":745,"name":"NotoriousThicc","steam_id":76561198244650474,"connected_time":7719000000000,"state":"active","ping":93},{"user_id":817,"name":"The Foreskin Knight","steam_id":76561197995525419,"connected_time":1386000000000,"state":"active","ping":40},{"user_id":839,"name":"Beebo, Son of Beebo","steam_id":76561198055948497,"connected_time":568000000000,"state":"active","ping":45},{"user_id":837,"name":"Adreeh","steam_id":76561198158492390,"connected_time":575000000000,"state":"active","ping":72},{"user_id":840,"name":"BGs Allin","steam_id":76561198038258405,"connected_time":553000000000,"state":"active","ping":61},{"user_id":790,"name":"Acuzik","steam_id":76561198045453400,"connected_time":4401000000000,"state":"active","ping":55},{"user_id":841,"name":"Ech0","steam_id":76561198073136685,"connected_time":510000000000,"state":"active","ping":60},{"user_id":791,"name":"Dokkibai","steam_id":76561198355935693,"connected_time":4398000000000,"state":"active","ping":46},{"user_id":842,"name":"TehOneZoot","steam_id":76561198121944243,"connected_time":481000000000,"state":"active","ping":54},{"user_id":843,"name":"SilentScott","steam_id":76561198236688652,"connected_time":480000000000,"state":"active","ping":97},{"user_id":792,"name":"Braingoo Hex","steam_id":76561198083094783,"connected_time":4398000000000,"state":"active","ping":87},{"user_id":794,"name":"Dad","steam_id":76561198028617381,"connected_time":3995000000000,"state":"active","ping":77},{"user_id":824,"name":"augs","steam_id":76561199120607417,"connected_time":906000000000,"state":"active","ping":54},{"user_id":828,"name":"Yackaboi","steam_id":76561199444911765,"connected_time":593000000000,"state":"active","ping":87},{"user_id":816,"name":"Eltnum JAV","steam_id":76561198155620810,"connected_time":1419000000000,"state":"active","ping":60},{"user_id":814,"name":"MedRed™ #IATAH","steam_id":76561198002962970,"connected_time":1483000000000,"state":"active","ping":96},{"user_id":844,"name":"Blue Octopus","steam_id":76561198115072364,"connected_time":468000000000,"state":"active","ping":77},{"user_id":771,"name":"Castroy","steam_id":76561198108160099,"connected_time":5806000000000,"state":"active","ping":60},{"user_id":819,"name":"Kitchen Sink Gaming","steam_id":76561198930293420,"connected_time":1181000000000,"state":"active","ping":69},{"user_id":848,"name":"caca sniffer","steam_id":76561199099914725,"connected_time":176000000000,"state":"active","ping":94}]},{"server_id":402,"name":"Uncletopia | Chicago | 3 | All Maps","name_short":"chi-3","host":"chi-1.us.uncletopia.com","port":27035,"enabled":true,"region":"us-central","cc":"us","latitude":41.881832,"longitude":-87.62318,"reserved":0,"last_update":"0001-01-01T00:00:00Z","name_a2s":"Uncletopia | Chicago | 3 | All Maps","protocol":17,"map":"cp_sunshine","folder":"tf","game":"Team Fortress","app_id":440,"player_count":23,"max_players":24,"Bots":0,"server_type":"Dedicated","server_os":"Linux","password":true,"vac":true,"version":"7961495","steam_id":85568392924515191,"keywords":["cp","nocrits","nodmgspread","uncletopia"],"game_id":440,"stv_port":27036,"stv_name":"Uncletopia | Chicago | 3 | All Maps | STV","players":[{"user_id":433,"name":"Man Time","steam_id":76561198151147218,"connected_time":2039000000000,"state":"active","ping":62},{"user_id":470,"name":"Russell","steam_id":76561198024159373,"connected_time":225000000000,"state":"active","ping":75},{"user_id":471,"name":"catrinaisahuman","steam_id":76561198281355729,"connected_time":195000000000,"state":"active","ping":68},{"user_id":472,"name":"Asanez3","steam_id":76561198037381436,"connected_time":162000000000,"state":"active","ping":73},{"user_id":473,"name":"TrashPanda (she/her)","steam_id":76561198447864095,"connected_time":149000000000,"state":"active","ping":71},{"user_id":478,"name":"BOUZENZEL","steam_id":76561198095000722,"connected_time":107000000000,"state":"active","ping":58},{"user_id":474,"name":"*****setget","steam_id":76561198118824188,"connected_time":142000000000,"state":"active","ping":121},{"user_id":455,"name":"Toottoot","steam_id":76561197992404836,"connected_time":1385000000000,"state":"active","ping":45},{"user_id":475,"name":"JustAnotherHuman","steam_id":76561199018122924,"connected_time":141000000000,"state":"active","ping":87},{"user_id":468,"name":"Keterina","steam_id":76561198135514304,"connected_time":338000000000,"state":"active","ping":88},{"user_id":465,"name":"dunkeroni","steam_id":76561198066114874,"connected_time":784000000000,"state":"active","ping":105},{"user_id":467,"name":"Smiley_R5 ringme","steam_id":76561198113083770,"connected_time":402000000000,"state":"active","ping":62},{"user_id":476,"name":"Hatsune Miku IRL","steam_id":76561198023770512,"connected_time":124000000000,"state":"active","ping":82},{"user_id":440,"name":"The Legendary Dappergrade","steam_id":76561198004238822,"connected_time":1941000000000,"state":"active","ping":71},{"user_id":477,"name":"rach9411","steam_id":76561198256535721,"connected_time":112000000000,"state":"active","ping":127},{"user_id":479,"name":"itsPanzerPanda","steam_id":76561199441946346,"connected_time":105000000000,"state":"active","ping":44},{"user_id":469,"name":"Hynx","steam_id":76561198306674156,"connected_time":324000000000,"state":"active","ping":76},{"user_id":426,"name":"SPIRE_FAN","steam_id":76561198001486573,"connected_time":2728000000000,"state":"active","ping":63},{"user_id":485,"name":"Pyrovision Distributor","steam_id":76561198242118240,"connected_time":39000000000,"state":"active","ping":49},{"user_id":441,"name":"Julio Quantez","steam_id":76561198216600608,"connected_time":1929000000000,"state":"active","ping":76},{"user_id":486,"name":"Hey","steam_id":76561198447517893,"connected_time":0,"state":"spawning","ping":43},{"user_id":482,"name":"werecat","steam_id":76561198005091213,"connected_time":92000000000,"state":"active","ping":59},{"user_id":447,"name":"lover","steam_id":76561198089852954,"connected_time":1728000000000,"state":"active","ping":84}]},{"server_id":403,"name":"Uncletopia | Chicago | 4 | All Maps","name_short":"chi-4","host":"chi-1.us.uncletopia.com","port":27045,"enabled":true,"region":"us-central","cc":"us","latitude":41.881832,"longitude":-87.62318,"reserved":0,"last_update":"0001-01-01T00:00:00Z","name_a2s":"Uncletopia | Chicago | 4 | All Maps","protocol":17,"map":"pl_upward","folder":"tf","game":"Team Fortress","app_id":440,"player_count":24,"max_players":24,"Bots":0,"server_type":"Dedicated","server_os":"Linux","password":true,"vac":true,"version":"7961495","steam_id":85568392924515193,"keywords":["nocrits","nodmgspread","payload","uncletopia"],"game_id":440,"stv_port":27046,"stv_name":"Uncletopia | Chicago | 4 | All Maps | STV","players":[{"user_id":668,"name":"Jovo","steam_id":76561197993265970,"connected_time":131000000000,"state":"active","ping":75},{"user_id":653,"name":"stupid ape","steam_id":76561198350027075,"connected_time":907000000000,"state":"active","ping":56},{"user_id":667,"name":"Lain","steam_id":76561198029303534,"connected_time":268000000000,"state":"active","ping":72},{"user_id":669,"name":"cyren caster","steam_id":76561198204509499,"connected_time":125000000000,"state":"active","ping":92},{"user_id":615,"name":"dax","steam_id":76561198045335319,"connected_time":2445000000000,"state":"active","ping":75},{"user_id":674,"name":"Spirit","steam_id":76561198286792807,"connected_time":49000000000,"state":"active","ping":84},{"user_id":565,"name":"SHUSH nikoOS","steam_id":76561198180020521,"connected_time":6655000000000,"state":"active","ping":105},{"user_id":671,"name":"Mystikkal","steam_id":76561198003949147,"connected_time":84000000000,"state":"active","ping":97},{"user_id":658,"name":"BurnN8or101","steam_id":76561198132668224,"connected_time":778000000000,"state":"active","ping":63},{"user_id":651,"name":"0:-)","steam_id":76561198142056100,"connected_time":1163000000000,"state":"active","ping":75},{"user_id":672,"name":"SCP-049","steam_id":76561199086835032,"connected_time":79000000000,"state":"active","ping":90},{"user_id":673,"name":"Vaudeville Villain","steam_id":76561199212093339,"connected_time":68000000000,"state":"active","ping":70},{"user_id":633,"name":"fish podcast episode #2","steam_id":76561198220573492,"connected_time":1794000000000,"state":"active","ping":61},{"user_id":675,"name":"I Twitch Lego Star Wars...","steam_id":76561198130280060,"connected_time":35000000000,"state":"active","ping":202},{"user_id":676,"name":"chesterwnimitz","steam_id":76561198062664377,"connected_time":25000000000,"state":"active","ping":81},{"user_id":666,"name":"abby","steam_id":76561197962810691,"connected_time":298000000000,"state":"active","ping":67},{"user_id":677,"name":"Java_Siege_","steam_id":76561199090000728,"connected_time":22000000000,"state":"spawning","ping":96},{"user_id":664,"name":"3rooks","steam_id":76561199079002400,"connected_time":527000000000,"state":"active","ping":67},{"user_id":665,"name":"theoreminegaming","steam_id":76561198175573917,"connected_time":400000000000,"state":"active","ping":58},{"user_id":652,"name":"Pongallow","steam_id":76561198146876078,"connected_time":1140000000000,"state":"active","ping":46},{"user_id":597,"name":"Bullahorns","steam_id":76561197997138052,"connected_time":3673000000000,"state":"active","ping":47},{"user_id":678,"name":"Chinny","steam_id":76561198159950565,"connected_time":15000000000,"state":"spawning","ping":172},{"user_id":655,"name":"NukaTheRabbit {Fur}","steam_id":76561198058692928,"connected_time":864000000000,"state":"active","ping":124},{"user_id":679,"name":"I shovel mayonnaise in mouth","steam_id":76561199123118241,"connected_time":14000000000,"state":"spawning","ping":100}]},{"server_id":36,"name":"Uncletopia | Chicago | 5 | All Maps","name_short":"chi-5","host":"chi-2.us.uncletopia.com","port":27015,"enabled":true,"region":"us-central","cc":"us","latitude":41.881832,"longitude":-87.62318,"reserved":0,"last_update":"0001-01-01T00:00:00Z","name_a2s":"Uncletopia | Chicago | 5 | All Maps","protocol":17,"map":"cp_dustbowl","folder":"tf","game":"Team Fortress","app_id":440,"player_count":24,"max_players":24,"Bots":0,"server_type":"Dedicated","server_os":"Linux","password":true,"vac":true,"version":"7961495","steam_id":85568392924866362,"keywords":["cp","nocrits","nodmgspread","uncletopia"],"game_id":440,"stv_port":27016,"stv_name":"Uncletopia | Chicago | 5 | All Maps | STV","players":[{"user_id":109,"name":"Gnaash","steam_id":76561198940657194,"connected_time":461000000000,"state":"active","ping":85},{"user_id":69,"name":"Mirce","steam_id":76561198100889621,"connected_time":3188000000000,"state":"active","ping":61},{"user_id":110,"name":"Vitzenhauzer","steam_id":76561198116449787,"connected_time":454000000000,"state":"active","ping":76},{"user_id":86,"name":"gyozaking","steam_id":76561197972312696,"connected_time":1510000000000,"state":"active","ping":57},{"user_id":67,"name":"Crystall","steam_id":76561198346607700,"connected_time":3252000000000,"state":"active","ping":60},{"user_id":111,"name":"Splexiey","steam_id":76561199122155213,"connected_time":453000000000,"state":"active","ping":88},{"user_id":112,"name":"Zulu","steam_id":76561198880553387,"connected_time":436000000000,"state":"active","ping":71},{"user_id":88,"name":"Jimmy the Fortress","steam_id":76561198145889485,"connected_time":1394000000000,"state":"active","ping":62},{"user_id":105,"name":"Knows.avi","steam_id":76561198188535337,"connected_time":636000000000,"state":"active","ping":53},{"user_id":106,"name":"Mum","steam_id":76561198059209643,"connected_time":628000000000,"state":"active","ping":98},{"user_id":98,"name":"SKForm","steam_id":76561198381500437,"connected_time":1109000000000,"state":"active","ping":54},{"user_id":113,"name":"LogicGate","steam_id":76561199189481990,"connected_time":361000000000,"state":"active","ping":76},{"user_id":71,"name":"Viewie","steam_id":76561198280108853,"connected_time":3174000000000,"state":"active","ping":78},{"user_id":72,"name":"AsianDoggo","steam_id":76561198111270088,"connected_time":3173000000000,"state":"active","ping":60},{"user_id":96,"name":"Carpet enthusiast","steam_id":76561198024040142,"connected_time":1266000000000,"state":"active","ping":60},{"user_id":114,"name":"William Lovett","steam_id":76561197991063996,"connected_time":332000000000,"state":"active","ping":50},{"user_id":84,"name":"Cassius Money","steam_id":76561197979696414,"connected_time":2138000000000,"state":"active","ping":45},{"user_id":115,"name":"afishinatrenchcoat","steam_id":76561199353480286,"connected_time":332000000000,"state":"active","ping":66},{"user_id":107,"name":"soon hari","steam_id":76561199065773513,"connected_time":620000000000,"state":"active","ping":51},{"user_id":77,"name":"dailyspesh","steam_id":76561197988072369,"connected_time":3088000000000,"state":"active","ping":71},{"user_id":85,"name":"xxballfondlerxx","steam_id":76561197991546630,"connected_time":1521000000000,"state":"active","ping":45},{"user_id":91,"name":"pafijohn","steam_id":76561198002535190,"connected_time":1367000000000,"state":"active","ping":103},{"user_id":93,"name":"Greg","steam_id":76561199031920504,"connected_time":1325000000000,"state":"active","ping":71},{"user_id":94,"name":"eipi","steam_id":76561199084492097,"connected_time":1317000000000,"state":"active","ping":69}]},{"server_id":37,"name":"Uncletopia | Chicago | 6 | All Maps","name_short":"chi-6","host":"chi-2.us.uncletopia.com","port":27025,"enabled":true,"region":"us-central","cc":"us","latitude":41.881832,"longitude":-87.62318,"reserved":0,"last_update":"0001-01-01T00:00:00Z","name_a2s":"Uncletopia | Chicago | 6 | All Maps","protocol":17,"map":"pl_swiftwater_final1","folder":"tf","game":"Team Fortress","app_id":440,"player_count":24,"max_players":24,"Bots":0,"server_type":"Dedicated","server_os":"Linux","password":true,"vac":true,"version":"7961495","steam_id":85568392924866363,"keywords":["nocrits","nodmgspread","payload","uncletopia"],"game_id":440,"stv_port":27026,"stv_name":"Uncletopia | Chicago | 6 | All Maps | STV","players":[{"user_id":451,"name":"notdoxed","steam_id":76561197992591404,"connected_time":668000000000,"state":"active","ping":49},{"user_id":448,"name":"josegonzales2008","steam_id":76561198896091253,"connected_time":1055000000000,"state":"active","ping":82},{"user_id":415,"name":"[P-CAN] At\u0026t Home Internet","steam_id":76561198126700526,"connected_time":3237000000000,"state":"active","ping":84},{"user_id":433,"name":"Gamering_funy","steam_id":76561199006503777,"connected_time":1481000000000,"state":"active","ping":47},{"user_id":456,"name":"Siz","steam_id":76561198072962154,"connected_time":138000000000,"state":"active","ping":64},{"user_id":454,"name":"vareh","steam_id":76561197993190926,"connected_time":340000000000,"state":"active","ping":109},{"user_id":422,"name":"When I'm touched, I bleed","steam_id":76561198056467179,"connected_time":2545000000000,"state":"active","ping":59},{"user_id":298,"name":"not a good idea","steam_id":76561198032259680,"connected_time":11235000000000,"state":"active","ping":72},{"user_id":453,"name":"Xraverz","steam_id":76561198008891628,"connected_time":522000000000,"state":"active","ping":76},{"user_id":417,"name":"Mix","steam_id":76561198835593895,"connected_time":2649000000000,"state":"active","ping":82},{"user_id":452,"name":"foxxy","steam_id":76561198211308328,"connected_time":587000000000,"state":"active","ping":70},{"user_id":431,"name":"oppenheimer style","steam_id":76561198026664629,"connected_time":1666000000000,"state":"active","ping":54},{"user_id":447,"name":"EL HEDDO","steam_id":76561199239477515,"connected_time":1078000000000,"state":"active","ping":122},{"user_id":449,"name":"Lish","steam_id":76561198447356180,"connected_time":850000000000,"state":"active","ping":70},{"user_id":424,"name":"cereal strike","steam_id":76561198435863462,"connected_time":2521000000000,"state":"active","ping":55},{"user_id":450,"name":"*Soldier Screaming*","steam_id":76561199048625312,"connected_time":754000000000,"state":"active","ping":68},{"user_id":445,"name":"punk cock","steam_id":76561198418182764,"connected_time":1103000000000,"state":"active","ping":71},{"user_id":408,"name":"Lucky Roux","steam_id":76561198298884337,"connected_time":3887000000000,"state":"active","ping":64},{"user_id":455,"name":"Lennu","steam_id":76561198060730154,"connected_time":239000000000,"state":"active","ping":72},{"user_id":379,"name":"Dr.StrangeGlove","steam_id":76561198286114229,"connected_time":6187000000000,"state":"active","ping":67},{"user_id":419,"name":"nav","steam_id":76561198872608266,"connected_time":2625000000000,"state":"active","ping":87},{"user_id":425,"name":"dirty30","steam_id":76561198021226566,"connected_time":2517000000000,"state":"active","ping":101},{"user_id":446,"name":"Budcraft","steam_id":76561198143929691,"connected_time":1099000000000,"state":"active","ping":58},{"user_id":363,"name":"inshallah","steam_id":76561198165212575,"connected_time":7713000000000,"state":"active","ping":73}]},{"server_id":38,"name":"Uncletopia | Chicago | 7 | Stopwatch","name_short":"chi-7","host":"chi-2.us.uncletopia.com","port":27035,"enabled":true,"region":"us-central","cc":"us","latitude":41.881832,"longitude":-87.62318,"reserved":0,"last_update":"0001-01-01T00:00:00Z","name_a2s":"Uncletopia | Chicago | 7 | Stopwatch","protocol":17,"map":"koth_lakeside_final","folder":"tf","game":"Team Fortress","app_id":440,"player_count":0,"max_players":24,"Bots":0,"server_type":"Dedicated","server_os":"Linux","password":true,"vac":true,"version":"7961495","steam_id":85568392924866364,"keywords":["cp","nocrits","nodmgspread","uncletopia"],"game_id":440,"stv_port":27036,"stv_name":"Uncletopia | Chicago | 7 | Stopwatch | STV","players":null},{"server_id":39,"name":"Uncletopia | Chicago | 8 | Community","name_short":"chi-8","host":"chi-2.us.uncletopia.com","port":27045,"enabled":true,"region":"us-central","cc":"us","latitude":41.881832,"longitude":-87.62318,"reserved":0,"last_update":"0001-01-01T00:00:00Z","name_a2s":"Uncletopia | Chicago | 8 | Community","protocol":17,"map":"workshop/koth_slaughter_rc1.ugc1712845210","folder":"tf","game":"Team Fortress","app_id":440,"player_count":0,"max_players":24,"Bots":0,"server_type":"Dedicated","server_os":"Linux","password":true,"vac":true,"version":"7961495","steam_id":85568392924866365,"keywords":["cp","nocrits","nodmgspread","uncletopia"],"game_id":440,"stv_port":27046,"stv_name":"Uncletopia | Chicago | 8 | Community | STV","players":null},{"server_id":8,"name":"Uncletopia | Dallas | 1 | All Maps","name_short":"dal-1","host":"dal-1.us.uncletopia.com","port":27015,"enabled":true,"region":"us-central","cc":"us","latitude":32.779167,"longitude":-96.80889,"reserved":0,"last_update":"0001-01-01T00:00:00Z","name_a2s":"Uncletopia | Dallas | 1 | All Maps","protocol":17,"map":"pl_pier","folder":"tf","game":"Team Fortress","app_id":440,"player_count":24,"max_players":24,"Bots":0,"server_type":"Dedicated","server_os":"Linux","password":true,"vac":true,"version":"7961495","steam_id":85568392924469986,"keywords":["nocrits","nodmgspread","payload","uncletopia"],"game_id":440,"stv_port":27016,"stv_name":"Uncletopia | Dallas | 1 | All Maps | STV","players":[{"user_id":363,"name":"java","steam_id":76561198030276792,"connected_time":6275000000000,"state":"active","ping":71},{"user_id":412,"name":"mini vegas stan","steam_id":76561198126029630,"connected_time":2363000000000,"state":"active","ping":99},{"user_id":432,"name":"lanoc","steam_id":76561198055415367,"connected_time":1487000000000,"state":"active","ping":70},{"user_id":429,"name":"Draco6257","steam_id":76561199147322448,"connected_time":1521000000000,"state":"active","ping":67},{"user_id":424,"name":"Mitty","steam_id":76561198014177684,"connected_time":1751000000000,"state":"active","ping":80},{"user_id":430,"name":"sithreis","steam_id":76561198000564263,"connected_time":1511000000000,"state":"active","ping":76},{"user_id":355,"name":"blood-thirsty pitbull","steam_id":76561198106690989,"connected_time":7124000000000,"state":"active","ping":91},{"user_id":426,"name":"The Robot Menace","steam_id":76561198043390413,"connected_time":1624000000000,"state":"active","ping":66},{"user_id":381,"name":"OrangeYouGladYou'reNotABanana","steam_id":76561198010019214,"connected_time":4207000000000,"state":"active","ping":86},{"user_id":411,"name":"Aqua","steam_id":76561199182551808,"connected_time":2447000000000,"state":"active","ping":70},{"user_id":414,"name":"hyazz","steam_id":76561199100342013,"connected_time":2330000000000,"state":"active","ping":82},{"user_id":415,"name":"white gilgamesh","steam_id":76561198046111695,"connected_time":2325000000000,"state":"active","ping":51},{"user_id":433,"name":"1st place love live fan","steam_id":76561198037951506,"connected_time":1223000000000,"state":"active","ping":73},{"user_id":382,"name":"closer","steam_id":76561198042848500,"connected_time":4170000000000,"state":"active","ping":89},{"user_id":421,"name":"*blows up pancakes with mind*","steam_id":76561199105729447,"connected_time":2166000000000,"state":"active","ping":55},{"user_id":416,"name":"YIIKFRIIK","steam_id":76561198043322979,"connected_time":2308000000000,"state":"active","ping":67},{"user_id":431,"name":"blah","steam_id":76561198046948758,"connected_time":1500000000000,"state":"active","ping":65},{"user_id":427,"name":"Tmiracle","steam_id":76561198052375275,"connected_time":1611000000000,"state":"active","ping":87},{"user_id":417,"name":"37 septillion tapeworms","steam_id":76561198186128723,"connected_time":2302000000000,"state":"active","ping":54},{"user_id":437,"name":"errant","steam_id":76561197961758410,"connected_time":71000000000,"state":"active","ping":45},{"user_id":419,"name":"Wynn","steam_id":76561198091151925,"connected_time":2278000000000,"state":"active","ping":103},{"user_id":420,"name":"Tea Leaf","steam_id":76561198123549027,"connected_time":2250000000000,"state":"active","ping":60},{"user_id":436,"name":"Dragorf2010","steam_id":76561199238402270,"connected_time":790000000000,"state":"active","ping":85},{"user_id":375,"name":"cali","steam_id":76561198326822403,"connected_time":5473000000000,"state":"active","ping":90}]},{"server_id":108,"name":"Uncletopia | Dallas | 2 | All Maps","name_short":"dal-2","host":"dal-1.us.uncletopia.com","port":27025,"enabled":true,"region":"us-central","cc":"us","latitude":32.779167,"longitude":-96.80889,"reserved":0,"last_update":"0001-01-01T00:00:00Z","name_a2s":"Uncletopia | Dallas | 2 | All Maps","protocol":17,"map":"cp_dustbowl","folder":"tf","game":"Team Fortress","app_id":440,"player_count":24,"max_players":24,"Bots":0,"server_type":"Dedicated","server_os":"Linux","password":true,"vac":true,"version":"7961495","steam_id":85568392924469988,"keywords":["cp","nocrits","nodmgspread","uncletopia"],"game_id":440,"stv_port":27026,"stv_name":"Uncletopia | Dallas | 2 | All Maps | STV","players":[{"user_id":469,"name":"Gragerus","steam_id":76561199434059545,"connected_time":1233000000000,"state":"active","ping":80},{"user_id":459,"name":"Sveniven","steam_id":76561198118864411,"connected_time":2254000000000,"state":"active","ping":90},{"user_id":495,"name":"LudicrousRed","steam_id":76561199047437703,"connected_time":212000000000,"state":"active","ping":45},{"user_id":446,"name":"GorbTheImmortal","steam_id":76561198125936721,"connected_time":2622000000000,"state":"active","ping":207},{"user_id":320,"name":"jasus","steam_id":76561198088035919,"connected_time":11048000000000,"state":"active","ping":104},{"user_id":486,"name":"Victor-Sixty","steam_id":76561199068981957,"connected_time":570000000000,"state":"active","ping":52},{"user_id":479,"name":"rat","steam_id":76561198272622003,"connected_time":886000000000,"state":"active","ping":74},{"user_id":483,"name":"Deeply","steam_id":76561199000786530,"connected_time":675000000000,"state":"active","ping":76},{"user_id":445,"name":"kiwi","steam_id":76561198052177917,"connected_time":2623000000000,"state":"active","ping":90},{"user_id":496,"name":"Fish","steam_id":76561199016308078,"connected_time":159000000000,"state":"active","ping":90},{"user_id":442,"name":"Dosux2","steam_id":76561198390916062,"connected_time":2656000000000,"state":"active","ping":143},{"user_id":491,"name":"-_-","steam_id":76561198005773253,"connected_time":435000000000,"state":"active","ping":85},{"user_id":487,"name":"Oh uh...just one more thing","steam_id":76561198207220181,"connected_time":556000000000,"state":"active","ping":52},{"user_id":447,"name":"Flappy Fiveskin","steam_id":76561199013107272,"connected_time":2609000000000,"state":"active","ping":83},{"user_id":485,"name":"Queuetimeevent","steam_id":76561198079438423,"connected_time":626000000000,"state":"active","ping":60},{"user_id":429,"name":"Stinky Wizzleteats.","steam_id":76561198075628776,"connected_time":4048000000000,"state":"active","ping":80},{"user_id":488,"name":"Sped","steam_id":76561198079715054,"connected_time":554000000000,"state":"active","ping":57},{"user_id":489,"name":"shiny","steam_id":76561198172286358,"connected_time":539000000000,"state":"active","ping":82},{"user_id":473,"name":"crumbles","steam_id":76561198168707036,"connected_time":1170000000000,"state":"active","ping":90},{"user_id":325,"name":"Mad","steam_id":76561197972718081,"connected_time":11021000000000,"state":"active","ping":105},{"user_id":492,"name":"joyeuxnoelle","steam_id":76561198062423120,"connected_time":405000000000,"state":"active","ping":78},{"user_id":494,"name":"MoonWolf","steam_id":76561198095735033,"connected_time":219000000000,"state":"active","ping":59},{"user_id":493,"name":"AverageJoe","steam_id":76561198313420109,"connected_time":328000000000,"state":"active","ping":68},{"user_id":461,"name":"mrappledumb","steam_id":76561199133590774,"connected_time":2238000000000,"state":"active","ping":94}]},{"server_id":404,"name":"Uncletopia | Dallas | 3 | All Maps","name_short":"dal-3","host":"dal-1.us.uncletopia.com","port":27035,"enabled":true,"region":"us-central","cc":"us","latitude":32.779167,"longitude":-96.80889,"reserved":0,"last_update":"0001-01-01T00:00:00Z","name_a2s":"Uncletopia | Dallas | 3 | All Maps","protocol":17,"map":"cp_altitude","folder":"tf","game":"Team Fortress","app_id":440,"player_count":24,"max_players":24,"Bots":0,"server_type":"Dedicated","server_os":"Linux","password":true,"vac":true,"version":"7961495","steam_id":85568392924515219,"keywords":["cp","nocrits","nodmgspread","uncletopia"],"game_id":440,"stv_port":27036,"stv_name":"Uncletopia | Dallas | 3 | All Maps | STV","players":[{"user_id":622,"name":"TGD","steam_id":76561198197582594,"connected_time":1120000000000,"state":"active","ping":46},{"user_id":618,"name":"daD","steam_id":76561198188498762,"connected_time":1505000000000,"state":"active","ping":60},{"user_id":587,"name":"Muffin","steam_id":76561198209987299,"connected_time":3955000000000,"state":"active","ping":138},{"user_id":629,"name":"MrSourLemmon","steam_id":76561199367994914,"connected_time":579000000000,"state":"active","ping":46},{"user_id":611,"name":"Kirby","steam_id":76561199161858008,"connected_time":2110000000000,"state":"active","ping":61},{"user_id":588,"name":"Always Here for You","steam_id":76561198219252313,"connected_time":3938000000000,"state":"active","ping":91},{"user_id":628,"name":"deadpixel","steam_id":76561198150249843,"connected_time":894000000000,"state":"active","ping":69},{"user_id":619,"name":"DiscoTraveler","steam_id":76561199240168088,"connected_time":1485000000000,"state":"active","ping":77},{"user_id":612,"name":"Hugs","steam_id":76561198214584133,"connected_time":1894000000000,"state":"active","ping":80},{"user_id":607,"name":"Coran","steam_id":76561198141075828,"connected_time":2375000000000,"state":"active","ping":94},{"user_id":544,"name":"+","steam_id":76561198262422184,"connected_time":6368000000000,"state":"active","ping":49},{"user_id":616,"name":"firefly","steam_id":76561198151308698,"connected_time":1793000000000,"state":"active","ping":42},{"user_id":623,"name":"the meth baby from trainspottin","steam_id":76561198967207139,"connected_time":1107000000000,"state":"active","ping":85},{"user_id":631,"name":"The Assistant Regional Manager","steam_id":76561199221484936,"connected_time":183000000000,"state":"active","ping":88},{"user_id":545,"name":"TacoMan4Life","steam_id":76561198832562728,"connected_time":6355000000000,"state":"active","ping":83},{"user_id":621,"name":"snow","steam_id":76561198018184698,"connected_time":1208000000000,"state":"active","ping":86},{"user_id":630,"name":"Lil Hannibal Lecter","steam_id":76561198065808386,"connected_time":260000000000,"state":"active","ping":85},{"user_id":615,"name":"MemoxJota (F2P)","steam_id":76561198862661338,"connected_time":1826000000000,"state":"active","ping":130},{"user_id":591,"name":"ICBMonkey","steam_id":76561198033351821,"connected_time":3867000000000,"state":"active","ping":47},{"user_id":576,"name":"Pinetree w/ apples.","steam_id":76561198105411709,"connected_time":4674000000000,"state":"active","ping":86},{"user_id":625,"name":"gothpapa","steam_id":76561198452122510,"connected_time":1089000000000,"state":"active","ping":85},{"user_id":627,"name":"deer (not skinwalker)","steam_id":76561198199384013,"connected_time":995000000000,"state":"active","ping":89},{"user_id":595,"name":"cupsovietxeno","steam_id":76561198997539399,"connected_time":3223000000000,"state":"active","ping":83},{"user_id":626,"name":"DanYan","steam_id":76561198452073283,"connected_time":1071000000000,"state":"active","ping":105}]},{"server_id":405,"name":"Uncletopia | Dallas | 4 | Community","name_short":"dal-4","host":"dal-1.us.uncletopia.com","port":27045,"enabled":true,"region":"us-central","cc":"us","latitude":32.779167,"longitude":-96.80889,"reserved":0,"last_update":"0001-01-01T00:00:00Z","name_a2s":"Uncletopia | Dallas | 4 | Community","protocol":17,"map":"workshop/cp_fulgur_rc2a.ugc2068252300","folder":"tf","game":"Team Fortress","app_id":440,"player_count":0,"max_players":24,"Bots":0,"server_type":"Dedicated","server_os":"Linux","password":true,"vac":true,"version":"7961495","steam_id":85568392924515220,"keywords":["cp","nocrits","nodmgspread","uncletopia"],"game_id":440,"stv_port":27046,"stv_name":"Uncletopia | Dallas | 4 | Community | STV","players":null},{"server_id":5,"name":"Uncletopia | Frankfurt | 1 | All Maps","name_short":"frk-1","host":"frk-1.de.uncletopia.com","port":27015,"enabled":true,"region":"eu","cc":"de","latitude":50.110924,"longitude":8.682127,"reserved":0,"last_update":"0001-01-01T00:00:00Z","name_a2s":"Uncletopia | Frankfurt | 1 | All Maps","protocol":17,"map":"koth_highpass","folder":"tf","game":"Team Fortress","app_id":440,"player_count":0,"max_players":24,"Bots":0,"server_type":"Dedicated","server_os":"Linux","password":true,"vac":true,"version":"7961495","steam_id":85568392924469989,"keywords":["cp","nocrits","nodmgspread","uncletopia"],"game_id":440,"stv_port":27016,"stv_name":"Uncletopia | Frankfurt | 1 | All Maps | STV","players":null},{"server_id":110,"name":"Uncletopia | Frankfurt | 2 | All Maps","name_short":"frk-2","host":"frk-1.de.uncletopia.com","port":27025,"enabled":true,"region":"eu","cc":"de","latitude":50.110924,"longitude":8.682127,"reserved":0,"last_update":"0001-01-01T00:00:00Z","name_a2s":"Uncletopia | Frankfurt | 2 | All Maps","protocol":17,"map":"cp_sunshine","folder":"tf","game":"Team Fortress","app_id":440,"player_count":0,"max_players":24,"Bots":0,"server_type":"Dedicated","server_os":"Linux","password":true,"vac":true,"version":"7961495","steam_id":85568392924469990,"keywords":["cp","nocrits","nodmgspread","uncletopia"],"game_id":440,"stv_port":27026,"stv_name":"Uncletopia | Frankfurt | 2 | All Maps | STV","players":null},{"server_id":308,"name":"Uncletopia | Frankfurt | 3 | All Maps","name_short":"frk-3","host":"frk-1.de.uncletopia.com","port":27035,"enabled":true,"region":"eu","cc":"de","latitude":50.110924,"longitude":8.682127,"reserved":0,"last_update":"0001-01-01T00:00:00Z","name_a2s":"Uncletopia | Frankfurt | 3 | All Maps","protocol":17,"map":"koth_cascade","folder":"tf","game":"Team Fortress","app_id":440,"player_count":0,"max_players":24,"Bots":0,"server_type":"Dedicated","server_os":"Linux","password":true,"vac":true,"version":"7961495","steam_id":85568392924504274,"keywords":["cp","nocrits","nodmgspread","uncletopia"],"game_id":440,"stv_port":27036,"stv_name":"Uncletopia | Frankfurt | 3 | All Maps | STV","players":null},{"server_id":309,"name":"Uncletopia | Frankfurt | 4 | All Maps","name_short":"frk-4","host":"frk-1.de.uncletopia.com","port":27045,"enabled":true,"region":"eu","cc":"de","latitude":50.110924,"longitude":8.682127,"reserved":0,"last_update":"0001-01-01T00:00:00Z","name_a2s":"Uncletopia | Frankfurt | 4 | All Maps","protocol":17,"map":"cp_sunshine","folder":"tf","game":"Team Fortress","app_id":440,"player_count":0,"max_players":24,"Bots":0,"server_type":"Dedicated","server_os":"Linux","password":true,"vac":true,"version":"7961495","steam_id":85568392924504275,"keywords":["cp","nocrits","nodmgspread","uncletopia"],"game_id":440,"stv_port":27046,"stv_name":"Uncletopia | Frankfurt | 4 | All Maps | STV","players":null},{"server_id":310,"name":"Uncletopia | Frankfurt | 5 | All Maps","name_short":"frk-5","host":"frk-1.de.uncletopia.com","port":27055,"enabled":true,"region":"eu","cc":"de","latitude":50.110924,"longitude":8.682127,"reserved":0,"last_update":"0001-01-01T00:00:00Z","name_a2s":"Uncletopia | Frankfurt | 5 | All Maps","protocol":17,"map":"koth_lakeside_final","folder":"tf","game":"Team Fortress","app_id":440,"player_count":0,"max_players":24,"Bots":0,"server_type":"Dedicated","server_os":"Linux","password":true,"vac":true,"version":"7961495","steam_id":85568392924504277,"keywords":["cp","nocrits","nodmgspread","uncletopia"],"game_id":440,"stv_port":27056,"stv_name":"Uncletopia | Frankfurt | 5 | All Maps | STV","players":null},{"server_id":311,"name":"Uncletopia | Frankfurt | 6 | All Maps","name_short":"frk-6","host":"frk-1.de.uncletopia.com","port":27065,"enabled":true,"region":"eu","cc":"de","latitude":50.110924,"longitude":8.682127,"reserved":0,"last_update":"0001-01-01T00:00:00Z","name_a2s":"Uncletopia | Frankfurt | 6 | All Maps","protocol":17,"map":"koth_cascade","folder":"tf","game":"Team Fortress","app_id":440,"player_count":9,"max_players":24,"Bots":0,"server_type":"Dedicated","server_os":"Linux","password":true,"vac":true,"version":"7961495","steam_id":85568392924504278,"keywords":["cp","nocrits","nodmgspread","uncletopia"],"game_id":440,"stv_port":27066,"stv_name":"Uncletopia | Frankfurt | 6 | All Maps | STV","players":[{"user_id":776,"name":"Tony Soprano","steam_id":76561199259524970,"connected_time":940000000000,"state":"active","ping":86},{"user_id":774,"name":"noticed","steam_id":76561198205976029,"connected_time":1663000000000,"state":"active","ping":75},{"user_id":759,"name":"you're wasting your time","steam_id":76561199282911650,"connected_time":2665000000000,"state":"active","ping":43},{"user_id":765,"name":"Pan Pan","steam_id":76561199074670515,"connected_time":2134000000000,"state":"active","ping":78},{"user_id":754,"name":"Mr Cow","steam_id":76561199250916045,"connected_time":3075000000000,"state":"active","ping":45},{"user_id":762,"name":"TrashBoat","steam_id":76561199089671432,"connected_time":2372000000000,"state":"active","ping":146},{"user_id":757,"name":"Ravne","steam_id":76561198087402085,"connected_time":2868000000000,"state":"active","ping":65},{"user_id":767,"name":"Only a SpoonFull","steam_id":76561198137195214,"connected_time":2082000000000,"state":"active","ping":66},{"user_id":769,"name":"SynthBox3","steam_id":76561199094075745,"connected_time":1906000000000,"state":"active","ping":77}]},{"server_id":23,"name":"Uncletopia | Frankfurt | 7 | Stopwatch","name_short":"frk-7","host":"frk-1.de.uncletopia.com","port":27075,"enabled":true,"region":"eu","cc":"de","latitude":50.110924,"longitude":8.682127,"reserved":0,"last_update":"0001-01-01T00:00:00Z","name_a2s":"Uncletopia | Frankfurt | 7 | Stopwatch","protocol":17,"map":"koth_highpass","folder":"tf","game":"Team Fortress","app_id":440,"player_count":0,"max_players":24,"Bots":0,"server_type":"Dedicated","server_os":"Linux","password":true,"vac":true,"version":"7961495","steam_id":85568392924742827,"keywords":["cp","nocrits","nodmgspread","uncletopia"],"game_id":440,"stv_port":27076,"stv_name":"Uncletopia | Frankfurt | 7 | Stopwatch | STV","players":null},{"server_id":24,"name":"Uncletopia | Frankfurt | 8 | Community","name_short":"frk-8","host":"frk-1.de.uncletopia.com","port":27085,"enabled":true,"region":"eu","cc":"de","latitude":50.110924,"longitude":8.682127,"reserved":0,"last_update":"0001-01-01T00:00:00Z","name_a2s":"Uncletopia | Frankfurt | 8 | Community","protocol":17,"map":"workshop/koth_ashville_final.ugc2130459942","folder":"tf","game":"Team Fortress","app_id":440,"player_count":0,"max_players":24,"Bots":0,"server_type":"Dedicated","server_os":"Linux","password":true,"vac":true,"version":"7961495","steam_id":85568392924742828,"keywords":["cp","nocrits","nodmgspread","uncletopia"],"game_id":440,"stv_port":27086,"stv_name":"Uncletopia | Frankfurt | 8 | Community | STV","players":null},{"server_id":202,"name":"Uncletopia | Hong Kong | 1 | All Maps","name_short":"hgk-1","host":"hgk-1.hk.uncletopia.com","port":27015,"enabled":true,"region":"asia","cc":"hk","latitude":22.302711,"longitude":114.177216,"reserved":0,"last_update":"0001-01-01T00:00:00Z","name_a2s":"Uncletopia | Hong Kong | 1 | All Maps","protocol":17,"map":"cp_altitude","folder":"tf","game":"Team Fortress","app_id":440,"player_count":1,"max_players":24,"Bots":0,"server_type":"Dedicated","server_os":"Linux","password":true,"vac":true,"version":"7961495","steam_id":85568392924494504,"keywords":["cp","nocrits","nodmgspread","uncletopia"],"game_id":440,"stv_port":27016,"stv_name":"Uncletopia | Hong Kong | 1 | All Maps | STV","players":[{"user_id":18,"name":"Sylveighty","steam_id":76561199152824088,"connected_time":624000000000,"state":"active","ping":59}]},{"server_id":1,"name":"Uncletopia | Los Angeles | 1 | All Maps","name_short":"lax-1","host":"lax-1.us.uncletopia.com","port":27015,"enabled":true,"region":"us-west","cc":"us","latitude":33.94279,"longitude":-118.41004,"reserved":0,"last_update":"0001-01-01T00:00:00Z","name_a2s":"Uncletopia | Los Angeles | 1 | All Maps","protocol":17,"map":"koth_nucleus","folder":"tf","game":"Team Fortress","app_id":440,"player_count":23,"max_players":24,"Bots":0,"server_type":"Dedicated","server_os":"Linux","password":true,"vac":true,"version":"7961495","steam_id":85568392924469991,"keywords":["cp","nocrits","nodmgspread","uncletopia"],"game_id":440,"stv_port":27016,"stv_name":"Uncletopia | Los Angeles | 1 | All Maps | STV","players":[{"user_id":199,"name":"Soda","steam_id":76561198219209367,"connected_time":1023000000000,"state":"active","ping":59},{"user_id":196,"name":"filtered by cp_steel","steam_id":76561198031409921,"connected_time":1040000000000,"state":"active","ping":50},{"user_id":197,"name":"KlassicLoL","steam_id":76561198081815303,"connected_time":1036000000000,"state":"active","ping":45},{"user_id":116,"name":"Drive-By-Fish-Guy","steam_id":76561198105513652,"connected_time":7528000000000,"state":"active","ping":48},{"user_id":201,"name":"SanitysEdge","steam_id":76561198130732813,"connected_time":999000000000,"state":"active","ping":46},{"user_id":163,"name":"Timewaves","steam_id":76561198000186054,"connected_time":3808000000000,"state":"active","ping":50},{"user_id":93,"name":"Dukino","steam_id":76561198008455368,"connected_time":8555000000000,"state":"active","ping":90},{"user_id":208,"name":"Sammy!","steam_id":76561198184171743,"connected_time":645000000000,"state":"active","ping":53},{"user_id":209,"name":"Heartgold","steam_id":76561199062592062,"connected_time":197000000000,"state":"active","ping":114},{"user_id":204,"name":"ClownTown","steam_id":76561199350870177,"connected_time":914000000000,"state":"active","ping":105},{"user_id":198,"name":"Mr. Noodle","steam_id":76561198025280658,"connected_time":1033000000000,"state":"active","ping":51},{"user_id":205,"name":"Flashtasm","steam_id":76561198026635660,"connected_time":863000000000,"state":"active","ping":105},{"user_id":210,"name":"walrooos","steam_id":76561198024521839,"connected_time":97000000000,"state":"active","ping":45},{"user_id":211,"name":"Civokat","steam_id":76561198389885427,"connected_time":56000000000,"state":"active","ping":56},{"user_id":186,"name":"June","steam_id":76561198141803658,"connected_time":2423000000000,"state":"active","ping":46},{"user_id":136,"name":"BeyBladeMoses","steam_id":76561198044377553,"connected_time":5835000000000,"state":"active","ping":91},{"user_id":187,"name":"RomeLad","steam_id":76561198965438663,"connected_time":2406000000000,"state":"active","ping":57},{"user_id":194,"name":"Syrup","steam_id":76561198055850531,"connected_time":1174000000000,"state":"active","ping":35},{"user_id":207,"name":"Kinda_Clownish","steam_id":76561198309111836,"connected_time":761000000000,"state":"active","ping":122},{"user_id":182,"name":"MistaRattle","steam_id":76561199144406643,"connected_time":2832000000000,"state":"active","ping":59},{"user_id":184,"name":"cielael","steam_id":76561198043971956,"connected_time":2473000000000,"state":"active","ping":49},{"user_id":156,"name":"rat","steam_id":76561198130412963,"connected_time":4447000000000,"state":"active","ping":80},{"user_id":181,"name":"Optimore","steam_id":76561198047662990,"connected_time":3001000000000,"state":"active","ping":45}]},{"server_id":112,"name":"Uncletopia | Los Angeles | 2 | All Maps","name_short":"lax-2","host":"lax-1.us.uncletopia.com","port":27025,"enabled":true,"region":"us-west","cc":"us","latitude":33.94279,"longitude":-118.41004,"reserved":0,"last_update":"0001-01-01T00:00:00Z","name_a2s":"Uncletopia | Los Angeles | 2 | All Maps","protocol":17,"map":"koth_cascade","folder":"tf","game":"Team Fortress","app_id":440,"player_count":0,"max_players":24,"Bots":0,"server_type":"Dedicated","server_os":"Linux","password":true,"vac":true,"version":"7961495","steam_id":85568392924469992,"keywords":["cp","nocrits","nodmgspread","uncletopia"],"game_id":440,"stv_port":27026,"stv_name":"Uncletopia | Los Angeles | 2 | All Maps | STV","players":null},{"server_id":324,"name":"Uncletopia | Los Angeles | 3 | All Maps","name_short":"lax-3","host":"lax-1.us.uncletopia.com","port":27035,"enabled":true,"region":"us-west","cc":"us","latitude":33.94279,"longitude":-118.41004,"reserved":0,"last_update":"0001-01-01T00:00:00Z","name_a2s":"Uncletopia | Los Angeles | 3 | All Maps","protocol":17,"map":"koth_viaduct","folder":"tf","game":"Team Fortress","app_id":440,"player_count":0,"max_players":24,"Bots":0,"server_type":"Dedicated","server_os":"Linux","password":true,"vac":true,"version":"7961495","steam_id":85568392924510198,"keywords":["cp","nocrits","nodmgspread","uncletopia"],"game_id":440,"stv_port":27036,"stv_name":"Uncletopia | Los Angeles | 3 | All Maps | STV","players":null},{"server_id":25,"name":"Uncletopia | Los Angeles | 4 | Stopwatch","name_short":"lax-4","host":"lax-1.us.uncletopia.com","port":27045,"enabled":true,"region":"us-west","cc":"us","latitude":33.94279,"longitude":-118.41004,"reserved":0,"last_update":"0001-01-01T00:00:00Z","name_a2s":"Uncletopia | Los Angeles | 4 | Stopwatch","protocol":17,"map":"koth_lakeside_final","folder":"tf","game":"Team Fortress","app_id":440,"player_count":0,"max_players":24,"Bots":0,"server_type":"Dedicated","server_os":"Linux","password":true,"vac":true,"version":"7961495","steam_id":85568392924510199,"keywords":["cp","nocrits","nodmgspread","uncletopia"],"game_id":440,"stv_port":27046,"stv_name":"Uncletopia | Los Angeles | 4 | Stopwatch | STV","players":null},{"server_id":11,"name":"Uncletopia | London | 1 | All Maps","name_short":"lon-1","host":"lon-1.uk.uncletopia.com","port":27015,"enabled":true,"region":"eu","cc":"gb","latitude":51.509865,"longitude":-0.118092,"reserved":0,"last_update":"0001-01-01T00:00:00Z","name_a2s":"Uncletopia | London | 1 | All Maps","protocol":17,"map":"pl_badwater","folder":"tf","game":"Team Fortress","app_id":440,"player_count":15,"max_players":24,"Bots":0,"server_type":"Dedicated","server_os":"Linux","password":true,"vac":true,"version":"7961495","steam_id":85568392924367362,"keywords":["nocrits","nodmgspread","payload","uncletopia"],"game_id":440,"stv_port":27016,"stv_name":"Uncletopia | London | 1 | All Maps | STV","players":[{"user_id":1096,"name":"Trying to get good at soldier","steam_id":76561199087480628,"connected_time":181000000000,"state":"active","ping":180},{"user_id":1085,"name":"Scoundrel","steam_id":76561198056672372,"connected_time":1288000000000,"state":"active","ping":118},{"user_id":1063,"name":"Burbie","steam_id":76561198046069449,"connected_time":3010000000000,"state":"active","ping":45},{"user_id":1091,"name":"Aries","steam_id":76561198275816528,"connected_time":789000000000,"state":"active","ping":68},{"user_id":1087,"name":"elijah","steam_id":76561198093936708,"connected_time":1065000000000,"state":"active","ping":44},{"user_id":1094,"name":"Clear Sights","steam_id":76561198006215683,"connected_time":413000000000,"state":"active","ping":149},{"user_id":1095,"name":"[WDB] Treadwell","steam_id":76561198088482914,"connected_time":409000000000,"state":"active","ping":45},{"user_id":1097,"name":"Maks","steam_id":76561198315278876,"connected_time":150000000000,"state":"active","ping":55},{"user_id":1054,"name":"torn","steam_id":76561198223003236,"connected_time":4046000000000,"state":"active","ping":31},{"user_id":1098,"name":"QuestionMark","steam_id":76561198976108019,"connected_time":14000000000,"state":"spawning","ping":133},{"user_id":1050,"name":"piss","steam_id":76561197995204779,"connected_time":5363000000000,"state":"active","ping":41},{"user_id":1013,"name":"SuperBob103","steam_id":76561199175360012,"connected_time":7128000000000,"state":"active","ping":47},{"user_id":983,"name":"Lyncurion","steam_id":76561199260022725,"connected_time":9531000000000,"state":"active","ping":73},{"user_id":974,"name":"teddy","steam_id":76561198007436837,"connected_time":10864000000000,"state":"active","ping":31},{"user_id":1051,"name":"waffle toaster","steam_id":76561198799089628,"connected_time":4763000000000,"state":"active","ping":39}]},{"server_id":114,"name":"Uncletopia | London | 2 | All Maps","name_short":"lon-2","host":"lon-1.uk.uncletopia.com","port":27025,"enabled":true,"region":"eu","cc":"gb","latitude":51.509865,"longitude":-0.118092,"reserved":0,"last_update":"0001-01-01T00:00:00Z","name_a2s":"Uncletopia | London | 2 | All Maps","protocol":17,"map":"pl_badwater","folder":"tf","game":"Team Fortress","app_id":440,"player_count":2,"max_players":24,"Bots":0,"server_type":"Dedicated","server_os":"Linux","password":true,"vac":true,"version":"7961495","steam_id":85568392924470941,"keywords":["nocrits","nodmgspread","payload","uncletopia"],"game_id":440,"stv_port":27026,"stv_name":"Uncletopia | London | 2 | All Maps | STV","players":[{"user_id":914,"name":"squirrel - Allkeyshop","steam_id":76561199380974466,"connected_time":779000000000,"state":"active","ping":75},{"user_id":905,"name":"Hussain_144","steam_id":76561198346029208,"connected_time":1444000000000,"state":"active","ping":182}]},{"server_id":320,"name":"Uncletopia | London | 3 | All Maps","name_short":"lon-3","host":"lon-1.uk.uncletopia.com","port":27035,"enabled":true,"region":"eu","cc":"gb","latitude":51.509865,"longitude":-0.118092,"reserved":0,"last_update":"0001-01-01T00:00:00Z","name_a2s":"Uncletopia | London | 3 | All Maps","protocol":17,"map":"koth_cascade","folder":"tf","game":"Team Fortress","app_id":440,"player_count":0,"max_players":24,"Bots":0,"server_type":"Dedicated","server_os":"Linux","password":true,"vac":true,"version":"7961495","steam_id":85568392924510192,"keywords":["cp","nocrits","nodmgspread","uncletopia"],"game_id":440,"stv_port":27036,"stv_name":"Uncletopia | London | 3 | All Maps | STV","players":null},{"server_id":321,"name":"Uncletopia | London | 4 | All Maps","name_short":"lon-4","host":"lon-1.uk.uncletopia.com","port":27045,"enabled":true,"region":"eu","cc":"gb","latitude":51.509865,"longitude":-0.118092,"reserved":0,"last_update":"0001-01-01T00:00:00Z","name_a2s":"Uncletopia | London | 4 | All Maps","protocol":17,"map":"pl_borneo","folder":"tf","game":"Team Fortress","app_id":440,"player_count":0,"max_players":24,"Bots":0,"server_type":"Dedicated","server_os":"Linux","password":true,"vac":true,"version":"7961495","steam_id":85568392924510193,"keywords":["nocrits","nodmgspread","payload","uncletopia"],"game_id":440,"stv_port":27046,"stv_name":"Uncletopia | London | 4 | All Maps | STV","players":null},{"server_id":21,"name":"Uncletopia | London | 5 | All Maps","name_short":"lon-5","host":"lon-1.uk.uncletopia.com","port":27055,"enabled":true,"region":"eu","cc":"gb","latitude":51.509865,"longitude":-0.118092,"reserved":0,"last_update":"0001-01-01T00:00:00Z","name_a2s":"Uncletopia | London | 5 | All Maps","protocol":17,"map":"pl_barnblitz","folder":"tf","game":"Team Fortress","app_id":440,"player_count":0,"max_players":24,"Bots":0,"server_type":"Dedicated","server_os":"Linux","password":true,"vac":true,"version":"7961495","steam_id":85568392924742829,"keywords":["nocrits","nodmgspread","payload","uncletopia"],"game_id":440,"stv_port":27056,"stv_name":"Uncletopia | London | 5 | All Maps | STV","players":null},{"server_id":22,"name":"Uncletopia | London | 6 | All Maps","name_short":"lon-6","host":"lon-1.uk.uncletopia.com","port":27065,"enabled":true,"region":"eu","cc":"gb","latitude":51.509865,"longitude":-0.118092,"reserved":0,"last_update":"0001-01-01T00:00:00Z","name_a2s":"Uncletopia | London | 6 | All Maps","protocol":17,"map":"cp_process_final","folder":"tf","game":"Team Fortress","app_id":440,"player_count":0,"max_players":24,"Bots":0,"server_type":"Dedicated","server_os":"Linux","password":true,"vac":true,"version":"7961495","steam_id":85568392924742830,"keywords":["cp","nocrits","nodmgspread","uncletopia"],"game_id":440,"stv_port":27066,"stv_name":"Uncletopia | London | 6 | All Maps | STV","players":null},{"server_id":40,"name":"Uncletopia | London | 7 | Stopwatch","name_short":"lon-7","host":"lon-1.uk.uncletopia.com","port":27075,"enabled":true,"region":"eu","cc":"gb","latitude":51.509865,"longitude":-0.118092,"reserved":0,"last_update":"0001-01-01T00:00:00Z","name_a2s":"Uncletopia | London | 7 | Stopwatch","protocol":17,"map":"koth_lakeside_final","folder":"tf","game":"Team Fortress","app_id":440,"player_count":0,"max_players":24,"Bots":0,"server_type":"Dedicated","server_os":"Linux","password":true,"vac":true,"version":"7961495","steam_id":85568392924964314,"keywords":["cp","nocrits","nodmgspread","uncletopia"],"game_id":440,"stv_port":27076,"stv_name":"Uncletopia | London | 7 | Stopwatch | STV","players":null},{"server_id":41,"name":"Uncletopia | London | 8 | Community","name_short":"lon-8","host":"lon-1.uk.uncletopia.com","port":27085,"enabled":true,"region":"eu","cc":"gb","latitude":51.509865,"longitude":-0.118092,"reserved":0,"last_update":"0001-01-01T00:00:00Z","name_a2s":"Uncletopia | London | 8 | Community","protocol":17,"map":"workshop/cp_indulge.ugc528106646","folder":"tf","game":"Team Fortress","app_id":440,"player_count":0,"max_players":24,"Bots":0,"server_type":"Dedicated","server_os":"Linux","password":true,"vac":true,"version":"7961495","steam_id":85568392924964315,"keywords":["cp","nocrits","nodmgspread","uncletopia"],"game_id":440,"stv_port":27086,"stv_name":"Uncletopia | London | 8 | Community | STV","players":null},{"server_id":300,"name":"Uncletopia | Montréal | 1 | One Thousand Uncles","name_short":"mtl-1","host":"mtl-1.ca.uncletopia.com","port":27015,"enabled":true,"region":"us-east","cc":"ca","latitude":45.50889,"longitude":-73.56167,"reserved":0,"last_update":"0001-01-01T00:00:00Z","name_a2s":"Uncletopia | Montréal | 1 | One Thousand Uncles","protocol":17,"map":"pl_chilly","folder":"tf","game":"Team Fortress","app_id":440,"player_count":0,"max_players":32,"Bots":0,"server_type":"Dedicated","server_os":"Linux","password":true,"vac":true,"version":"7961495","steam_id":85568392924500087,"keywords":["alltalk","danepve","increased_maxplayers","norespawntime","payload","uncletopia"],"game_id":440,"stv_port":0,"stv_name":"","players":null},{"server_id":301,"name":"Uncletopia | Montréal | 2 | One Thousand Uncles","name_short":"mtl-2","host":"mtl-1.ca.uncletopia.com","port":27025,"enabled":true,"region":"us-east","cc":"ca","latitude":45.50889,"longitude":-73.56167,"reserved":0,"last_update":"0001-01-01T00:00:00Z","name_a2s":"Uncletopia | Montréal | 2 | One Thousand Uncles","protocol":17,"map":"pl_chilly","folder":"tf","game":"Team Fortress","app_id":440,"player_count":0,"max_players":32,"Bots":0,"server_type":"Dedicated","server_os":"Linux","password":true,"vac":true,"version":"7961495","steam_id":85568392924500088,"keywords":["alltalk","danepve","increased_maxplayers","norespawntime","payload","uncletopia"],"game_id":440,"stv_port":0,"stv_name":"","players":null},{"server_id":302,"name":"Uncletopia | Montréal | 3 | One Thousand Uncles","name_short":"mtl-3","host":"mtl-1.ca.uncletopia.com","port":27035,"enabled":true,"region":"us-east","cc":"ca","latitude":45.50889,"longitude":-73.56167,"reserved":0,"last_update":"0001-01-01T00:00:00Z","name_a2s":"Uncletopia | Montréal | 3 | One Thousand Uncles","protocol":17,"map":"pl_goldrush","folder":"tf","game":"Team Fortress","app_id":440,"player_count":17,"max_players":32,"Bots":16,"server_type":"Dedicated","server_os":"Linux","password":true,"vac":true,"version":"7961495","steam_id":85568392924500089,"keywords":["alltalk","bots","danepve","increased_maxplayers","norespawntime","payload","uncletopia"],"game_id":440,"stv_port":0,"stv_name":"","players":[{"user_id":302,"name":"only a spoonful","steam_id":76561198113180616,"connected_time":96000000000,"state":"active","ping":51}]},{"server_id":13,"name":"Uncletopia | New York City | 1 | All Maps","name_short":"nyc-1","host":"nyc-1.us.uncletopia.com","port":27015,"enabled":true,"region":"us-east","cc":"us","latitude":40.73061,"longitude":-73.93524,"reserved":0,"last_update":"0001-01-01T00:00:00Z","name_a2s":"Uncletopia | New York City | 1 | All Maps","protocol":17,"map":"cp_altitude","folder":"tf","game":"Team Fortress","app_id":440,"player_count":23,"max_players":24,"Bots":0,"server_type":"Dedicated","server_os":"Linux","password":true,"vac":true,"version":"7961495","steam_id":85568392924469993,"keywords":["cp","nocrits","nodmgspread","uncletopia"],"game_id":440,"stv_port":27016,"stv_name":"Uncletopia | New York City | 1 | All Maps | STV","players":[{"user_id":815,"name":"NyanPigz","steam_id":76561198124136007,"connected_time":1460000000000,"state":"active","ping":43},{"user_id":818,"name":"Camakazininja","steam_id":76561198032109987,"connected_time":1255000000000,"state":"active","ping":75},{"user_id":824,"name":"Evil little man","steam_id":76561198311053471,"connected_time":1117000000000,"state":"active","ping":90},{"user_id":804,"name":"Bacchus","steam_id":76561198113244990,"connected_time":2118000000000,"state":"active","ping":73},{"user_id":791,"name":"TurboHossBoss","steam_id":76561198052457735,"connected_time":3401000000000,"state":"active","ping":75},{"user_id":812,"name":"Fridgidaere @bowie.gg","steam_id":76561198131467867,"connected_time":1554000000000,"state":"active","ping":105},{"user_id":600,"name":"Noobert McGlitchington the 3st","steam_id":76561198073176682,"connected_time":12832000000000,"state":"active","ping":63},{"user_id":832,"name":"Syphal","steam_id":76561198149093386,"connected_time":159000000000,"state":"active","ping":55},{"user_id":821,"name":"Destiny, Manifested","steam_id":76561198236182166,"connected_time":1188000000000,"state":"active","ping":54},{"user_id":811,"name":"deity main","steam_id":76561199251639888,"connected_time":1713000000000,"state":"active","ping":58},{"user_id":782,"name":"Psychosis","steam_id":76561198078659070,"connected_time":3797000000000,"state":"active","ping":78},{"user_id":827,"name":"just call me joe","steam_id":76561198043911582,"connected_time":1028000000000,"state":"active","ping":46},{"user_id":801,"name":"Yuzu","steam_id":76561198417913035,"connected_time":2221000000000,"state":"active","ping":55},{"user_id":806,"name":"vom","steam_id":76561198070311363,"connected_time":2094000000000,"state":"active","ping":61},{"user_id":807,"name":"awiz4rd","steam_id":76561198016305542,"connected_time":2078000000000,"state":"active","ping":112},{"user_id":799,"name":"Emotional Cowboy","steam_id":76561198041439581,"connected_time":2228000000000,"state":"active","ping":59},{"user_id":831,"name":"emerge","steam_id":76561198186882891,"connected_time":285000000000,"state":"active","ping":68},{"user_id":823,"name":"non professional nouns.","steam_id":76561198294013916,"connected_time":1144000000000,"state":"active","ping":45},{"user_id":814,"name":"pea ttv/peabeanz","steam_id":76561198119551968,"connected_time":1475000000000,"state":"active","ping":59},{"user_id":833,"name":"Puwnter","steam_id":76561198127821062,"connected_time":13000000000,"state":"spawning","ping":47},{"user_id":792,"name":"BiggFoot","steam_id":76561197998605599,"connected_time":3343000000000,"state":"active","ping":61},{"user_id":809,"name":"Mipsiek","steam_id":76561198164013471,"connected_time":2051000000000,"state":"active","ping":29},{"user_id":826,"name":"corntent","steam_id":76561198824847948,"connected_time":1095000000000,"state":"active","ping":29}]},{"server_id":14,"name":"Uncletopia | New York City | 2 | All Maps","name_short":"nyc-2","host":"nyc-1.us.uncletopia.com","port":27025,"enabled":true,"region":"us-east","cc":"us","latitude":40.73061,"longitude":-73.93524,"reserved":0,"last_update":"0001-01-01T00:00:00Z","name_a2s":"Uncletopia | New York City | 2 | All Maps","protocol":17,"map":"pl_barnblitz","folder":"tf","game":"Team Fortress","app_id":440,"player_count":5,"max_players":24,"Bots":0,"server_type":"Dedicated","server_os":"Linux","password":true,"vac":true,"version":"7961495","steam_id":85568392924469994,"keywords":["nocrits","nodmgspread","payload","uncletopia"],"game_id":440,"stv_port":27026,"stv_name":"Uncletopia | New York City | 2 | All Maps | STV","players":[{"user_id":573,"name":"Real","steam_id":76561198119315680,"connected_time":812000000000,"state":"active","ping":64},{"user_id":577,"name":"MrPeanutBetter","steam_id":76561199149697526,"connected_time":444000000000,"state":"active","ping":133},{"user_id":570,"name":"caleb","steam_id":76561199001982443,"connected_time":1614000000000,"state":"active","ping":90},{"user_id":574,"name":"Joe","steam_id":76561198975174452,"connected_time":795000000000,"state":"active","ping":74},{"user_id":469,"name":"Lane","steam_id":76561197965828506,"connected_time":8832000000000,"state":"active","ping":59}]},{"server_id":15,"name":"Uncletopia | New York City | 3 | Stopwatch","name_short":"nyc-3","host":"nyc-1.us.uncletopia.com","port":27035,"enabled":true,"region":"us-east","cc":"us","latitude":40.73061,"longitude":-73.93524,"reserved":0,"last_update":"0001-01-01T00:00:00Z","name_a2s":"Uncletopia | New York City | 3 | Stopwatch","protocol":17,"map":"workshop/koth_product_final.ugc454272353","folder":"tf","game":"Team Fortress","app_id":440,"player_count":0,"max_players":24,"Bots":0,"server_type":"Dedicated","server_os":"Linux","password":true,"vac":true,"version":"7961495","steam_id":85568392924742820,"keywords":["cp","nocrits","nodmgspread","uncletopia"],"game_id":440,"stv_port":27036,"stv_name":"Uncletopia | New York City | 3 | Stopwatch | STV","players":null},{"server_id":16,"name":"Uncletopia | New York City | 4 | Community","name_short":"nyc-4","host":"nyc-1.us.uncletopia.com","port":27045,"enabled":true,"region":"us-east","cc":"us","latitude":40.73061,"longitude":-73.93524,"reserved":0,"last_update":"0001-01-01T00:00:00Z","name_a2s":"Uncletopia | New York City | 4 | Community","protocol":17,"map":"workshop/cp_villa_b19.ugc2113052569","folder":"tf","game":"Team Fortress","app_id":440,"player_count":0,"max_players":24,"Bots":0,"server_type":"Dedicated","server_os":"Linux","password":true,"vac":true,"version":"7961495","steam_id":85568392924742821,"keywords":["cp","nocrits","nodmgspread","uncletopia"],"game_id":440,"stv_port":27046,"stv_name":"Uncletopia | New York City | 4 | Community | STV","players":null},{"server_id":142,"name":"Uncletopia | São Paulo | 1 | All Maps","name_short":"sao-1","host":"sao-1.br.uncletopia.com","port":27015,"enabled":true,"region":"sa","cc":"br","latitude":-23.533773,"longitude":-46.62529,"reserved":0,"last_update":"0001-01-01T00:00:00Z","name_a2s":"Uncletopia | São Paulo | 1 | All Maps","protocol":17,"map":"koth_lakeside_final","folder":"tf","game":"Team Fortress","app_id":440,"player_count":0,"max_players":24,"Bots":0,"server_type":"Dedicated","server_os":"Linux","password":true,"vac":true,"version":"7961495","steam_id":85568392924469996,"keywords":["cp","nocrits","nodmgspread","uncletopia"],"game_id":440,"stv_port":27016,"stv_name":"Uncletopia | São Paulo | 1 | All Maps | STV","players":null},{"server_id":143,"name":"Uncletopia | São Paulo | 2 | Community","name_short":"sao-2","host":"sao-2.br.uncletopia.com","port":27015,"enabled":true,"region":"sa","cc":"br","latitude":-23.533773,"longitude":-46.62529,"reserved":0,"last_update":"0001-01-01T00:00:00Z","name_a2s":"Uncletopia | São Paulo | 2 | Community","protocol":17,"map":"workshop/koth_synthetic_rc6a.ugc1549817316","folder":"tf","game":"Team Fortress","app_id":440,"player_count":0,"max_players":24,"Bots":0,"server_type":"Dedicated","server_os":"Linux","password":true,"vac":true,"version":"7961495","steam_id":85568392924485349,"keywords":["cp","nocrits","nodmgspread","uncletopia"],"game_id":440,"stv_port":27016,"stv_name":"Uncletopia | São Paulo | 2 | Community | STV","players":null},{"server_id":7,"name":"Uncletopia | Seattle | 1 | All Maps","name_short":"sea-1","host":"sea-1.us.uncletopia.com","port":27015,"enabled":true,"region":"us-west","cc":"us","latitude":47.608013,"longitude":-122.33517,"reserved":0,"last_update":"0001-01-01T00:00:00Z","name_a2s":"Uncletopia | Seattle | 1 | All Maps","protocol":17,"map":"koth_harvest_final","folder":"tf","game":"Team Fortress","app_id":440,"player_count":24,"max_players":24,"Bots":0,"server_type":"Dedicated","server_os":"Linux","password":true,"vac":true,"version":"7961495","steam_id":85568392924469997,"keywords":["cp","nocrits","nodmgspread","uncletopia"],"game_id":440,"stv_port":27016,"stv_name":"Uncletopia | Seattle | 1 | All Maps | STV","players":[{"user_id":534,"name":"Ayayayayayayayayayayayayahuasca","steam_id":76561199002906056,"connected_time":2089000000000,"state":"active","ping":43},{"user_id":553,"name":"Drone #0432 (they/it)\u0026","steam_id":76561198027321950,"connected_time":120000000000,"state":"active","ping":61},{"user_id":546,"name":"duddlee","steam_id":76561198030052564,"connected_time":165000000000,"state":"active","ping":60},{"user_id":536,"name":"day6","steam_id":76561198168492250,"connected_time":1700000000000,"state":"active","ping":82},{"user_id":512,"name":"Melly","steam_id":76561198045867175,"connected_time":4378000000000,"state":"active","ping":53},{"user_id":537,"name":"Robogineer","steam_id":76561198026994739,"connected_time":1690000000000,"state":"active","ping":75},{"user_id":539,"name":"William P. Ennis","steam_id":76561198073464877,"connected_time":1454000000000,"state":"active","ping":90},{"user_id":528,"name":"[TrC] Nosy","steam_id":76561197978859310,"connected_time":2688000000000,"state":"active","ping":56},{"user_id":554,"name":"allMAX","steam_id":76561198270980670,"connected_time":104000000000,"state":"active","ping":154},{"user_id":555,"name":"Attrition","steam_id":76561197969881916,"connected_time":93000000000,"state":"active","ping":47},{"user_id":524,"name":"big cock. and balls too.","steam_id":76561198046073848,"connected_time":2933000000000,"state":"active","ping":45},{"user_id":541,"name":"Leeroy Jenkins","steam_id":76561198037817286,"connected_time":1068000000000,"state":"active","ping":104},{"user_id":542,"name":"Stapler","steam_id":76561198099295077,"connected_time":941000000000,"state":"active","ping":60},{"user_id":517,"name":"Why is Logan Paul at Safeway","steam_id":76561198116023052,"connected_time":3903000000000,"state":"active","ping":77},{"user_id":557,"name":"Schwifty Sky","steam_id":76561198044121499,"connected_time":39000000000,"state":"active","ping":46},{"user_id":529,"name":"[TrC] Dackstrus","steam_id":76561197973518509,"connected_time":2505000000000,"state":"active","ping":56},{"user_id":487,"name":"PopcornBucketGames","steam_id":76561199089562026,"connected_time":6418000000000,"state":"active","ping":43},{"user_id":550,"name":"Be Gay, Do Crimes, Smoke Weed!","steam_id":76561198092419868,"connected_time":142000000000,"state":"active","ping":85},{"user_id":540,"name":"Dextersbrain","steam_id":76561198011831579,"connected_time":1239000000000,"state":"active","ping":58},{"user_id":523,"name":"Mignyanne :3","steam_id":76561198048754056,"connected_time":2948000000000,"state":"active","ping":69},{"user_id":551,"name":"rat gets the cheese","steam_id":76561198031234032,"connected_time":141000000000,"state":"active","ping":101},{"user_id":514,"name":"Thexx ❤","steam_id":76561198113823050,"connected_time":3985000000000,"state":"active","ping":56},{"user_id":552,"name":"Skabbety","steam_id":76561198168044257,"connected_time":140000000000,"state":"active","ping":38},{"user_id":547,"name":"roody","steam_id":76561198066260405,"connected_time":165000000000,"state":"active","ping":60}]},{"server_id":119,"name":"Uncletopia | Seattle | 2 | All Maps","name_short":"sea-2","host":"sea-1.us.uncletopia.com","port":27025,"enabled":true,"region":"us-west","cc":"us","latitude":47.608013,"longitude":-122.33517,"reserved":0,"last_update":"0001-01-01T00:00:00Z","name_a2s":"Uncletopia | Seattle | 2 | All Maps","protocol":17,"map":"cp_powerhouse","folder":"tf","game":"Team Fortress","app_id":440,"player_count":24,"max_players":24,"Bots":0,"server_type":"Dedicated","server_os":"Linux","password":true,"vac":true,"version":"7961495","steam_id":85568392924469998,"keywords":["cp","nocrits","nodmgspread","uncletopia"],"game_id":440,"stv_port":27026,"stv_name":"Uncletopia | Seattle | 2 | All Maps | STV","players":[{"user_id":380,"name":"no vc no c","steam_id":76561197989503095,"connected_time":4704000000000,"state":"active","ping":150},{"user_id":410,"name":"dearender the burger fan","steam_id":76561199427644498,"connected_time":1228000000000,"state":"active","ping":97},{"user_id":416,"name":"doopsies","steam_id":76561198083000867,"connected_time":988000000000,"state":"active","ping":49},{"user_id":436,"name":"super dude epic fail","steam_id":76561198101823902,"connected_time":279000000000,"state":"active","ping":59},{"user_id":418,"name":"Hankel Tom (The Hankeler)","steam_id":76561199446367874,"connected_time":916000000000,"state":"active","ping":82},{"user_id":395,"name":"Red-Raven","steam_id":76561197971130794,"connected_time":3109000000000,"state":"active","ping":70},{"user_id":402,"name":"Keamy","steam_id":76561199471434875,"connected_time":1958000000000,"state":"active","ping":42},{"user_id":405,"name":"Chip","steam_id":76561198182205245,"connected_time":1869000000000,"state":"active","ping":125},{"user_id":389,"name":"Comedy Idiot","steam_id":76561198388409329,"connected_time":4155000000000,"state":"active","ping":57},{"user_id":390,"name":"Katie XXII","steam_id":76561198135534297,"connected_time":4146000000000,"state":"active","ping":48},{"user_id":421,"name":"WAnker","steam_id":76561198366451484,"connected_time":746000000000,"state":"active","ping":65},{"user_id":437,"name":"Gibby","steam_id":76561198359568579,"connected_time":236000000000,"state":"active","ping":49},{"user_id":419,"name":"Kakavian","steam_id":76561198030549172,"connected_time":812000000000,"state":"active","ping":84},{"user_id":374,"name":"Nick","steam_id":76561198329096986,"connected_time":5660000000000,"state":"active","ping":90},{"user_id":385,"name":"BLU3","steam_id":76561198059652670,"connected_time":4192000000000,"state":"active","ping":51},{"user_id":435,"name":"LavenderSys","steam_id":76561198289106015,"connected_time":280000000000,"state":"active","ping":46},{"user_id":434,"name":"juan.png","steam_id":76561199276894516,"connected_time":322000000000,"state":"active","ping":52},{"user_id":386,"name":"ORANGE","steam_id":76561198000401769,"connected_time":4186000000000,"state":"active","ping":55},{"user_id":364,"name":"Just Juanito","steam_id":76561198241446874,"connected_time":6133000000000,"state":"active","ping":149},{"user_id":430,"name":"Soul","steam_id":76561198337638184,"connected_time":482000000000,"state":"active","ping":119},{"user_id":415,"name":"non_ai","steam_id":76561198270951938,"connected_time":1103000000000,"state":"active","ping":112},{"user_id":397,"name":"tghalepeno","steam_id":76561198858018027,"connected_time":3014000000000,"state":"active","ping":91},{"user_id":378,"name":"jr933368","steam_id":76561199507931052,"connected_time":5601000000000,"state":"active","ping":103},{"user_id":400,"name":"tunaa","steam_id":76561198362763159,"connected_time":2371000000000,"state":"active","ping":84}]},{"server_id":406,"name":"Uncletopia | Seattle | 3 | Stopwatch","name_short":"sea-3","host":"sea-1.us.uncletopia.com","port":27035,"enabled":true,"region":"us-west","cc":"us","latitude":47.608013,"longitude":-122.33517,"reserved":0,"last_update":"0001-01-01T00:00:00Z","name_a2s":"Uncletopia | Seattle | 3 | Stopwatch","protocol":17,"map":"workshop/koth_clearcut_b15.ugc2107050255","folder":"tf","game":"Team Fortress","app_id":440,"player_count":0,"max_players":24,"Bots":0,"server_type":"Dedicated","server_os":"Linux","password":true,"vac":true,"version":"7961495","steam_id":85568392924515217,"keywords":["cp","nocrits","nodmgspread","uncletopia"],"game_id":440,"stv_port":27036,"stv_name":"Uncletopia | Seattle | 3 | Stopwatch | STV","players":null},{"server_id":17,"name":"Uncletopia | San Francisco | 1 | All Maps","name_short":"sfo-1","host":"sfo-1.us.uncletopia.com","port":27015,"enabled":true,"region":"us-west","cc":"us","latitude":37.77397,"longitude":-122.4313,"reserved":0,"last_update":"0001-01-01T00:00:00Z","name_a2s":"Uncletopia | San Francisco | 1 | All Maps","protocol":17,"map":"koth_viaduct","folder":"tf","game":"Team Fortress","app_id":440,"player_count":24,"max_players":24,"Bots":0,"server_type":"Dedicated","server_os":"Linux","password":true,"vac":true,"version":"7961495","steam_id":85568392924469999,"keywords":["cp","nocrits","nodmgspread","uncletopia"],"game_id":440,"stv_port":27016,"stv_name":"Uncletopia | San Francisco | 1 | All Maps | STV","players":[{"user_id":387,"name":"Ethan","steam_id":76561198371216468,"connected_time":2937000000000,"state":"active","ping":62},{"user_id":404,"name":"Tronald Dump","steam_id":76561197985606479,"connected_time":1882000000000,"state":"active","ping":55},{"user_id":423,"name":"bottom pride burger","steam_id":76561198322247602,"connected_time":490000000000,"state":"active","ping":52},{"user_id":399,"name":"Hotdoggiest","steam_id":76561198049420141,"connected_time":2080000000000,"state":"active","ping":57},{"user_id":410,"name":"wrist game dumbin","steam_id":76561198247984828,"connected_time":1444000000000,"state":"active","ping":62},{"user_id":380,"name":"Big_Floaf","steam_id":76561198989282917,"connected_time":3236000000000,"state":"active","ping":70},{"user_id":393,"name":"THE Shovel Knight","steam_id":76561198306811759,"connected_time":2381000000000,"state":"active","ping":139},{"user_id":415,"name":"eryn 🗺","steam_id":76561198004433070,"connected_time":1051000000000,"state":"active","ping":92},{"user_id":388,"name":"Gamer1243","steam_id":76561199073760355,"connected_time":2902000000000,"state":"active","ping":57},{"user_id":418,"name":"Celeritas","steam_id":76561198133414847,"connected_time":898000000000,"state":"active","ping":59},{"user_id":403,"name":"Selective Serotonin Inhibitor","steam_id":76561198397908108,"connected_time":2015000000000,"state":"active","ping":75},{"user_id":420,"name":"Spirit","steam_id":76561198861875678,"connected_time":676000000000,"state":"active","ping":58},{"user_id":419,"name":"Ducky™","steam_id":76561198219758423,"connected_time":838000000000,"state":"active","ping":68},{"user_id":396,"name":"TüCold","steam_id":76561198111278197,"connected_time":2269000000000,"state":"active","ping":57},{"user_id":365,"name":"A UsedNom","steam_id":76561198402832756,"connected_time":4455000000000,"state":"active","ping":43},{"user_id":408,"name":"MakoMacho","steam_id":76561198108182485,"connected_time":1622000000000,"state":"active","ping":89},{"user_id":397,"name":"Frank","steam_id":76561198126681511,"connected_time":2254000000000,"state":"active","ping":60},{"user_id":421,"name":"hypergressive","steam_id":76561198065860750,"connected_time":667000000000,"state":"active","ping":58},{"user_id":345,"name":"OxOoxen841","steam_id":76561198297981993,"connected_time":5484000000000,"state":"active","ping":99},{"user_id":406,"name":"Scoops M'Gooch","steam_id":76561198048423812,"connected_time":1788000000000,"state":"active","ping":61},{"user_id":425,"name":"Dongus","steam_id":76561197979056451,"connected_time":210000000000,"state":"active","ping":75},{"user_id":331,"name":"the pizza","steam_id":76561198221331476,"connected_time":6472000000000,"state":"active","ping":41},{"user_id":348,"name":"SPYERLAND","steam_id":76561199204772421,"connected_time":5459000000000,"state":"active","ping":36},{"user_id":427,"name":"Os pretos","steam_id":76561198068672882,"connected_time":28000000000,"state":"active","ping":56}]},{"server_id":18,"name":"Uncletopia | San Francisco | 2 | All Maps","name_short":"sfo-2","host":"sfo-1.us.uncletopia.com","port":27025,"enabled":true,"region":"us-west","cc":"us","latitude":37.77397,"longitude":-122.4313,"reserved":0,"last_update":"0001-01-01T00:00:00Z","name_a2s":"Uncletopia | San Francisco | 2 | All Maps","protocol":17,"map":"pl_snowycoast","folder":"tf","game":"Team Fortress","app_id":440,"player_count":24,"max_players":24,"Bots":0,"server_type":"Dedicated","server_os":"Linux","password":true,"vac":true,"version":"7961495","steam_id":85568392924470000,"keywords":["nocrits","nodmgspread","payload","uncletopia"],"game_id":440,"stv_port":27026,"stv_name":"Uncletopia | San Francisco | 2 | All Maps | STV","players":[{"user_id":86,"name":"HiddenEgg","steam_id":76561199045105518,"connected_time":1693000000000,"state":"active","ping":54},{"user_id":101,"name":"Ssamjang","steam_id":76561197966891870,"connected_time":801000000000,"state":"active","ping":56},{"user_id":104,"name":"Copy","steam_id":76561198025031590,"connected_time":447000000000,"state":"active","ping":74},{"user_id":81,"name":"copper","steam_id":76561198146250533,"connected_time":2134000000000,"state":"active","ping":43},{"user_id":97,"name":"JellyParrot","steam_id":76561199190990163,"connected_time":1046000000000,"state":"active","ping":98},{"user_id":78,"name":"MaDeuce","steam_id":76561198110732835,"connected_time":2196000000000,"state":"active","ping":92},{"user_id":71,"name":"alemini","steam_id":76561198831530811,"connected_time":3182000000000,"state":"active","ping":55},{"user_id":105,"name":"VanWic","steam_id":76561198094537538,"connected_time":429000000000,"state":"active","ping":57},{"user_id":102,"name":"MEDIC!","steam_id":76561198407291397,"connected_time":792000000000,"state":"active","ping":99},{"user_id":82,"name":"Kazoo","steam_id":76561199229748300,"connected_time":2109000000000,"state":"active","ping":59},{"user_id":95,"name":"The snake shake","steam_id":76561198862720808,"connected_time":1447000000000,"state":"active","ping":54},{"user_id":107,"name":"Life.....","steam_id":76561199099870494,"connected_time":41000000000,"state":"spawning","ping":60},{"user_id":106,"name":"Cinna_Cloudzz","steam_id":76561198385916106,"connected_time":272000000000,"state":"active","ping":84},{"user_id":64,"name":"Ian","steam_id":76561198159334435,"connected_time":3460000000000,"state":"active","ping":179},{"user_id":75,"name":"Dr. Juvenal","steam_id":76561198114553453,"connected_time":2527000000000,"state":"active","ping":63},{"user_id":100,"name":"CheekiBreeki","steam_id":76561198008596138,"connected_time":959000000000,"state":"active","ping":76},{"user_id":35,"name":"the dishtv1605","steam_id":76561198061284371,"connected_time":4647000000000,"state":"active","ping":124},{"user_id":84,"name":"Bonkpan","steam_id":76561198156482596,"connected_time":1968000000000,"state":"active","ping":119},{"user_id":103,"name":"mashed soft warm soup in a can.","steam_id":76561198171368297,"connected_time":555000000000,"state":"active","ping":102},{"user_id":41,"name":"pipebombrater","steam_id":76561199029030831,"connected_time":4532000000000,"state":"active","ping":121},{"user_id":69,"name":"gordon weedman","steam_id":76561198128363064,"connected_time":3319000000000,"state":"active","ping":106},{"user_id":85,"name":"menta fresca","steam_id":76561198086666486,"connected_time":1725000000000,"state":"active","ping":58},{"user_id":99,"name":"Pah-Wraith Gul Dukat","steam_id":76561198033918106,"connected_time":982000000000,"state":"active","ping":61},{"user_id":90,"name":"prehistoric gamer","steam_id":76561198069523062,"connected_time":1622000000000,"state":"active","ping":64}]},{"server_id":19,"name":"Uncletopia | San Francisco | 3 | Stopwatch","name_short":"sfo-3","host":"sfo-1.us.uncletopia.com","port":27035,"enabled":true,"region":"us-west","cc":"us","latitude":37.77397,"longitude":-122.4313,"reserved":0,"last_update":"0001-01-01T00:00:00Z","name_a2s":"Uncletopia | San Francisco | 3 | Stopwatch","protocol":17,"map":"workshop/koth_jamram_rc1a.ugc2964065613","folder":"tf","game":"Team Fortress","app_id":440,"player_count":0,"max_players":24,"Bots":0,"server_type":"Dedicated","server_os":"Linux","password":true,"vac":true,"version":"7961495","steam_id":85568392924742824,"keywords":["cp","nocrits","nodmgspread","uncletopia"],"game_id":440,"stv_port":27036,"stv_name":"Uncletopia | San Francisco | 3 | Stopwatch | STV","players":null},{"server_id":20,"name":"Uncletopia | San Francisco | 4 | Community","name_short":"sfo-4","host":"sfo-1.us.uncletopia.com","port":27045,"enabled":true,"region":"us-west","cc":"us","latitude":37.77397,"longitude":-122.4313,"reserved":0,"last_update":"0001-01-01T00:00:00Z","name_a2s":"Uncletopia | San Francisco | 4 | Community","protocol":17,"map":"workshop/pl_barnblitz_pro7.ugc582280235","folder":"tf","game":"Team Fortress","app_id":440,"player_count":0,"max_players":24,"Bots":0,"server_type":"Dedicated","server_os":"Linux","password":true,"vac":true,"version":"7961495","steam_id":85568392924742826,"keywords":["nocrits","nodmgspread","payload","uncletopia"],"game_id":440,"stv_port":27046,"stv_name":"Uncletopia | San Francisco | 4 | Community | STV","players":null},{"server_id":141,"name":"Uncletopia | Sydney | 1 | All Maps","name_short":"syd-1","host":"syd-1.au.uncletopia.com","port":27015,"enabled":true,"region":"au","cc":"au","latitude":-33.865143,"longitude":151.2099,"reserved":0,"last_update":"0001-01-01T00:00:00Z","name_a2s":"Uncletopia | Sydney | 1 | All Maps","protocol":17,"map":"pl_upward","folder":"tf","game":"Team Fortress","app_id":440,"player_count":24,"max_players":24,"Bots":0,"server_type":"Dedicated","server_os":"Linux","password":true,"vac":true,"version":"7961495","steam_id":85568392924470001,"keywords":["nocrits","nodmgspread","payload","uncletopia"],"game_id":440,"stv_port":27016,"stv_name":"Uncletopia | Sydney | 1 | All Maps | STV","players":[{"user_id":123,"name":"t.tv/catherine_x3","steam_id":76561198041907885,"connected_time":979000000000,"state":"active","ping":66},{"user_id":113,"name":"ditzy","steam_id":76561198120774968,"connected_time":1902000000000,"state":"active","ping":79},{"user_id":105,"name":"man","steam_id":76561198094041769,"connected_time":2469000000000,"state":"active","ping":31},{"user_id":122,"name":"doctor morbin' (official)","steam_id":76561199365241695,"connected_time":1036000000000,"state":"active","ping":120},{"user_id":71,"name":"sav","steam_id":76561198058760041,"connected_time":4552000000000,"state":"active","ping":76},{"user_id":103,"name":"Windows 95","steam_id":76561198079335990,"connected_time":2571000000000,"state":"active","ping":60},{"user_id":72,"name":"wither2008","steam_id":76561198138710067,"connected_time":4528000000000,"state":"active","ping":53},{"user_id":107,"name":"Joy in A Box","steam_id":76561198156820753,"connected_time":2285000000000,"state":"active","ping":163},{"user_id":132,"name":"...","steam_id":76561198309750355,"connected_time":655000000000,"state":"active","ping":54},{"user_id":130,"name":"Paula","steam_id":76561198010688399,"connected_time":710000000000,"state":"active","ping":71},{"user_id":116,"name":"MINI S.","steam_id":76561198116179875,"connected_time":1506000000000,"state":"active","ping":63},{"user_id":124,"name":"rule","steam_id":76561198045589950,"connected_time":967000000000,"state":"active","ping":56},{"user_id":125,"name":"LeoJoeD","steam_id":76561198161848749,"connected_time":958000000000,"state":"active","ping":41},{"user_id":133,"name":"james16","steam_id":76561198362678073,"connected_time":4000000000,"state":"spawning","ping":40},{"user_id":98,"name":"Glockenspe (She/Her)","steam_id":76561199184115241,"connected_time":2738000000000,"state":"active","ping":43},{"user_id":118,"name":"Plushie","steam_id":76561198043226890,"connected_time":1285000000000,"state":"active","ping":47},{"user_id":87,"name":"tf2 dung eater","steam_id":76561198274740718,"connected_time":3241000000000,"state":"active","ping":79},{"user_id":127,"name":"buff_sheep","steam_id":76561199122474585,"connected_time":847000000000,"state":"active","ping":92},{"user_id":128,"name":"itsnothenry","steam_id":76561197966455767,"connected_time":827000000000,"state":"active","ping":54},{"user_id":76,"name":"COLLINSct","steam_id":76561198045395403,"connected_time":4364000000000,"state":"active","ping":58},{"user_id":88,"name":"It is suck her dick sunday","steam_id":76561198126153554,"connected_time":3076000000000,"state":"active","ping":80},{"user_id":129,"name":"please be patient i have autism","steam_id":76561199219741520,"connected_time":775000000000,"state":"active","ping":93},{"user_id":120,"name":"Jacob","steam_id":76561198059341907,"connected_time":1148000000000,"state":"active","ping":46},{"user_id":114,"name":"Jay","steam_id":76561198818957522,"connected_time":1888000000000,"state":"active","ping":43}]},{"server_id":123,"name":"Uncletopia | Sydney | 2 | All Maps","name_short":"syd-2","host":"syd-1.au.uncletopia.com","port":27025,"enabled":true,"region":"au","cc":"au","latitude":-33.865143,"longitude":151.2099,"reserved":0,"last_update":"0001-01-01T00:00:00Z","name_a2s":"Uncletopia | Sydney | 2 | All Maps","protocol":17,"map":"pl_snowycoast","folder":"tf","game":"Team Fortress","app_id":440,"player_count":0,"max_players":24,"Bots":0,"server_type":"Dedicated","server_os":"Linux","password":true,"vac":true,"version":"7961495","steam_id":85568392924470002,"keywords":["nocrits","nodmgspread","payload","uncletopia"],"game_id":440,"stv_port":27026,"stv_name":"Uncletopia | Sydney | 2 | All Maps | STV","players":null},{"server_id":395,"name":"Uncletopia | Sydney | 3 | All Maps","name_short":"syd-3","host":"syd-1.au.uncletopia.com","port":27035,"enabled":true,"region":"au","cc":"au","latitude":-33.865143,"longitude":151.2099,"reserved":0,"last_update":"0001-01-01T00:00:00Z","name_a2s":"Uncletopia | Sydney | 3 | All Maps","protocol":17,"map":"cp_sunshine","folder":"tf","game":"Team Fortress","app_id":440,"player_count":0,"max_players":24,"Bots":0,"server_type":"Dedicated","server_os":"Linux","password":true,"vac":true,"version":"7961495","steam_id":85568392925194467,"keywords":["cp","nocrits","nodmgspread","uncletopia"],"game_id":440,"stv_port":27036,"stv_name":"Uncletopia | Sydney | 3 | All Maps | STV","players":null},{"server_id":396,"name":"Uncletopia | Sydney | 4 | All Maps","name_short":"syd-4","host":"syd-1.au.uncletopia.com","port":27045,"enabled":true,"region":"au","cc":"au","latitude":-33.865143,"longitude":151.2099,"reserved":0,"last_update":"0001-01-01T00:00:00Z","name_a2s":"Uncletopia | Sydney | 4 | All Maps","protocol":17,"map":"koth_lakeside_final","folder":"tf","game":"Team Fortress","app_id":440,"player_count":3,"max_players":24,"Bots":0,"server_type":"Dedicated","server_os":"Linux","password":true,"vac":true,"version":"7961495","steam_id":85568392925397958,"keywords":["cp","nocrits","nodmgspread","uncletopia"],"game_id":440,"stv_port":27046,"stv_name":"Uncletopia | Sydney | 4 | All Maps | STV","players":[{"user_id":12,"name":"da.whizz","steam_id":76561199085020605,"connected_time":574000000000,"state":"active","ping":55},{"user_id":13,"name":"xbdgerxferyfne","steam_id":76561199217980387,"connected_time":543000000000,"state":"active","ping":60},{"user_id":14,"name":"{holy-miss}","steam_id":76561199444995996,"connected_time":318000000000,"state":"active","ping":54}]},{"server_id":58,"name":"Uncletopia | Sydney | 5 | Stopwatch","name_short":"syd-5","host":"syd-1.au.uncletopia.com","port":27055,"enabled":true,"region":"au","cc":"au","latitude":-33.865143,"longitude":151.2099,"reserved":0,"last_update":"0001-01-01T00:00:00Z","name_a2s":"Uncletopia | Sydney | 5 | Stopwatch","protocol":17,"map":"workshop/koth_product_final.ugc454272353","folder":"tf","game":"Team Fortress","app_id":440,"player_count":0,"max_players":24,"Bots":0,"server_type":"Dedicated","server_os":"Linux","password":true,"vac":true,"version":"7961495","steam_id":85568392925397959,"keywords":["cp","nocrits","nodmgspread","uncletopia"],"game_id":440,"stv_port":27056,"stv_name":"Uncletopia | Sydney | 5 | Stopwatch | STV","players":null},{"server_id":59,"name":"Uncletopia | Sydney | 6 | Community","name_short":"syd-6","host":"syd-1.au.uncletopia.com","port":27065,"enabled":true,"region":"au","cc":"au","latitude":-33.865143,"longitude":151.2099,"reserved":0,"last_update":"0001-01-01T00:00:00Z","name_a2s":"Uncletopia | Sydney | 6 | Community","protocol":17,"map":"workshop/koth_trenchfoot_ab1.ugc731436616","folder":"tf","game":"Team Fortress","app_id":440,"player_count":0,"max_players":24,"Bots":0,"server_type":"Dedicated","server_os":"Linux","password":true,"vac":true,"version":"7961495","steam_id":85568392925397960,"keywords":["cp","nocrits","nodmgspread","uncletopia"],"game_id":440,"stv_port":27066,"stv_name":"Uncletopia | Sydney | 6 | Community | STV","players":null},{"server_id":49,"name":"Uncletopia | Warsaw | 1 | One Thousand Uncles","name_short":"waw-1","host":"waw-1.pl.uncletopia.com","port":27015,"enabled":true,"region":"eu","cc":"pl","latitude":52.2297,"longitude":21.017532,"reserved":0,"last_update":"0001-01-01T00:00:00Z","name_a2s":"Uncletopia | Warsaw | 1 | One Thousand Uncles","protocol":17,"map":"pl_barnblitz","folder":"tf","game":"Team Fortress","app_id":440,"player_count":21,"max_players":32,"Bots":16,"server_type":"Dedicated","server_os":"Linux","password":true,"vac":true,"version":"7961495","steam_id":85568392925397850,"keywords":["alltalk","bots","danepve","increased_maxplayers","norespawntime","payload","uncletopia"],"game_id":440,"stv_port":0,"stv_name":"","players":[{"user_id":961,"name":"GoatLord1","steam_id":76561198157964544,"connected_time":4432000000000,"state":"active","ping":83},{"user_id":962,"name":"SalDro","steam_id":76561199218262945,"connected_time":3448000000000,"state":"active","ping":96},{"user_id":963,"name":"Robert Nutbar","steam_id":76561198062334757,"connected_time":3328000000000,"state":"active","ping":160},{"user_id":968,"name":"Nari","steam_id":76561199220038535,"connected_time":2181000000000,"state":"active","ping":172},{"user_id":966,"name":"meth enjoyer","steam_id":76561198298887409,"connected_time":2525000000000,"state":"active","ping":430}]},{"server_id":50,"name":"Uncletopia | Warsaw | 2 | One Thousand Uncles","name_short":"waw-2","host":"waw-1.pl.uncletopia.com","port":27025,"enabled":true,"region":"eu","cc":"pl","latitude":52.2297,"longitude":21.017532,"reserved":0,"last_update":"0001-01-01T00:00:00Z","name_a2s":"Uncletopia | Warsaw | 2 | One Thousand Uncles","protocol":17,"map":"pl_chilly","folder":"tf","game":"Team Fortress","app_id":440,"player_count":0,"max_players":32,"Bots":0,"server_type":"Dedicated","server_os":"Linux","password":true,"vac":true,"version":"7961495","steam_id":85568392925397851,"keywords":["alltalk","danepve","increased_maxplayers","norespawntime","payload","uncletopia"],"game_id":440,"stv_port":0,"stv_name":"","players":null},{"server_id":51,"name":"Uncletopia | Warsaw | 3 | All Maps","name_short":"waw-3","host":"waw-1.pl.uncletopia.com","port":27035,"enabled":true,"region":"eu","cc":"pl","latitude":52.2297,"longitude":21.017532,"reserved":0,"last_update":"0001-01-01T00:00:00Z","name_a2s":"Uncletopia | Warsaw | 3 | All Maps","protocol":17,"map":"pl_snowycoast","folder":"tf","game":"Team Fortress","app_id":440,"player_count":0,"max_players":24,"Bots":0,"server_type":"Dedicated","server_os":"Linux","password":true,"vac":true,"version":"7961495","steam_id":85568392925397852,"keywords":["nocrits","nodmgspread","payload","uncletopia"],"game_id":440,"stv_port":27036,"stv_name":"Uncletopia | Warsaw | 3 | All Maps | STV","players":null},{"server_id":52,"name":"Uncletopia | Warsaw | 4 | All Maps","name_short":"waw-4","host":"waw-1.pl.uncletopia.com","port":27045,"enabled":true,"region":"eu","cc":"pl","latitude":52.2297,"longitude":21.017532,"reserved":0,"last_update":"0001-01-01T00:00:00Z","name_a2s":"Uncletopia | Warsaw | 4 | All Maps","protocol":17,"map":"koth_lakeside_final","folder":"tf","game":"Team Fortress","app_id":440,"player_count":0,"max_players":24,"Bots":0,"server_type":"Dedicated","server_os":"Linux","password":true,"vac":true,"version":"7961495","steam_id":85568392925397853,"keywords":["cp","nocrits","nodmgspread","uncletopia"],"game_id":440,"stv_port":27046,"stv_name":"Uncletopia | Warsaw | 4 | All Maps | STV","players":null},{"server_id":53,"name":"Uncletopia | Warsaw | 5 | Stopwatch","name_short":"waw-5","host":"waw-1.pl.uncletopia.com","port":27055,"enabled":true,"region":"eu","cc":"pl","latitude":52.2297,"longitude":21.017532,"reserved":0,"last_update":"0001-01-01T00:00:00Z","name_a2s":"Uncletopia | Warsaw | 5 | Stopwatch","protocol":17,"map":"koth_lakeside_final","folder":"tf","game":"Team Fortress","app_id":440,"player_count":0,"max_players":24,"Bots":0,"server_type":"Dedicated","server_os":"Linux","password":true,"vac":true,"version":"7961495","steam_id":85568392925397854,"keywords":["cp","nocrits","nodmgspread","uncletopia"],"game_id":440,"stv_port":27056,"stv_name":"Uncletopia | Warsaw | 5 | Stopwatch | STV","players":null},{"server_id":54,"name":"Uncletopia | Warsaw | 6 | Community","name_short":"waw-6","host":"waw-1.pl.uncletopia.com","port":27065,"enabled":true,"region":"eu","cc":"pl","latitude":52.2297,"longitude":21.017532,"reserved":0,"last_update":"0001-01-01T00:00:00Z","name_a2s":"Uncletopia | Warsaw | 6 | Community","protocol":17,"map":"workshop/koth_slaughter_rc1.ugc1712845210","folder":"tf","game":"Team Fortress","app_id":440,"player_count":0,"max_players":24,"Bots":0,"server_type":"Dedicated","server_os":"Linux","password":true,"vac":true,"version":"7961495","steam_id":85568392925397856,"keywords":["cp","nocrits","nodmgspread","uncletopia"],"game_id":440,"stv_port":27066,"stv_name":"Uncletopia | Warsaw | 6 | Community | STV","players":null}]}