{"status":true,"message":"","result":[{"server_id":9,"name":"Uncletopia | Atlanta | 1 | All Maps","name_short":"atl-1","host":"atl-1.us.uncletopia.com","port":27015,"enabled":true,"region":"us-east","cc":"us","latitude":33.753746,"longitude":-84.38633,"reserved":0,"last_update":"0001-01-01T00:00:00Z","name_a2s":"Uncletopia | Atlanta | 1 | All Maps","protocol":17,"map":"pl_barnblitz","folder":"tf","game":"Team Fortress","app_id":440,"player_count":14,"max_players":24,"Bots":0,"server_type":"Dedicated","server_os":"Linux","password":true,"vac":true,"version":"7757534","steam_id":85568392924469982,"keywords":["nocrits","nodmgspread","payload","uncletopia"],"game_id":440,"stv_port":27016,"stv_name":"Uncletopia | Atlanta | 1 | All Maps | STV","players":[{"user_id":20,"name":"box","steam_id":76561198985635309,"connected_time":707000000000,"state":"active","ping":87},{"user_id":16,"name":"Towns","steam_id":76561198984662863,"connected_time":1496000000000,"state":"active","ping":77},{"user_id":17,"name":"Griffin","steam_id":76561198159339442,"connected_time":1495000000000,"state":"active","ping":79},{"user_id":18,"name":"gritty 2024","steam_id":76561198165567310,"connected_time":1101000000000,"state":"active","ping":55},{"user_id":21,"name":"\u003c blank \u003e","steam_id":76561198012566503,"connected_time":698000000000,"state":"active","ping":86},{"user_id":22,"name":"nemo","steam_id":76561198319990195,"connected_time":635000000000,"state":"active","ping":75},{"user_id":36,"name":"BigBubble42","steam_id":76561198136286123,"connected_time":131000000000,"state":"active","ping":46},{"user_id":33,"name":"Doominic","steam_id":76561198259172209,"connected_time":260000000000,"state":"active","ping":88},{"user_id":28,"name":"hubert","steam_id":76561198999159056,"connected_time":435000000000,"state":"active","ping":72},{"user_id":27,"name":"Picked Wiss","steam_id":76561198057745131,"connected_time":450000000000,"state":"active","ping":46},{"user_id":29,"name":"Disambiguation","steam_id":76561198133963270,"connected_time":421000000000,"state":"active","ping":52},{"user_id":34,"name":"mepng","steam_id":76561199018758598,"connected_time":160000000000,"state":"active","ping":90},{"user_id":31,"name":"Slashes","steam_id":76561197968573499,"connected_time":381000000000,"state":"active","ping":58},{"user_id":37,"name":"Fox","steam_id":76561198063507627,"connected_time":61000000000,"state":"active","ping":57}]},{"server_id":400,"name":"Uncletopia | Atlanta | 3 | Community","name_short":"atl-3","host":"atl-1.us.uncletopia.com","port":27035,"enabled":true,"region":"us-east","cc":"us","latitude":33.753746,"longitude":-84.38633,"reserved":0,"last_update":"0001-01-01T00:00:00Z","name_a2s":"Uncletopia | Atlanta | 3 | Community","protocol":17,"map":"workshop/pl_cactuscanyon_redux_rc4b.ugc2579644293","folder":"tf","game":"Team Fortress","app_id":440,"player_count":24,"max_players":32,"Bots":0,"server_type":"Dedicated","server_os":"Linux","password":true,"vac":true,"version":"7757534","steam_id":85568392924515187,"keywords":["increased_maxplayers","nocrits","nodmgspread","payload","uncletopia"],"game_id":440,"stv_port":27036,"stv_name":"Uncletopia | Atlanta | 3 | Community | STV","players":[{"user_id":60,"name":"ShyGreen","steam_id":76561198143446402,"connected_time":1994000000000,"state":"active","ping":83},{"user_id":61,"name":"Funny Street Legend","steam_id":76561198275625984,"connected_time":1951000000000,"state":"active","ping":79},{"user_id":86,"name":"Twister","steam_id":76561199089750368,"connected_time":1173000000000,"state":"active","ping":125},{"user_id":14,"name":"PadrePockets","steam_id":76561197993251606,"connected_time":3952000000000,"state":"active","ping":73},{"user_id":65,"name":"FloatingOnAar","steam_id":76561198201931515,"connected_time":1834000000000,"state":"active","ping":108},{"user_id":90,"name":"Oregano","steam_id":76561198071610787,"connected_time":1011000000000,"state":"active","ping":104},{"user_id":26,"name":"Banaba Breab","steam_id":76561198250789086,"connected_time":2625000000000,"state":"active","ping":117},{"user_id":24,"name":"big gay bowacunga","steam_id":76561198389398163,"connected_time":2708000000000,"state":"active","ping":75},{"user_id":89,"name":"人 ØАААØ人","steam_id":76561198944032480,"connected_time":1076000000000,"state":"active","ping":174},{"user_id":91,"name":"Its Dr.Stoned","steam_id":76561198079622791,"connected_time":997000000000,"state":"active","ping":60},{"user_id":36,"name":"fudo myoo","steam_id":76561198456258164,"connected_time":2408000000000,"state":"active","ping":58},{"user_id":66,"name":"boombox","steam_id":76561198237013798,"connected_time":1806000000000,"state":"active","ping":81},{"user_id":126,"name":"elevated bread","steam_id":76561198161824724,"connected_time":21000000000,"state":"active","ping":83},{"user_id":28,"name":"breeding over oingo boingo","steam_id":76561198104679689,"connected_time":2614000000000,"state":"active","ping":119},{"user_id":29,"name":"Avem","steam_id":76561198058763710,"connected_time":2595000000000,"state":"active","ping":105},{"user_id":93,"name":"Khallaria","steam_id":76561198000706490,"connected_time":886000000000,"state":"active","ping":123},{"user_id":31,"name":"Raven","steam_id":76561198046552871,"connected_time":2539000000000,"state":"active","ping":67},{"user_id":32,"name":"Walmart Employee","steam_id":76561198840373909,"connected_time":2528000000000,"state":"active","ping":78},{"user_id":49,"name":"no vc no c","steam_id":76561197989503095,"connected_time":2232000000000,"state":"active","ping":188},{"user_id":87,"name":"gustav (they/them)","steam_id":76561199012685740,"connected_time":1149000000000,"state":"active","ping":67},{"user_id":69,"name":"Kim Wexler","steam_id":76561199080236071,"connected_time":1738000000000,"state":"active","ping":77},{"user_id":46,"name":"Titus Tyrwitt","steam_id":76561197990779673,"connected_time":2264000000000,"state":"active","ping":60},{"user_id":99,"name":"ChrisUnkown","steam_id":76561199453460809,"connected_time":758000000000,"state":"active","ping":88},{"user_id":51,"name":"Dartel","steam_id":76561197963977254,"connected_time":2207000000000,"state":"active","ping":84}]},{"server_id":401,"name":"Uncletopia | Atlanta | 4 | No Payload","name_short":"atl-4","host":"atl-1.us.uncletopia.com","port":27045,"enabled":true,"region":"us-east","cc":"us","latitude":33.753746,"longitude":-84.38633,"reserved":0,"last_update":"0001-01-01T00:00:00Z","name_a2s":"","protocol":0,"map":"","folder":"","game":"","app_id":0,"player_count":0,"max_players":0,"Bots":0,"server_type":"","server_os":"","password":false,"vac":false,"version":"","steam_id":0,"keywords":null,"game_id":0,"stv_port":0,"stv_name":"","players":null},{"server_id":2,"name":"Uncletopia | Chicago | 1 | All Maps","name_short":"chi-1","host":"chi-1.us.uncletopia.com","port":27015,"enabled":true,"region":"us-central","cc":"us","latitude":41.881832,"longitude":-87.62318,"reserved":0,"last_update":"0001-01-01T00:00:00Z","name_a2s":"Uncletopia | Chicago | 1 | All Maps","protocol":17,"map":"pl_frontier_final","folder":"tf","game":"Team Fortress","app_id":440,"player_count":0,"max_players":24,"Bots":0,"server_type":"Dedicated","server_os":"Linux","password":true,"vac":true,"version":"7757534","steam_id":85568392924469984,"keywords":["nocrits","nodmgspread","payload","uncletopia"],"game_id":440,"stv_port":27016,"stv_name":"Uncletopia | Chicago | 1 | All Maps | STV","players":null},{"server_id":106,"name":"Uncletopia | Chicago | 2 | All Maps","name_short":"chi-2","host":"chi-1.us.uncletopia.com","port":27025,"enabled":true,"region":"us-central","cc":"us","latitude":41.881832,"longitude":-87.62318,"reserved":0,"last_update":"0001-01-01T00:00:00Z","name_a2s":"Uncletopia | Chicago | 2 | All Maps","protocol":17,"map":"koth_viaduct","folder":"tf","game":"Team Fortress","app_id":440,"player_count":0,"max_players":24,"Bots":0,"server_type":"Dedicated","server_os":"Linux","password":true,"vac":true,"version":"7757534","steam_id":85568392924469985,"keywords":["cp","nocrits","nodmgspread","uncletopia"],"game_id":440,"stv_port":27026,"stv_name":"Uncletopia | Chicago | 2 | All Maps | STV","players":null},{"server_id":402,"name":"Uncletopia | Chicago | 3 | All Maps","name_short":"chi-3","host":"chi-1.us.uncletopia.com","port":27035,"enabled":true,"region":"us-central","cc":"us","latitude":41.881832,"longitude":-87.62318,"reserved":0,"last_update":"0001-01-01T00:00:00Z","name_a2s":"Uncletopia | Chicago | 3 | All Maps","protocol":17,"map":"pl_snowycoast","folder":"tf","game":"Team Fortress","app_id":440,"player_count":24,"max_players":24,"Bots":0,"server_type":"Dedicated","server_os":"Linux","password":true,"vac":true,"version":"7757534","steam_id":85568392924515191,"keywords":["nocrits","nodmgspread","payload","uncletopia"],"game_id":440,"stv_port":27036,"stv_name":"Uncletopia | Chicago | 3 | All Maps | STV","players":[{"user_id":126,"name":"Your Local Queer Librarian","steam_id":76561198013077080,"connected_time":2063000000000,"state":"active","ping":61},{"user_id":143,"name":"reis","steam_id":76561199232952016,"connected_time":157000000000,"state":"active","ping":180},{"user_id":131,"name":"Kilphax","steam_id":76561197993814144,"connected_time":1056000000000,"state":"active","ping":57},{"user_id":146,"name":"TÖZI","steam_id":76561198045268695,"connected_time":20000000000,"state":"spawning","ping":63},{"user_id":147,"name":"imposter","steam_id":76561198085571748,"connected_time":19000000000,"state":"spawning","ping":54},{"user_id":135,"name":"Peri","steam_id":76561198255311543,"connected_time":1027000000000,"state":"active","ping":64},{"user_id":148,"name":"Monke Gaming","steam_id":76561199122133427,"connected_time":9000000000,"state":"active","ping":76},{"user_id":128,"name":"Ziath","steam_id":76561198094009164,"connected_time":1955000000000,"state":"active","ping":60},{"user_id":144,"name":"AdorableMew","steam_id":76561198186706405,"connected_time":113000000000,"state":"active","ping":70},{"user_id":140,"name":"shokie","steam_id":76561197997961542,"connected_time":745000000000,"state":"active","ping":69},{"user_id":133,"name":"tony fantano 2","steam_id":76561197997139225,"connected_time":1051000000000,"state":"active","ping":53},{"user_id":130,"name":"Invisorum","steam_id":76561198051902115,"connected_time":1063000000000,"state":"active","ping":118},{"user_id":134,"name":"I'm Only 4 Inches","steam_id":76561198055542546,"connected_time":1038000000000,"state":"active","ping":56},{"user_id":127,"name":"TheGreatDong","steam_id":76561198000634178,"connected_time":2043000000000,"state":"active","ping":103},{"user_id":47,"name":"AmyPercent","steam_id":76561198071896932,"connected_time":7490000000000,"state":"active","ping":70},{"user_id":125,"name":"› snow","steam_id":76561198109783729,"connected_time":2158000000000,"state":"active","ping":49},{"user_id":121,"name":"elyk37","steam_id":76561198124135253,"connected_time":3079000000000,"state":"active","ping":72},{"user_id":141,"name":"ciel","steam_id":76561198025805824,"connected_time":551000000000,"state":"active","ping":47},{"user_id":97,"name":"LunarStorm","steam_id":76561198321826743,"connected_time":4610000000000,"state":"active","ping":60},{"user_id":138,"name":"obbeymaster19","steam_id":76561199197244143,"connected_time":944000000000,"state":"active","ping":91},{"user_id":139,"name":"Takumi Fujiwara","steam_id":76561198146281101,"connected_time":891000000000,"state":"active","ping":66},{"user_id":124,"name":"Glory","steam_id":76561198013975080,"connected_time":2418000000000,"state":"active","ping":77},{"user_id":145,"name":"e","steam_id":76561198131245396,"connected_time":79000000000,"state":"active","ping":51},{"user_id":123,"name":"Enderneer","steam_id":76561198012136653,"connected_time":2437000000000,"state":"active","ping":47}]},{"server_id":403,"name":"Uncletopia | Chicago | 4 | All Maps","name_short":"chi-4","host":"chi-1.us.uncletopia.com","port":27045,"enabled":true,"region":"us-central","cc":"us","latitude":41.881832,"longitude":-87.62318,"reserved":0,"last_update":"0001-01-01T00:00:00Z","name_a2s":"Uncletopia | Chicago | 4 | All Maps","protocol":17,"map":"cp_process_final","folder":"tf","game":"Team Fortress","app_id":440,"player_count":20,"max_players":24,"Bots":0,"server_type":"Dedicated","server_os":"Linux","password":true,"vac":true,"version":"7757534","steam_id":85568392924515193,"keywords":["cp","nocrits","nodmgspread","uncletopia"],"game_id":440,"stv_port":27046,"stv_name":"Uncletopia | Chicago | 4 | All Maps | STV","players":[{"user_id":114,"name":"The Big","steam_id":76561198078572184,"connected_time":6077000000000,"state":"active","ping":68},{"user_id":116,"name":"Sloppy John (Extra Sauce)","steam_id":76561198359703432,"connected_time":6051000000000,"state":"active","ping":90},{"user_id":173,"name":"ItsTanleyCrunch","steam_id":76561198037915942,"connected_time":1063000000000,"state":"active","ping":70},{"user_id":182,"name":"1000 Ping","steam_id":76561198098330939,"connected_time":6000000000,"state":"spawning","ping":107},{"user_id":181,"name":"\u003e:3 (normal)","steam_id":76561198068586634,"connected_time":13000000000,"state":"active","ping":49},{"user_id":150,"name":"JennaShinx","steam_id":76561198074773762,"connected_time":3324000000000,"state":"active","ping":51},{"user_id":174,"name":"Alch","steam_id":76561199225660399,"connected_time":1024000000000,"state":"active","ping":64},{"user_id":72,"name":"Chemo","steam_id":76561197961308370,"connected_time":9389000000000,"state":"active","ping":71},{"user_id":139,"name":"Mr. Call You Back","steam_id":76561198025172811,"connected_time":4077000000000,"state":"active","ping":53},{"user_id":175,"name":"Pa1adin_Exx","steam_id":76561198253561432,"connected_time":1021000000000,"state":"active","ping":67},{"user_id":118,"name":"det","steam_id":76561198170859755,"connected_time":6003000000000,"state":"active","ping":44},{"user_id":147,"name":"cardboardwarrior1","steam_id":76561199145044693,"connected_time":3722000000000,"state":"active","ping":125},{"user_id":171,"name":"Monsterjessy","steam_id":76561198035630985,"connected_time":1171000000000,"state":"active","ping":60},{"user_id":179,"name":"lite","steam_id":76561198300633951,"connected_time":48000000000,"state":"active","ping":105},{"user_id":168,"name":"Panzerkampfwagen IV Ausf.H","steam_id":76561198420827196,"connected_time":1188000000000,"state":"active","ping":66},{"user_id":180,"name":"Cruisin'","steam_id":76561199245457119,"connected_time":34000000000,"state":"spawning","ping":111},{"user_id":164,"name":"ok computer","steam_id":76561198328109873,"connected_time":1253000000000,"state":"active","ping":68},{"user_id":170,"name":"Jester","steam_id":76561198153102922,"connected_time":1174000000000,"state":"active","ping":75},{"user_id":172,"name":"PKBEAST_7","steam_id":76561198177136537,"connected_time":1162000000000,"state":"active","ping":84},{"user_id":178,"name":"♥dumb bimbo♥","steam_id":76561198054925421,"connected_time":138000000000,"state":"active","ping":50}]},{"server_id":36,"name":"Uncletopia | Chicago | 5 | All Maps","name_short":"chi-5","host":"chi-2.us.uncletopia.com","port":27015,"enabled":true,"region":"us-central","cc":"us","latitude":41.881832,"longitude":-87.62318,"reserved":0,"last_update":"0001-01-01T00:00:00Z","name_a2s":"Uncletopia | Chicago | 5 | All Maps","protocol":17,"map":"koth_cascade","folder":"tf","game":"Team Fortress","app_id":440,"player_count":0,"max_players":24,"Bots":0,"server_type":"Dedicated","server_os":"Linux","password":true,"vac":true,"version":"7757534","steam_id":85568392924866362,"keywords":["cp","nocrits","nodmgspread","uncletopia"],"game_id":440,"stv_port":27016,"stv_name":"Uncletopia | Chicago | 5 | All Maps | STV","players":null},{"server_id":37,"name":"Uncletopia | Chicago | 6 | All Maps","name_short":"chi-6","host":"chi-2.us.uncletopia.com","port":27025,"enabled":true,"region":"us-central","cc":"us","latitude":41.881832,"longitude":-87.62318,"reserved":0,"last_update":"0001-01-01T00:00:00Z","name_a2s":"Uncletopia | Chicago | 6 | All Maps","protocol":17,"map":"koth_cascade","folder":"tf","game":"Team Fortress","app_id":440,"player_count":0,"max_players":24,"Bots":0,"server_type":"Dedicated","server_os":"Linux","password":true,"vac":true,"version":"7757534","steam_id":85568392924866363,"keywords":["cp","nocrits","nodmgspread","uncletopia"],"game_id":440,"stv_port":27026,"stv_name":"Uncletopia | Chicago | 6 | All Maps | STV","players":null},{"server_id":38,"name":"Uncletopia | Chicago | 7 | Stopwatch Beta","name_short":"chi-7","host":"chi-2.us.uncletopia.com","port":27035,"enabled":true,"region":"us-central","cc":"us","latitude":41.881832,"longitude":-87.62318,"reserved":0,"last_update":"0001-01-01T00:00:00Z","name_a2s":"Uncletopia | Chicago | 7 | Stopwatch Beta","protocol":17,"map":"pl_upward","folder":"tf","game":"Team Fortress","app_id":440,"player_count":0,"max_players":24,"Bots":0,"server_type":"Dedicated","server_os":"Linux","password":true,"vac":true,"version":"7757534","steam_id":85568392924866364,"keywords":["nocrits","nodmgspread","payload","uncletopia"],"game_id":440,"stv_port":27036,"stv_name":"Uncletopia | Chicago | 7 | Stopwatch Beta | STV","players":null},{"server_id":39,"name":"Uncletopia | Chicago | 8 | Community","name_short":"chi-8","host":"chi-2.us.uncletopia.com","port":27045,"enabled":true,"region":"us-central","cc":"us","latitude":41.881832,"longitude":-87.62318,"reserved":0,"last_update":"0001-01-01T00:00:00Z","name_a2s":"Uncletopia | Chicago | 8 | Community","protocol":17,"map":"pl_barnblitz","folder":"tf","game":"Team Fortress","app_id":440,"player_count":0,"max_players":24,"Bots":0,"server_type":"Dedicated","server_os":"Linux","password":true,"vac":true,"version":"7757534","steam_id":85568392924866365,"keywords":["nocrits","nodmgspread","payload","uncletopia"],"game_id":440,"stv_port":27046,"stv_name":"Uncletopia | Chicago | 8 | Community | STV","players":null},{"server_id":8,"name":"Uncletopia | Dallas | 1 | All Maps","name_short":"dal-1","host":"dal-1.us.uncletopia.com","port":27015,"enabled":true,"region":"us-central","cc":"us","latitude":32.779167,"longitude":-96.80889,"reserved":0,"last_update":"0001-01-01T00:00:00Z","name_a2s":"Uncletopia | Dallas | 1 | All Maps","protocol":17,"map":"pl_upward","folder":"tf","game":"Team Fortress","app_id":440,"player_count":24,"max_players":24,"Bots":0,"server_type":"Dedicated","server_os":"Linux","password":true,"vac":true,"version":"7757534","steam_id":85568392924469986,"keywords":["nocrits","nodmgspread","payload","uncletopia"],"game_id":440,"stv_port":27016,"stv_name":"Uncletopia | Dallas | 1 | All Maps | STV","players":[{"user_id":271,"name":"FEESH EGG","steam_id":76561198164699517,"connected_time":153000000000,"state":"active","ping":77},{"user_id":116,"name":"4 Itchy Tasty","steam_id":76561198009869383,"connected_time":13570000000000,"state":"active","ping":75},{"user_id":253,"name":"Sam","steam_id":76561198146472900,"connected_time":1320000000000,"state":"active","ping":107},{"user_id":248,"name":"Prinz Eugen","steam_id":76561198129154766,"connected_time":2239000000000,"state":"active","ping":158},{"user_id":263,"name":"Tired","steam_id":76561198072620682,"connected_time":1042000000000,"state":"active","ping":88},{"user_id":265,"name":"Kymat","steam_id":76561198056367793,"connected_time":827000000000,"state":"active","ping":85},{"user_id":267,"name":"sweatfrog","steam_id":76561198046420784,"connected_time":677000000000,"state":"active","ping":77},{"user_id":246,"name":"WalkinMan","steam_id":76561198047941142,"connected_time":2274000000000,"state":"active","ping":73},{"user_id":237,"name":"nerfington","steam_id":76561198062785419,"connected_time":3475000000000,"state":"active","ping":85},{"user_id":249,"name":"Faust main","steam_id":76561198971799149,"connected_time":1743000000000,"state":"active","ping":72},{"user_id":238,"name":"PinguEnjoyer6","steam_id":76561199186723516,"connected_time":3473000000000,"state":"active","ping":74},{"user_id":270,"name":"ohio bad :(","steam_id":76561198139776307,"connected_time":576000000000,"state":"active","ping":74},{"user_id":198,"name":"wooper","steam_id":76561198953870572,"connected_time":6738000000000,"state":"active","ping":98},{"user_id":149,"name":"Shuual","steam_id":76561198004395256,"connected_time":10828000000000,"state":"active","ping":79},{"user_id":255,"name":"Doctor Bear ʕ •ᴥ•ʔ","steam_id":76561197968103161,"connected_time":1272000000000,"state":"active","ping":84},{"user_id":245,"name":"Cunny Warrior 77","steam_id":76561198811760680,"connected_time":2890000000000,"state":"active","ping":88},{"user_id":256,"name":"what weenies","steam_id":76561198986534519,"connected_time":1265000000000,"state":"active","ping":87},{"user_id":259,"name":"EOAW","steam_id":76561198310451639,"connected_time":1235000000000,"state":"active","ping":83},{"user_id":251,"name":"Path To Victory","steam_id":76561198026958898,"connected_time":1461000000000,"state":"active","ping":111},{"user_id":186,"name":"Goobins McMichael","steam_id":76561198142772896,"connected_time":7882000000000,"state":"active","ping":149},{"user_id":252,"name":"Saulen","steam_id":76561198150726407,"connected_time":1389000000000,"state":"active","ping":61},{"user_id":258,"name":"Milotic","steam_id":76561198047995713,"connected_time":1246000000000,"state":"active","ping":99},{"user_id":268,"name":"Nightfall","steam_id":76561198169718867,"connected_time":671000000000,"state":"active","ping":111},{"user_id":230,"name":"177013","steam_id":76561198072303290,"connected_time":3976000000000,"state":"active","ping":89}]},{"server_id":108,"name":"Uncletopia | Dallas | 2 | All Maps","name_short":"dal-2","host":"dal-1.us.uncletopia.com","port":27025,"enabled":true,"region":"us-central","cc":"us","latitude":32.779167,"longitude":-96.80889,"reserved":0,"last_update":"0001-01-01T00:00:00Z","name_a2s":"Uncletopia | Dallas | 2 | All Maps","protocol":17,"map":"cp_altitude","folder":"tf","game":"Team Fortress","app_id":440,"player_count":0,"max_players":24,"Bots":0,"server_type":"Dedicated","server_os":"Linux","password":true,"vac":true,"version":"7757534","steam_id":85568392924469988,"keywords":["cp","nocrits","nodmgspread","uncletopia"],"game_id":440,"stv_port":27026,"stv_name":"Uncletopia | Dallas | 2 | All Maps | STV","players":null},{"server_id":5,"name":"Uncletopia | Frankfurt | 1 | All Maps","name_short":"frk-1","host":"frk-1.de.uncletopia.com","port":27015,"enabled":true,"region":"eu","cc":"de","latitude":50.110924,"longitude":8.682127,"reserved":0,"last_update":"0001-01-01T00:00:00Z","name_a2s":"Uncletopia | Frankfurt | 1 | All Maps","protocol":17,"map":"pl_swiftwater_final1","folder":"tf","game":"Team Fortress","app_id":440,"player_count":24,"max_players":24,"Bots":0,"server_type":"Dedicated","server_os":"Linux","password":true,"vac":true,"version":"7757534","steam_id":85568392924469989,"keywords":["nocrits","nodmgspread","payload","uncletopia"],"game_id":440,"stv_port":27016,"stv_name":"Uncletopia | Frankfurt | 1 | All Maps | STV","players":[{"user_id":16,"name":"TheEventGuy","steam_id":76561197972797744,"connected_time":6871000000000,"state":"active","ping":63},{"user_id":88,"name":"Senator Armstrong","steam_id":76561198984346408,"connected_time":1937000000000,"state":"active","ping":65},{"user_id":95,"name":"kektuse","steam_id":76561198088426580,"connected_time":1174000000000,"state":"active","ping":53},{"user_id":94,"name":"Dr.Sees [F2P]","steam_id":76561199219233587,"connected_time":1236000000000,"state":"active","ping":74},{"user_id":105,"name":"vetzakski","steam_id":76561198988041775,"connected_time":594000000000,"state":"active","ping":73},{"user_id":97,"name":"citronous","steam_id":76561198093290934,"connected_time":1165000000000,"state":"active","ping":52},{"user_id":98,"name":"Nostradamus","steam_id":76561198349792686,"connected_time":1144000000000,"state":"active","ping":64},{"user_id":104,"name":"poliakov.noam","steam_id":76561199259322961,"connected_time":637000000000,"state":"active","ping":103},{"user_id":102,"name":"VIN WEASEL","steam_id":76561198014387066,"connected_time":834000000000,"state":"active","ping":48},{"user_id":85,"name":"goprit","steam_id":76561198072518761,"connected_time":2210000000000,"state":"active","ping":74},{"user_id":92,"name":"anairat","steam_id":76561198863788240,"connected_time":1784000000000,"state":"active","ping":77},{"user_id":90,"name":"-makina","steam_id":76561198273042780,"connected_time":1935000000000,"state":"active","ping":62},{"user_id":106,"name":"ike","steam_id":76561198039573338,"connected_time":544000000000,"state":"active","ping":89},{"user_id":109,"name":"Owl","steam_id":76561198248266580,"connected_time":90000000000,"state":"active","ping":68},{"user_id":93,"name":"yum็","steam_id":76561198350053321,"connected_time":1607000000000,"state":"active","ping":42},{"user_id":100,"name":"Captain HandicappedCock","steam_id":76561198109850402,"connected_time":915000000000,"state":"active","ping":68},{"user_id":79,"name":"Bobo","steam_id":76561198052308399,"connected_time":2451000000000,"state":"active","ping":59},{"user_id":66,"name":"dfhfhjd #savetf2","steam_id":76561198170036665,"connected_time":3148000000000,"state":"active","ping":83},{"user_id":107,"name":"Hegyi tahó F2P","steam_id":76561199219150356,"connected_time":498000000000,"state":"active","ping":81},{"user_id":82,"name":"Pwnedbyfatty - PMKBB","steam_id":76561197995037409,"connected_time":2394000000000,"state":"active","ping":138},{"user_id":91,"name":"Salih","steam_id":76561198287934839,"connected_time":1931000000000,"state":"active","ping":52},{"user_id":99,"name":"superx","steam_id":76561198044976613,"connected_time":1133000000000,"state":"active","ping":144},{"user_id":67,"name":"The Wheel (Live on KEXP)","steam_id":76561199064350902,"connected_time":3129000000000,"state":"active","ping":119},{"user_id":70,"name":"InBox","steam_id":76561198122125341,"connected_time":2957000000000,"state":"active","ping":80}]},{"server_id":110,"name":"Uncletopia | Frankfurt | 2 | All Maps","name_short":"frk-2","host":"frk-1.de.uncletopia.com","port":27025,"enabled":true,"region":"eu","cc":"de","latitude":50.110924,"longitude":8.682127,"reserved":0,"last_update":"0001-01-01T00:00:00Z","name_a2s":"Uncletopia | Frankfurt | 2 | All Maps","protocol":17,"map":"pl_borneo","folder":"tf","game":"Team Fortress","app_id":440,"player_count":23,"max_players":24,"Bots":0,"server_type":"Dedicated","server_os":"Linux","password":true,"vac":true,"version":"7757534","steam_id":85568392924469990,"keywords":["nocrits","nodmgspread","payload","uncletopia"],"game_id":440,"stv_port":27026,"stv_name":"Uncletopia | Frankfurt | 2 | All Maps | STV","players":[{"user_id":7,"name":"AviSheepie","steam_id":76561198154361272,"connected_time":3813000000000,"state":"active","ping":108},{"user_id":8,"name":"Dėdė Dwarfas","steam_id":76561199134491846,"connected_time":3781000000000,"state":"active","ping":115},{"user_id":52,"name":"SantiThePug #ReviveTheCaber","steam_id":76561199049615996,"connected_time":1745000000000,"state":"active","ping":71},{"user_id":22,"name":"KillerQueen (he/they/she)","steam_id":76561199019399725,"connected_time":3245000000000,"state":"active","ping":64},{"user_id":78,"name":"Køsmï","steam_id":76561198074938275,"connected_time":225000000000,"state":"active","ping":70},{"user_id":19,"name":"Veile","steam_id":76561199007201531,"connected_time":3404000000000,"state":"active","ping":93},{"user_id":60,"name":"Big Noot","steam_id":76561198057707263,"connected_time":1423000000000,"state":"active","ping":53},{"user_id":67,"name":"Tre3","steam_id":76561198054795379,"connected_time":1062000000000,"state":"active","ping":45},{"user_id":48,"name":"Rose-Marie","steam_id":76561198055611092,"connected_time":1905000000000,"state":"active","ping":62},{"user_id":25,"name":"MgrunL","steam_id":76561198389947352,"connected_time":3220000000000,"state":"active","ping":111},{"user_id":26,"name":"Misctek","steam_id":76561199037541925,"connected_time":3218000000000,"state":"active","ping":74},{"user_id":53,"name":"mountaindrill","steam_id":76561198864327475,"connected_time":1660000000000,"state":"active","ping":47},{"user_id":71,"name":"TeaAndPancakes","steam_id":76561199039103507,"connected_time":363000000000,"state":"active","ping":128},{"user_id":74,"name":"latin lover","steam_id":76561198153742397,"connected_time":340000000000,"state":"active","ping":72},{"user_id":64,"name":"ArikMor","steam_id":76561199124472513,"connected_time":1249000000000,"state":"active","ping":128},{"user_id":72,"name":"Thors","steam_id":76561197968739075,"connected_time":360000000000,"state":"active","ping":45},{"user_id":69,"name":"DN77","steam_id":76561199121396324,"connected_time":661000000000,"state":"active","ping":98},{"user_id":79,"name":"The Lonely Croc","steam_id":76561198123241396,"connected_time":209000000000,"state":"active","ping":181},{"user_id":65,"name":"NIKITA","steam_id":76561197992927989,"connected_time":1206000000000,"state":"active","ping":91},{"user_id":39,"name":"Kruthal","steam_id":76561198245726582,"connected_time":2607000000000,"state":"active","ping":75},{"user_id":76,"name":"󠀡󠀡HELE","steam_id":76561198886612260,"connected_time":323000000000,"state":"active","ping":69},{"user_id":70,"name":"ikeaworst","steam_id":76561198936990378,"connected_time":474000000000,"state":"active","ping":66},{"user_id":77,"name":"disc0rd","steam_id":76561197985965776,"connected_time":311000000000,"state":"active","ping":65}]},{"server_id":308,"name":"Uncletopia | Frankfurt | 3 | All Maps","name_short":"frk-3","host":"frk-1.de.uncletopia.com","port":27035,"enabled":true,"region":"eu","cc":"de","latitude":50.110924,"longitude":8.682127,"reserved":0,"last_update":"0001-01-01T00:00:00Z","name_a2s":"Uncletopia | Frankfurt | 3 | All Maps","protocol":17,"map":"pl_barnblitz","folder":"tf","game":"Team Fortress","app_id":440,"player_count":24,"max_players":24,"Bots":0,"server_type":"Dedicated","server_os":"Linux","password":true,"vac":true,"version":"7757534","steam_id":85568392924504274,"keywords":["nocrits","nodmgspread","payload","uncletopia"],"game_id":440,"stv_port":27036,"stv_name":"Uncletopia | Frankfurt | 3 | All Maps | STV","players":[{"user_id":95,"name":"balls2","steam_id":76561198018757672,"connected_time":2020000000000,"state":"active","ping":75},{"user_id":100,"name":"Mor'du","steam_id":76561198274105878,"connected_time":1455000000000,"state":"active","ping":75},{"user_id":105,"name":"gxoul","steam_id":76561199091006994,"connected_time":1217000000000,"state":"active","ping":75},{"user_id":109,"name":"Rin-Nakaret","steam_id":76561197971051188,"connected_time":649000000000,"state":"active","ping":67},{"user_id":98,"name":"Hydro","steam_id":76561199081791855,"connected_time":1860000000000,"state":"active","ping":66},{"user_id":68,"name":"aura","steam_id":76561197991687793,"connected_time":3966000000000,"state":"active","ping":69},{"user_id":116,"name":"Slav-matros","steam_id":76561198251977912,"connected_time":170000000000,"state":"active","ping":50},{"user_id":82,"name":"After8","steam_id":76561198090750865,"connected_time":2696000000000,"state":"active","ping":68},{"user_id":92,"name":"War crime speedrunner","steam_id":76561198110470565,"connected_time":2125000000000,"state":"active","ping":92},{"user_id":88,"name":"glyph","steam_id":76561197980736364,"connected_time":2199000000000,"state":"active","ping":79},{"user_id":108,"name":"4","steam_id":76561197964945192,"connected_time":954000000000,"state":"active","ping":53},{"user_id":61,"name":"LeonCactus","steam_id":76561198102360825,"connected_time":4227000000000,"state":"active","ping":73},{"user_id":110,"name":"BlueBlueFox","steam_id":76561198053817230,"connected_time":626000000000,"state":"active","ping":72},{"user_id":113,"name":"ALARM","steam_id":76561198120686521,"connected_time":269000000000,"state":"active","ping":54},{"user_id":65,"name":"Mr.Schnittlauch","steam_id":76561198295868113,"connected_time":4013000000000,"state":"active","ping":62},{"user_id":73,"name":"scorch shot main","steam_id":76561198083615367,"connected_time":3863000000000,"state":"active","ping":44},{"user_id":114,"name":"Giovine Killjoy","steam_id":76561198059375315,"connected_time":259000000000,"state":"active","ping":70},{"user_id":94,"name":"mercenarypit","steam_id":76561198161935108,"connected_time":2037000000000,"state":"active","ping":62},{"user_id":77,"name":"Xx_えななんxX69","steam_id":76561199427679148,"connected_time":2875000000000,"state":"active","ping":73},{"user_id":87,"name":"LOBZIK","steam_id":76561198114830120,"connected_time":2230000000000,"state":"active","ping":78},{"user_id":84,"name":"CaptainMac","steam_id":76561198273156139,"connected_time":2569000000000,"state":"active","ping":44},{"user_id":32,"name":"Pico","steam_id":76561198063552545,"connected_time":6938000000000,"state":"active","ping":102},{"user_id":96,"name":"redindy","steam_id":76561198070154445,"connected_time":1967000000000,"state":"active","ping":167},{"user_id":34,"name":"galaxy","steam_id":76561198164819022,"connected_time":6922000000000,"state":"active","ping":68}]},{"server_id":309,"name":"Uncletopia | Frankfurt | 4 | All Maps","name_short":"frk-4","host":"frk-1.de.uncletopia.com","port":27045,"enabled":true,"region":"eu","cc":"de","latitude":50.110924,"longitude":8.682127,"reserved":0,"last_update":"0001-01-01T00:00:00Z","name_a2s":"Uncletopia | Frankfurt | 4 | All Maps","protocol":17,"map":"pl_upward","folder":"tf","game":"Team Fortress","app_id":440,"player_count":24,"max_players":24,"Bots":0,"server_type":"Dedicated","server_os":"Linux","password":true,"vac":true,"version":"7757534","steam_id":85568392924504275,"keywords":["nocrits","nodmgspread","payload","uncletopia"],"game_id":440,"stv_port":27046,"stv_name":"Uncletopia | Frankfurt | 4 | All Maps | STV","players":[{"user_id":397,"name":"hey kid, wanna see my Octagon?","steam_id":76561198066287297,"connected_time":807000000000,"state":"active","ping":48},{"user_id":406,"name":"Guy with squares as username","steam_id":76561198269524918,"connected_time":336000000000,"state":"active","ping":58},{"user_id":395,"name":"foureyesfries","steam_id":76561198271831555,"connected_time":824000000000,"state":"active","ping":73},{"user_id":392,"name":"Marw3","steam_id":76561197965539751,"connected_time":1631000000000,"state":"active","ping":56},{"user_id":380,"name":"dirty","steam_id":76561197995572935,"connected_time":2272000000000,"state":"active","ping":84},{"user_id":407,"name":"skibidi bop yes yes yes","steam_id":76561198306177608,"connected_time":268000000000,"state":"active","ping":64},{"user_id":396,"name":"joe","steam_id":76561198026484403,"connected_time":818000000000,"state":"active","ping":67},{"user_id":372,"name":"holykyckling","steam_id":76561198040661615,"connected_time":2936000000000,"state":"active","ping":75},{"user_id":384,"name":"Pingutaro","steam_id":76561198112803718,"connected_time":1983000000000,"state":"active","ping":62},{"user_id":385,"name":"Explosive_kink","steam_id":76561198998702838,"connected_time":1976000000000,"state":"active","ping":70},{"user_id":362,"name":"Daniel Day-Lewis","steam_id":76561198147249160,"connected_time":3778000000000,"state":"active","ping":101},{"user_id":365,"name":"Churaq Cyril","steam_id":76561198125381319,"connected_time":3556000000000,"state":"active","ping":84},{"user_id":363,"name":"posht0O \u003e:)","steam_id":76561198106182078,"connected_time":3775000000000,"state":"active","ping":99},{"user_id":387,"name":"Doctor Mobius","steam_id":76561197971281806,"connected_time":1916000000000,"state":"active","ping":65},{"user_id":379,"name":"Sneikijs","steam_id":76561198052549308,"connected_time":2476000000000,"state":"active","ping":55},{"user_id":401,"name":"nhstefanov","steam_id":76561198811811405,"connected_time":708000000000,"state":"active","ping":79},{"user_id":399,"name":"(wm) Das Fleisch","steam_id":76561198001250715,"connected_time":754000000000,"state":"active","ping":57},{"user_id":408,"name":"Maestro_69","steam_id":76561199153246582,"connected_time":257000000000,"state":"active","ping":173},{"user_id":404,"name":"kiki","steam_id":76561198838277022,"connected_time":584000000000,"state":"active","ping":68},{"user_id":411,"name":"Audiofall","steam_id":76561198208814216,"connected_time":202000000000,"state":"active","ping":64},{"user_id":390,"name":"Fran","steam_id":76561199070516960,"connected_time":1743000000000,"state":"active","ping":75},{"user_id":412,"name":"HRCR118","steam_id":76561199146388596,"connected_time":107000000000,"state":"active","ping":87},{"user_id":410,"name":"PilloF","steam_id":76561198088635943,"connected_time":250000000000,"state":"active","ping":70},{"user_id":381,"name":"Spetse","steam_id":76561197990649972,"connected_time":2240000000000,"state":"active","ping":86}]},{"server_id":310,"name":"Uncletopia | Frankfurt | 5 | All Maps","name_short":"frk-5","host":"frk-1.de.uncletopia.com","port":27055,"enabled":true,"region":"eu","cc":"de","latitude":50.110924,"longitude":8.682127,"reserved":0,"last_update":"0001-01-01T00:00:00Z","name_a2s":"Uncletopia | Frankfurt | 5 | All Maps","protocol":17,"map":"pl_borneo","folder":"tf","game":"Team Fortress","app_id":440,"player_count":4,"max_players":24,"Bots":0,"server_type":"Dedicated","server_os":"Linux","password":true,"vac":true,"version":"7757534","steam_id":85568392924504277,"keywords":["nocrits","nodmgspread","payload","uncletopia"],"game_id":440,"stv_port":27056,"stv_name":"Uncletopia | Frankfurt | 5 | All Maps | STV","players":[{"user_id":28,"name":"multiflex","steam_id":76561198049639319,"connected_time":607000000000,"state":"active","ping":106},{"user_id":23,"name":"twitch.tv/rudy_karma","steam_id":76561198349348738,"connected_time":1097000000000,"state":"active","ping":131},{"user_id":21,"name":"Truegr","steam_id":76561198811912339,"connected_time":1364000000000,"state":"spawning","ping":61},{"user_id":33,"name":"the drip is real","steam_id":76561199033066517,"connected_time":210000000000,"state":"active","ping":190}]},{"server_id":311,"name":"Uncletopia | Frankfurt | 6 | All Maps","name_short":"frk-6","host":"frk-1.de.uncletopia.com","port":27065,"enabled":true,"region":"eu","cc":"de","latitude":50.110924,"longitude":8.682127,"reserved":0,"last_update":"0001-01-01T00:00:00Z","name_a2s":"Uncletopia | Frankfurt | 6 | All Maps","protocol":17,"map":"koth_highpass","folder":"tf","game":"Team Fortress","app_id":440,"player_count":12,"max_players":24,"Bots":0,"server_type":"Dedicated","server_os":"Linux","password":true,"vac":true,"version":"7757534","steam_id":85568392924504278,"keywords":["cp","nocrits","nodmgspread","uncletopia"],"game_id":440,"stv_port":27066,"stv_name":"Uncletopia | Frankfurt | 6 | All Maps | STV","players":[{"user_id":20,"name":"fried","steam_id":76561198307522022,"connected_time":793000000000,"state":"active","ping":47},{"user_id":18,"name":"nigilist","steam_id":76561198388456046,"connected_time":1063000000000,"state":"active","ping":173},{"user_id":15,"name":"joe mama","steam_id":76561198162446976,"connected_time":1882000000000,"state":"active","ping":48},{"user_id":16,"name":"WAGOOGUS","steam_id":76561198195893307,"connected_time":1876000000000,"state":"active","ping":55},{"user_id":19,"name":"EEEEEH","steam_id":76561198126717413,"connected_time":956000000000,"state":"active","ping":80},{"user_id":21,"name":"Stragnov☆","steam_id":76561198074702465,"connected_time":641000000000,"state":"active","ping":50},{"user_id":22,"name":"Another carrot #SaveTF2","steam_id":76561198798913095,"connected_time":460000000000,"state":"active","ping":97},{"user_id":23,"name":"Balls","steam_id":76561198086400484,"connected_time":447000000000,"state":"active","ping":78},{"user_id":24,"name":"Magirby","steam_id":76561198818777390,"connected_time":201000000000,"state":"active","ping":114},{"user_id":30,"name":"butt tickling bandit","steam_id":76561198884449271,"connected_time":17000000000,"state":"active","ping":59},{"user_id":26,"name":"jonbob","steam_id":76561197963506620,"connected_time":89000000000,"state":"active","ping":66},{"user_id":29,"name":"Lux","steam_id":76561198060417740,"connected_time":51000000000,"state":"active","ping":45}]},{"server_id":23,"name":"Uncletopia | Frankfurt | 7 | Stopwatch Beta","name_short":"frk-7","host":"frk-1.de.uncletopia.com","port":27075,"enabled":true,"region":"eu","cc":"de","latitude":50.110924,"longitude":8.682127,"reserved":0,"last_update":"0001-01-01T00:00:00Z","name_a2s":"Uncletopia | Frankfurt | 7 | Stopwatch Beta","protocol":17,"map":"workshop/koth_ramjam_rc1.ugc459778887","folder":"tf","game":"Team Fortress","app_id":440,"player_count":0,"max_players":24,"Bots":0,"server_type":"Dedicated","server_os":"Linux","password":true,"vac":true,"version":"7757534","steam_id":85568392924742827,"keywords":["cp","nocrits","nodmgspread","uncletopia"],"game_id":440,"stv_port":27076,"stv_name":"Uncletopia | Frankfurt | 7 | Stopwatch Beta | STV","players":null},{"server_id":24,"name":"Uncletopia | Frankfurt | 8 | Community","name_short":"frk-8","host":"frk-1.de.uncletopia.com","port":27085,"enabled":true,"region":"eu","cc":"de","latitude":50.110924,"longitude":8.682127,"reserved":0,"last_update":"0001-01-01T00:00:00Z","name_a2s":"Uncletopia | Frankfurt | 8 | Community","protocol":17,"map":"workshop/pl_badwater_pro_v12.ugc2142942074","folder":"tf","game":"Team Fortress","app_id":440,"player_count":0,"max_players":24,"Bots":0,"server_type":"Dedicated","server_os":"Linux","password":true,"vac":true,"version":"7757534","steam_id":85568392924742828,"keywords":["nocrits","nodmgspread","payload","uncletopia"],"game_id":440,"stv_port":27086,"stv_name":"Uncletopia | Frankfurt | 8 | Community | STV","players":null},{"server_id":202,"name":"Uncletopia | Hong Kong | 1 | All Maps","name_short":"hgk-1","host":"hgk-1.hk.uncletopia.com","port":27015,"enabled":true,"region":"asia","cc":"hk","latitude":22.302711,"longitude":114.177216,"reserved":0,"last_update":"0001-01-01T00:00:00Z","name_a2s":"Uncletopia | Hong Kong | 1 | All Maps","protocol":17,"map":"pl_snowycoast","folder":"tf","game":"Team Fortress","app_id":440,"player_count":0,"max_players":24,"Bots":0,"server_type":"Dedicated","server_os":"Linux","password":true,"vac":true,"version":"7757534","steam_id":85568392924494504,"keywords":["nocrits","nodmgspread","payload","uncletopia"],"game_id":440,"stv_port":27016,"stv_name":"Uncletopia | Hong Kong | 1 | All Maps | STV","players":null},{"server_id":1,"name":"Uncletopia | Los Angeles | 1 | All Maps","name_short":"lax-1","host":"lax-1.us.uncletopia.com","port":27015,"enabled":true,"region":"us-west","cc":"us","latitude":33.94279,"longitude":-118.41004,"reserved":0,"last_update":"0001-01-01T00:00:00Z","name_a2s":"Uncletopia | Los Angeles | 1 | All Maps","protocol":17,"map":"koth_viaduct","folder":"tf","game":"Team Fortress","app_id":440,"player_count":0,"max_players":24,"Bots":0,"server_type":"Dedicated","server_os":"Linux","password":true,"vac":true,"version":"7757534","steam_id":85568392924469991,"keywords":["cp","nocrits","nodmgspread","uncletopia"],"game_id":440,"stv_port":27016,"stv_name":"Uncletopia | Los Angeles | 1 | All Maps | STV","players":null},{"server_id":112,"name":"Uncletopia | Los Angeles | 2 | All Maps","name_short":"lax-2","host":"lax-1.us.uncletopia.com","port":27025,"enabled":true,"region":"us-west","cc":"us","latitude":33.94279,"longitude":-118.41004,"reserved":0,"last_update":"0001-01-01T00:00:00Z","name_a2s":"Uncletopia | Los Angeles | 2 | All Maps","protocol":17,"map":"koth_cascade","folder":"tf","game":"Team Fortress","app_id":440,"player_count":0,"max_players":24,"Bots":0,"server_type":"Dedicated","server_os":"Linux","password":true,"vac":true,"version":"7757534","steam_id":85568392924469992,"keywords":["cp","nocrits","nodmgspread","uncletopia"],"game_id":440,"stv_port":27026,"stv_name":"Uncletopia | Los Angeles | 2 | All Maps | STV","players":null},{"server_id":324,"name":"Uncletopia | Los Angeles | 3 | All Maps","name_short":"lax-3","host":"lax-1.us.uncletopia.com","port":27035,"enabled":true,"region":"us-west","cc":"us","latitude":33.94279,"longitude":-118.41004,"reserved":0,"last_update":"0001-01-01T00:00:00Z","name_a2s":"Uncletopia | Los Angeles | 3 | All Maps","protocol":17,"map":"pl_pier","folder":"tf","game":"Team Fortress","app_id":440,"player_count":0,"max_players":24,"Bots":0,"server_type":"Dedicated","server_os":"Linux","password":true,"vac":true,"version":"7757534","steam_id":85568392924510198,"keywords":["nocrits","nodmgspread","payload","uncletopia"],"game_id":440,"stv_port":27036,"stv_name":"Uncletopia | Los Angeles | 3 | All Maps | STV","players":null},{"server_id":25,"name":"Uncletopia | Los Angeles | 4 | Stopwatch Beta","name_short":"lax-4","host":"lax-1.us.uncletopia.com","port":27045,"enabled":true,"region":"us-west","cc":"us","latitude":33.94279,"longitude":-118.41004,"reserved":0,"last_update":"0001-01-01T00:00:00Z","name_a2s":"Uncletopia | Los Angeles | 4 | Stopwatch Beta","protocol":17,"map":"pl_frontier_final","folder":"tf","game":"Team Fortress","app_id":440,"player_count":0,"max_players":24,"Bots":0,"server_type":"Dedicated","server_os":"Linux","password":true,"vac":true,"version":"7757534","steam_id":85568392924510199,"keywords":["nocrits","nodmgspread","payload","uncletopia"],"game_id":440,"stv_port":27046,"stv_name":"Uncletopia | Los Angeles | 4 | Stopwatch Beta | STV","players":null},{"server_id":11,"name":"Uncletopia | London | 1 | All Maps","name_short":"lon-1","host":"lon-1.uk.uncletopia.com","port":27015,"enabled":true,"region":"eu","cc":"gb","latitude":51.509865,"longitude":-0.118092,"reserved":0,"last_update":"0001-01-01T00:00:00Z","name_a2s":"Uncletopia | London | 1 | All Maps","protocol":17,"map":"pl_swiftwater_final1","folder":"tf","game":"Team Fortress","app_id":440,"player_count":24,"max_players":24,"Bots":0,"server_type":"Dedicated","server_os":"Linux","password":true,"vac":true,"version":"7757534","steam_id":85568392924367362,"keywords":["nocrits","nodmgspread","payload","uncletopia"],"game_id":440,"stv_port":27016,"stv_name":"Uncletopia | London | 1 | All Maps | STV","players":[{"user_id":534,"name":"Chubbles","steam_id":76561198237619472,"connected_time":1820000000000,"state":"active","ping":128},{"user_id":516,"name":"Sandshee","steam_id":76561198088574666,"connected_time":3265000000000,"state":"active","ping":31},{"user_id":567,"name":"Dr Sex","steam_id":76561198029044617,"connected_time":36000000000,"state":"active","ping":48},{"user_id":549,"name":"102ping","steam_id":76561199000963772,"connected_time":1210000000000,"state":"active","ping":66},{"user_id":552,"name":"Thibob","steam_id":76561198000541852,"connected_time":1003000000000,"state":"active","ping":55},{"user_id":551,"name":"Benzema","steam_id":76561197999770869,"connected_time":1029000000000,"state":"active","ping":88},{"user_id":520,"name":"Croy","steam_id":76561197972552579,"connected_time":2731000000000,"state":"active","ping":40},{"user_id":556,"name":"Wattseyy","steam_id":76561198248567360,"connected_time":502000000000,"state":"active","ping":39},{"user_id":481,"name":"ThatGamingKiwi","steam_id":76561199170522237,"connected_time":6291000000000,"state":"active","ping":146},{"user_id":512,"name":"Andreyka","steam_id":76561198038447927,"connected_time":3693000000000,"state":"active","ping":120},{"user_id":533,"name":"Penis Contortionist","steam_id":76561198073663784,"connected_time":2023000000000,"state":"active","ping":34},{"user_id":546,"name":"KhornateDoom","steam_id":76561198127530619,"connected_time":1289000000000,"state":"active","ping":78},{"user_id":565,"name":"Commander DM","steam_id":76561198059236770,"connected_time":336000000000,"state":"active","ping":80},{"user_id":558,"name":"AfricanCommie","steam_id":76561198798803845,"connected_time":478000000000,"state":"active","ping":51},{"user_id":515,"name":"Tragedy+Time=Comedy","steam_id":76561199095819413,"connected_time":3299000000000,"state":"active","ping":55},{"user_id":559,"name":"Charon-the-Boatman","steam_id":76561199031392798,"connected_time":451000000000,"state":"active","ping":68},{"user_id":555,"name":"Dolcelatte","steam_id":76561198038501770,"connected_time":678000000000,"state":"active","ping":62},{"user_id":563,"name":"Orange Catface","steam_id":76561198963378933,"connected_time":425000000000,"state":"active","ping":44},{"user_id":554,"name":"chainsaw","steam_id":76561199220675624,"connected_time":932000000000,"state":"active","ping":127},{"user_id":566,"name":"ඞbominasus 2137  #SaveTF2","steam_id":76561198030062981,"connected_time":234000000000,"state":"active","ping":74},{"user_id":560,"name":"tactical783","steam_id":76561199051688560,"connected_time":440000000000,"state":"active","ping":75},{"user_id":550,"name":"banyesz","steam_id":76561198152997658,"connected_time":1162000000000,"state":"active","ping":89},{"user_id":561,"name":"antlionguard","steam_id":76561198072747143,"connected_time":440000000000,"state":"active","ping":109}]},{"server_id":114,"name":"Uncletopia | London | 2 | All Maps","name_short":"lon-2","host":"lon-1.uk.uncletopia.com","port":27025,"enabled":true,"region":"eu","cc":"gb","latitude":51.509865,"longitude":-0.118092,"reserved":0,"last_update":"0001-01-01T00:00:00Z","name_a2s":"Uncletopia | London | 2 | All Maps","protocol":17,"map":"pl_upward","folder":"tf","game":"Team Fortress","app_id":440,"player_count":23,"max_players":24,"Bots":0,"server_type":"Dedicated","server_os":"Linux","password":true,"vac":true,"version":"7757534","steam_id":85568392924470941,"keywords":["nocrits","nodmgspread","payload","uncletopia"],"game_id":440,"stv_port":27026,"stv_name":"Uncletopia | London | 2 | All Maps | STV","players":[{"user_id":11,"name":"Kalarad","steam_id":76561198981545517,"connected_time":2196000000000,"state":"active","ping":85},{"user_id":55,"name":"MentleGen","steam_id":76561198061190210,"connected_time":200000000000,"state":"active","ping":44},{"user_id":14,"name":"Lunar","steam_id":76561199077495290,"connected_time":1736000000000,"state":"active","ping":82},{"user_id":57,"name":"bobek","steam_id":76561198092312720,"connected_time":118000000000,"state":"active","ping":61},{"user_id":16,"name":"Dr. Cox","steam_id":76561198246629218,"connected_time":1598000000000,"state":"active","ping":100},{"user_id":30,"name":"MagalaxShiro","steam_id":76561198079071492,"connected_time":1055000000000,"state":"active","ping":76},{"user_id":18,"name":"Speibsackerl","steam_id":76561198058135257,"connected_time":1563000000000,"state":"active","ping":82},{"user_id":47,"name":"Major","steam_id":76561198086483282,"connected_time":632000000000,"state":"active","ping":47},{"user_id":51,"name":"Miles","steam_id":76561198084891833,"connected_time":309000000000,"state":"active","ping":44},{"user_id":24,"name":"Shibe","steam_id":76561198071312153,"connected_time":1193000000000,"state":"active","ping":72},{"user_id":25,"name":"The Spy from teamfortress 2","steam_id":76561198061332068,"connected_time":1192000000000,"state":"active","ping":61},{"user_id":26,"name":"Rocadinis","steam_id":76561198095910616,"connected_time":1180000000000,"state":"active","ping":101},{"user_id":50,"name":"lettuce at 58p","steam_id":76561199401283123,"connected_time":361000000000,"state":"active","ping":49},{"user_id":33,"name":"going through hell","steam_id":76561199042470246,"connected_time":1012000000000,"state":"active","ping":58},{"user_id":34,"name":"Uncle Dane","steam_id":76561199141666764,"connected_time":1001000000000,"state":"active","ping":152},{"user_id":54,"name":"Greencoffee","steam_id":76561198842090589,"connected_time":221000000000,"state":"active","ping":67},{"user_id":36,"name":"Uncle Owen","steam_id":76561198157999291,"connected_time":978000000000,"state":"active","ping":85},{"user_id":37,"name":"gaming","steam_id":76561199047240264,"connected_time":940000000000,"state":"active","ping":77},{"user_id":41,"name":"Weng","steam_id":76561198049762029,"connected_time":821000000000,"state":"active","ping":44},{"user_id":40,"name":"SPONGE","steam_id":76561198040933472,"connected_time":850000000000,"state":"active","ping":61},{"user_id":42,"name":"Tomau5","steam_id":76561198027409468,"connected_time":819000000000,"state":"active","ping":53},{"user_id":53,"name":"Clitorina","steam_id":76561198077570815,"connected_time":274000000000,"state":"active","ping":44},{"user_id":45,"name":"thatoneguy","steam_id":76561199010480747,"connected_time":710000000000,"state":"active","ping":150}]},{"server_id":320,"name":"Uncletopia | London | 3 | All Maps","name_short":"lon-3","host":"lon-1.uk.uncletopia.com","port":27035,"enabled":true,"region":"eu","cc":"gb","latitude":51.509865,"longitude":-0.118092,"reserved":0,"last_update":"0001-01-01T00:00:00Z","name_a2s":"Uncletopia | London | 3 | All Maps","protocol":17,"map":"pl_snowycoast","folder":"tf","game":"Team Fortress","app_id":440,"player_count":23,"max_players":24,"Bots":0,"server_type":"Dedicated","server_os":"Linux","password":true,"vac":true,"version":"7757534","steam_id":85568392924510192,"keywords":["nocrits","nodmgspread","payload","uncletopia"],"game_id":440,"stv_port":27036,"stv_name":"Uncletopia | London | 3 | All Maps | STV","players":[{"user_id":444,"name":"tezuka rin","steam_id":76561198037810091,"connected_time":162000000000,"state":"active","ping":105},{"user_id":387,"name":"Shibus","steam_id":76561198077328359,"connected_time":4017000000000,"state":"active","ping":61},{"user_id":430,"name":"frosty","steam_id":76561198094560834,"connected_time":1008000000000,"state":"active","ping":42},{"user_id":390,"name":"Lucoa Enjoyer","steam_id":76561198842622419,"connected_time":3621000000000,"state":"spawning","ping":84},{"user_id":429,"name":"jovi_","steam_id":76561198449280552,"connected_time":1110000000000,"state":"active","ping":43},{"user_id":427,"name":"Saul Goodman","steam_id":76561199256645319,"connected_time":1174000000000,"state":"spawning","ping":110},{"user_id":435,"name":"Matznmilian","steam_id":76561198024358403,"connected_time":865000000000,"state":"active","ping":76},{"user_id":410,"name":"Mafew","steam_id":76561198119993886,"connected_time":2359000000000,"state":"active","ping":110},{"user_id":432,"name":"synoptic","steam_id":76561198995397050,"connected_time":911000000000,"state":"spawning","ping":93},{"user_id":412,"name":"Sch","steam_id":76561198071341689,"connected_time":2154000000000,"state":"active","ping":60},{"user_id":443,"name":"Magica","steam_id":76561198965200359,"connected_time":281000000000,"state":"active","ping":66},{"user_id":433,"name":"no. 1 lucki fan","steam_id":76561198022382969,"connected_time":897000000000,"state":"spawning","ping":383},{"user_id":437,"name":"Baguette","steam_id":76561199069435825,"connected_time":829000000000,"state":"active","ping":75},{"user_id":407,"name":"Jimmy","steam_id":76561198133680783,"connected_time":2826000000000,"state":"active","ping":63},{"user_id":445,"name":"Mowelic","steam_id":76561198873641222,"connected_time":143000000000,"state":"active","ping":87},{"user_id":423,"name":"SirVitek","steam_id":76561198142961758,"connected_time":1302000000000,"state":"active","ping":71},{"user_id":334,"name":"john fortress","steam_id":76561198013237629,"connected_time":6400000000000,"state":"active","ping":79},{"user_id":424,"name":"dongus","steam_id":76561198042774930,"connected_time":1301000000000,"state":"active","ping":56},{"user_id":425,"name":"kreeekz","steam_id":76561198014431602,"connected_time":1291000000000,"state":"active","ping":71},{"user_id":434,"name":"mimi","steam_id":76561198060648946,"connected_time":888000000000,"state":"active","ping":60},{"user_id":442,"name":"Michał","steam_id":76561198320346362,"connected_time":452000000000,"state":"active","ping":97},{"user_id":441,"name":"Qosmo","steam_id":76561197980806182,"connected_time":579000000000,"state":"active","ping":77},{"user_id":446,"name":"PotatoBob","steam_id":76561199192517531,"connected_time":42000000000,"state":"active","ping":89}]},{"server_id":321,"name":"Uncletopia | London | 4 | All Maps","name_short":"lon-4","host":"lon-1.uk.uncletopia.com","port":27045,"enabled":true,"region":"eu","cc":"gb","latitude":51.509865,"longitude":-0.118092,"reserved":0,"last_update":"0001-01-01T00:00:00Z","name_a2s":"Uncletopia | London | 4 | All Maps","protocol":17,"map":"pl_frontier_final","folder":"tf","game":"Team Fortress","app_id":440,"player_count":20,"max_players":24,"Bots":0,"server_type":"Dedicated","server_os":"Linux","password":true,"vac":true,"version":"7757534","steam_id":85568392924510193,"keywords":["nocrits","nodmgspread","payload","uncletopia"],"game_id":440,"stv_port":27046,"stv_name":"Uncletopia | London | 4 | All Maps | STV","players":[{"user_id":302,"name":"Sgreff","steam_id":76561198036304365,"connected_time":1024000000000,"state":"active","ping":45},{"user_id":274,"name":"Mr. Mundy","steam_id":76561198132008918,"connected_time":3990000000000,"state":"active","ping":83},{"user_id":262,"name":"Luuk","steam_id":76561198088266026,"connected_time":4612000000000,"state":"active","ping":41},{"user_id":309,"name":"Tata Cobraz0r","steam_id":76561198017693962,"connected_time":88000000000,"state":"active","ping":75},{"user_id":308,"name":"System","steam_id":76561199442503973,"connected_time":98000000000,"state":"active","ping":43},{"user_id":283,"name":"makiverem","steam_id":76561198425866216,"connected_time":2907000000000,"state":"active","ping":76},{"user_id":307,"name":"UNQ Mihai","steam_id":76561199181038346,"connected_time":764000000000,"state":"active","ping":83},{"user_id":311,"name":"♫★Xriasp★♫","steam_id":76561198104721321,"connected_time":81000000000,"state":"active","ping":75},{"user_id":172,"name":"Grillem Dafoe","steam_id":76561198306874574,"connected_time":10689000000000,"state":"active","ping":59},{"user_id":314,"name":"Egtu","steam_id":76561198013757235,"connected_time":43000000000,"state":"spawning","ping":75},{"user_id":303,"name":"GardenFungus","steam_id":76561198054894337,"connected_time":973000000000,"state":"active","ping":41},{"user_id":315,"name":"Stu","steam_id":76561198131449281,"connected_time":42000000000,"state":"active","ping":48},{"user_id":316,"name":"You slumber","steam_id":76561198344639692,"connected_time":33000000000,"state":"spawning","ping":70},{"user_id":270,"name":"Miczu555PL","steam_id":76561198058500895,"connected_time":4131000000000,"state":"active","ping":75},{"user_id":312,"name":"[dopijus]","steam_id":76561198943009513,"connected_time":79000000000,"state":"active","ping":94},{"user_id":299,"name":"Zerfesh","steam_id":76561198117534358,"connected_time":1941000000000,"state":"active","ping":101},{"user_id":310,"name":"Shovelhalfrusty","steam_id":76561198346447513,"connected_time":83000000000,"state":"active","ping":69},{"user_id":305,"name":"JohnnyRakieta","steam_id":76561198855789287,"connected_time":962000000000,"state":"active","ping":69},{"user_id":285,"name":"Autumnsky","steam_id":76561198055161203,"connected_time":2727000000000,"state":"active","ping":60},{"user_id":306,"name":"SynthBox3","steam_id":76561199094075745,"connected_time":866000000000,"state":"active","ping":101}]},{"server_id":21,"name":"Uncletopia | London | 5 | All Maps","name_short":"lon-5","host":"lon-1.uk.uncletopia.com","port":27055,"enabled":true,"region":"eu","cc":"gb","latitude":51.509865,"longitude":-0.118092,"reserved":0,"last_update":"0001-01-01T00:00:00Z","name_a2s":"Uncletopia | London | 5 | All Maps","protocol":17,"map":"plr_pipeline","folder":"tf","game":"Team Fortress","app_id":440,"player_count":0,"max_players":24,"Bots":0,"server_type":"Dedicated","server_os":"Linux","password":true,"vac":true,"version":"7757534","steam_id":85568392924742829,"keywords":["nocrits","nodmgspread","payload","uncletopia"],"game_id":440,"stv_port":27056,"stv_name":"Uncletopia | London | 5 | All Maps | STV","players":null},{"server_id":22,"name":"Uncletopia | London | 6 | All Maps","name_short":"lon-6","host":"lon-1.uk.uncletopia.com","port":27065,"enabled":true,"region":"eu","cc":"gb","latitude":51.509865,"longitude":-0.118092,"reserved":0,"last_update":"0001-01-01T00:00:00Z","name_a2s":"Uncletopia | London | 6 | All Maps","protocol":17,"map":"koth_cascade","folder":"tf","game":"Team Fortress","app_id":440,"player_count":0,"max_players":24,"Bots":0,"server_type":"Dedicated","server_os":"Linux","password":true,"vac":true,"version":"7757534","steam_id":85568392924742830,"keywords":["cp","nocrits","nodmgspread","uncletopia"],"game_id":440,"stv_port":27066,"stv_name":"Uncletopia | London | 6 | All Maps | STV","players":null},{"server_id":40,"name":"Uncletopia | London | 7 | No Payload","name_short":"lon-7","host":"lon-1.uk.uncletopia.com","port":27075,"enabled":true,"region":"eu","cc":"gb","latitude":51.509865,"longitude":-0.118092,"reserved":0,"last_update":"0001-01-01T00:00:00Z","name_a2s":"Uncletopia | London | 7 | No Payload","protocol":17,"map":"koth_harvest_final","folder":"tf","game":"Team Fortress","app_id":440,"player_count":24,"max_players":24,"Bots":0,"server_type":"Dedicated","server_os":"Linux","password":true,"vac":true,"version":"7757534","steam_id":85568392924964314,"keywords":["cp","nocrits","nodmgspread","uncletopia"],"game_id":440,"stv_port":27076,"stv_name":"Uncletopia | London | 7 | No Payload | STV","players":[{"user_id":288,"name":"Kascat.UA","steam_id":76561198218134995,"connected_time":289000000000,"state":"active","ping":92},{"user_id":259,"name":"akakez","steam_id":76561198095432821,"connected_time":2819000000000,"state":"active","ping":110},{"user_id":282,"name":"purrrr","steam_id":76561198184881255,"connected_time":654000000000,"state":"active","ping":65},{"user_id":204,"name":"fume.","steam_id":76561197960476801,"connected_time":5198000000000,"state":"active","ping":60},{"user_id":285,"name":"heatburn","steam_id":76561198019001992,"connected_time":532000000000,"state":"active","ping":52},{"user_id":292,"name":"Green Banana","steam_id":76561198055480280,"connected_time":170000000000,"state":"active","ping":87},{"user_id":278,"name":"Wir suchen dich!","steam_id":76561198307613521,"connected_time":1019000000000,"state":"active","ping":57},{"user_id":232,"name":"goblin","steam_id":76561198151122921,"connected_time":3778000000000,"state":"active","ping":75},{"user_id":239,"name":"ethan","steam_id":76561198119495513,"connected_time":3627000000000,"state":"active","ping":45},{"user_id":271,"name":"SneKeTo","steam_id":76561198199302578,"connected_time":1834000000000,"state":"active","ping":82},{"user_id":294,"name":"astigmatic","steam_id":76561199103959197,"connected_time":125000000000,"state":"active","ping":104},{"user_id":276,"name":"Ivan the Terrible","steam_id":76561198139595241,"connected_time":1091000000000,"state":"active","ping":86},{"user_id":290,"name":"Delanз.","steam_id":76561198124858032,"connected_time":250000000000,"state":"active","ping":89},{"user_id":166,"name":"Garden Freeman","steam_id":76561199073314677,"connected_time":7172000000000,"state":"active","ping":83},{"user_id":287,"name":"Septicmotion","steam_id":76561199090085056,"connected_time":419000000000,"state":"active","ping":65},{"user_id":270,"name":"Fat Pigeon","steam_id":76561198817940142,"connected_time":1870000000000,"state":"active","ping":46},{"user_id":253,"name":"Chipsy","steam_id":76561198271813588,"connected_time":3001000000000,"state":"active","ping":52},{"user_id":262,"name":"Faxter","steam_id":76561198011771605,"connected_time":2486000000000,"state":"active","ping":76},{"user_id":265,"name":"smoke","steam_id":76561198369002901,"connected_time":2324000000000,"state":"active","ping":79},{"user_id":275,"name":"Jara.","steam_id":76561197992207165,"connected_time":1371000000000,"state":"active","ping":106},{"user_id":196,"name":"prcg","steam_id":76561198047619456,"connected_time":5826000000000,"state":"active","ping":65},{"user_id":293,"name":"xd","steam_id":76561198066523881,"connected_time":150000000000,"state":"active","ping":60},{"user_id":236,"name":"Mr. Caesar","steam_id":76561198166329161,"connected_time":3681000000000,"state":"active","ping":53},{"user_id":260,"name":"Laru","steam_id":76561197998838438,"connected_time":2724000000000,"state":"active","ping":79}]},{"server_id":41,"name":"Uncletopia | London | 8 | Community","name_short":"lon-8","host":"lon-1.uk.uncletopia.com","port":27085,"enabled":true,"region":"eu","cc":"gb","latitude":51.509865,"longitude":-0.118092,"reserved":0,"last_update":"0001-01-01T00:00:00Z","name_a2s":"Uncletopia | London | 8 | Community","protocol":17,"map":"workshop/rd_asteroid_redux_b1.ugc2154902912","folder":"tf","game":"Team Fortress","app_id":440,"player_count":0,"max_players":24,"Bots":0,"server_type":"Dedicated","server_os":"Linux","password":true,"vac":true,"version":"7757534","steam_id":85568392924964315,"keywords":["beta","nocrits","nodmgspread","rd","uncletopia"],"game_id":440,"stv_port":27086,"stv_name":"Uncletopia | London | 8 | Community | STV","players":null},{"server_id":300,"name":"Uncletopia | Montréal | 1 | All Maps","name_short":"mtl-1","host":"mtl-1.ca.uncletopia.com","port":27015,"enabled":true,"region":"us-east","cc":"ca","latitude":45.50889,"longitude":-73.56167,"reserved":0,"last_update":"0001-01-01T00:00:00Z","name_a2s":"Uncletopia | Montréal | 1 | All Maps","protocol":17,"map":"pl_snowycoast","folder":"tf","game":"Team Fortress","app_id":440,"player_count":0,"max_players":24,"Bots":0,"server_type":"Dedicated","server_os":"Linux","password":true,"vac":true,"version":"7757534","steam_id":85568392924500087,"keywords":["nocrits","nodmgspread","payload","uncletopia"],"game_id":440,"stv_port":27016,"stv_name":"Uncletopia | Montréal | 1 | All Maps | STV","players":null},{"server_id":301,"name":"Uncletopia | Montréal | 2 | All Maps","name_short":"mtl-2","host":"mtl-1.ca.uncletopia.com","port":27025,"enabled":true,"region":"us-east","cc":"ca","latitude":45.50889,"longitude":-73.56167,"reserved":0,"last_update":"0001-01-01T00:00:00Z","name_a2s":"Uncletopia | Montréal | 2 | All Maps","protocol":17,"map":"pl_snowycoast","folder":"tf","game":"Team Fortress","app_id":440,"player_count":0,"max_players":24,"Bots":0,"server_type":"Dedicated","server_os":"Linux","password":true,"vac":true,"version":"7757534","steam_id":85568392924500088,"keywords":["nocrits","nodmgspread","payload","uncletopia"],"game_id":440,"stv_port":27026,"stv_name":"Uncletopia | Montréal | 2 | All Maps | STV","players":null},{"server_id":302,"name":"Uncletopia | Montréal | 3 | All Maps","name_short":"mtl-3","host":"mtl-1.ca.uncletopia.com","port":27035,"enabled":true,"region":"us-east","cc":"ca","latitude":45.50889,"longitude":-73.56167,"reserved":0,"last_update":"0001-01-01T00:00:00Z","name_a2s":"Uncletopia | Montréal | 3 | All Maps","protocol":17,"map":"cp_dustbowl","folder":"tf","game":"Team Fortress","app_id":440,"player_count":0,"max_players":24,"Bots":0,"server_type":"Dedicated","server_os":"Linux","password":true,"vac":true,"version":"7757534","steam_id":85568392924500089,"keywords":["cp","nocrits","nodmgspread","uncletopia"],"game_id":440,"stv_port":27036,"stv_name":"Uncletopia | Montréal | 3 | All Maps | STV","players":null},{"server_id":303,"name":"Uncletopia | Montréal | 4 | No Payload","name_short":"mtl-4","host":"mtl-1.ca.uncletopia.com","port":27045,"enabled":true,"region":"us-east","cc":"ca","latitude":45.50889,"longitude":-73.56167,"reserved":0,"last_update":"0001-01-01T00:00:00Z","name_a2s":"Uncletopia | Montréal | 4 | No Payload","protocol":17,"map":"pl_borneo","folder":"tf","game":"Team Fortress","app_id":440,"player_count":0,"max_players":24,"Bots":0,"server_type":"Dedicated","server_os":"Linux","password":true,"vac":true,"version":"7757534","steam_id":85568392924500090,"keywords":["nocrits","nodmgspread","payload","uncletopia"],"game_id":440,"stv_port":27046,"stv_name":"Uncletopia | Montréal | 4 | No Payload | STV","players":null},{"server_id":13,"name":"Uncletopia | New York City | 1 | All Maps","name_short":"nyc-1","host":"nyc-1.us.uncletopia.com","port":27015,"enabled":true,"region":"us-east","cc":"us","latitude":40.73061,"longitude":-73.93524,"reserved":0,"last_update":"0001-01-01T00:00:00Z","name_a2s":"Uncletopia | New York City | 1 | All Maps","protocol":17,"map":"cp_gorge","folder":"tf","game":"Team Fortress","app_id":440,"player_count":16,"max_players":24,"Bots":0,"server_type":"Dedicated","server_os":"Linux","password":true,"vac":true,"version":"7757534","steam_id":85568392924469993,"keywords":["cp","nocrits","nodmgspread","uncletopia"],"game_id":440,"stv_port":27016,"stv_name":"Uncletopia | New York City | 1 | All Maps | STV","players":[{"user_id":149,"name":"nforce","steam_id":76561198015525483,"connected_time":346000000000,"state":"active","ping":68},{"user_id":57,"name":"Josh Diddily","steam_id":76561198286957487,"connected_time":5736000000000,"state":"active","ping":122},{"user_id":128,"name":"furnace_user","steam_id":76561197995620232,"connected_time":1347000000000,"state":"active","ping":44},{"user_id":146,"name":"thatbedrockblock","steam_id":76561199069286524,"connected_time":430000000000,"state":"active","ping":123},{"user_id":150,"name":"OneFestiveCorvid","steam_id":76561199012953221,"connected_time":279000000000,"state":"active","ping":91},{"user_id":152,"name":"Poppy","steam_id":76561198311745553,"connected_time":31000000000,"state":"active","ping":105},{"user_id":136,"name":"you forgot the sauce","steam_id":76561198387016713,"connected_time":1221000000000,"state":"active","ping":59},{"user_id":144,"name":"Idiot on his Keyboard","steam_id":76561198217662787,"connected_time":529000000000,"state":"active","ping":63},{"user_id":130,"name":"Squid121","steam_id":76561198038832034,"connected_time":1329000000000,"state":"active","ping":118},{"user_id":145,"name":"Hoonter","steam_id":76561199180153537,"connected_time":523000000000,"state":"active","ping":179},{"user_id":142,"name":"R3TR0OWL","steam_id":76561198271055229,"connected_time":686000000000,"state":"active","ping":72},{"user_id":115,"name":"The Trash Man","steam_id":76561198071375772,"connected_time":2886000000000,"state":"active","ping":70},{"user_id":139,"name":"apricity_a","steam_id":76561198202273263,"connected_time":1107000000000,"state":"active","ping":60},{"user_id":147,"name":"Frajer","steam_id":76561198059129680,"connected_time":423000000000,"state":"active","ping":66},{"user_id":117,"name":"「Ryan」","steam_id":76561198056178518,"connected_time":2510000000000,"state":"active","ping":64},{"user_id":148,"name":"The milked man","steam_id":76561198352997734,"connected_time":423000000000,"state":"active","ping":134}]},{"server_id":14,"name":"Uncletopia | New York City | 2 | All Maps","name_short":"nyc-2","host":"nyc-1.us.uncletopia.com","port":27025,"enabled":true,"region":"us-east","cc":"us","latitude":40.73061,"longitude":-73.93524,"reserved":0,"last_update":"0001-01-01T00:00:00Z","name_a2s":"Uncletopia | New York City | 2 | All Maps","protocol":17,"map":"pl_pier","folder":"tf","game":"Team Fortress","app_id":440,"player_count":0,"max_players":24,"Bots":0,"server_type":"Dedicated","server_os":"Linux","password":true,"vac":true,"version":"7757534","steam_id":85568392924469994,"keywords":["nocrits","nodmgspread","payload","uncletopia"],"game_id":440,"stv_port":27026,"stv_name":"Uncletopia | New York City | 2 | All Maps | STV","players":null},{"server_id":15,"name":"Uncletopia | New York City | 3 | Stopwatch Beta","name_short":"nyc-3","host":"nyc-1.us.uncletopia.com","port":27035,"enabled":true,"region":"us-east","cc":"us","latitude":40.73061,"longitude":-73.93524,"reserved":0,"last_update":"0001-01-01T00:00:00Z","name_a2s":"Uncletopia | New York City | 3 | Stopwatch Beta","protocol":17,"map":"cp_mountainlab","folder":"tf","game":"Team Fortress","app_id":440,"player_count":0,"max_players":24,"Bots":0,"server_type":"Dedicated","server_os":"Linux","password":true,"vac":true,"version":"7757534","steam_id":85568392924742820,"keywords":["cp","nocrits","nodmgspread","uncletopia"],"game_id":440,"stv_port":27036,"stv_name":"Uncletopia | New York City | 3 | Stopwatch Beta | STV","players":null},{"server_id":16,"name":"Uncletopia | New York City | 4 | Community","name_short":"nyc-4","host":"nyc-1.us.uncletopia.com","port":27045,"enabled":true,"region":"us-east","cc":"us","latitude":40.73061,"longitude":-73.93524,"reserved":0,"last_update":"0001-01-01T00:00:00Z","name_a2s":"Uncletopia | New York City | 4 | Community","protocol":17,"map":"pl_borneo","folder":"tf","game":"Team Fortress","app_id":440,"player_count":0,"max_players":24,"Bots":0,"server_type":"Dedicated","server_os":"Linux","password":true,"vac":true,"version":"7757534","steam_id":85568392924742821,"keywords":["nocrits","nodmgspread","payload","uncletopia"],"game_id":440,"stv_port":27046,"stv_name":"Uncletopia | New York City | 4 | Community | STV","players":null},{"server_id":142,"name":"Uncletopia | São Paulo | 1 | All Maps","name_short":"sao-1","host":"sao-1.br.uncletopia.com","port":27015,"enabled":true,"region":"sa","cc":"br","latitude":-23.533773,"longitude":-46.62529,"reserved":0,"last_update":"0001-01-01T00:00:00Z","name_a2s":"Uncletopia | São Paulo | 1 | All Maps","protocol":17,"map":"pl_snowycoast","folder":"tf","game":"Team Fortress","app_id":440,"player_count":0,"max_players":24,"Bots":0,"server_type":"Dedicated","server_os":"Linux","password":true,"vac":true,"version":"7757534","steam_id":85568392924469996,"keywords":["nocrits","nodmgspread","payload","uncletopia"],"game_id":440,"stv_port":27016,"stv_name":"Uncletopia | São Paulo | 1 | All Maps | STV","players":null},{"server_id":143,"name":"Uncletopia | São Paulo | 2 | All Maps","name_short":"sao-2","host":"sao-2.br.uncletopia.com","port":27015,"enabled":true,"region":"sa","cc":"br","latitude":-23.533773,"longitude":-46.62529,"reserved":0,"last_update":"0001-01-01T00:00:00Z","name_a2s":"Uncletopia | São Paulo | 2 | All Maps","protocol":17,"map":"pl_borneo","folder":"tf","game":"Team Fortress","app_id":440,"player_count":0,"max_players":24,"Bots":0,"server_type":"Dedicated","server_os":"Linux","password":true,"vac":true,"version":"7757534","steam_id":85568392924485349,"keywords":["nocrits","nodmgspread","payload","uncletopia"],"game_id":440,"stv_port":27016,"stv_name":"Uncletopia | São Paulo | 2 | All Maps | STV","players":null},{"server_id":7,"name":"Uncletopia | Seattle | 1 | All Maps","name_short":"sea-1","host":"sea-1.us.uncletopia.com","port":27015,"enabled":true,"region":"us-west","cc":"us","latitude":47.608013,"longitude":-122.33517,"reserved":0,"last_update":"0001-01-01T00:00:00Z","name_a2s":"Uncletopia | Seattle | 1 | All Maps","protocol":17,"map":"pl_pier","folder":"tf","game":"Team Fortress","app_id":440,"player_count":0,"max_players":24,"Bots":0,"server_type":"Dedicated","server_os":"Linux","password":true,"vac":true,"version":"7757534","steam_id":85568392924469997,"keywords":["nocrits","nodmgspread","payload","uncletopia"],"game_id":440,"stv_port":27016,"stv_name":"Uncletopia | Seattle | 1 | All Maps | STV","players":null},{"server_id":119,"name":"Uncletopia | Seattle | 2 | All Maps","name_short":"sea-2","host":"sea-1.us.uncletopia.com","port":27025,"enabled":true,"region":"us-west","cc":"us","latitude":47.608013,"longitude":-122.33517,"reserved":0,"last_update":"0001-01-01T00:00:00Z","name_a2s":"Uncletopia | Seattle | 2 | All Maps","protocol":17,"map":"cp_mountainlab","folder":"tf","game":"Team Fortress","app_id":440,"player_count":24,"max_players":24,"Bots":0,"server_type":"Dedicated","server_os":"Linux","password":true,"vac":true,"version":"7757534","steam_id":85568392924469998,"keywords":["cp","nocrits","nodmgspread","uncletopia"],"game_id":440,"stv_port":27026,"stv_name":"Uncletopia | Seattle | 2 | All Maps | STV","players":[{"user_id":6,"name":"volta","steam_id":76561199214283884,"connected_time":2024000000000,"state":"active","ping":149},{"user_id":7,"name":"Lightatex","steam_id":76561199068097196,"connected_time":2003000000000,"state":"active","ping":106},{"user_id":14,"name":"{907}DarkestFury","steam_id":76561198103662458,"connected_time":1570000000000,"state":"active","ping":74},{"user_id":33,"name":"Many Bees' Chilling","steam_id":76561198079641282,"connected_time":892000000000,"state":"active","ping":54},{"user_id":10,"name":"laszlo","steam_id":76561198141198352,"connected_time":1702000000000,"state":"active","ping":91},{"user_id":11,"name":"so-and-so","steam_id":76561198325306660,"connected_time":1657000000000,"state":"active","ping":49},{"user_id":40,"name":"trinqette","steam_id":76561198119543621,"connected_time":636000000000,"state":"active","ping":92},{"user_id":44,"name":"The Pepsi® Superbowl®!","steam_id":76561198080828981,"connected_time":438000000000,"state":"active","ping":74},{"user_id":15,"name":"Socialist Warrior","steam_id":76561198085664421,"connected_time":1556000000000,"state":"active","ping":101},{"user_id":50,"name":"Freeza","steam_id":76561198050341005,"connected_time":193000000000,"state":"active","ping":57},{"user_id":51,"name":"pew pew","steam_id":76561198110661425,"connected_time":183000000000,"state":"active","ping":91},{"user_id":34,"name":"Little Linguine","steam_id":76561198816986370,"connected_time":790000000000,"state":"active","ping":63},{"user_id":52,"name":"mumbles","steam_id":76561197994528974,"connected_time":100000000000,"state":"active","ping":82},{"user_id":36,"name":"MSIBoys","steam_id":76561198213692935,"connected_time":692000000000,"state":"active","ping":86},{"user_id":38,"name":"Gammaplex","steam_id":76561198981228176,"connected_time":687000000000,"state":"active","ping":90},{"user_id":54,"name":"Belmore","steam_id":76561198009355231,"connected_time":42000000000,"state":"active","ping":103},{"user_id":29,"name":"Batso","steam_id":76561198106589452,"connected_time":1057000000000,"state":"active","ping":80},{"user_id":41,"name":"sin","steam_id":76561198145987627,"connected_time":574000000000,"state":"active","ping":124},{"user_id":39,"name":"xXファイアドラゴンxX","steam_id":76561198259852704,"connected_time":679000000000,"state":"active","ping":86},{"user_id":55,"name":"Meurik","steam_id":76561198078032795,"connected_time":16000000000,"state":"spawning","ping":216},{"user_id":42,"name":"ArtZ","steam_id":76561198206435605,"connected_time":544000000000,"state":"active","ping":57},{"user_id":43,"name":"eBay","steam_id":76561198061214569,"connected_time":535000000000,"state":"active","ping":87},{"user_id":46,"name":"HE’S IN THE GODDAMN WALLS","steam_id":76561198363267009,"connected_time":339000000000,"state":"active","ping":95},{"user_id":47,"name":"Eminem","steam_id":76561198256677589,"connected_time":266000000000,"state":"active","ping":78}]},{"server_id":406,"name":"Uncletopia | Seattle | 3 | Stopwatch Beta","name_short":"sea-3","host":"sea-1.us.uncletopia.com","port":27035,"enabled":true,"region":"us-west","cc":"us","latitude":47.608013,"longitude":-122.33517,"reserved":0,"last_update":"0001-01-01T00:00:00Z","name_a2s":"Uncletopia | Seattle | 3 | Stopwatch Beta","protocol":17,"map":"pl_barnblitz","folder":"tf","game":"Team Fortress","app_id":440,"player_count":0,"max_players":24,"Bots":0,"server_type":"Dedicated","server_os":"Linux","password":true,"vac":true,"version":"7757534","steam_id":85568392924515217,"keywords":["nocrits","nodmgspread","payload","uncletopia"],"game_id":440,"stv_port":27036,"stv_name":"Uncletopia | Seattle | 3 | Stopwatch Beta | STV","players":null},{"server_id":17,"name":"Uncletopia | San Francisco | 1 | All Maps","name_short":"sfo-1","host":"sfo-1.us.uncletopia.com","port":27015,"enabled":true,"region":"us-west","cc":"us","latitude":37.77397,"longitude":-122.4313,"reserved":0,"last_update":"0001-01-01T00:00:00Z","name_a2s":"Uncletopia | San Francisco | 1 | All Maps","protocol":17,"map":"cp_process_final","folder":"tf","game":"Team Fortress","app_id":440,"player_count":0,"max_players":24,"Bots":0,"server_type":"Dedicated","server_os":"Linux","password":true,"vac":true,"version":"7757534","steam_id":85568392924469999,"keywords":["cp","nocrits","nodmgspread","uncletopia"],"game_id":440,"stv_port":27016,"stv_name":"Uncletopia | San Francisco | 1 | All Maps | STV","players":null},{"server_id":18,"name":"Uncletopia | San Francisco | 2 | All Maps","name_short":"sfo-2","host":"sfo-1.us.uncletopia.com","port":27025,"enabled":true,"region":"us-west","cc":"us","latitude":37.77397,"longitude":-122.4313,"reserved":0,"last_update":"0001-01-01T00:00:00Z","name_a2s":"Uncletopia | San Francisco | 2 | All Maps","protocol":17,"map":"cp_sunshine","folder":"tf","game":"Team Fortress","app_id":440,"player_count":0,"max_players":24,"Bots":0,"server_type":"Dedicated","server_os":"Linux","password":true,"vac":true,"version":"7757534","steam_id":85568392924470000,"keywords":["cp","nocrits","nodmgspread","uncletopia"],"game_id":440,"stv_port":27026,"stv_name":"Uncletopia | San Francisco | 2 | All Maps | STV","players":null},{"server_id":19,"name":"Uncletopia | San Francisco | 3 | Stopwatch Beta","name_short":"sfo-3","host":"sfo-1.us.uncletopia.com","port":27035,"enabled":true,"region":"us-west","cc":"us","latitude":37.77397,"longitude":-122.4313,"reserved":0,"last_update":"0001-01-01T00:00:00Z","name_a2s":"Uncletopia | San Francisco | 3 | Stopwatch Beta","protocol":17,"map":"pl_borneo","folder":"tf","game":"Team Fortress","app_id":440,"player_count":0,"max_players":24,"Bots":0,"server_type":"Dedicated","server_os":"Linux","password":true,"vac":true,"version":"7757534","steam_id":85568392924742824,"keywords":["nocrits","nodmgspread","payload","uncletopia"],"game_id":440,"stv_port":27036,"stv_name":"Uncletopia | San Francisco | 3 | Stopwatch Beta | STV","players":null},{"server_id":20,"name":"Uncletopia | San Francisco | 4 | Community","name_short":"sfo-4","host":"sfo-1.us.uncletopia.com","port":27045,"enabled":true,"region":"us-west","cc":"us","latitude":37.77397,"longitude":-122.4313,"reserved":0,"last_update":"0001-01-01T00:00:00Z","name_a2s":"Uncletopia | San Francisco | 4 | Community","protocol":17,"map":"koth_highpass","folder":"tf","game":"Team Fortress","app_id":440,"player_count":0,"max_players":24,"Bots":0,"server_type":"Dedicated","server_os":"Linux","password":true,"vac":true,"version":"7757534","steam_id":85568392924742826,"keywords":["cp","nocrits","nodmgspread","uncletopia"],"game_id":440,"stv_port":27046,"stv_name":"Uncletopia | San Francisco | 4 | Community | STV","players":null},{"server_id":141,"name":"Uncletopia | Sydney | 1 | All Maps","name_short":"syd-1","host":"syd-1.au.uncletopia.com","port":27015,"enabled":true,"region":"au","cc":"au","latitude":-33.865143,"longitude":151.2099,"reserved":0,"last_update":"0001-01-01T00:00:00Z","name_a2s":"Uncletopia | Sydney | 1 | All Maps","protocol":17,"map":"koth_highpass","folder":"tf","game":"Team Fortress","app_id":440,"player_count":0,"max_players":24,"Bots":0,"server_type":"Dedicated","server_os":"Linux","password":true,"vac":true,"version":"7757534","steam_id":85568392924470001,"keywords":["cp","nocrits","nodmgspread","uncletopia"],"game_id":440,"stv_port":27016,"stv_name":"Uncletopia | Sydney | 1 | All Maps | STV","players":null},{"server_id":123,"name":"Uncletopia | Sydney | 2 | All Maps","name_short":"syd-2","host":"syd-1.au.uncletopia.com","port":27025,"enabled":true,"region":"au","cc":"au","latitude":-33.865143,"longitude":151.2099,"reserved":0,"last_update":"0001-01-01T00:00:00Z","name_a2s":"Uncletopia | Sydney | 2 | All Maps","protocol":17,"map":"koth_lakeside_final","folder":"tf","game":"Team Fortress","app_id":440,"player_count":0,"max_players":24,"Bots":0,"server_type":"Dedicated","server_os":"Linux","password":true,"vac":true,"version":"7757534","steam_id":85568392924470002,"keywords":["cp","nocrits","nodmgspread","uncletopia"],"game_id":440,"stv_port":27026,"stv_name":"Uncletopia | Sydney | 2 | All Maps | STV","players":null},{"server_id":395,"name":"Uncletopia | Sydney | 3 | All Maps","name_short":"syd-3","host":"syd-1.au.uncletopia.com","port":27035,"enabled":true,"region":"au","cc":"au","latitude":-33.865143,"longitude":151.2099,"reserved":0,"last_update":"0001-01-01T00:00:00Z","name_a2s":"Uncletopia | Sydney | 3 | All Maps","protocol":17,"map":"pl_badwater","folder":"tf","game":"Team Fortress","app_id":440,"player_count":0,"max_players":24,"Bots":0,"server_type":"Dedicated","server_os":"Linux","password":true,"vac":true,"version":"7757534","steam_id":85568392925194467,"keywords":["nocrits","nodmgspread","payload","uncletopia"],"game_id":440,"stv_port":27036,"stv_name":"Uncletopia | Sydney | 3 | All Maps | STV","players":null},{"server_id":396,"name":"Uncletopia | Sydney | 4 | All Maps","name_short":"syd-4","host":"syd-1.au.uncletopia.com","port":27045,"enabled":true,"region":"au","cc":"au","latitude":-33.865143,"longitude":151.2099,"reserved":0,"last_update":"0001-01-01T00:00:00Z","name_a2s":"Uncletopia | Sydney | 4 | All Maps","protocol":17,"map":"koth_lakeside_final","folder":"tf","game":"Team Fortress","app_id":440,"player_count":0,"max_players":24,"Bots":0,"server_type":"Dedicated","server_os":"Linux","password":true,"vac":true,"version":"7757534","steam_id":85568392925397958,"keywords":["cp","nocrits","nodmgspread","uncletopia"],"game_id":440,"stv_port":27046,"stv_name":"Uncletopia | Sydney | 4 | All Maps | STV","players":null},{"server_id":58,"name":"Uncletopia | Sydney | 5 | Stopwatch Beta","name_short":"syd-5","host":"syd-1.au.uncletopia.com","port":27055,"enabled":true,"region":"au","cc":"au","latitude":-33.865143,"longitude":151.2099,"reserved":0,"last_update":"0001-01-01T00:00:00Z","name_a2s":"Uncletopia | Sydney | 5 | Stopwatch Beta","protocol":17,"map":"koth_lakeside_final","folder":"tf","game":"Team Fortress","app_id":440,"player_count":0,"max_players":24,"Bots":0,"server_type":"Dedicated","server_os":"Linux","password":true,"vac":true,"version":"7757534","steam_id":85568392925397959,"keywords":["cp","nocrits","nodmgspread","uncletopia"],"game_id":440,"stv_port":27056,"stv_name":"Uncletopia | Sydney | 5 | Stopwatch Beta | STV","players":null},{"server_id":59,"name":"Uncletopia | Sydney | 6 | Community","name_short":"syd-6","host":"syd-1.au.uncletopia.com","port":27065,"enabled":true,"region":"au","cc":"au","latitude":-33.865143,"longitude":151.2099,"reserved":0,"last_update":"0001-01-01T00:00:00Z","name_a2s":"Uncletopia | Sydney | 6 | Community","protocol":17,"map":"workshop/pl_badwater_pro_v12.ugc2142942074","folder":"tf","game":"Team Fortress","app_id":440,"player_count":0,"max_players":24,"Bots":0,"server_type":"Dedicated","server_os":"Linux","password":true,"vac":true,"version":"7757534","steam_id":85568392925397960,"keywords":["nocrits","nodmgspread","payload","uncletopia"],"game_id":440,"stv_port":27066,"stv_name":"Uncletopia | Sydney | 6 | Community | STV","players":null},{"server_id":49,"name":"Uncletopia | Warsaw | 1 | All Maps","name_short":"waw-1","host":"waw-1.pl.uncletopia.com","port":27015,"enabled":true,"region":"eu","cc":"pl","latitude":52.2297,"longitude":21.017532,"reserved":0,"last_update":"0001-01-01T00:00:00Z","name_a2s":"","protocol":0,"map":"","folder":"","game":"","app_id":0,"player_count":0,"max_players":0,"Bots":0,"server_type":"","server_os":"","password":false,"vac":false,"version":"","steam_id":0,"keywords":null,"game_id":0,"stv_port":0,"stv_name":"","players":null},{"server_id":50,"name":"Uncletopia | Warsaw | 2 | All Maps","name_short":"waw-2","host":"waw-1.pl.uncletopia.com","port":27025,"enabled":true,"region":"eu","cc":"pl","latitude":52.2297,"longitude":21.017532,"reserved":0,"last_update":"0001-01-01T00:00:00Z","name_a2s":"Uncletopia | Warsaw | 2 | All Maps","protocol":17,"map":"koth_highpass","folder":"tf","game":"Team Fortress","app_id":440,"player_count":0,"max_players":24,"Bots":0,"server_type":"Dedicated","server_os":"Linux","password":true,"vac":true,"version":"7757534","steam_id":85568392925397851,"keywords":["cp","nocrits","nodmgspread","uncletopia"],"game_id":440,"stv_port":27026,"stv_name":"Uncletopia | Warsaw | 2 | All Maps | STV","players":null},{"server_id":51,"name":"Uncletopia | Warsaw | 3 | All Maps","name_short":"waw-3","host":"waw-1.pl.uncletopia.com","port":27035,"enabled":true,"region":"eu","cc":"pl","latitude":52.2297,"longitude":21.017532,"reserved":0,"last_update":"0001-01-01T00:00:00Z","name_a2s":"Uncletopia | Warsaw | 3 | All Maps","protocol":17,"map":"cp_dustbowl","folder":"tf","game":"Team Fortress","app_id":440,"player_count":0,"max_players":24,"Bots":0,"server_type":"Dedicated","server_os":"Linux","password":true,"vac":true,"version":"7757534","steam_id":85568392925397852,"keywords":["cp","nocrits","nodmgspread","uncletopia"],"game_id":440,"stv_port":27036,"stv_name":"Uncletopia | Warsaw | 3 | All Maps | STV","players":null},{"server_id":52,"name":"Uncletopia | Warsaw | 4 | All Maps","name_short":"waw-4","host":"waw-1.pl.uncletopia.com","port":27045,"enabled":true,"region":"eu","cc":"pl","latitude":52.2297,"longitude":21.017532,"reserved":0,"last_update":"0001-01-01T00:00:00Z","name_a2s":"Uncletopia | Warsaw | 4 | All Maps","protocol":17,"map":"pl_snowycoast","folder":"tf","game":"Team Fortress","app_id":440,"player_count":0,"max_players":24,"Bots":0,"server_type":"Dedicated","server_os":"Linux","password":true,"vac":true,"version":"7757534","steam_id":85568392925397853,"keywords":["nocrits","nodmgspread","payload","uncletopia"],"game_id":440,"stv_port":27046,"stv_name":"Uncletopia | Warsaw | 4 | All Maps | STV","players":null},{"server_id":53,"name":"Uncletopia | Warsaw | 5 | Stopwatch Beta","name_short":"waw-5","host":"waw-1.pl.uncletopia.com","port":27055,"enabled":true,"region":"eu","cc":"pl","latitude":52.2297,"longitude":21.017532,"reserved":0,"last_update":"0001-01-01T00:00:00Z","name_a2s":"Uncletopia | Warsaw | 5 | Stopwatch Beta","protocol":17,"map":"pl_barnblitz","folder":"tf","game":"Team Fortress","app_id":440,"player_count":0,"max_players":24,"Bots":0,"server_type":"Dedicated","server_os":"Linux","password":true,"vac":true,"version":"7757534","steam_id":85568392925397854,"keywords":["nocrits","nodmgspread","payload","uncletopia"],"game_id":440,"stv_port":27056,"stv_name":"Uncletopia | Warsaw | 5 | Stopwatch Beta | STV","players":null},{"server_id":54,"name":"Uncletopia | Warsaw | 6 | Community","name_short":"waw-6","host":"waw-1.pl.uncletopia.com","port":27065,"enabled":true,"region":"eu","cc":"pl","latitude":52.2297,"longitude":21.017532,"reserved":0,"last_update":"0001-01-01T00:00:00Z","name_a2s":"Uncletopia | Warsaw | 6 | Community","protocol":17,"map":"pl_swiftwater_final1","folder":"tf","game":"Team Fortress","app_id":440,"player_count":0,"max_players":24,"Bots":0,"server_type":"Dedicated","server_os":"Linux","password":true,"vac":true,"version":"7757534","steam_id":85568392925397856,"keywords":["nocrits","nodmgspread","payload","uncletopia"],"game_id":440,"stv_port":27066,"stv_name":"Uncletopia | Warsaw | 6 | Community | STV","players":null}]}