{"status":true,"message":"","result":[{"server_id":9,"name":"Uncletopia | Atlanta | 1 | All Maps","name_short":"atl-1","host":"atl-1.us.uncletopia.com","port":27015,"enabled":true,"region":"us-east","cc":"us","latitude":33.753746,"longitude":-84.38633,"reserved":0,"last_update":"0001-01-01T00:00:00Z","name_a2s":"Uncletopia | Atlanta | 1 | All Maps","protocol":17,"map":"pl_snowycoast","folder":"tf","game":"Team Fortress","app_id":440,"player_count":21,"max_players":24,"Bots":0,"server_type":"Dedicated","server_os":"Linux","password":true,"vac":true,"version":"7757534","steam_id":85568392924469982,"keywords":["nocrits","nodmgspread","payload","uncletopia"],"game_id":440,"stv_port":27016,"stv_name":"Uncletopia | Atlanta | 1 | All Maps | STV","players":[{"user_id":500,"name":"alpharuby","steam_id":76561198051638462,"connected_time":2000000000,"state":"spawning","ping":106},{"user_id":473,"name":"i love machine girl","steam_id":76561199187747394,"connected_time":1452000000000,"state":"active","ping":60},{"user_id":495,"name":"lu","steam_id":76561198080731872,"connected_time":251000000000,"state":"active","ping":66},{"user_id":455,"name":"MyamE","steam_id":76561198133278462,"connected_time":2710000000000,"state":"active","ping":76},{"user_id":442,"name":"shaderoses","steam_id":76561198070800500,"connected_time":4389000000000,"state":"active","ping":62},{"user_id":465,"name":"ash","steam_id":76561198127890645,"connected_time":2273000000000,"state":"active","ping":62},{"user_id":486,"name":"Teesitin","steam_id":76561198116147302,"connected_time":505000000000,"state":"active","ping":74},{"user_id":476,"name":"Skinny Pete","steam_id":76561198801608576,"connected_time":1273000000000,"state":"active","ping":68},{"user_id":482,"name":"Oddball","steam_id":76561198040440984,"connected_time":813000000000,"state":"active","ping":78},{"user_id":488,"name":"PFO_0876","steam_id":76561199438736082,"connected_time":420000000000,"state":"active","ping":51},{"user_id":432,"name":"TheTiredMario","steam_id":76561199062425739,"connected_time":5681000000000,"state":"active","ping":47},{"user_id":489,"name":"NBA Youngboy","steam_id":76561199118797200,"connected_time":413000000000,"state":"active","ping":62},{"user_id":462,"name":"Inky (Coolest)","steam_id":76561198968337022,"connected_time":2362000000000,"state":"active","ping":58},{"user_id":496,"name":"Bony","steam_id":76561199001748822,"connected_time":243000000000,"state":"active","ping":107},{"user_id":463,"name":"ATL1 | Pango","steam_id":76561198069811545,"connected_time":2320000000000,"state":"active","ping":45},{"user_id":423,"name":"BreadReceiver","steam_id":76561198862555841,"connected_time":6278000000000,"state":"active","ping":73},{"user_id":493,"name":"Phil Collins","steam_id":76561198068868644,"connected_time":379000000000,"state":"active","ping":94},{"user_id":468,"name":"lil hog","steam_id":76561199230929836,"connected_time":2244000000000,"state":"active","ping":90},{"user_id":497,"name":"Bali","steam_id":76561198038693845,"connected_time":234000000000,"state":"active","ping":79},{"user_id":453,"name":"Claire","steam_id":76561199363756376,"connected_time":3006000000000,"state":"active","ping":185},{"user_id":499,"name":"Cogsby","steam_id":76561199109102841,"connected_time":160000000000,"state":"spawning","ping":89}]},{"server_id":104,"name":"Uncletopia | Atlanta | 2 | All Maps","name_short":"atl-2","host":"atl-1.us.uncletopia.com","port":27025,"enabled":true,"region":"us-east","cc":"us","latitude":33.753746,"longitude":-84.38633,"reserved":0,"last_update":"0001-01-01T00:00:00Z","name_a2s":"Uncletopia | Atlanta | 2 | All Maps","protocol":17,"map":"pl_badwater","folder":"tf","game":"Team Fortress","app_id":440,"player_count":23,"max_players":24,"Bots":0,"server_type":"Dedicated","server_os":"Linux","password":true,"vac":true,"version":"7757534","steam_id":85568392924469983,"keywords":["nocrits","nodmgspread","payload","uncletopia"],"game_id":440,"stv_port":27026,"stv_name":"Uncletopia | Atlanta | 2 | All Maps | STV","players":[{"user_id":293,"name":"m-Seq","steam_id":76561198114922735,"connected_time":2009000000000,"state":"active","ping":67},{"user_id":309,"name":"Bad Headshots - (RIP Rick May)","steam_id":76561199050642411,"connected_time":902000000000,"state":"active","ping":76},{"user_id":325,"name":"Trash Man","steam_id":76561198874518834,"connected_time":256000000000,"state":"active","ping":99},{"user_id":308,"name":"Azuknow","steam_id":76561199229518180,"connected_time":952000000000,"state":"active","ping":85},{"user_id":328,"name":"FoxyTheFish","steam_id":76561199074190919,"connected_time":110000000000,"state":"active","ping":149},{"user_id":301,"name":"Dreamzapp","steam_id":76561199084936632,"connected_time":1796000000000,"state":"active","ping":139},{"user_id":291,"name":"rkp!","steam_id":76561199053070819,"connected_time":2027000000000,"state":"active","ping":67},{"user_id":319,"name":"heimdall","steam_id":76561198069380992,"connected_time":453000000000,"state":"active","ping":81},{"user_id":331,"name":"Dude bro","steam_id":76561198249916746,"connected_time":22000000000,"state":"active","ping":81},{"user_id":294,"name":"Pig master","steam_id":76561199388075545,"connected_time":2002000000000,"state":"active","ping":124},{"user_id":282,"name":"Atlas","steam_id":76561198127975050,"connected_time":3705000000000,"state":"active","ping":48},{"user_id":280,"name":"MizukiFluffle","steam_id":76561198069559782,"connected_time":3743000000000,"state":"active","ping":96},{"user_id":330,"name":"cactus eater","steam_id":76561199107499844,"connected_time":63000000000,"state":"active","ping":112},{"user_id":326,"name":"N√º√æ","steam_id":76561198043956703,"connected_time":219000000000,"state":"active","ping":100},{"user_id":300,"name":"Shrumm_","steam_id":76561199112605047,"connected_time":1886000000000,"state":"active","ping":133},{"user_id":322,"name":"Zenabie","steam_id":76561198088372680,"connected_time":332000000000,"state":"active","ping":93},{"user_id":267,"name":"firetamer2","steam_id":76561198040886980,"connected_time":4332000000000,"state":"active","ping":60},{"user_id":290,"name":"Yoru","steam_id":76561198119698950,"connected_time":2425000000000,"state":"active","ping":118},{"user_id":303,"name":"beans","steam_id":76561199082781884,"connected_time":1539000000000,"state":"active","ping":85},{"user_id":305,"name":"I THINK COOLSVILLE SUCKS","steam_id":76561198066855998,"connected_time":1502000000000,"state":"active","ping":105},{"user_id":324,"name":"Crusader","steam_id":76561199072106684,"connected_time":319000000000,"state":"active","ping":72},{"user_id":298,"name":"0","steam_id":76561198994761483,"connected_time":1962000000000,"state":"active","ping":128},{"user_id":312,"name":"O Dog","steam_id":76561198133498912,"connected_time":896000000000,"state":"active","ping":107}]},{"server_id":400,"name":"Uncletopia | Atlanta | 3 | Community","name_short":"atl-3","host":"atl-1.us.uncletopia.com","port":27035,"enabled":true,"region":"us-east","cc":"us","latitude":33.753746,"longitude":-84.38633,"reserved":0,"last_update":"0001-01-01T00:00:00Z","name_a2s":"Uncletopia | Atlanta | 3 | Community","protocol":17,"map":"workshop/koth_product_final.ugc454272353","folder":"tf","game":"Team Fortress","app_id":440,"player_count":7,"max_players":24,"Bots":0,"server_type":"Dedicated","server_os":"Linux","password":true,"vac":true,"version":"7757534","steam_id":85568392924515187,"keywords":["cp","nocrits","nodmgspread","uncletopia"],"game_id":440,"stv_port":27036,"stv_name":"Uncletopia | Atlanta | 3 | Community | STV","players":[{"user_id":22,"name":"Nedrog the Lost","steam_id":76561198272270244,"connected_time":622000000000,"state":"active","ping":84},{"user_id":23,"name":"TypicalGiftig","steam_id":76561198170372495,"connected_time":556000000000,"state":"active","ping":85},{"user_id":24,"name":"Nabiiru","steam_id":76561198324423653,"connected_time":506000000000,"state":"active","ping":86},{"user_id":25,"name":"Sp3ktrgfx","steam_id":76561198053070408,"connected_time":312000000000,"state":"active","ping":87},{"user_id":26,"name":"Trick","steam_id":76561199010111250,"connected_time":108000000000,"state":"active","ping":83},{"user_id":27,"name":"VOIDWALKER_JOHN","steam_id":76561198117356654,"connected_time":108000000000,"state":"active","ping":156},{"user_id":28,"name":"Zaid","steam_id":76561199142840666,"connected_time":67000000000,"state":"active","ping":136}]},{"server_id":401,"name":"Uncletopia | Atlanta | 4 | No Payload","name_short":"atl-4","host":"atl-1.us.uncletopia.com","port":27045,"enabled":true,"region":"us-east","cc":"us","latitude":33.753746,"longitude":-84.38633,"reserved":0,"last_update":"0001-01-01T00:00:00Z","name_a2s":"","protocol":0,"map":"","folder":"","game":"","app_id":0,"player_count":0,"max_players":0,"Bots":0,"server_type":"","server_os":"","password":false,"vac":false,"version":"","steam_id":0,"keywords":null,"game_id":0,"stv_port":0,"stv_name":"","players":null},{"server_id":2,"name":"Uncletopia | Chicago | 1 | All Maps","name_short":"chi-1","host":"chi-1.us.uncletopia.com","port":27015,"enabled":true,"region":"us-central","cc":"us","latitude":41.881832,"longitude":-87.62318,"reserved":0,"last_update":"0001-01-01T00:00:00Z","name_a2s":"Uncletopia | Chicago | 1 | All Maps","protocol":17,"map":"pl_upward","folder":"tf","game":"Team Fortress","app_id":440,"player_count":24,"max_players":24,"Bots":0,"server_type":"Dedicated","server_os":"Linux","password":true,"vac":true,"version":"7757534","steam_id":85568392924469984,"keywords":["nocrits","nodmgspread","payload","uncletopia"],"game_id":440,"stv_port":27016,"stv_name":"Uncletopia | Chicago | 1 | All Maps | STV","players":[{"user_id":464,"name":"Gary","steam_id":76561198133309753,"connected_time":1367000000000,"state":"active","ping":69},{"user_id":438,"name":"HiFivr","steam_id":76561198285190162,"connected_time":3585000000000,"state":"active","ping":72},{"user_id":439,"name":"=Silver=","steam_id":76561198292307127,"connected_time":3570000000000,"state":"active","ping":92},{"user_id":480,"name":"bagel_man","steam_id":76561198164640460,"connected_time":121000000000,"state":"active","ping":107},{"user_id":457,"name":"BUNGER","steam_id":76561198131703086,"connected_time":2826000000000,"state":"active","ping":73},{"user_id":479,"name":"PKBEAST_7","steam_id":76561198177136537,"connected_time":135000000000,"state":"active","ping":88},{"user_id":459,"name":"[GUT] RiDiK¬Æ","steam_id":76561197969756446,"connected_time":2530000000000,"state":"active","ping":57},{"user_id":481,"name":"Mustard Gaming","steam_id":76561198050393061,"connected_time":103000000000,"state":"active","ping":73},{"user_id":460,"name":"Punished Kong","steam_id":76561198973620882,"connected_time":2504000000000,"state":"active","ping":85},{"user_id":428,"name":"TallBit","steam_id":76561199059748976,"connected_time":3746000000000,"state":"active","ping":49},{"user_id":417,"name":"MAXIMUM OVERDRIVE","steam_id":76561198113992547,"connected_time":4965000000000,"state":"active","ping":95},{"user_id":469,"name":"Thndr_","steam_id":76561198113242036,"connected_time":1183000000000,"state":"active","ping":120},{"user_id":484,"name":"Salt","steam_id":76561198418001135,"connected_time":30000000000,"state":"active","ping":63},{"user_id":406,"name":"k3ramb1t","steam_id":76561198097880352,"connected_time":5899000000000,"state":"active","ping":72},{"user_id":463,"name":"mrcatman","steam_id":76561198358434883,"connected_time":1862000000000,"state":"active","ping":83},{"user_id":412,"name":"Walter White","steam_id":76561199030987614,"connected_time":5052000000000,"state":"active","ping":83},{"user_id":475,"name":"michael myers gaming","steam_id":76561198155843685,"connected_time":780000000000,"state":"active","ping":105},{"user_id":456,"name":"Brokayo","steam_id":76561198053802723,"connected_time":2861000000000,"state":"active","ping":92},{"user_id":471,"name":"Sip of joe","steam_id":76561198153295874,"connected_time":1149000000000,"state":"active","ping":118},{"user_id":478,"name":"Bucket","steam_id":76561198816448398,"connected_time":138000000000,"state":"active","ping":70},{"user_id":474,"name":"Zetta","steam_id":76561198045710113,"connected_time":816000000000,"state":"active","ping":105},{"user_id":477,"name":"femboy foxboy","steam_id":76561198056432756,"connected_time":374000000000,"state":"active","ping":60},{"user_id":482,"name":"RadioactiveOilyOafs","steam_id":76561198041901197,"connected_time":102000000000,"state":"active","ping":75},{"user_id":398,"name":"Lilac","steam_id":76561198977523626,"connected_time":6854000000000,"state":"active","ping":60}]},{"server_id":106,"name":"Uncletopia | Chicago | 2 | All Maps","name_short":"chi-2","host":"chi-1.us.uncletopia.com","port":27025,"enabled":true,"region":"us-central","cc":"us","latitude":41.881832,"longitude":-87.62318,"reserved":0,"last_update":"0001-01-01T00:00:00Z","name_a2s":"Uncletopia | Chicago | 2 | All Maps","protocol":17,"map":"pl_goldrush","folder":"tf","game":"Team Fortress","app_id":440,"player_count":24,"max_players":24,"Bots":0,"server_type":"Dedicated","server_os":"Linux","password":true,"vac":true,"version":"7757534","steam_id":85568392924469985,"keywords":["nocrits","nodmgspread","payload","uncletopia"],"game_id":440,"stv_port":27026,"stv_name":"Uncletopia | Chicago | 2 | All Maps | STV","players":[{"user_id":332,"name":"Universe Man","steam_id":76561197997710655,"connected_time":433000000000,"state":"active","ping":92},{"user_id":288,"name":"LEGACYYYYYYYYYYYYYYYYYYYYYY","steam_id":76561198172421881,"connected_time":4323000000000,"state":"active","ping":68},{"user_id":318,"name":"Pikaboy (Ham Mafia)","steam_id":76561199173623332,"connected_time":1833000000000,"state":"active","ping":59},{"user_id":292,"name":"Stew Eater","steam_id":76561198978307159,"connected_time":3764000000000,"state":"active","ping":66},{"user_id":300,"name":"Tallyden","steam_id":76561197998572962,"connected_time":3449000000000,"state":"active","ping":71},{"user_id":293,"name":"Rornir","steam_id":76561198081829615,"connected_time":3731000000000,"state":"active","ping":42},{"user_id":294,"name":"Chiki","steam_id":76561198063590320,"connected_time":3703000000000,"state":"active","ping":66},{"user_id":307,"name":"1845kasp","steam_id":76561198263271697,"connected_time":2764000000000,"state":"active","ping":40},{"user_id":329,"name":"Cooldude_15","steam_id":76561198346713382,"connected_time":578000000000,"state":"active","ping":38},{"user_id":319,"name":"lego star wars on the psp","steam_id":76561198148014773,"connected_time":1529000000000,"state":"active","ping":69},{"user_id":328,"name":"floppy muppet","steam_id":76561198003076261,"connected_time":729000000000,"state":"active","ping":87},{"user_id":323,"name":"Swedish Crowbar","steam_id":76561199105488936,"connected_time":1033000000000,"state":"active","ping":153},{"user_id":316,"name":"lauren/","steam_id":76561198048745798,"connected_time":1966000000000,"state":"active","ping":44},{"user_id":317,"name":"Gerald Jay Sussman","steam_id":76561198114515026,"connected_time":1901000000000,"state":"active","ping":48},{"user_id":286,"name":"Killerkarate","steam_id":76561198067533929,"connected_time":4638000000000,"state":"active","ping":54},{"user_id":324,"name":"DoomoPelota","steam_id":76561198326462587,"connected_time":1024000000000,"state":"active","ping":91},{"user_id":331,"name":"whitneyscience1","steam_id":76561199405650048,"connected_time":455000000000,"state":"active","ping":113},{"user_id":336,"name":"Sir Iasis","steam_id":76561198035666760,"connected_time":23000000000,"state":"active","ping":61},{"user_id":315,"name":"Hello I'm a Swedish Plumber","steam_id":76561199215811448,"connected_time":2078000000000,"state":"active","ping":84},{"user_id":325,"name":"Mecha","steam_id":76561198014927379,"connected_time":988000000000,"state":"active","ping":84},{"user_id":314,"name":"Hylic","steam_id":76561199051314589,"connected_time":2121000000000,"state":"active","ping":65},{"user_id":326,"name":"Copter_Boy","steam_id":76561198322921312,"connected_time":961000000000,"state":"active","ping":64},{"user_id":335,"name":"G00D G00GLY M00GLY!!","steam_id":76561199177310566,"connected_time":65000000000,"state":"active","ping":81},{"user_id":334,"name":"alexanderdavis37","steam_id":76561198064766067,"connected_time":259000000000,"state":"active","ping":133}]},{"server_id":402,"name":"Uncletopia | Chicago | 3 | All Maps","name_short":"chi-3","host":"chi-1.us.uncletopia.com","port":27035,"enabled":true,"region":"us-central","cc":"us","latitude":41.881832,"longitude":-87.62318,"reserved":0,"last_update":"0001-01-01T00:00:00Z","name_a2s":"Uncletopia | Chicago | 3 | All Maps","protocol":17,"map":"pl_thundermountain","folder":"tf","game":"Team Fortress","app_id":440,"player_count":21,"max_players":24,"Bots":0,"server_type":"Dedicated","server_os":"Linux","password":true,"vac":true,"version":"7757534","steam_id":85568392924515191,"keywords":["nocrits","nodmgspread","payload","uncletopia"],"game_id":440,"stv_port":27036,"stv_name":"Uncletopia | Chicago | 3 | All Maps | STV","players":[{"user_id":62,"name":"Orangecrust26","steam_id":76561199232443221,"connected_time":671000000000,"state":"active","ping":85},{"user_id":34,"name":"Mug Moment Gaming","steam_id":76561198233098136,"connected_time":1877000000000,"state":"active","ping":54},{"user_id":57,"name":"h","steam_id":76561198079603532,"connected_time":1258000000000,"state":"active","ping":87},{"user_id":70,"name":"BOT Positronic‚ô•June (they/she","steam_id":76561198042556857,"connected_time":430000000000,"state":"active","ping":53},{"user_id":60,"name":"girls on yo phone","steam_id":76561198406252824,"connected_time":953000000000,"state":"active","ping":103},{"user_id":63,"name":"Pete The \"Plummer\"","steam_id":76561199097450685,"connected_time":656000000000,"state":"active","ping":89},{"user_id":40,"name":"A Can of Arizona Green Tea","steam_id":76561198062481133,"connected_time":1646000000000,"state":"active","ping":83},{"user_id":42,"name":"\u003ecm\u003c","steam_id":76561198103496593,"connected_time":1598000000000,"state":"active","ping":60},{"user_id":43,"name":"The Last Thing","steam_id":76561198047192080,"connected_time":1576000000000,"state":"active","ping":81},{"user_id":44,"name":"tacofever","steam_id":76561198010966507,"connected_time":1537000000000,"state":"active","ping":99},{"user_id":45,"name":"The BallSmasher","steam_id":76561198107810115,"connected_time":1536000000000,"state":"active","ping":67},{"user_id":46,"name":"ScrambledEggsNRamen","steam_id":76561198206475411,"connected_time":1519000000000,"state":"active","ping":90},{"user_id":66,"name":"Onymy.","steam_id":76561198171048015,"connected_time":626000000000,"state":"active","ping":67},{"user_id":64,"name":"PaD_Ding","steam_id":76561198831202965,"connected_time":640000000000,"state":"active","ping":172},{"user_id":49,"name":"creeeeeee","steam_id":76561198392539722,"connected_time":1490000000000,"state":"active","ping":79},{"user_id":50,"name":"JerlBays","steam_id":76561198096773292,"connected_time":1488000000000,"state":"active","ping":60},{"user_id":51,"name":"Nuwrox1","steam_id":76561198406951007,"connected_time":1478000000000,"state":"active","ping":66},{"user_id":72,"name":"blank","steam_id":76561199262736574,"connected_time":252000000000,"state":"active","ping":178},{"user_id":61,"name":"Bread Baker","steam_id":76561198185335103,"connected_time":733000000000,"state":"active","ping":59},{"user_id":55,"name":"the nuisance","steam_id":76561198396326793,"connected_time":1428000000000,"state":"active","ping":92},{"user_id":68,"name":"Skate Duck","steam_id":76561198125041862,"connected_time":616000000000,"state":"active","ping":89}]},{"server_id":403,"name":"Uncletopia | Chicago | 4 | All Maps","name_short":"chi-4","host":"chi-1.us.uncletopia.com","port":27045,"enabled":true,"region":"us-central","cc":"us","latitude":41.881832,"longitude":-87.62318,"reserved":0,"last_update":"0001-01-01T00:00:00Z","name_a2s":"Uncletopia | Chicago | 4 | All Maps","protocol":17,"map":"pl_upward","folder":"tf","game":"Team Fortress","app_id":440,"player_count":24,"max_players":24,"Bots":0,"server_type":"Dedicated","server_os":"Linux","password":true,"vac":true,"version":"7757534","steam_id":85568392924515193,"keywords":["nocrits","nodmgspread","payload","uncletopia"],"game_id":440,"stv_port":27046,"stv_name":"Uncletopia | Chicago | 4 | All Maps | STV","players":[{"user_id":92,"name":"he's here for what?","steam_id":76561198139303045,"connected_time":282000000000,"state":"active","ping":165},{"user_id":87,"name":"ZaChelbom","steam_id":76561198089343809,"connected_time":546000000000,"state":"active","ping":50},{"user_id":21,"name":"Robo Intern","steam_id":76561199067098696,"connected_time":3271000000000,"state":"active","ping":85},{"user_id":64,"name":"Razz","steam_id":76561198158027533,"connected_time":1743000000000,"state":"active","ping":43},{"user_id":88,"name":"Tread Knightly (CIK)","steam_id":76561198189760994,"connected_time":334000000000,"state":"active","ping":45},{"user_id":57,"name":"Monster","steam_id":76561198189429665,"connected_time":2118000000000,"state":"active","ping":75},{"user_id":86,"name":"leroy","steam_id":76561199013064727,"connected_time":742000000000,"state":"active","ping":85},{"user_id":51,"name":"Mu","steam_id":76561198144428317,"connected_time":2234000000000,"state":"active","ping":69},{"user_id":69,"name":"jimmyfnaf172198yay","steam_id":76561198311446636,"connected_time":1611000000000,"state":"active","ping":61},{"user_id":54,"name":"N√©oGothiqueüïØ","steam_id":76561198003467269,"connected_time":2192000000000,"state":"active","ping":71},{"user_id":89,"name":"Ta5K","steam_id":76561198939558155,"connected_time":329000000000,"state":"active","ping":45},{"user_id":55,"name":"etoh","steam_id":76561198119093367,"connected_time":2186000000000,"state":"active","ping":87},{"user_id":77,"name":"canakblasteran","steam_id":76561199472518822,"connected_time":1125000000000,"state":"active","ping":101},{"user_id":90,"name":"SpartanOne22","steam_id":76561199006361788,"connected_time":312000000000,"state":"active","ping":73},{"user_id":91,"name":"Tlaloc","steam_id":76561198375215983,"connected_time":308000000000,"state":"active","ping":121},{"user_id":46,"name":"Lost","steam_id":76561198093713427,"connected_time":2530000000000,"state":"active","ping":61},{"user_id":85,"name":"Shattered Glass","steam_id":76561198116835391,"connected_time":883000000000,"state":"active","ping":91},{"user_id":58,"name":"4 life","steam_id":76561198175961598,"connected_time":2107000000000,"state":"active","ping":116},{"user_id":75,"name":"Humper","steam_id":76561198272961376,"connected_time":1338000000000,"state":"active","ping":83},{"user_id":83,"name":"bladees saddest, realest verse","steam_id":76561198098099826,"connected_time":951000000000,"state":"active","ping":91},{"user_id":93,"name":"aiden","steam_id":76561198449527009,"connected_time":261000000000,"state":"active","ping":72},{"user_id":94,"name":"chilis baby back ribs","steam_id":76561198813516435,"connected_time":257000000000,"state":"active","ping":104},{"user_id":81,"name":"MrVegasAguitar","steam_id":76561198084466946,"connected_time":1035000000000,"state":"active","ping":90},{"user_id":43,"name":"schmopp","steam_id":76561198076490954,"connected_time":2744000000000,"state":"active","ping":48}]},{"server_id":36,"name":"Uncletopia | Chicago | 5 | All Maps","name_short":"chi-5","host":"chi-2.us.uncletopia.com","port":27015,"enabled":true,"region":"us-central","cc":"us","latitude":41.881832,"longitude":-87.62318,"reserved":0,"last_update":"0001-01-01T00:00:00Z","name_a2s":"Uncletopia | Chicago | 5 | All Maps","protocol":17,"map":"ctf_turbine","folder":"tf","game":"Team Fortress","app_id":440,"player_count":23,"max_players":24,"Bots":0,"server_type":"Dedicated","server_os":"Linux","password":true,"vac":true,"version":"7757534","steam_id":85568392924866362,"keywords":["ctf","nocrits","nodmgspread","uncletopia"],"game_id":440,"stv_port":27016,"stv_name":"Uncletopia | Chicago | 5 | All Maps | STV","players":[{"user_id":379,"name":"NoHands46 #SaveTF2","steam_id":76561199086357052,"connected_time":64000000000,"state":"active","ping":47},{"user_id":354,"name":"jorjor wells","steam_id":76561199073429082,"connected_time":2130000000000,"state":"active","ping":63},{"user_id":372,"name":"Mr Doctor","steam_id":76561199014497193,"connected_time":1270000000000,"state":"active","ping":70},{"user_id":365,"name":"Roloman11","steam_id":76561198308927283,"connected_time":1521000000000,"state":"active","ping":69},{"user_id":368,"name":"my opps are after me","steam_id":76561198328109873,"connected_time":1397000000000,"state":"active","ping":71},{"user_id":310,"name":"JestinJester","steam_id":76561198411846094,"connected_time":4295000000000,"state":"active","ping":70},{"user_id":332,"name":"ThatGamingKiwi","steam_id":76561199170522237,"connected_time":3124000000000,"state":"active","ping":87},{"user_id":380,"name":"Ciaphas Cain","steam_id":76561198185598330,"connected_time":47000000000,"state":"active","ping":72},{"user_id":342,"name":"Adam (Cursed Confetti Creature)","steam_id":76561198317690197,"connected_time":2797000000000,"state":"active","ping":45},{"user_id":381,"name":"mintongryphon","steam_id":76561199427146067,"connected_time":33000000000,"state":"active","ping":77},{"user_id":369,"name":"Nugget","steam_id":76561198116697181,"connected_time":1355000000000,"state":"active","ping":76},{"user_id":363,"name":"Ping","steam_id":76561199206514106,"connected_time":1729000000000,"state":"active","ping":57},{"user_id":382,"name":"el kiosquero","steam_id":76561199477267058,"connected_time":29000000000,"state":"active","ping":250},{"user_id":308,"name":"Skullypoo","steam_id":76561198067912022,"connected_time":4744000000000,"state":"active","ping":67},{"user_id":383,"name":"Walkiing","steam_id":76561198074473413,"connected_time":26000000000,"state":"active","ping":31},{"user_id":339,"name":"The Bus Driver","steam_id":76561198044013623,"connected_time":2939000000000,"state":"active","ping":68},{"user_id":384,"name":"Caruso","steam_id":76561198053340414,"connected_time":14000000000,"state":"active","ping":50},{"user_id":376,"name":"Nen","steam_id":76561198893347370,"connected_time":1135000000000,"state":"active","ping":108},{"user_id":377,"name":"Piyono","steam_id":76561197962188504,"connected_time":269000000000,"state":"active","ping":59},{"user_id":299,"name":"CeigeBirb","steam_id":76561198068538473,"connected_time":5577000000000,"state":"active","ping":63},{"user_id":375,"name":"Madd Maxx","steam_id":76561198339584998,"connected_time":1240000000000,"state":"active","ping":85},{"user_id":301,"name":"Fluffeline","steam_id":76561198352909489,"connected_time":5569000000000,"state":"active","ping":150},{"user_id":364,"name":"Slugger01","steam_id":76561198975798014,"connected_time":1727000000000,"state":"active","ping":46}]},{"server_id":37,"name":"Uncletopia | Chicago | 6 | All Maps","name_short":"chi-6","host":"chi-2.us.uncletopia.com","port":27025,"enabled":true,"region":"us-central","cc":"us","latitude":41.881832,"longitude":-87.62318,"reserved":0,"last_update":"0001-01-01T00:00:00Z","name_a2s":"Uncletopia | Chicago | 6 | All Maps","protocol":17,"map":"cp_dustbowl","folder":"tf","game":"Team Fortress","app_id":440,"player_count":24,"max_players":24,"Bots":0,"server_type":"Dedicated","server_os":"Linux","password":true,"vac":true,"version":"7757534","steam_id":85568392924866363,"keywords":["cp","nocrits","nodmgspread","uncletopia"],"game_id":440,"stv_port":27026,"stv_name":"Uncletopia | Chicago | 6 | All Maps | STV","players":[{"user_id":92,"name":"Shoehorn Jim","steam_id":76561198310004779,"connected_time":738000000000,"state":"active","ping":70},{"user_id":59,"name":"Cesar","steam_id":76561199244427790,"connected_time":2773000000000,"state":"active","ping":92},{"user_id":87,"name":"Amazingamerhawk","steam_id":76561199064935924,"connected_time":864000000000,"state":"active","ping":59},{"user_id":81,"name":"DB1","steam_id":76561199172642819,"connected_time":1080000000000,"state":"active","ping":72},{"user_id":82,"name":"tin foil hat","steam_id":76561198083607304,"connected_time":1017000000000,"state":"active","ping":60},{"user_id":99,"name":"Purple Pajamas","steam_id":76561199174310124,"connected_time":588000000000,"state":"active","ping":82},{"user_id":83,"name":"Fallbourn","steam_id":76561197994851732,"connected_time":1013000000000,"state":"active","ping":63},{"user_id":89,"name":"BigWack","steam_id":76561198334878169,"connected_time":813000000000,"state":"active","ping":88},{"user_id":18,"name":"the headphones you lost","steam_id":76561199201098634,"connected_time":4414000000000,"state":"active","ping":57},{"user_id":44,"name":"willem dafoe basketball","steam_id":76561199161322235,"connected_time":3449000000000,"state":"active","ping":73},{"user_id":93,"name":"Michaelpc1","steam_id":76561198088365519,"connected_time":733000000000,"state":"active","ping":75},{"user_id":101,"name":"Sir Donut III","steam_id":76561198862745411,"connected_time":515000000000,"state":"active","ping":60},{"user_id":52,"name":"foot bag","steam_id":76561198070923665,"connected_time":3073000000000,"state":"active","ping":74},{"user_id":94,"name":"Prof. Oli","steam_id":76561198980241587,"connected_time":729000000000,"state":"active","ping":74},{"user_id":100,"name":"HammerHead","steam_id":76561197975668646,"connected_time":585000000000,"state":"active","ping":75},{"user_id":95,"name":"izzydex","steam_id":76561199101531034,"connected_time":721000000000,"state":"active","ping":60},{"user_id":96,"name":"Walka","steam_id":76561198074325951,"connected_time":684000000000,"state":"active","ping":81},{"user_id":85,"name":"grate_fiter-232","steam_id":76561198073424589,"connected_time":986000000000,"state":"active","ping":68},{"user_id":102,"name":"Hell's Reindeer","steam_id":76561198065310364,"connected_time":511000000000,"state":"active","ping":59},{"user_id":60,"name":"meh","steam_id":76561198136808129,"connected_time":2688000000000,"state":"active","ping":67},{"user_id":84,"name":"Paul Blart","steam_id":76561198068110623,"connected_time":1009000000000,"state":"active","ping":95},{"user_id":103,"name":"Elizabeth truss","steam_id":76561198058250979,"connected_time":504000000000,"state":"active","ping":69},{"user_id":71,"name":"Sparkk","steam_id":76561198060705509,"connected_time":2278000000000,"state":"active","ping":76},{"user_id":98,"name":"luckifan774","steam_id":76561198378537143,"connected_time":659000000000,"state":"active","ping":74}]},{"server_id":38,"name":"Uncletopia | Chicago | 7 | Stopwatch Beta","name_short":"chi-7","host":"chi-2.us.uncletopia.com","port":27035,"enabled":true,"region":"us-central","cc":"us","latitude":41.881832,"longitude":-87.62318,"reserved":0,"last_update":"0001-01-01T00:00:00Z","name_a2s":"Uncletopia | Chicago | 7 | Stopwatch Beta","protocol":17,"map":"cp_granary","folder":"tf","game":"Team Fortress","app_id":440,"player_count":9,"max_players":24,"Bots":0,"server_type":"Dedicated","server_os":"Linux","password":true,"vac":true,"version":"7757534","steam_id":85568392924866364,"keywords":["cp","nocrits","nodmgspread","uncletopia"],"game_id":440,"stv_port":27036,"stv_name":"Uncletopia | Chicago | 7 | Stopwatch Beta | STV","players":[{"user_id":207,"name":"CR4YCR4Y","steam_id":76561198009310297,"connected_time":99000000000,"state":"active","ping":64},{"user_id":137,"name":"PoisonIvy","steam_id":76561198072384574,"connected_time":3563000000000,"state":"active","ping":50},{"user_id":155,"name":"Bull-Frog","steam_id":76561198260868601,"connected_time":3089000000000,"state":"active","ping":63},{"user_id":206,"name":"Schmingus","steam_id":76561199476148332,"connected_time":338000000000,"state":"active","ping":107},{"user_id":192,"name":"3848","steam_id":76561198109077451,"connected_time":1093000000000,"state":"active","ping":52},{"user_id":172,"name":"mothsprings","steam_id":76561198928604937,"connected_time":2212000000000,"state":"active","ping":83},{"user_id":193,"name":"Maxwell the Dingus","steam_id":76561199057636193,"connected_time":1074000000000,"state":"active","ping":63},{"user_id":165,"name":"Sprucelass","steam_id":76561197998391724,"connected_time":2705000000000,"state":"active","ping":44},{"user_id":154,"name":"Recursive Gamer","steam_id":76561198042102952,"connected_time":3137000000000,"state":"active","ping":66}]},{"server_id":39,"name":"Uncletopia | Chicago | 8 | Community","name_short":"chi-8","host":"chi-2.us.uncletopia.com","port":27045,"enabled":true,"region":"us-central","cc":"us","latitude":41.881832,"longitude":-87.62318,"reserved":0,"last_update":"0001-01-01T00:00:00Z","name_a2s":"Uncletopia | Chicago | 8 | Community","protocol":17,"map":"koth_cascade","folder":"tf","game":"Team Fortress","app_id":440,"player_count":0,"max_players":24,"Bots":0,"server_type":"Dedicated","server_os":"Linux","password":true,"vac":true,"version":"7757534","steam_id":85568392924866365,"keywords":["cp","nocrits","nodmgspread","uncletopia"],"game_id":440,"stv_port":27046,"stv_name":"Uncletopia | Chicago | 8 | Community | STV","players":null},{"server_id":8,"name":"Uncletopia | Dallas | 1 | All Maps","name_short":"dal-1","host":"dal-1.us.uncletopia.com","port":27015,"enabled":true,"region":"us-central","cc":"us","latitude":32.779167,"longitude":-96.80889,"reserved":0,"last_update":"0001-01-01T00:00:00Z","name_a2s":"Uncletopia | Dallas | 1 | All Maps","protocol":17,"map":"cp_mercenarypark","folder":"tf","game":"Team Fortress","app_id":440,"player_count":21,"max_players":24,"Bots":0,"server_type":"Dedicated","server_os":"Linux","password":true,"vac":true,"version":"7757534","steam_id":85568392924469986,"keywords":["cp","nocrits","nodmgspread","uncletopia"],"game_id":440,"stv_port":27016,"stv_name":"Uncletopia | Dallas | 1 | All Maps | STV","players":[{"user_id":252,"name":"I Got Horses in the Back","steam_id":76561198886704929,"connected_time":197000000000,"state":"active","ping":94},{"user_id":192,"name":"Whopper Enjoyer","steam_id":76561199163263543,"connected_time":3867000000000,"state":"active","ping":95},{"user_id":253,"name":"Big ol' Willy Gaming","steam_id":76561198048545731,"connected_time":165000000000,"state":"active","ping":117},{"user_id":254,"name":"Sexgineer Gaming","steam_id":76561198877165369,"connected_time":161000000000,"state":"active","ping":101},{"user_id":259,"name":"Chol","steam_id":76561198122054259,"connected_time":8000000000,"state":"spawning","ping":113},{"user_id":232,"name":"Fantastic Mr. Fox Appreciator","steam_id":76561198096306325,"connected_time":1938000000000,"state":"active","ping":86},{"user_id":255,"name":"SBX_ReaPeR","steam_id":76561199248606162,"connected_time":150000000000,"state":"active","ping":41},{"user_id":242,"name":"snby","steam_id":76561198868600487,"connected_time":1096000000000,"state":"active","ping":89},{"user_id":256,"name":"jack","steam_id":76561198397804555,"connected_time":145000000000,"state":"active","ping":138},{"user_id":215,"name":"superprogamerman2009","steam_id":76561199393831863,"connected_time":2938000000000,"state":"active","ping":137},{"user_id":239,"name":"Buswolley","steam_id":76561197995205571,"connected_time":1336000000000,"state":"active","ping":86},{"user_id":207,"name":"NEOXTEE","steam_id":76561198362295930,"connected_time":3227000000000,"state":"active","ping":79},{"user_id":211,"name":"Tribrothers_2","steam_id":76561198143972134,"connected_time":2986000000000,"state":"active","ping":85},{"user_id":244,"name":"Ayyyy","steam_id":76561198121729211,"connected_time":1016000000000,"state":"active","ping":71},{"user_id":217,"name":"John16Mark","steam_id":76561198119445407,"connected_time":2928000000000,"state":"active","ping":91},{"user_id":223,"name":"Woozy","steam_id":76561198008220735,"connected_time":2852000000000,"state":"active","ping":75},{"user_id":258,"name":"Dauntless Dreams","steam_id":76561198439474195,"connected_time":47000000000,"state":"active","ping":60},{"user_id":257,"name":"Kidzbopsicle","steam_id":76561198047660691,"connected_time":140000000000,"state":"active","ping":78},{"user_id":197,"name":"Sloth ‚ù¶","steam_id":76561197998378462,"connected_time":3777000000000,"state":"active","ping":101},{"user_id":247,"name":"Frick On a Leash","steam_id":76561198044911149,"connected_time":665000000000,"state":"active","ping":62},{"user_id":183,"name":"Picard","steam_id":76561197993530161,"connected_time":4506000000000,"state":"active","ping":53}]},{"server_id":108,"name":"Uncletopia | Dallas | 2 | All Maps","name_short":"dal-2","host":"dal-1.us.uncletopia.com","port":27025,"enabled":true,"region":"us-central","cc":"us","latitude":32.779167,"longitude":-96.80889,"reserved":0,"last_update":"0001-01-01T00:00:00Z","name_a2s":"Uncletopia | Dallas | 2 | All Maps","protocol":17,"map":"pl_upward","folder":"tf","game":"Team Fortress","app_id":440,"player_count":18,"max_players":24,"Bots":0,"server_type":"Dedicated","server_os":"Linux","password":true,"vac":true,"version":"7757534","steam_id":85568392924469988,"keywords":["nocrits","nodmgspread","payload","uncletopia"],"game_id":440,"stv_port":27026,"stv_name":"Uncletopia | Dallas | 2 | All Maps | STV","players":[{"user_id":220,"name":"dookiemonster33","steam_id":76561198979494052,"connected_time":28000000000,"state":"active","ping":93},{"user_id":176,"name":"darktheif54","steam_id":76561198043650119,"connected_time":3594000000000,"state":"active","ping":70},{"user_id":193,"name":"Strawberry","steam_id":76561198973740497,"connected_time":2033000000000,"state":"active","ping":70},{"user_id":219,"name":"MinusSoup918","steam_id":76561198060902773,"connected_time":69000000000,"state":"active","ping":94},{"user_id":197,"name":"SirLxnely","steam_id":76561199081096354,"connected_time":1942000000000,"state":"active","ping":75},{"user_id":215,"name":"Derply","steam_id":76561198871211642,"connected_time":546000000000,"state":"active","ping":70},{"user_id":158,"name":"girlboss","steam_id":76561197989019617,"connected_time":4736000000000,"state":"active","ping":57},{"user_id":153,"name":"Mogori","steam_id":76561198074060650,"connected_time":5328000000000,"state":"active","ping":61},{"user_id":211,"name":"Goblin Merchant (50 OFF)","steam_id":76561199323707429,"connected_time":1273000000000,"state":"active","ping":117},{"user_id":198,"name":"YarnballWasHere","steam_id":76561198066796158,"connected_time":1931000000000,"state":"active","ping":77},{"user_id":205,"name":"The indomitable human spirit","steam_id":76561198282395338,"connected_time":1758000000000,"state":"active","ping":90},{"user_id":217,"name":"mineblast99","steam_id":76561199065648954,"connected_time":142000000000,"state":"active","ping":76},{"user_id":213,"name":"dicksnip","steam_id":76561198356515396,"connected_time":895000000000,"state":"active","ping":46},{"user_id":145,"name":"Ghaeril","steam_id":76561198047880019,"connected_time":6012000000000,"state":"active","ping":61},{"user_id":209,"name":"Jack Celliers","steam_id":76561198060983357,"connected_time":1600000000000,"state":"active","ping":49},{"user_id":218,"name":"Westfalia II","steam_id":76561198108627075,"connected_time":122000000000,"state":"active","ping":95},{"user_id":112,"name":"That Guy","steam_id":76561198798973444,"connected_time":8954000000000,"state":"active","ping":89},{"user_id":136,"name":"Cable_tz","steam_id":76561199078745117,"connected_time":6536000000000,"state":"active","ping":88}]},{"server_id":5,"name":"Uncletopia | Frankfurt | 1 | All Maps","name_short":"frk-1","host":"frk-1.de.uncletopia.com","port":27015,"enabled":true,"region":"eu","cc":"de","latitude":50.110924,"longitude":8.682127,"reserved":0,"last_update":"0001-01-01T00:00:00Z","name_a2s":"Uncletopia | Frankfurt | 1 | All Maps","protocol":17,"map":"cp_sunshine","folder":"tf","game":"Team Fortress","app_id":440,"player_count":4,"max_players":24,"Bots":0,"server_type":"Dedicated","server_os":"Linux","password":true,"vac":true,"version":"7757534","steam_id":85568392924469989,"keywords":["cp","nocrits","nodmgspread","uncletopia"],"game_id":440,"stv_port":27016,"stv_name":"Uncletopia | Frankfurt | 1 | All Maps | STV","players":[{"user_id":361,"name":"knees","steam_id":76561198005924647,"connected_time":50000000000,"state":"active","ping":68},{"user_id":348,"name":"stormtrooper that can aim.","steam_id":76561199466495926,"connected_time":899000000000,"state":"active","ping":83},{"user_id":352,"name":"Tilty üë•","steam_id":76561198141834089,"connected_time":819000000000,"state":"active","ping":56},{"user_id":319,"name":"Snoucher","steam_id":76561198955323108,"connected_time":1898000000000,"state":"active","ping":66}]},{"server_id":110,"name":"Uncletopia | Frankfurt | 2 | All Maps","name_short":"frk-2","host":"frk-1.de.uncletopia.com","port":27025,"enabled":true,"region":"eu","cc":"de","latitude":50.110924,"longitude":8.682127,"reserved":0,"last_update":"0001-01-01T00:00:00Z","name_a2s":"Uncletopia | Frankfurt | 2 | All Maps","protocol":17,"map":"koth_king","folder":"tf","game":"Team Fortress","app_id":440,"player_count":0,"max_players":24,"Bots":0,"server_type":"Dedicated","server_os":"Linux","password":true,"vac":true,"version":"7757534","steam_id":85568392924469990,"keywords":["cp","nocrits","nodmgspread","uncletopia"],"game_id":440,"stv_port":27026,"stv_name":"Uncletopia | Frankfurt | 2 | All Maps | STV","players":null},{"server_id":308,"name":"Uncletopia | Frankfurt | 3 | All Maps","name_short":"frk-3","host":"frk-1.de.uncletopia.com","port":27035,"enabled":true,"region":"eu","cc":"de","latitude":50.110924,"longitude":8.682127,"reserved":0,"last_update":"0001-01-01T00:00:00Z","name_a2s":"Uncletopia | Frankfurt | 3 | All Maps","protocol":17,"map":"cp_granary","folder":"tf","game":"Team Fortress","app_id":440,"player_count":0,"max_players":24,"Bots":0,"server_type":"Dedicated","server_os":"Linux","password":true,"vac":true,"version":"7757534","steam_id":85568392924504274,"keywords":["cp","nocrits","nodmgspread","uncletopia"],"game_id":440,"stv_port":27036,"stv_name":"Uncletopia | Frankfurt | 3 | All Maps | STV","players":null},{"server_id":309,"name":"Uncletopia | Frankfurt | 4 | All Maps","name_short":"frk-4","host":"frk-1.de.uncletopia.com","port":27045,"enabled":true,"region":"eu","cc":"de","latitude":50.110924,"longitude":8.682127,"reserved":0,"last_update":"0001-01-01T00:00:00Z","name_a2s":"Uncletopia | Frankfurt | 4 | All Maps","protocol":17,"map":"koth_lakeside_final","folder":"tf","game":"Team Fortress","app_id":440,"player_count":0,"max_players":24,"Bots":0,"server_type":"Dedicated","server_os":"Linux","password":true,"vac":true,"version":"7757534","steam_id":85568392924504275,"keywords":["cp","nocrits","nodmgspread","uncletopia"],"game_id":440,"stv_port":27046,"stv_name":"Uncletopia | Frankfurt | 4 | All Maps | STV","players":null},{"server_id":310,"name":"Uncletopia | Frankfurt | 5 | All Maps","name_short":"frk-5","host":"frk-1.de.uncletopia.com","port":27055,"enabled":true,"region":"eu","cc":"de","latitude":50.110924,"longitude":8.682127,"reserved":0,"last_update":"0001-01-01T00:00:00Z","name_a2s":"Uncletopia | Frankfurt | 5 | All Maps","protocol":17,"map":"koth_lakeside_final","folder":"tf","game":"Team Fortress","app_id":440,"player_count":0,"max_players":24,"Bots":0,"server_type":"Dedicated","server_os":"Linux","password":true,"vac":true,"version":"7757534","steam_id":85568392924504277,"keywords":["cp","nocrits","nodmgspread","uncletopia"],"game_id":440,"stv_port":27056,"stv_name":"Uncletopia | Frankfurt | 5 | All Maps | STV","players":null},{"server_id":311,"name":"Uncletopia | Frankfurt | 6 | All Maps","name_short":"frk-6","host":"frk-1.de.uncletopia.com","port":27065,"enabled":true,"region":"eu","cc":"de","latitude":50.110924,"longitude":8.682127,"reserved":0,"last_update":"0001-01-01T00:00:00Z","name_a2s":"Uncletopia | Frankfurt | 6 | All Maps","protocol":17,"map":"koth_viaduct","folder":"tf","game":"Team Fortress","app_id":440,"player_count":0,"max_players":24,"Bots":0,"server_type":"Dedicated","server_os":"Linux","password":true,"vac":true,"version":"7757534","steam_id":85568392924504278,"keywords":["cp","nocrits","nodmgspread","uncletopia"],"game_id":440,"stv_port":27066,"stv_name":"Uncletopia | Frankfurt | 6 | All Maps | STV","players":null},{"server_id":23,"name":"Uncletopia | Frankfurt | 7 | Stopwatch Beta","name_short":"frk-7","host":"frk-1.de.uncletopia.com","port":27075,"enabled":true,"region":"eu","cc":"de","latitude":50.110924,"longitude":8.682127,"reserved":0,"last_update":"0001-01-01T00:00:00Z","name_a2s":"Uncletopia | Frankfurt | 7 | Stopwatch Beta","protocol":17,"map":"workshop/cp_process_f12.ugc2302948105","folder":"tf","game":"Team Fortress","app_id":440,"player_count":1,"max_players":24,"Bots":0,"server_type":"Dedicated","server_os":"Linux","password":true,"vac":true,"version":"7757534","steam_id":85568392924742827,"keywords":["cp","nocrits","nodmgspread","uncletopia"],"game_id":440,"stv_port":27076,"stv_name":"Uncletopia | Frankfurt | 7 | Stopwatch Beta | STV","players":[{"user_id":464,"name":"zigosikcz","steam_id":76561198411180720,"connected_time":4922000000000,"state":"active","ping":55}]},{"server_id":24,"name":"Uncletopia | Frankfurt | 8 | Community","name_short":"frk-8","host":"frk-1.de.uncletopia.com","port":27085,"enabled":true,"region":"eu","cc":"de","latitude":50.110924,"longitude":8.682127,"reserved":0,"last_update":"0001-01-01T00:00:00Z","name_a2s":"Uncletopia | Frankfurt | 8 | Community","protocol":17,"map":"workshop/koth_kemptown_rc1.ugc767410655","folder":"tf","game":"Team Fortress","app_id":440,"player_count":0,"max_players":24,"Bots":0,"server_type":"Dedicated","server_os":"Linux","password":true,"vac":true,"version":"7757534","steam_id":85568392924742828,"keywords":["cp","nocrits","nodmgspread","uncletopia"],"game_id":440,"stv_port":27086,"stv_name":"Uncletopia | Frankfurt | 8 | Community | STV","players":null},{"server_id":202,"name":"Uncletopia | Hong Kong | 1 | All Maps","name_short":"hgk-1","host":"hgk-1.hk.uncletopia.com","port":27015,"enabled":true,"region":"asia","cc":"hk","latitude":22.302711,"longitude":114.177216,"reserved":0,"last_update":"0001-01-01T00:00:00Z","name_a2s":"Uncletopia | Hong Kong | 1 | All Maps","protocol":17,"map":"koth_cascade","folder":"tf","game":"Team Fortress","app_id":440,"player_count":0,"max_players":24,"Bots":0,"server_type":"Dedicated","server_os":"Linux","password":true,"vac":true,"version":"7757534","steam_id":85568392924494504,"keywords":["cp","nocrits","nodmgspread","uncletopia"],"game_id":440,"stv_port":27016,"stv_name":"Uncletopia | Hong Kong | 1 | All Maps | STV","players":null},{"server_id":1,"name":"Uncletopia | Los Angeles | 1 | All Maps","name_short":"lax-1","host":"lax-1.us.uncletopia.com","port":27015,"enabled":true,"region":"us-west","cc":"us","latitude":33.94279,"longitude":-118.41004,"reserved":0,"last_update":"0001-01-01T00:00:00Z","name_a2s":"Uncletopia | Los Angeles | 1 | All Maps","protocol":17,"map":"koth_lakeside_final","folder":"tf","game":"Team Fortress","app_id":440,"player_count":12,"max_players":24,"Bots":0,"server_type":"Dedicated","server_os":"Linux","password":true,"vac":true,"version":"7757534","steam_id":85568392924469991,"keywords":["cp","nocrits","nodmgspread","uncletopia"],"game_id":440,"stv_port":27016,"stv_name":"Uncletopia | Los Angeles | 1 | All Maps | STV","players":[{"user_id":7,"name":"Overmeme","steam_id":76561199455124144,"connected_time":865000000000,"state":"active","ping":94},{"user_id":6,"name":"mrthugpug1732","steam_id":76561198881200768,"connected_time":895000000000,"state":"active","ping":69},{"user_id":8,"name":"Juanete248","steam_id":76561198954180021,"connected_time":663000000000,"state":"active","ping":203},{"user_id":15,"name":"Second Suite in F Major","steam_id":76561198354149808,"connected_time":152000000000,"state":"active","ping":39},{"user_id":10,"name":"HOG RIDER","steam_id":76561198298589502,"connected_time":609000000000,"state":"active","ping":45},{"user_id":11,"name":"trashbro","steam_id":76561199417993197,"connected_time":558000000000,"state":"active","ping":58},{"user_id":12,"name":"PinguEnjoyer6","steam_id":76561199186723516,"connected_time":522000000000,"state":"active","ping":42},{"user_id":13,"name":"wait no stop dont do that","steam_id":76561199117157198,"connected_time":402000000000,"state":"active","ping":73},{"user_id":14,"name":"APOTATO","steam_id":76561198118199858,"connected_time":356000000000,"state":"active","ping":46},{"user_id":16,"name":"Br0gon","steam_id":76561199434773987,"connected_time":106000000000,"state":"active","ping":120},{"user_id":17,"name":"The Best 8bit Fan","steam_id":76561199098464343,"connected_time":59000000000,"state":"active","ping":258},{"user_id":18,"name":"Bigge cheese the 3rd","steam_id":76561198860975325,"connected_time":5000000000,"state":"spawning","ping":88}]},{"server_id":112,"name":"Uncletopia | Los Angeles | 2 | All Maps","name_short":"lax-2","host":"lax-1.us.uncletopia.com","port":27025,"enabled":true,"region":"us-west","cc":"us","latitude":33.94279,"longitude":-118.41004,"reserved":0,"last_update":"0001-01-01T00:00:00Z","name_a2s":"Uncletopia | Los Angeles | 2 | All Maps","protocol":17,"map":"pl_thundermountain","folder":"tf","game":"Team Fortress","app_id":440,"player_count":22,"max_players":24,"Bots":0,"server_type":"Dedicated","server_os":"Linux","password":true,"vac":true,"version":"7757534","steam_id":85568392924469992,"keywords":["nocrits","nodmgspread","payload","uncletopia"],"game_id":440,"stv_port":27026,"stv_name":"Uncletopia | Los Angeles | 2 | All Maps | STV","players":[{"user_id":127,"name":"josie","steam_id":76561198170848553,"connected_time":176000000000,"state":"active","ping":72},{"user_id":116,"name":"Hoodie Deku","steam_id":76561199123163113,"connected_time":851000000000,"state":"active","ping":45},{"user_id":119,"name":"Mr. Blubber","steam_id":76561198338906916,"connected_time":641000000000,"state":"active","ping":51},{"user_id":73,"name":"flo rida","steam_id":76561198226169704,"connected_time":4562000000000,"state":"active","ping":52},{"user_id":123,"name":"eggplantgirl‚ô•","steam_id":76561198811515692,"connected_time":388000000000,"state":"active","ping":45},{"user_id":107,"name":"will","steam_id":76561198134923092,"connected_time":1824000000000,"state":"active","ping":45},{"user_id":89,"name":"LWebb","steam_id":76561199162936929,"connected_time":3281000000000,"state":"active","ping":95},{"user_id":80,"name":"ScoutSecoTF2","steam_id":76561198366212156,"connected_time":4367000000000,"state":"active","ping":102},{"user_id":131,"name":"afeel5004","steam_id":76561199273696662,"connected_time":53000000000,"state":"active","ping":60},{"user_id":125,"name":"Sheep","steam_id":76561198122705864,"connected_time":212000000000,"state":"active","ping":92},{"user_id":126,"name":"GriDLocK; T0T4113D","steam_id":76561197999816631,"connected_time":186000000000,"state":"active","ping":95},{"user_id":128,"name":"Blitzy","steam_id":76561198149472890,"connected_time":146000000000,"state":"active","ping":90},{"user_id":108,"name":"zpalmtree","steam_id":76561198134307620,"connected_time":1824000000000,"state":"active","ping":120},{"user_id":81,"name":"DemoLiberTF2","steam_id":76561198095378689,"connected_time":4354000000000,"state":"active","ping":87},{"user_id":129,"name":"Nobody","steam_id":76561199352089107,"connected_time":124000000000,"state":"active","ping":52},{"user_id":120,"name":"Maid 'n' China","steam_id":76561198423392976,"connected_time":512000000000,"state":"active","ping":57},{"user_id":130,"name":"Kdash","steam_id":76561198043829155,"connected_time":121000000000,"state":"active","ping":83},{"user_id":101,"name":"tf3aflyingmouse","steam_id":76561198058134934,"connected_time":2060000000000,"state":"active","ping":72},{"user_id":132,"name":"I deepfried my penis","steam_id":76561198848858223,"connected_time":17000000000,"state":"spawning","ping":80},{"user_id":98,"name":"Chad the Sex Haver","steam_id":76561198058236528,"connected_time":2462000000000,"state":"active","ping":47},{"user_id":56,"name":"Vintage TV","steam_id":76561198800334545,"connected_time":5894000000000,"state":"active","ping":42},{"user_id":115,"name":"Mufalito","steam_id":76561198951889482,"connected_time":936000000000,"state":"active","ping":177}]},{"server_id":324,"name":"Uncletopia | Los Angeles | 3 | All Maps","name_short":"lax-3","host":"lax-1.us.uncletopia.com","port":27035,"enabled":true,"region":"us-west","cc":"us","latitude":33.94279,"longitude":-118.41004,"reserved":0,"last_update":"0001-01-01T00:00:00Z","name_a2s":"Uncletopia | Los Angeles | 3 | All Maps","protocol":17,"map":"cp_mountainlab","folder":"tf","game":"Team Fortress","app_id":440,"player_count":0,"max_players":24,"Bots":0,"server_type":"Dedicated","server_os":"Linux","password":true,"vac":true,"version":"7757534","steam_id":85568392924510198,"keywords":["cp","nocrits","nodmgspread","uncletopia"],"game_id":440,"stv_port":27036,"stv_name":"Uncletopia | Los Angeles | 3 | All Maps | STV","players":null},{"server_id":25,"name":"Uncletopia | Los Angeles | 4 | Stopwatch Beta","name_short":"lax-4","host":"lax-1.us.uncletopia.com","port":27045,"enabled":true,"region":"us-west","cc":"us","latitude":33.94279,"longitude":-118.41004,"reserved":0,"last_update":"0001-01-01T00:00:00Z","name_a2s":"Uncletopia | Los Angeles | 4 | Stopwatch Beta","protocol":17,"map":"pl_swiftwater_final1","folder":"tf","game":"Team Fortress","app_id":440,"player_count":0,"max_players":24,"Bots":0,"server_type":"Dedicated","server_os":"Linux","password":true,"vac":true,"version":"7757534","steam_id":85568392924510199,"keywords":["nocrits","nodmgspread","payload","uncletopia"],"game_id":440,"stv_port":27046,"stv_name":"Uncletopia | Los Angeles | 4 | Stopwatch Beta | STV","players":null},{"server_id":11,"name":"Uncletopia | London | 1 | All Maps","name_short":"lon-1","host":"lon-1.uk.uncletopia.com","port":27015,"enabled":true,"region":"eu","cc":"gb","latitude":51.509865,"longitude":-0.118092,"reserved":0,"last_update":"0001-01-01T00:00:00Z","name_a2s":"Uncletopia | London | 1 | All Maps","protocol":17,"map":"pl_upward","folder":"tf","game":"Team Fortress","app_id":440,"player_count":24,"max_players":24,"Bots":0,"server_type":"Dedicated","server_os":"Linux","password":true,"vac":true,"version":"7757534","steam_id":85568392924367362,"keywords":["nocrits","nodmgspread","payload","uncletopia"],"game_id":440,"stv_port":27016,"stv_name":"Uncletopia | London | 1 | All Maps | STV","players":[{"user_id":635,"name":"Mango-Man.","steam_id":76561198840558687,"connected_time":2592000000000,"state":"active","ping":66},{"user_id":692,"name":"brainrot","steam_id":76561199414716848,"connected_time":217000000000,"state":"active","ping":73},{"user_id":696,"name":"SaltyCupcakes","steam_id":76561198256386417,"connected_time":155000000000,"state":"active","ping":43},{"user_id":693,"name":"Fred","steam_id":76561198107137362,"connected_time":214000000000,"state":"active","ping":55},{"user_id":681,"name":"insert epic music","steam_id":76561198095560087,"connected_time":1063000000000,"state":"active","ping":81},{"user_id":619,"name":"Djinnkinn","steam_id":76561198029913860,"connected_time":2837000000000,"state":"active","ping":67},{"user_id":667,"name":"AWildTamim","steam_id":76561198048060652,"connected_time":1548000000000,"state":"active","ping":34},{"user_id":689,"name":"recoil","steam_id":76561199168419398,"connected_time":580000000000,"state":"active","ping":85},{"user_id":670,"name":"Myrmodion","steam_id":76561198054746247,"connected_time":1387000000000,"state":"active","ping":74},{"user_id":660,"name":"homeinvasion$","steam_id":76561199111905021,"connected_time":1670000000000,"state":"active","ping":118},{"user_id":694,"name":"LIDL","steam_id":76561198278417239,"connected_time":203000000000,"state":"active","ping":52},{"user_id":679,"name":"Zeppelin","steam_id":76561198154867991,"connected_time":1124000000000,"state":"active","ping":50},{"user_id":672,"name":"Reult","steam_id":76561199444524084,"connected_time":1271000000000,"state":"active","ping":64},{"user_id":367,"name":"dec","steam_id":76561198009660168,"connected_time":14672000000000,"state":"active","ping":55},{"user_id":687,"name":"hananamanna","steam_id":76561198006570285,"connected_time":724000000000,"state":"active","ping":116},{"user_id":691,"name":"another penguin","steam_id":76561198004044899,"connected_time":304000000000,"state":"active","ping":53},{"user_id":690,"name":"Woa","steam_id":76561198345683201,"connected_time":440000000000,"state":"active","ping":48},{"user_id":695,"name":"Dipyawiq","steam_id":76561197976226578,"connected_time":189000000000,"state":"active","ping":107},{"user_id":688,"name":"Alexandre","steam_id":76561198121784446,"connected_time":718000000000,"state":"active","ping":44},{"user_id":654,"name":"beep!","steam_id":76561198111674607,"connected_time":1795000000000,"state":"active","ping":48},{"user_id":686,"name":"Ecton","steam_id":76561198025103720,"connected_time":731000000000,"state":"active","ping":57},{"user_id":680,"name":"Oyu","steam_id":76561198113997772,"connected_time":1089000000000,"state":"active","ping":73},{"user_id":610,"name":"KPhii","steam_id":76561198970587061,"connected_time":3974000000000,"state":"active","ping":78},{"user_id":666,"name":"miau","steam_id":76561198053919062,"connected_time":1643000000000,"state":"active","ping":84}]},{"server_id":114,"name":"Uncletopia | London | 2 | All Maps","name_short":"lon-2","host":"lon-1.uk.uncletopia.com","port":27025,"enabled":true,"region":"eu","cc":"gb","latitude":51.509865,"longitude":-0.118092,"reserved":0,"last_update":"0001-01-01T00:00:00Z","name_a2s":"Uncletopia | London | 2 | All Maps","protocol":17,"map":"pl_borneo","folder":"tf","game":"Team Fortress","app_id":440,"player_count":24,"max_players":24,"Bots":0,"server_type":"Dedicated","server_os":"Linux","password":true,"vac":true,"version":"7757534","steam_id":85568392924470941,"keywords":["nocrits","nodmgspread","payload","uncletopia"],"game_id":440,"stv_port":27026,"stv_name":"Uncletopia | London | 2 | All Maps | STV","players":[{"user_id":567,"name":"KenPendersOfficial","steam_id":76561198065112022,"connected_time":5534000000000,"state":"active","ping":90},{"user_id":618,"name":"Sensei","steam_id":76561198383582429,"connected_time":1356000000000,"state":"active","ping":95},{"user_id":637,"name":"leonardini.w","steam_id":76561199097963071,"connected_time":218000000000,"state":"active","ping":82},{"user_id":632,"name":"moser23","steam_id":76561197960543171,"connected_time":716000000000,"state":"active","ping":50},{"user_id":633,"name":"F","steam_id":76561199149462792,"connected_time":517000000000,"state":"active","ping":64},{"user_id":638,"name":"Tri-","steam_id":76561198133524794,"connected_time":52000000000,"state":"active","ping":35},{"user_id":610,"name":"fume.","steam_id":76561197960476801,"connected_time":2008000000000,"state":"active","ping":52},{"user_id":613,"name":"akakez","steam_id":76561198095432821,"connected_time":1597000000000,"state":"active","ping":118},{"user_id":581,"name":"Gleart","steam_id":76561199149403194,"connected_time":5023000000000,"state":"active","ping":84},{"user_id":630,"name":"Fish 'n' Chips","steam_id":76561198033476886,"connected_time":886000000000,"state":"active","ping":55},{"user_id":634,"name":"„Åô LightFlight „Åó","steam_id":76561198079007530,"connected_time":280000000000,"state":"active","ping":50},{"user_id":620,"name":"Syd","steam_id":76561198020515027,"connected_time":1262000000000,"state":"active","ping":76},{"user_id":628,"name":"Axord","steam_id":76561199289652176,"connected_time":975000000000,"state":"active","ping":48},{"user_id":636,"name":"kulka zielonka","steam_id":76561198128201200,"connected_time":259000000000,"state":"active","ping":106},{"user_id":461,"name":"Apathy","steam_id":76561199308784371,"connected_time":12563000000000,"state":"active","ping":55},{"user_id":556,"name":"kojitori","steam_id":76561198838072150,"connected_time":6628000000000,"state":"active","ping":51},{"user_id":615,"name":"jonbob","steam_id":76561197963506620,"connected_time":1466000000000,"state":"active","ping":54},{"user_id":611,"name":"all mute","steam_id":76561198105739516,"connected_time":1887000000000,"state":"active","ping":58},{"user_id":565,"name":"Creature from the piss drawer","steam_id":76561198055949151,"connected_time":5838000000000,"state":"active","ping":47},{"user_id":635,"name":"Udinese Dion","steam_id":76561198067931573,"connected_time":261000000000,"state":"active","ping":55},{"user_id":625,"name":"‚ô• Cirno ‚ô•","steam_id":76561198834982738,"connected_time":1211000000000,"state":"active","ping":70},{"user_id":579,"name":"Tymu","steam_id":76561198093318988,"connected_time":5042000000000,"state":"active","ping":101},{"user_id":600,"name":"max","steam_id":76561198059206184,"connected_time":2599000000000,"state":"active","ping":57},{"user_id":626,"name":"Syppy","steam_id":76561198078273095,"connected_time":1210000000000,"state":"active","ping":83}]},{"server_id":320,"name":"Uncletopia | London | 3 | All Maps","name_short":"lon-3","host":"lon-1.uk.uncletopia.com","port":27035,"enabled":true,"region":"eu","cc":"gb","latitude":51.509865,"longitude":-0.118092,"reserved":0,"last_update":"0001-01-01T00:00:00Z","name_a2s":"Uncletopia | London | 3 | All Maps","protocol":17,"map":"pl_upward","folder":"tf","game":"Team Fortress","app_id":440,"player_count":24,"max_players":24,"Bots":0,"server_type":"Dedicated","server_os":"Linux","password":true,"vac":true,"version":"7757534","steam_id":85568392924510192,"keywords":["nocrits","nodmgspread","payload","uncletopia"],"game_id":440,"stv_port":27036,"stv_name":"Uncletopia | London | 3 | All Maps | STV","players":[{"user_id":374,"name":"please do not die","steam_id":76561198112125142,"connected_time":4262000000000,"state":"active","ping":70},{"user_id":400,"name":"MLG Peridot","steam_id":76561198069780233,"connected_time":2324000000000,"state":"active","ping":50},{"user_id":415,"name":"astigmatic","steam_id":76561199103959197,"connected_time":1473000000000,"state":"active","ping":100},{"user_id":430,"name":"boofing prozac","steam_id":76561198851157897,"connected_time":435000000000,"state":"active","ping":64},{"user_id":431,"name":"JimBowBlade","steam_id":76561198018620946,"connected_time":430000000000,"state":"active","ping":54},{"user_id":313,"name":"Pacanaz","steam_id":76561198011514552,"connected_time":7706000000000,"state":"active","ping":92},{"user_id":432,"name":"ldshwt","steam_id":76561198090364357,"connected_time":414000000000,"state":"active","ping":59},{"user_id":366,"name":"Ixsus\u003c3","steam_id":76561198094756869,"connected_time":4551000000000,"state":"active","ping":64},{"user_id":435,"name":"Gravel Mercenary","steam_id":76561199019412162,"connected_time":181000000000,"state":"active","ping":49},{"user_id":416,"name":"Dag!","steam_id":76561198030147941,"connected_time":1473000000000,"state":"active","ping":72},{"user_id":395,"name":"The_Jaystone","steam_id":76561198126280691,"connected_time":2838000000000,"state":"active","ping":37},{"user_id":429,"name":"Haha?","steam_id":76561198056882245,"connected_time":442000000000,"state":"active","ping":37},{"user_id":417,"name":"powej","steam_id":76561198056381418,"connected_time":1458000000000,"state":"active","ping":33},{"user_id":396,"name":"LuCroGi","steam_id":76561198057283891,"connected_time":2731000000000,"state":"active","ping":62},{"user_id":407,"name":"Pancakes","steam_id":76561198196259989,"connected_time":2173000000000,"state":"active","ping":57},{"user_id":433,"name":"Egor Pomidor","steam_id":76561199175688390,"connected_time":409000000000,"state":"active","ping":89},{"user_id":426,"name":"Waffle","steam_id":76561198054258390,"connected_time":1069000000000,"state":"active","ping":106},{"user_id":399,"name":"FoOzTV","steam_id":76561197998636728,"connected_time":2581000000000,"state":"active","ping":67},{"user_id":390,"name":"piping hot","steam_id":76561198011692496,"connected_time":3339000000000,"state":"active","ping":69},{"user_id":424,"name":"Claw","steam_id":76561198060985181,"connected_time":1101000000000,"state":"active","ping":54},{"user_id":436,"name":"a Regurar Barroon","steam_id":76561198834913692,"connected_time":179000000000,"state":"active","ping":74},{"user_id":434,"name":"Proud Jojo Fan #TF2SP","steam_id":76561198847327216,"connected_time":402000000000,"state":"active","ping":75},{"user_id":428,"name":"Janitor","steam_id":76561198418538887,"connected_time":976000000000,"state":"active","ping":104},{"user_id":420,"name":"DigyB","steam_id":76561198014442345,"connected_time":1296000000000,"state":"active","ping":50}]},{"server_id":321,"name":"Uncletopia | London | 4 | All Maps","name_short":"lon-4","host":"lon-1.uk.uncletopia.com","port":27045,"enabled":true,"region":"eu","cc":"gb","latitude":51.509865,"longitude":-0.118092,"reserved":0,"last_update":"0001-01-01T00:00:00Z","name_a2s":"Uncletopia | London | 4 | All Maps","protocol":17,"map":"koth_lakeside_final","folder":"tf","game":"Team Fortress","app_id":440,"player_count":24,"max_players":24,"Bots":0,"server_type":"Dedicated","server_os":"Linux","password":true,"vac":true,"version":"7757534","steam_id":85568392924510193,"keywords":["cp","nocrits","nodmgspread","uncletopia"],"game_id":440,"stv_port":27046,"stv_name":"Uncletopia | London | 4 | All Maps | STV","players":[{"user_id":501,"name":"B4R10N","steam_id":76561198047167954,"connected_time":43000000000,"state":"spawning","ping":353},{"user_id":475,"name":"Droy","steam_id":76561198065854668,"connected_time":1620000000000,"state":"active","ping":44},{"user_id":496,"name":"P Diddy","steam_id":76561198829344838,"connected_time":308000000000,"state":"active","ping":36},{"user_id":480,"name":"LemonLeCitron","steam_id":76561198215545267,"connected_time":959000000000,"state":"active","ping":67},{"user_id":492,"name":"Spy Gaming","steam_id":76561198257225296,"connected_time":558000000000,"state":"active","ping":77},{"user_id":476,"name":"elio","steam_id":76561198142662131,"connected_time":1444000000000,"state":"active","ping":65},{"user_id":485,"name":"duchess abigail","steam_id":76561198166953966,"connected_time":932000000000,"state":"active","ping":56},{"user_id":470,"name":"Zephalo","steam_id":76561198021346474,"connected_time":1881000000000,"state":"active","ping":50},{"user_id":498,"name":"rummy","steam_id":76561197997573379,"connected_time":288000000000,"state":"active","ping":45},{"user_id":460,"name":"The Business Man","steam_id":76561198059907124,"connected_time":2084000000000,"state":"active","ping":159},{"user_id":493,"name":"Koi-Koi","steam_id":76561198045527771,"connected_time":547000000000,"state":"active","ping":56},{"user_id":463,"name":"SKFBoge","steam_id":76561198269038278,"connected_time":2065000000000,"state":"active","ping":70},{"user_id":484,"name":"zak","steam_id":76561197998895428,"connected_time":942000000000,"state":"active","ping":63},{"user_id":494,"name":"Edgy Name","steam_id":76561198378270820,"connected_time":545000000000,"state":"active","ping":69},{"user_id":440,"name":"Lyncurion","steam_id":76561199260022725,"connected_time":4752000000000,"state":"active","ping":84},{"user_id":489,"name":"(1)duchess abigail","steam_id":76561198205464653,"connected_time":917000000000,"state":"active","ping":181},{"user_id":499,"name":"Dachowiec","steam_id":76561198195408281,"connected_time":264000000000,"state":"active","ping":68},{"user_id":500,"name":"Over here saw bones","steam_id":76561198320506848,"connected_time":262000000000,"state":"active","ping":44},{"user_id":488,"name":"Breizbuc","steam_id":76561198118220633,"connected_time":925000000000,"state":"active","ping":56},{"user_id":472,"name":"Zepta","steam_id":76561199001659666,"connected_time":1699000000000,"state":"active","ping":103},{"user_id":497,"name":"Frambouille","steam_id":76561198210342928,"connected_time":306000000000,"state":"active","ping":65},{"user_id":464,"name":"skill","steam_id":76561198106012909,"connected_time":2064000000000,"state":"active","ping":80},{"user_id":495,"name":"kaelan","steam_id":76561198001425310,"connected_time":544000000000,"state":"active","ping":71},{"user_id":490,"name":"Tare321GG","steam_id":76561199075683254,"connected_time":913000000000,"state":"active","ping":64}]},{"server_id":21,"name":"Uncletopia | London | 5 | All Maps","name_short":"lon-5","host":"lon-1.uk.uncletopia.com","port":27055,"enabled":true,"region":"eu","cc":"gb","latitude":51.509865,"longitude":-0.118092,"reserved":0,"last_update":"0001-01-01T00:00:00Z","name_a2s":"Uncletopia | London | 5 | All Maps","protocol":17,"map":"pl_borneo","folder":"tf","game":"Team Fortress","app_id":440,"player_count":24,"max_players":24,"Bots":0,"server_type":"Dedicated","server_os":"Linux","password":true,"vac":true,"version":"7757534","steam_id":85568392924742829,"keywords":["nocrits","nodmgspread","payload","uncletopia"],"game_id":440,"stv_port":27056,"stv_name":"Uncletopia | London | 5 | All Maps | STV","players":[{"user_id":680,"name":"infinitytrait","steam_id":76561199142721155,"connected_time":267000000000,"state":"active","ping":83},{"user_id":673,"name":"The cost of living in the UK","steam_id":76561199000520747,"connected_time":594000000000,"state":"active","ping":47},{"user_id":677,"name":"Cliff Barnes","steam_id":76561198032213783,"connected_time":278000000000,"state":"active","ping":75},{"user_id":635,"name":"pfear","steam_id":76561197999207328,"connected_time":4149000000000,"state":"active","ping":85},{"user_id":660,"name":"Enforcer02","steam_id":76561197966045944,"connected_time":1073000000000,"state":"active","ping":61},{"user_id":688,"name":"nynon","steam_id":76561197998432126,"connected_time":100000000000,"state":"active","ping":73},{"user_id":641,"name":"DumDum","steam_id":76561198836275186,"connected_time":2998000000000,"state":"active","ping":86},{"user_id":650,"name":"mustachio cheap","steam_id":76561198334042273,"connected_time":2150000000000,"state":"active","ping":84},{"user_id":682,"name":"How did I not die?","steam_id":76561198274105878,"connected_time":232000000000,"state":"active","ping":100},{"user_id":590,"name":"GamliRaudur1","steam_id":76561199179181105,"connected_time":6410000000000,"state":"active","ping":84},{"user_id":664,"name":"Hamza Gaming","steam_id":76561198150448445,"connected_time":1029000000000,"state":"active","ping":70},{"user_id":675,"name":"michal jarek","steam_id":76561199028388329,"connected_time":305000000000,"state":"active","ping":60},{"user_id":662,"name":"SynthBox3","steam_id":76561199094075745,"connected_time":1038000000000,"state":"active","ping":105},{"user_id":678,"name":"sv_opor 13123","steam_id":76561198002229612,"connected_time":271000000000,"state":"active","ping":78},{"user_id":663,"name":"General Petrov","steam_id":76561198027204104,"connected_time":1036000000000,"state":"active","ping":83},{"user_id":653,"name":"K'aax Itzam","steam_id":76561198044024509,"connected_time":2100000000000,"state":"active","ping":91},{"user_id":683,"name":"big heavy is heavy heavy","steam_id":76561198300059652,"connected_time":230000000000,"state":"active","ping":72},{"user_id":681,"name":"henryl200","steam_id":76561198810332404,"connected_time":265000000000,"state":"active","ping":45},{"user_id":619,"name":"s a i","steam_id":76561197970379754,"connected_time":5344000000000,"state":"active","ping":66},{"user_id":665,"name":"Circular","steam_id":76561198001536710,"connected_time":1005000000000,"state":"active","ping":45},{"user_id":639,"name":"Officer Butter","steam_id":76561198137647398,"connected_time":3077000000000,"state":"active","ping":143},{"user_id":667,"name":"Amon Gus","steam_id":76561199094540960,"connected_time":980000000000,"state":"active","ping":70},{"user_id":656,"name":"Husk","steam_id":76561198271808519,"connected_time":2064000000000,"state":"active","ping":61},{"user_id":670,"name":"i am bread","steam_id":76561199180277321,"connected_time":890000000000,"state":"active","ping":58}]},{"server_id":22,"name":"Uncletopia | London | 6 | All Maps","name_short":"lon-6","host":"lon-1.uk.uncletopia.com","port":27065,"enabled":true,"region":"eu","cc":"gb","latitude":51.509865,"longitude":-0.118092,"reserved":0,"last_update":"0001-01-01T00:00:00Z","name_a2s":"Uncletopia | London | 6 | All Maps","protocol":17,"map":"pl_goldrush","folder":"tf","game":"Team Fortress","app_id":440,"player_count":24,"max_players":24,"Bots":0,"server_type":"Dedicated","server_os":"Linux","password":true,"vac":true,"version":"7757534","steam_id":85568392924742830,"keywords":["nocrits","nodmgspread","payload","uncletopia"],"game_id":440,"stv_port":27066,"stv_name":"Uncletopia | London | 6 | All Maps | STV","players":[{"user_id":397,"name":"CumbustiblePunda","steam_id":76561197974274677,"connected_time":257000000000,"state":"active","ping":61},{"user_id":370,"name":"GreenCube","steam_id":76561199082242017,"connected_time":2297000000000,"state":"active","ping":85},{"user_id":389,"name":"‚ò© Knightz ‚ò©","steam_id":76561198040936414,"connected_time":1251000000000,"state":"active","ping":105},{"user_id":398,"name":"sork","steam_id":76561198082446459,"connected_time":253000000000,"state":"active","ping":77},{"user_id":324,"name":"Pi'erre","steam_id":76561198214173279,"connected_time":3401000000000,"state":"active","ping":76},{"user_id":292,"name":"bawner","steam_id":76561198130131932,"connected_time":5131000000000,"state":"active","ping":35},{"user_id":399,"name":".::[SerafeTTiN]::.","steam_id":76561198009471724,"connected_time":239000000000,"state":"active","ping":99},{"user_id":391,"name":"MAKENTAKEN","steam_id":76561199127359587,"connected_time":1052000000000,"state":"active","ping":100},{"user_id":400,"name":"lebron","steam_id":76561198027033926,"connected_time":227000000000,"state":"active","ping":56},{"user_id":319,"name":"Anonymous47007","steam_id":76561199005211417,"connected_time":3911000000000,"state":"active","ping":82},{"user_id":401,"name":"eeeeee","steam_id":76561198017786875,"connected_time":227000000000,"state":"active","ping":74},{"user_id":385,"name":"Harmless Potato","steam_id":76561198039048236,"connected_time":1966000000000,"state":"active","ping":106},{"user_id":386,"name":"cult","steam_id":76561198188647690,"connected_time":1924000000000,"state":"active","ping":82},{"user_id":331,"name":"(‚ó£_‚ó¢)","steam_id":76561198093123552,"connected_time":3237000000000,"state":"active","ping":61},{"user_id":402,"name":"KnorbertD","steam_id":76561198175745541,"connected_time":210000000000,"state":"active","ping":87},{"user_id":364,"name":"L1nuS050","steam_id":76561199017922842,"connected_time":2509000000000,"state":"active","ping":91},{"user_id":332,"name":"Carrotcracker","steam_id":76561198034862396,"connected_time":3236000000000,"state":"active","ping":84},{"user_id":392,"name":"SlwoF√∏","steam_id":76561198049663931,"connected_time":991000000000,"state":"active","ping":59},{"user_id":388,"name":"Allah","steam_id":76561198126613292,"connected_time":1586000000000,"state":"active","ping":54},{"user_id":333,"name":"tek-9","steam_id":76561198107220903,"connected_time":3177000000000,"state":"active","ping":60},{"user_id":373,"name":"Le Temps des Temp√™tes Audebile","steam_id":76561198819871606,"connected_time":2240000000000,"state":"active","ping":107},{"user_id":403,"name":"ThatSiegeKid","steam_id":76561198368037656,"connected_time":191000000000,"state":"active","ping":38},{"user_id":357,"name":"Zeklyn","steam_id":76561198144122654,"connected_time":2807000000000,"state":"active","ping":68},{"user_id":395,"name":"When Life gives you Lemons","steam_id":76561198318290663,"connected_time":599000000000,"state":"active","ping":59}]},{"server_id":40,"name":"Uncletopia | London | 7 | No Payload","name_short":"lon-7","host":"lon-1.uk.uncletopia.com","port":27075,"enabled":true,"region":"eu","cc":"gb","latitude":51.509865,"longitude":-0.118092,"reserved":0,"last_update":"0001-01-01T00:00:00Z","name_a2s":"Uncletopia | London | 7 | No Payload","protocol":17,"map":"koth_king","folder":"tf","game":"Team Fortress","app_id":440,"player_count":19,"max_players":24,"Bots":0,"server_type":"Dedicated","server_os":"Linux","password":true,"vac":true,"version":"7757534","steam_id":85568392924964314,"keywords":["cp","nocrits","nodmgspread","uncletopia"],"game_id":440,"stv_port":27076,"stv_name":"Uncletopia | London | 7 | No Payload | STV","players":[{"user_id":23,"name":"Dor_atar","steam_id":76561198973980542,"connected_time":1667000000000,"state":"active","ping":83},{"user_id":24,"name":"Clipsy","steam_id":76561199141525902,"connected_time":1575000000000,"state":"active","ping":68},{"user_id":25,"name":"ratajskisamuele","steam_id":76561199133414901,"connected_time":1456000000000,"state":"active","ping":68},{"user_id":26,"name":"loser","steam_id":76561198204630835,"connected_time":1172000000000,"state":"active","ping":83},{"user_id":27,"name":"K.V. #RemoveRandomCrits","steam_id":76561197994832993,"connected_time":874000000000,"state":"active","ping":77},{"user_id":28,"name":"kite_76000000 | #save tf2","steam_id":76561199230921247,"connected_time":870000000000,"state":"active","ping":36},{"user_id":34,"name":"Petight","steam_id":76561197999438798,"connected_time":397000000000,"state":"active","ping":32},{"user_id":30,"name":"Looking for new amigos","steam_id":76561198039602539,"connected_time":528000000000,"state":"active","ping":74},{"user_id":31,"name":"Your Average Scout Main","steam_id":76561199403752637,"connected_time":476000000000,"state":"active","ping":54},{"user_id":32,"name":"Lifes Lemons","steam_id":76561199033413195,"connected_time":473000000000,"state":"active","ping":52},{"user_id":33,"name":"Angelatine","steam_id":76561198101624996,"connected_time":416000000000,"state":"active","ping":100},{"user_id":35,"name":"e36 1.8","steam_id":76561198134203031,"connected_time":387000000000,"state":"active","ping":70},{"user_id":36,"name":"Avannah","steam_id":76561198173174046,"connected_time":341000000000,"state":"active","ping":60},{"user_id":39,"name":"JAMES \"JIM\" COURIER","steam_id":76561198847048146,"connected_time":95000000000,"state":"active","ping":65},{"user_id":38,"name":"nyanezt","steam_id":76561198253734265,"connected_time":210000000000,"state":"active","ping":102},{"user_id":40,"name":".javaw","steam_id":76561198165955030,"connected_time":92000000000,"state":"active","ping":106},{"user_id":44,"name":"Sol Badguy","steam_id":76561198799277867,"connected_time":31000000000,"state":"spawning","ping":150},{"user_id":42,"name":"SaltySugar","steam_id":76561198171209758,"connected_time":62000000000,"state":"active","ping":39},{"user_id":43,"name":"Flying skyhigh","steam_id":76561198372971096,"connected_time":43000000000,"state":"active","ping":62}]},{"server_id":41,"name":"Uncletopia | London | 8 | Community","name_short":"lon-8","host":"lon-1.uk.uncletopia.com","port":27085,"enabled":true,"region":"eu","cc":"gb","latitude":51.509865,"longitude":-0.118092,"reserved":0,"last_update":"0001-01-01T00:00:00Z","name_a2s":"Uncletopia | London | 8 | Community","protocol":17,"map":"workshop/cp_snowbase_b18.ugc2081770490","folder":"tf","game":"Team Fortress","app_id":440,"player_count":24,"max_players":24,"Bots":0,"server_type":"Dedicated","server_os":"Linux","password":true,"vac":true,"version":"7757534","steam_id":85568392924964315,"keywords":["cp","nocrits","nodmgspread","uncletopia"],"game_id":440,"stv_port":27086,"stv_name":"Uncletopia | London | 8 | Community | STV","players":[{"user_id":117,"name":"matjar","steam_id":76561198874775419,"connected_time":265000000000,"state":"active","ping":97},{"user_id":72,"name":"Ork","steam_id":76561197968575924,"connected_time":3628000000000,"state":"active","ping":49},{"user_id":95,"name":"Jon","steam_id":76561198148858397,"connected_time":2143000000000,"state":"active","ping":68},{"user_id":66,"name":"FunnyCool","steam_id":76561198029843142,"connected_time":3777000000000,"state":"active","ping":55},{"user_id":80,"name":"LVIXX","steam_id":76561198188767928,"connected_time":3012000000000,"state":"active","ping":68},{"user_id":110,"name":"player","steam_id":76561198054474684,"connected_time":672000000000,"state":"active","ping":76},{"user_id":111,"name":"Volcyy","steam_id":76561198063979124,"connected_time":563000000000,"state":"active","ping":50},{"user_id":69,"name":"jm","steam_id":76561197996774870,"connected_time":3712000000000,"state":"active","ping":133},{"user_id":71,"name":"dr. coom","steam_id":76561198172193711,"connected_time":3646000000000,"state":"active","ping":45},{"user_id":77,"name":"Spetse","steam_id":76561197990649972,"connected_time":3469000000000,"state":"active","ping":91},{"user_id":112,"name":"YO MAMA(CZ)","steam_id":76561198057308825,"connected_time":355000000000,"state":"active","ping":45},{"user_id":78,"name":"JOK'R","steam_id":76561198140741944,"connected_time":3331000000000,"state":"active","ping":145},{"user_id":96,"name":"xavier","steam_id":76561198076494034,"connected_time":2134000000000,"state":"active","ping":52},{"user_id":61,"name":"Toa LightMakuta","steam_id":76561198212178104,"connected_time":3952000000000,"state":"active","ping":77},{"user_id":79,"name":"Beans","steam_id":76561199277021796,"connected_time":3293000000000,"state":"active","ping":117},{"user_id":85,"name":"Setiago","steam_id":76561198060770498,"connected_time":2744000000000,"state":"active","ping":62},{"user_id":113,"name":"MR.CRAB","steam_id":76561198329833659,"connected_time":354000000000,"state":"active","ping":76},{"user_id":104,"name":"Avoonix","steam_id":76561198186954897,"connected_time":955000000000,"state":"active","ping":95},{"user_id":118,"name":"Fat Pigeon","steam_id":76561198817940142,"connected_time":199000000000,"state":"active","ping":46},{"user_id":116,"name":"Jonathan","steam_id":76561198087988880,"connected_time":287000000000,"state":"active","ping":56},{"user_id":108,"name":"Anri Okita's Massive Milkers","steam_id":76561199186352720,"connected_time":724000000000,"state":"active","ping":47},{"user_id":93,"name":"cinny","steam_id":76561198832112629,"connected_time":2226000000000,"state":"active","ping":80},{"user_id":94,"name":"Vershal Smershal","steam_id":76561198116223995,"connected_time":2168000000000,"state":"active","ping":60},{"user_id":100,"name":"alice","steam_id":76561198180361759,"connected_time":2086000000000,"state":"active","ping":45}]},{"server_id":300,"name":"Uncletopia | Montr√©al | 1 | All Maps","name_short":"mtl-1","host":"mtl-1.ca.uncletopia.com","port":27015,"enabled":true,"region":"us-east","cc":"ca","latitude":45.50889,"longitude":-73.56167,"reserved":0,"last_update":"0001-01-01T00:00:00Z","name_a2s":"Uncletopia | Montr√©al | 1 | All Maps","protocol":17,"map":"pl_upward","folder":"tf","game":"Team Fortress","app_id":440,"player_count":0,"max_players":24,"Bots":0,"server_type":"Dedicated","server_os":"Linux","password":true,"vac":true,"version":"7757534","steam_id":85568392924500087,"keywords":["nocrits","nodmgspread","payload","uncletopia"],"game_id":440,"stv_port":27016,"stv_name":"Uncletopia | Montr√©al | 1 | All Maps | STV","players":null},{"server_id":301,"name":"Uncletopia | Montr√©al | 2 | All Maps","name_short":"mtl-2","host":"mtl-1.ca.uncletopia.com","port":27025,"enabled":true,"region":"us-east","cc":"ca","latitude":45.50889,"longitude":-73.56167,"reserved":0,"last_update":"0001-01-01T00:00:00Z","name_a2s":"Uncletopia | Montr√©al | 2 | All Maps","protocol":17,"map":"pl_pier","folder":"tf","game":"Team Fortress","app_id":440,"player_count":0,"max_players":24,"Bots":0,"server_type":"Dedicated","server_os":"Linux","password":true,"vac":true,"version":"7757534","steam_id":85568392924500088,"keywords":["nocrits","nodmgspread","payload","uncletopia"],"game_id":440,"stv_port":27026,"stv_name":"Uncletopia | Montr√©al | 2 | All Maps | STV","players":null},{"server_id":302,"name":"Uncletopia | Montr√©al | 3 | All Maps","name_short":"mtl-3","host":"mtl-1.ca.uncletopia.com","port":27035,"enabled":true,"region":"us-east","cc":"ca","latitude":45.50889,"longitude":-73.56167,"reserved":0,"last_update":"0001-01-01T00:00:00Z","name_a2s":"Uncletopia | Montr√©al | 3 | All Maps","protocol":17,"map":"pl_upward","folder":"tf","game":"Team Fortress","app_id":440,"player_count":0,"max_players":24,"Bots":0,"server_type":"Dedicated","server_os":"Linux","password":true,"vac":true,"version":"7757534","steam_id":85568392924500089,"keywords":["nocrits","nodmgspread","payload","uncletopia"],"game_id":440,"stv_port":27036,"stv_name":"Uncletopia | Montr√©al | 3 | All Maps | STV","players":null},{"server_id":303,"name":"Uncletopia | Montr√©al | 4 | No Payload","name_short":"mtl-4","host":"mtl-1.ca.uncletopia.com","port":27045,"enabled":true,"region":"us-east","cc":"ca","latitude":45.50889,"longitude":-73.56167,"reserved":0,"last_update":"0001-01-01T00:00:00Z","name_a2s":"Uncletopia | Montr√©al | 4 | No Payload","protocol":17,"map":"cp_junction_final","folder":"tf","game":"Team Fortress","app_id":440,"player_count":0,"max_players":24,"Bots":0,"server_type":"Dedicated","server_os":"Linux","password":true,"vac":true,"version":"7757534","steam_id":85568392924500090,"keywords":["cp","nocrits","nodmgspread","uncletopia"],"game_id":440,"stv_port":27046,"stv_name":"Uncletopia | Montr√©al | 4 | No Payload | STV","players":null},{"server_id":13,"name":"Uncletopia | New York City | 1 | All Maps","name_short":"nyc-1","host":"nyc-1.us.uncletopia.com","port":27015,"enabled":true,"region":"us-east","cc":"us","latitude":40.73061,"longitude":-73.93524,"reserved":0,"last_update":"0001-01-01T00:00:00Z","name_a2s":"Uncletopia | New York City | 1 | All Maps","protocol":17,"map":"pl_pier","folder":"tf","game":"Team Fortress","app_id":440,"player_count":22,"max_players":24,"Bots":0,"server_type":"Dedicated","server_os":"Linux","password":true,"vac":true,"version":"7757534","steam_id":85568392924469993,"keywords":["nocrits","nodmgspread","payload","uncletopia"],"game_id":440,"stv_port":27016,"stv_name":"Uncletopia | New York City | 1 | All Maps | STV","players":[{"user_id":199,"name":"Hoofuyu","steam_id":76561199022142345,"connected_time":3571000000000,"state":"active","ping":86},{"user_id":226,"name":"Thermal Thruster Enjoyer","steam_id":76561199045511890,"connected_time":703000000000,"state":"active","ping":56},{"user_id":219,"name":"JacripspyVulcano","steam_id":76561198966980576,"connected_time":1413000000000,"state":"active","ping":40},{"user_id":239,"name":"Geloman","steam_id":76561198005501322,"connected_time":28000000000,"state":"active","ping":58},{"user_id":231,"name":"Zhenaj","steam_id":76561199209016136,"connected_time":600000000000,"state":"active","ping":63},{"user_id":240,"name":"45 Cent","steam_id":76561198048690188,"connected_time":27000000000,"state":"active","ping":47},{"user_id":241,"name":"cherryjasper","steam_id":76561198344151270,"connected_time":5000000000,"state":"spawning","ping":54},{"user_id":228,"name":"Microsoft Excel","steam_id":76561198036504161,"connected_time":674000000000,"state":"active","ping":129},{"user_id":237,"name":"FUSION","steam_id":76561197972659738,"connected_time":288000000000,"state":"active","ping":35},{"user_id":223,"name":"catboy phroliax","steam_id":76561198207075529,"connected_time":822000000000,"state":"active","ping":77},{"user_id":187,"name":"demoknight tf2","steam_id":76561198936412406,"connected_time":4933000000000,"state":"active","ping":84},{"user_id":190,"name":"Egpta","steam_id":76561198237840238,"connected_time":4607000000000,"state":"active","ping":54},{"user_id":211,"name":"nhbiker","steam_id":76561198081277675,"connected_time":2040000000000,"state":"active","ping":45},{"user_id":232,"name":"Manguy (F2P)","steam_id":76561199218194540,"connected_time":585000000000,"state":"active","ping":84},{"user_id":182,"name":"GummybearKillr","steam_id":76561198031235750,"connected_time":5177000000000,"state":"active","ping":57},{"user_id":220,"name":"Nice21","steam_id":76561199427548141,"connected_time":1149000000000,"state":"active","ping":73},{"user_id":202,"name":"TheGhostThatWas","steam_id":76561198055836483,"connected_time":3373000000000,"state":"active","ping":46},{"user_id":198,"name":"yeyoi","steam_id":76561198069821885,"connected_time":3861000000000,"state":"active","ping":76},{"user_id":162,"name":"I dont wipe","steam_id":76561198825563040,"connected_time":7427000000000,"state":"active","ping":115},{"user_id":218,"name":"The Dokkan Dance","steam_id":76561198855935442,"connected_time":1748000000000,"state":"active","ping":91},{"user_id":225,"name":"Chechens Spotted","steam_id":76561199028910893,"connected_time":781000000000,"state":"active","ping":74},{"user_id":238,"name":"nav","steam_id":76561198872608266,"connected_time":240000000000,"state":"active","ping":74}]},{"server_id":14,"name":"Uncletopia | New York City | 2 | All Maps","name_short":"nyc-2","host":"nyc-1.us.uncletopia.com","port":27025,"enabled":true,"region":"us-east","cc":"us","latitude":40.73061,"longitude":-73.93524,"reserved":0,"last_update":"0001-01-01T00:00:00Z","name_a2s":"Uncletopia | New York City | 2 | All Maps","protocol":17,"map":"pl_borneo","folder":"tf","game":"Team Fortress","app_id":440,"player_count":24,"max_players":24,"Bots":0,"server_type":"Dedicated","server_os":"Linux","password":true,"vac":true,"version":"7757534","steam_id":85568392924469994,"keywords":["nocrits","nodmgspread","payload","uncletopia"],"game_id":440,"stv_port":27026,"stv_name":"Uncletopia | New York City | 2 | All Maps | STV","players":[{"user_id":442,"name":"cellogamer","steam_id":76561198016937098,"connected_time":2353000000000,"state":"active","ping":53},{"user_id":430,"name":"Zaid","steam_id":76561199058810772,"connected_time":3157000000000,"state":"active","ping":55},{"user_id":477,"name":"IKEA CherryChair","steam_id":76561198185055443,"connected_time":165000000000,"state":"active","ping":81},{"user_id":473,"name":"Midlife Crisis Jotaro","steam_id":76561199023562280,"connected_time":328000000000,"state":"active","ping":56},{"user_id":467,"name":"Certified BigMan","steam_id":76561198095544632,"connected_time":490000000000,"state":"active","ping":45},{"user_id":468,"name":"Nesster","steam_id":76561198071688242,"connected_time":481000000000,"state":"active","ping":58},{"user_id":440,"name":"deskmedic","steam_id":76561198295640486,"connected_time":2395000000000,"state":"active","ping":111},{"user_id":446,"name":"fox","steam_id":76561198079646701,"connected_time":2275000000000,"state":"active","ping":125},{"user_id":469,"name":"ALLNIGHTRIOT","steam_id":76561198061667773,"connected_time":475000000000,"state":"active","ping":41},{"user_id":451,"name":"Makina","steam_id":76561198057475567,"connected_time":1874000000000,"state":"active","ping":94},{"user_id":470,"name":"Mr. Gainsalot","steam_id":76561198083851689,"connected_time":473000000000,"state":"active","ping":74},{"user_id":443,"name":"Only One Jhakobi","steam_id":76561197993641141,"connected_time":2331000000000,"state":"active","ping":85},{"user_id":471,"name":"horse","steam_id":76561197974493959,"connected_time":458000000000,"state":"active","ping":80},{"user_id":478,"name":"ObsessedNerd505","steam_id":76561199045531456,"connected_time":100000000000,"state":"active","ping":382},{"user_id":463,"name":"Heartgold","steam_id":76561199062592062,"connected_time":785000000000,"state":"active","ping":73},{"user_id":461,"name":"guyinatophat51","steam_id":76561198180230694,"connected_time":880000000000,"state":"active","ping":51},{"user_id":476,"name":"Mury","steam_id":76561198069743049,"connected_time":229000000000,"state":"active","ping":113},{"user_id":449,"name":"Pizza","steam_id":76561198118748364,"connected_time":2008000000000,"state":"active","ping":76},{"user_id":447,"name":"Mer Mer","steam_id":76561197967143665,"connected_time":2269000000000,"state":"active","ping":106},{"user_id":450,"name":"Romo","steam_id":76561198243101572,"connected_time":1998000000000,"state":"active","ping":93},{"user_id":429,"name":"apricity_a","steam_id":76561198202273263,"connected_time":3196000000000,"state":"active","ping":60},{"user_id":455,"name":"MILF Gaming","steam_id":76561198155378170,"connected_time":1466000000000,"state":"active","ping":43},{"user_id":475,"name":"IRON_LIZARD","steam_id":76561198015960205,"connected_time":296000000000,"state":"active","ping":70},{"user_id":413,"name":"gghfgfgfg","steam_id":76561198064823861,"connected_time":4316000000000,"state":"active","ping":60}]},{"server_id":15,"name":"Uncletopia | New York City | 3 | Stopwatch Beta","name_short":"nyc-3","host":"nyc-1.us.uncletopia.com","port":27035,"enabled":true,"region":"us-east","cc":"us","latitude":40.73061,"longitude":-73.93524,"reserved":0,"last_update":"0001-01-01T00:00:00Z","name_a2s":"Uncletopia | New York City | 3 | Stopwatch Beta","protocol":17,"map":"workshop/koth_ashville_final.ugc2130459942","folder":"tf","game":"Team Fortress","app_id":440,"player_count":0,"max_players":24,"Bots":0,"server_type":"Dedicated","server_os":"Linux","password":true,"vac":true,"version":"7757534","steam_id":85568392924742820,"keywords":["cp","nocrits","nodmgspread","uncletopia"],"game_id":440,"stv_port":27036,"stv_name":"Uncletopia | New York City | 3 | Stopwatch Beta | STV","players":null},{"server_id":16,"name":"Uncletopia | New York City | 4 | Community","name_short":"nyc-4","host":"nyc-1.us.uncletopia.com","port":27045,"enabled":true,"region":"us-east","cc":"us","latitude":40.73061,"longitude":-73.93524,"reserved":0,"last_update":"0001-01-01T00:00:00Z","name_a2s":"Uncletopia | New York City | 4 | Community","protocol":17,"map":"workshop/koth_kemptown_rc1.ugc767410655","folder":"tf","game":"Team Fortress","app_id":440,"player_count":0,"max_players":24,"Bots":0,"server_type":"Dedicated","server_os":"Linux","password":true,"vac":true,"version":"7757534","steam_id":85568392924742821,"keywords":["cp","nocrits","nodmgspread","uncletopia"],"game_id":440,"stv_port":27046,"stv_name":"Uncletopia | New York City | 4 | Community | STV","players":null},{"server_id":142,"name":"Uncletopia | S√£o Paulo | 1 | All Maps","name_short":"sao-1","host":"sao-1.br.uncletopia.com","port":27015,"enabled":true,"region":"sa","cc":"br","latitude":-23.533773,"longitude":-46.62529,"reserved":0,"last_update":"0001-01-01T00:00:00Z","name_a2s":"Uncletopia | S√£o Paulo | 1 | All Maps","protocol":17,"map":"pl_borneo","folder":"tf","game":"Team Fortress","app_id":440,"player_count":9,"max_players":24,"Bots":0,"server_type":"Dedicated","server_os":"Linux","password":true,"vac":true,"version":"7757534","steam_id":85568392924469996,"keywords":["nocrits","nodmgspread","payload","uncletopia"],"game_id":440,"stv_port":27016,"stv_name":"Uncletopia | S√£o Paulo | 1 | All Maps | STV","players":[{"user_id":54,"name":"erica","steam_id":76561198331158577,"connected_time":770000000000,"state":"active","ping":58},{"user_id":57,"name":"‡πá‡πá‡πá‡πá‡πá‡πá‡πá‡πá‡πá‡πá","steam_id":76561198444488420,"connected_time":219000000000,"state":"active","ping":52},{"user_id":55,"name":"Jh0n","steam_id":76561198059013774,"connected_time":458000000000,"state":"active","ping":116},{"user_id":31,"name":"Entsu_","steam_id":76561199011635370,"connected_time":3976000000000,"state":"active","ping":91},{"user_id":53,"name":"Copmmer","steam_id":76561199080964271,"connected_time":856000000000,"state":"active","ping":51},{"user_id":47,"name":"Tanajura","steam_id":76561198836327108,"connected_time":2058000000000,"state":"active","ping":88},{"user_id":39,"name":"Darkvd1","steam_id":76561198021572880,"connected_time":3066000000000,"state":"active","ping":41},{"user_id":56,"name":"Pills Nub","steam_id":76561198965538287,"connected_time":383000000000,"state":"active","ping":49},{"user_id":58,"name":"kate ‚ùÄ","steam_id":76561198805567120,"connected_time":192000000000,"state":"active","ping":241}]},{"server_id":143,"name":"Uncletopia | S√£o Paulo | 2 | All Maps","name_short":"sao-2","host":"sao-2.br.uncletopia.com","port":27015,"enabled":true,"region":"sa","cc":"br","latitude":-23.533773,"longitude":-46.62529,"reserved":0,"last_update":"0001-01-01T00:00:00Z","name_a2s":"Uncletopia | S√£o Paulo | 2 | All Maps","protocol":17,"map":"pl_upward","folder":"tf","game":"Team Fortress","app_id":440,"player_count":2,"max_players":24,"Bots":0,"server_type":"Dedicated","server_os":"Linux","password":true,"vac":true,"version":"7757534","steam_id":85568392924485349,"keywords":["nocrits","nodmgspread","payload","uncletopia"],"game_id":440,"stv_port":27016,"stv_name":"Uncletopia | S√£o Paulo | 2 | All Maps | STV","players":[{"user_id":9,"name":"Moai","steam_id":76561198388449229,"connected_time":143000000000,"state":"active","ping":162},{"user_id":10,"name":"atlas","steam_id":76561199468415767,"connected_time":19000000000,"state":"spawning","ping":108}]},{"server_id":7,"name":"Uncletopia | Seattle | 1 | All Maps","name_short":"sea-1","host":"sea-1.us.uncletopia.com","port":27015,"enabled":true,"region":"us-west","cc":"us","latitude":47.608013,"longitude":-122.33517,"reserved":0,"last_update":"0001-01-01T00:00:00Z","name_a2s":"Uncletopia | Seattle | 1 | All Maps","protocol":17,"map":"pl_snowycoast","folder":"tf","game":"Team Fortress","app_id":440,"player_count":16,"max_players":24,"Bots":0,"server_type":"Dedicated","server_os":"Linux","password":true,"vac":true,"version":"7757534","steam_id":85568392924469997,"keywords":["nocrits","nodmgspread","payload","uncletopia"],"game_id":440,"stv_port":27016,"stv_name":"Uncletopia | Seattle | 1 | All Maps | STV","players":[{"user_id":341,"name":"EEBIGAA","steam_id":76561198056535988,"connected_time":2833000000000,"state":"spawning","ping":65},{"user_id":322,"name":"ejschild745","steam_id":76561199013388867,"connected_time":4236000000000,"state":"spawning","ping":63},{"user_id":370,"name":"[BBC] myr","steam_id":76561198200786939,"connected_time":31000000000,"state":"connecting","ping":41},{"user_id":339,"name":"we300men","steam_id":76561198060549722,"connected_time":2956000000000,"state":"spawning","ping":68},{"user_id":331,"name":"nh67","steam_id":76561198452232778,"connected_time":3721000000000,"state":"spawning","ping":53},{"user_id":332,"name":"CheeseRocket3658","steam_id":76561198126390613,"connected_time":3699000000000,"state":"spawning","ping":137},{"user_id":351,"name":"exephur","steam_id":76561198135763234,"connected_time":2280000000000,"state":"spawning","ping":75},{"user_id":359,"name":"jayeskae","steam_id":76561198144220801,"connected_time":1538000000000,"state":"spawning","ping":48},{"user_id":312,"name":"Optimore","steam_id":76561198047662990,"connected_time":4663000000000,"state":"spawning","ping":77},{"user_id":371,"name":"Milica Jovanoviƒá","steam_id":76561198143152657,"connected_time":29000000000,"state":"spawning","ping":101},{"user_id":269,"name":"Username","steam_id":76561198855586261,"connected_time":7173000000000,"state":"spawning","ping":67},{"user_id":357,"name":"Xbox Live 30-Day Free Trial","steam_id":76561199231369792,"connected_time":1633000000000,"state":"spawning","ping":112},{"user_id":368,"name":"bbbbb","steam_id":76561198095480838,"connected_time":351000000000,"state":"spawning","ping":51},{"user_id":328,"name":"Mignyanne :3","steam_id":76561198048754056,"connected_time":3939000000000,"state":"spawning","ping":56},{"user_id":369,"name":"purple‚Ñ¢","steam_id":76561198057459725,"connected_time":203000000000,"state":"spawning","ping":225},{"user_id":367,"name":"GoneFunny","steam_id":76561199469893606,"connected_time":525000000000,"state":"spawning","ping":98}]},{"server_id":119,"name":"Uncletopia | Seattle | 2 | All Maps","name_short":"sea-2","host":"sea-1.us.uncletopia.com","port":27025,"enabled":true,"region":"us-west","cc":"us","latitude":47.608013,"longitude":-122.33517,"reserved":0,"last_update":"0001-01-01T00:00:00Z","name_a2s":"Uncletopia | Seattle | 2 | All Maps","protocol":17,"map":"pl_frontier_final","folder":"tf","game":"Team Fortress","app_id":440,"player_count":23,"max_players":24,"Bots":0,"server_type":"Dedicated","server_os":"Linux","password":true,"vac":true,"version":"7757534","steam_id":85568392924469998,"keywords":["nocrits","nodmgspread","payload","uncletopia"],"game_id":440,"stv_port":27026,"stv_name":"Uncletopia | Seattle | 2 | All Maps | STV","players":[{"user_id":258,"name":"god approaches","steam_id":76561198081617990,"connected_time":590000000000,"state":"active","ping":117},{"user_id":181,"name":"MisterManne","steam_id":76561198106598600,"connected_time":6695000000000,"state":"active","ping":56},{"user_id":264,"name":"Kir","steam_id":76561198057745344,"connected_time":214000000000,"state":"active","ping":123},{"user_id":257,"name":"dont test me i didnt study","steam_id":76561198069199626,"connected_time":694000000000,"state":"active","ping":48},{"user_id":259,"name":"viciousbeatmaker","steam_id":76561198086876652,"connected_time":578000000000,"state":"active","ping":76},{"user_id":236,"name":"SaltyFlump","steam_id":76561199379601288,"connected_time":2749000000000,"state":"active","ping":64},{"user_id":233,"name":"magic","steam_id":76561198031957385,"connected_time":3243000000000,"state":"active","ping":67},{"user_id":260,"name":"MatchMatch","steam_id":76561198048925904,"connected_time":543000000000,"state":"active","ping":88},{"user_id":244,"name":"PageBoiSkull","steam_id":76561198237353578,"connected_time":2067000000000,"state":"active","ping":79},{"user_id":249,"name":"Saddam","steam_id":76561197985725267,"connected_time":1314000000000,"state":"active","ping":66},{"user_id":263,"name":"The local hobo","steam_id":76561198289650060,"connected_time":394000000000,"state":"active","ping":76},{"user_id":240,"name":"merkure","steam_id":76561198213385439,"connected_time":2092000000000,"state":"active","ping":72},{"user_id":199,"name":"Licensed Rizzicist","steam_id":76561199019693549,"connected_time":5987000000000,"state":"active","ping":56},{"user_id":235,"name":"ZAZA Enjoyer","steam_id":76561198094426099,"connected_time":2838000000000,"state":"active","ping":81},{"user_id":237,"name":"BER","steam_id":76561198187124250,"connected_time":2566000000000,"state":"active","ping":73},{"user_id":247,"name":"Dimmerswitch","steam_id":76561198034782177,"connected_time":1964000000000,"state":"active","ping":60},{"user_id":265,"name":"SolarusD","steam_id":76561198029279861,"connected_time":213000000000,"state":"active","ping":62},{"user_id":261,"name":"the Good Guy","steam_id":76561198416759211,"connected_time":533000000000,"state":"active","ping":145},{"user_id":222,"name":"Marcy\u003c3","steam_id":76561199132170268,"connected_time":3932000000000,"state":"active","ping":62},{"user_id":224,"name":"liftin'","steam_id":76561199089515791,"connected_time":3876000000000,"state":"active","ping":76},{"user_id":262,"name":"Su1tCas3","steam_id":76561198035989471,"connected_time":458000000000,"state":"active","ping":47},{"user_id":251,"name":"Vv","steam_id":76561199052196750,"connected_time":1210000000000,"state":"active","ping":106},{"user_id":197,"name":"Lesbian Futa Mommy","steam_id":76561198130479030,"connected_time":6102000000000,"state":"active","ping":57}]},{"server_id":406,"name":"Uncletopia | Seattle | 3 | Stopwatch Beta","name_short":"sea-3","host":"sea-1.us.uncletopia.com","port":27035,"enabled":true,"region":"us-west","cc":"us","latitude":47.608013,"longitude":-122.33517,"reserved":0,"last_update":"0001-01-01T00:00:00Z","name_a2s":"Uncletopia | Seattle | 3 | Stopwatch Beta","protocol":17,"map":"workshop/koth_ramjam_rc1.ugc459778887","folder":"tf","game":"Team Fortress","app_id":440,"player_count":1,"max_players":24,"Bots":0,"server_type":"Dedicated","server_os":"Linux","password":true,"vac":true,"version":"7757534","steam_id":85568392924515217,"keywords":["cp","nocrits","nodmgspread","uncletopia"],"game_id":440,"stv_port":27036,"stv_name":"Uncletopia | Seattle | 3 | Stopwatch Beta | STV","players":[{"user_id":11,"name":"Demoknight tf2","steam_id":76561199204703092,"connected_time":50000000000,"state":"active","ping":33}]},{"server_id":17,"name":"Uncletopia | San Francisco | 1 | All Maps","name_short":"sfo-1","host":"sfo-1.us.uncletopia.com","port":27015,"enabled":true,"region":"us-west","cc":"us","latitude":37.77397,"longitude":-122.4313,"reserved":0,"last_update":"0001-01-01T00:00:00Z","name_a2s":"Uncletopia | San Francisco | 1 | All Maps","protocol":17,"map":"pl_upward","folder":"tf","game":"Team Fortress","app_id":440,"player_count":23,"max_players":24,"Bots":0,"server_type":"Dedicated","server_os":"Linux","password":true,"vac":true,"version":"7757534","steam_id":85568392924469999,"keywords":["nocrits","nodmgspread","payload","uncletopia"],"game_id":440,"stv_port":27016,"stv_name":"Uncletopia | San Francisco | 1 | All Maps | STV","players":[{"user_id":352,"name":"DotA Psychologist","steam_id":76561198052171640,"connected_time":1047000000000,"state":"active","ping":74},{"user_id":350,"name":"bottom pride burger","steam_id":76561198322247602,"connected_time":1068000000000,"state":"active","ping":56},{"user_id":356,"name":"Aux","steam_id":76561199091651065,"connected_time":934000000000,"state":"active","ping":49},{"user_id":281,"name":"Tricky","steam_id":76561198287908105,"connected_time":5365000000000,"state":"active","ping":69},{"user_id":330,"name":"takeshi_","steam_id":76561198148797456,"connected_time":2873000000000,"state":"active","ping":48},{"user_id":355,"name":"coobs","steam_id":76561198118591226,"connected_time":998000000000,"state":"active","ping":45},{"user_id":339,"name":"JawnyMac","steam_id":76561198179529599,"connected_time":1877000000000,"state":"active","ping":52},{"user_id":335,"name":"urdead","steam_id":76561198309760791,"connected_time":2612000000000,"state":"active","ping":111},{"user_id":360,"name":"Wingman","steam_id":76561198066270405,"connected_time":411000000000,"state":"active","ping":36},{"user_id":331,"name":"Bad Namesman","steam_id":76561198027205470,"connected_time":2870000000000,"state":"active","ping":72},{"user_id":326,"name":"‚ùÑ Alice ‚ô•","steam_id":76561198869945051,"connected_time":2939000000000,"state":"active","ping":107},{"user_id":345,"name":"GLXy","steam_id":76561198207551544,"connected_time":1305000000000,"state":"active","ping":91},{"user_id":344,"name":"Interrobang","steam_id":76561198385044529,"connected_time":1536000000000,"state":"active","ping":102},{"user_id":321,"name":"propeller rat","steam_id":76561198339195930,"connected_time":3373000000000,"state":"active","ping":53},{"user_id":286,"name":"b3afy","steam_id":76561198084208649,"connected_time":5191000000000,"state":"active","ping":66},{"user_id":359,"name":"Sped","steam_id":76561198310689948,"connected_time":601000000000,"state":"active","ping":113},{"user_id":328,"name":"sockgobblin","steam_id":76561198853494675,"connected_time":2901000000000,"state":"active","ping":64},{"user_id":346,"name":"Sailor","steam_id":76561199081983517,"connected_time":1253000000000,"state":"active","ping":91},{"user_id":351,"name":"Tort boi","steam_id":76561198125327110,"connected_time":1061000000000,"state":"active","ping":77},{"user_id":334,"name":"perc 10","steam_id":76561198116471653,"connected_time":2822000000000,"state":"active","ping":77},{"user_id":241,"name":"Aryze #SaveTF2","steam_id":76561198119561581,"connected_time":8593000000000,"state":"active","ping":37},{"user_id":343,"name":"azureglxy","steam_id":76561198861388315,"connected_time":1599000000000,"state":"active","ping":48},{"user_id":349,"name":"potatofox98","steam_id":76561198083721201,"connected_time":1130000000000,"state":"active","ping":53}]},{"server_id":18,"name":"Uncletopia | San Francisco | 2 | All Maps","name_short":"sfo-2","host":"sfo-1.us.uncletopia.com","port":27025,"enabled":true,"region":"us-west","cc":"us","latitude":37.77397,"longitude":-122.4313,"reserved":0,"last_update":"0001-01-01T00:00:00Z","name_a2s":"Uncletopia | San Francisco | 2 | All Maps","protocol":17,"map":"koth_highpass","folder":"tf","game":"Team Fortress","app_id":440,"player_count":0,"max_players":24,"Bots":0,"server_type":"Dedicated","server_os":"Linux","password":true,"vac":true,"version":"7757534","steam_id":85568392924470000,"keywords":["cp","nocrits","nodmgspread","uncletopia"],"game_id":440,"stv_port":27026,"stv_name":"Uncletopia | San Francisco | 2 | All Maps | STV","players":null},{"server_id":19,"name":"Uncletopia | San Francisco | 3 | Stopwatch Beta","name_short":"sfo-3","host":"sfo-1.us.uncletopia.com","port":27035,"enabled":true,"region":"us-west","cc":"us","latitude":37.77397,"longitude":-122.4313,"reserved":0,"last_update":"0001-01-01T00:00:00Z","name_a2s":"Uncletopia | San Francisco | 3 | Stopwatch Beta","protocol":17,"map":"koth_lakeside_final","folder":"tf","game":"Team Fortress","app_id":440,"player_count":0,"max_players":24,"Bots":0,"server_type":"Dedicated","server_os":"Linux","password":true,"vac":true,"version":"7757534","steam_id":85568392924742824,"keywords":["cp","nocrits","nodmgspread","uncletopia"],"game_id":440,"stv_port":27036,"stv_name":"Uncletopia | San Francisco | 3 | Stopwatch Beta | STV","players":null},{"server_id":20,"name":"Uncletopia | San Francisco | 4 | Community","name_short":"sfo-4","host":"sfo-1.us.uncletopia.com","port":27045,"enabled":true,"region":"us-west","cc":"us","latitude":37.77397,"longitude":-122.4313,"reserved":0,"last_update":"0001-01-01T00:00:00Z","name_a2s":"Uncletopia | San Francisco | 4 | Community","protocol":17,"map":"workshop/cp_mannbase_rc2a.ugc1900737467","folder":"tf","game":"Team Fortress","app_id":440,"player_count":0,"max_players":24,"Bots":0,"server_type":"Dedicated","server_os":"Linux","password":true,"vac":true,"version":"7757534","steam_id":85568392924742826,"keywords":["cp","nocrits","nodmgspread","uncletopia"],"game_id":440,"stv_port":27046,"stv_name":"Uncletopia | San Francisco | 4 | Community | STV","players":null},{"server_id":141,"name":"Uncletopia | Sydney | 1 | All Maps","name_short":"syd-1","host":"syd-1.au.uncletopia.com","port":27015,"enabled":true,"region":"au","cc":"au","latitude":-33.865143,"longitude":151.2099,"reserved":0,"last_update":"0001-01-01T00:00:00Z","name_a2s":"Uncletopia | Sydney | 1 | All Maps","protocol":17,"map":"koth_viaduct","folder":"tf","game":"Team Fortress","app_id":440,"player_count":0,"max_players":24,"Bots":0,"server_type":"Dedicated","server_os":"Linux","password":true,"vac":true,"version":"7757534","steam_id":85568392924470001,"keywords":["cp","nocrits","nodmgspread","uncletopia"],"game_id":440,"stv_port":27016,"stv_name":"Uncletopia | Sydney | 1 | All Maps | STV","players":null},{"server_id":123,"name":"Uncletopia | Sydney | 2 | All Maps","name_short":"syd-2","host":"syd-1.au.uncletopia.com","port":27025,"enabled":true,"region":"au","cc":"au","latitude":-33.865143,"longitude":151.2099,"reserved":0,"last_update":"0001-01-01T00:00:00Z","name_a2s":"Uncletopia | Sydney | 2 | All Maps","protocol":17,"map":"cp_process_final","folder":"tf","game":"Team Fortress","app_id":440,"player_count":0,"max_players":24,"Bots":0,"server_type":"Dedicated","server_os":"Linux","password":true,"vac":true,"version":"7757534","steam_id":85568392924470002,"keywords":["cp","nocrits","nodmgspread","uncletopia"],"game_id":440,"stv_port":27026,"stv_name":"Uncletopia | Sydney | 2 | All Maps | STV","players":null},{"server_id":395,"name":"Uncletopia | Sydney | 3 | All Maps","name_short":"syd-3","host":"syd-1.au.uncletopia.com","port":27035,"enabled":true,"region":"au","cc":"au","latitude":-33.865143,"longitude":151.2099,"reserved":0,"last_update":"0001-01-01T00:00:00Z","name_a2s":"Uncletopia | Sydney | 3 | All Maps","protocol":17,"map":"pl_swiftwater_final1","folder":"tf","game":"Team Fortress","app_id":440,"player_count":0,"max_players":24,"Bots":0,"server_type":"Dedicated","server_os":"Linux","password":true,"vac":true,"version":"7757534","steam_id":85568392925194467,"keywords":["nocrits","nodmgspread","payload","uncletopia"],"game_id":440,"stv_port":27036,"stv_name":"Uncletopia | Sydney | 3 | All Maps | STV","players":null},{"server_id":396,"name":"Uncletopia | Sydney | 4 | All Maps","name_short":"syd-4","host":"syd-1.au.uncletopia.com","port":27045,"enabled":true,"region":"au","cc":"au","latitude":-33.865143,"longitude":151.2099,"reserved":0,"last_update":"0001-01-01T00:00:00Z","name_a2s":"Uncletopia | Sydney | 4 | All Maps","protocol":17,"map":"koth_highpass","folder":"tf","game":"Team Fortress","app_id":440,"player_count":0,"max_players":24,"Bots":0,"server_type":"Dedicated","server_os":"Linux","password":true,"vac":true,"version":"7757534","steam_id":85568392925397958,"keywords":["cp","nocrits","nodmgspread","uncletopia"],"game_id":440,"stv_port":27046,"stv_name":"Uncletopia | Sydney | 4 | All Maps | STV","players":null},{"server_id":58,"name":"Uncletopia | Sydney | 5 | Stopwatch Beta","name_short":"syd-5","host":"syd-1.au.uncletopia.com","port":27055,"enabled":true,"region":"au","cc":"au","latitude":-33.865143,"longitude":151.2099,"reserved":0,"last_update":"0001-01-01T00:00:00Z","name_a2s":"Uncletopia | Sydney | 5 | Stopwatch Beta","protocol":17,"map":"koth_cascade","folder":"tf","game":"Team Fortress","app_id":440,"player_count":0,"max_players":24,"Bots":0,"server_type":"Dedicated","server_os":"Linux","password":true,"vac":true,"version":"7757534","steam_id":85568392925397959,"keywords":["cp","nocrits","nodmgspread","uncletopia"],"game_id":440,"stv_port":27056,"stv_name":"Uncletopia | Sydney | 5 | Stopwatch Beta | STV","players":null},{"server_id":59,"name":"Uncletopia | Sydney | 6 | Community","name_short":"syd-6","host":"syd-1.au.uncletopia.com","port":27065,"enabled":true,"region":"au","cc":"au","latitude":-33.865143,"longitude":151.2099,"reserved":0,"last_update":"0001-01-01T00:00:00Z","name_a2s":"Uncletopia | Sydney | 6 | Community","protocol":17,"map":"cp_snakewater_final1","folder":"tf","game":"Team Fortress","app_id":440,"player_count":0,"max_players":24,"Bots":0,"server_type":"Dedicated","server_os":"Linux","password":true,"vac":true,"version":"7757534","steam_id":85568392925397960,"keywords":["cp","nocrits","nodmgspread","uncletopia"],"game_id":440,"stv_port":27066,"stv_name":"Uncletopia | Sydney | 6 | Community | STV","players":null},{"server_id":49,"name":"Uncletopia | Warsaw | 1 | All Maps","name_short":"waw-1","host":"waw-1.pl.uncletopia.com","port":27015,"enabled":true,"region":"eu","cc":"pl","latitude":52.2297,"longitude":21.017532,"reserved":0,"last_update":"0001-01-01T00:00:00Z","name_a2s":"","protocol":0,"map":"","folder":"","game":"","app_id":0,"player_count":0,"max_players":0,"Bots":0,"server_type":"","server_os":"","password":false,"vac":false,"version":"","steam_id":0,"keywords":null,"game_id":0,"stv_port":0,"stv_name":"","players":null},{"server_id":50,"name":"Uncletopia | Warsaw | 2 | All Maps","name_short":"waw-2","host":"waw-1.pl.uncletopia.com","port":27025,"enabled":true,"region":"eu","cc":"pl","latitude":52.2297,"longitude":21.017532,"reserved":0,"last_update":"0001-01-01T00:00:00Z","name_a2s":"Uncletopia | Warsaw | 2 | All Maps","protocol":17,"map":"koth_viaduct","folder":"tf","game":"Team Fortress","app_id":440,"player_count":0,"max_players":24,"Bots":0,"server_type":"Dedicated","server_os":"Linux","password":true,"vac":true,"version":"7757534","steam_id":85568392925397851,"keywords":["cp","nocrits","nodmgspread","uncletopia"],"game_id":440,"stv_port":27026,"stv_name":"Uncletopia | Warsaw | 2 | All Maps | STV","players":null},{"server_id":51,"name":"Uncletopia | Warsaw | 3 | All Maps","name_short":"waw-3","host":"waw-1.pl.uncletopia.com","port":27035,"enabled":true,"region":"eu","cc":"pl","latitude":52.2297,"longitude":21.017532,"reserved":0,"last_update":"0001-01-01T00:00:00Z","name_a2s":"Uncletopia | Warsaw | 3 | All Maps","protocol":17,"map":"koth_viaduct","folder":"tf","game":"Team Fortress","app_id":440,"player_count":0,"max_players":24,"Bots":0,"server_type":"Dedicated","server_os":"Linux","password":true,"vac":true,"version":"7757534","steam_id":85568392925397852,"keywords":["cp","nocrits","nodmgspread","uncletopia"],"game_id":440,"stv_port":27036,"stv_name":"Uncletopia | Warsaw | 3 | All Maps | STV","players":null},{"server_id":52,"name":"Uncletopia | Warsaw | 4 | All Maps","name_short":"waw-4","host":"waw-1.pl.uncletopia.com","port":27045,"enabled":true,"region":"eu","cc":"pl","latitude":52.2297,"longitude":21.017532,"reserved":0,"last_update":"0001-01-01T00:00:00Z","name_a2s":"Uncletopia | Warsaw | 4 | All Maps","protocol":17,"map":"koth_lakeside_final","folder":"tf","game":"Team Fortress","app_id":440,"player_count":0,"max_players":24,"Bots":0,"server_type":"Dedicated","server_os":"Linux","password":true,"vac":true,"version":"7757534","steam_id":85568392925397853,"keywords":["cp","nocrits","nodmgspread","uncletopia"],"game_id":440,"stv_port":27046,"stv_name":"Uncletopia | Warsaw | 4 | All Maps | STV","players":null},{"server_id":53,"name":"Uncletopia | Warsaw | 5 | Stopwatch Beta","name_short":"waw-5","host":"waw-1.pl.uncletopia.com","port":27055,"enabled":true,"region":"eu","cc":"pl","latitude":52.2297,"longitude":21.017532,"reserved":0,"last_update":"0001-01-01T00:00:00Z","name_a2s":"Uncletopia | Warsaw | 5 | Stopwatch Beta","protocol":17,"map":"pl_borneo","folder":"tf","game":"Team Fortress","app_id":440,"player_count":0,"max_players":24,"Bots":0,"server_type":"Dedicated","server_os":"Linux","password":true,"vac":true,"version":"7757534","steam_id":85568392925397854,"keywords":["nocrits","nodmgspread","payload","uncletopia"],"game_id":440,"stv_port":27056,"stv_name":"Uncletopia | Warsaw | 5 | Stopwatch Beta | STV","players":null},{"server_id":54,"name":"Uncletopia | Warsaw | 6 | Community","name_short":"waw-6","host":"waw-1.pl.uncletopia.com","port":27065,"enabled":true,"region":"eu","cc":"pl","latitude":52.2297,"longitude":21.017532,"reserved":0,"last_update":"0001-01-01T00:00:00Z","name_a2s":"Uncletopia | Warsaw | 6 | Community","protocol":17,"map":"koth_lakeside_final","folder":"tf","game":"Team Fortress","app_id":440,"player_count":0,"max_players":24,"Bots":0,"server_type":"Dedicated","server_os":"Linux","password":true,"vac":true,"version":"7757534","steam_id":85568392925397856,"keywords":["cp","nocrits","nodmgspread","uncletopia"],"game_id":440,"stv_port":27066,"stv_name":"Uncletopia | Warsaw | 6 | Community | STV","players":null}]}