{"status":true,"message":"","result":[{"server_id":9,"name":"Uncletopia | Atlanta | 1 | All Maps","name_short":"atl-1","host":"atl-1.us.uncletopia.com","port":27015,"enabled":true,"region":"us-east","cc":"us","latitude":33.753746,"longitude":-84.38633,"reserved":0,"last_update":"0001-01-01T00:00:00Z","name_a2s":"Uncletopia | Atlanta | 1 | All Maps","protocol":17,"map":"cp_steel","folder":"tf","game":"Team Fortress","app_id":440,"player_count":16,"max_players":24,"Bots":0,"server_type":"Dedicated","server_os":"Linux","password":true,"vac":true,"version":"7757534","steam_id":85568392924469982,"keywords":["cp","nocrits","nodmgspread","uncletopia"],"game_id":440,"stv_port":27016,"stv_name":"Uncletopia | Atlanta | 1 | All Maps | STV","players":[{"user_id":387,"name":"{[F.H]} Hydroida","steam_id":76561197999797274,"connected_time":8243000000000,"state":"active","ping":73},{"user_id":492,"name":"redalpha00","steam_id":76561198054197545,"connected_time":419000000000,"state":"active","ping":72},{"user_id":478,"name":"⭐⊰HelpThem⊱⭐","steam_id":76561198137916759,"connected_time":972000000000,"state":"active","ping":72},{"user_id":441,"name":"lker","steam_id":76561197976975075,"connected_time":4297000000000,"state":"active","ping":42},{"user_id":499,"name":"the sad meme man","steam_id":76561199323444721,"connected_time":91000000000,"state":"active","ping":75},{"user_id":493,"name":"PP Man","steam_id":76561198133473131,"connected_time":361000000000,"state":"active","ping":76},{"user_id":495,"name":"Kite","steam_id":76561199060915563,"connected_time":257000000000,"state":"active","ping":66},{"user_id":491,"name":"Lauran","steam_id":76561198980838799,"connected_time":624000000000,"state":"active","ping":102},{"user_id":462,"name":"garfield","steam_id":76561199082902507,"connected_time":2323000000000,"state":"active","ping":53},{"user_id":477,"name":"Gableckle","steam_id":76561198060093327,"connected_time":1032000000000,"state":"active","ping":75},{"user_id":469,"name":"parque","steam_id":76561198088325483,"connected_time":1847000000000,"state":"active","ping":90},{"user_id":496,"name":"FreonAddict9x19","steam_id":76561198060010824,"connected_time":243000000000,"state":"active","ping":70},{"user_id":481,"name":"Futa Lover","steam_id":76561198056775795,"connected_time":916000000000,"state":"active","ping":49},{"user_id":476,"name":"Soup Dumpling","steam_id":76561197971352904,"connected_time":1534000000000,"state":"active","ping":54},{"user_id":474,"name":"hamal cine","steam_id":76561198079619374,"connected_time":1588000000000,"state":"active","ping":61},{"user_id":454,"name":"trans rights","steam_id":76561198044183038,"connected_time":3436000000000,"state":"active","ping":43}]},{"server_id":400,"name":"Uncletopia | Atlanta | 3 | Stopwatch Beta","name_short":"atl-3","host":"atl-1.us.uncletopia.com","port":27035,"enabled":true,"region":"us-east","cc":"us","latitude":33.753746,"longitude":-84.38633,"reserved":0,"last_update":"0001-01-01T00:00:00Z","name_a2s":"Uncletopia | Atlanta | 3 | Stopwatch Beta","protocol":17,"map":"workshop/pl_badwater_pro_v12.ugc2142942074","folder":"tf","game":"Team Fortress","app_id":440,"player_count":0,"max_players":24,"Bots":0,"server_type":"Dedicated","server_os":"Linux","password":true,"vac":true,"version":"7757534","steam_id":85568392924515187,"keywords":["nocrits","nodmgspread","payload","uncletopia"],"game_id":440,"stv_port":27036,"stv_name":"Uncletopia | Atlanta | 3 | Stopwatch Beta | STV","players":null},{"server_id":401,"name":"Uncletopia | Atlanta | 4 | No Payload","name_short":"atl-4","host":"atl-1.us.uncletopia.com","port":27045,"enabled":true,"region":"us-east","cc":"us","latitude":33.753746,"longitude":-84.38633,"reserved":0,"last_update":"0001-01-01T00:00:00Z","name_a2s":"Uncletopia | Atlanta | 4 | No Payload","protocol":17,"map":"pl_pier","folder":"tf","game":"Team Fortress","app_id":440,"player_count":0,"max_players":24,"Bots":0,"server_type":"Dedicated","server_os":"Linux","password":true,"vac":true,"version":"7723704","steam_id":85568392924515188,"keywords":["nocrits","nodmgspread","payload","uncletopia"],"game_id":440,"stv_port":27046,"stv_name":"Uncletopia | Atlanta | 4 | No Payload | STV","players":null},{"server_id":2,"name":"Uncletopia | Chicago | 1 | All Maps","name_short":"chi-1","host":"chi-1.us.uncletopia.com","port":27015,"enabled":true,"region":"us-central","cc":"us","latitude":41.881832,"longitude":-87.62318,"reserved":0,"last_update":"0001-01-01T00:00:00Z","name_a2s":"Uncletopia | Chicago | 1 | All Maps","protocol":17,"map":"pl_swiftwater_final1","folder":"tf","game":"Team Fortress","app_id":440,"player_count":24,"max_players":24,"Bots":0,"server_type":"Dedicated","server_os":"Linux","password":true,"vac":true,"version":"7757534","steam_id":85568392924469984,"keywords":["nocrits","nodmgspread","payload","uncletopia"],"game_id":440,"stv_port":27016,"stv_name":"Uncletopia | Chicago | 1 | All Maps | STV","players":[{"user_id":619,"name":"Saikyo","steam_id":76561198212461467,"connected_time":1698000000000,"state":"active","ping":73},{"user_id":634,"name":"Yeshie the Dragon Layer","steam_id":76561198080214214,"connected_time":95000000000,"state":"active","ping":34},{"user_id":601,"name":"Ye ( I Love Caulk ) West","steam_id":76561198068830312,"connected_time":3919000000000,"state":"active","ping":48},{"user_id":569,"name":"Lore","steam_id":76561198098407538,"connected_time":6012000000000,"state":"active","ping":50},{"user_id":622,"name":"ARKTrooper2025","steam_id":76561198415535146,"connected_time":1570000000000,"state":"active","ping":65},{"user_id":617,"name":"mac_cheese","steam_id":76561198071334162,"connected_time":1888000000000,"state":"active","ping":92},{"user_id":618,"name":"Father Jon","steam_id":76561198324730919,"connected_time":1822000000000,"state":"active","ping":92},{"user_id":627,"name":"Rudy","steam_id":76561198013456828,"connected_time":619000000000,"state":"active","ping":58},{"user_id":595,"name":"RED1 | nomad","steam_id":76561197998740399,"connected_time":4155000000000,"state":"active","ping":66},{"user_id":628,"name":"Jasmine Rice","steam_id":76561198163163590,"connected_time":617000000000,"state":"active","ping":76},{"user_id":621,"name":"Phillip Jeffries","steam_id":76561198064052174,"connected_time":1613000000000,"state":"active","ping":64},{"user_id":625,"name":"Gredc100","steam_id":76561198398494357,"connected_time":658000000000,"state":"active","ping":77},{"user_id":602,"name":"RED1 | eish","steam_id":76561198089463603,"connected_time":3033000000000,"state":"active","ping":132},{"user_id":632,"name":"Shmoopy","steam_id":76561198030459152,"connected_time":366000000000,"state":"active","ping":76},{"user_id":590,"name":"NOLSEY","steam_id":76561198108959504,"connected_time":4283000000000,"state":"active","ping":58},{"user_id":633,"name":"NovaSc6ut","steam_id":76561198277163301,"connected_time":355000000000,"state":"active","ping":66},{"user_id":566,"name":"debin","steam_id":76561198070711217,"connected_time":6040000000000,"state":"active","ping":56},{"user_id":623,"name":"Yarn","steam_id":76561199227148369,"connected_time":921000000000,"state":"active","ping":99},{"user_id":630,"name":"Not Slavoj Žižek","steam_id":76561198004619616,"connected_time":559000000000,"state":"active","ping":123},{"user_id":613,"name":"Just Chuck","steam_id":76561198121697504,"connected_time":1971000000000,"state":"active","ping":75},{"user_id":635,"name":"discount phoon","steam_id":76561198087092000,"connected_time":84000000000,"state":"active","ping":90},{"user_id":616,"name":"Captain Red","steam_id":76561198191587983,"connected_time":1948000000000,"state":"active","ping":87},{"user_id":624,"name":"Thog","steam_id":76561198093699060,"connected_time":661000000000,"state":"active","ping":73},{"user_id":631,"name":"pablo","steam_id":76561198395577807,"connected_time":559000000000,"state":"active","ping":50}]},{"server_id":106,"name":"Uncletopia | Chicago | 2 | All Maps","name_short":"chi-2","host":"chi-1.us.uncletopia.com","port":27025,"enabled":true,"region":"us-central","cc":"us","latitude":41.881832,"longitude":-87.62318,"reserved":0,"last_update":"0001-01-01T00:00:00Z","name_a2s":"Uncletopia | Chicago | 2 | All Maps","protocol":17,"map":"pl_barnblitz","folder":"tf","game":"Team Fortress","app_id":440,"player_count":15,"max_players":24,"Bots":0,"server_type":"Dedicated","server_os":"Linux","password":true,"vac":true,"version":"7757534","steam_id":85568392924469985,"keywords":["nocrits","nodmgspread","payload","uncletopia"],"game_id":440,"stv_port":27026,"stv_name":"Uncletopia | Chicago | 2 | All Maps | STV","players":[{"user_id":456,"name":"Soft\u0026Wett","steam_id":76561198322698349,"connected_time":915000000000,"state":"active","ping":70},{"user_id":454,"name":"CrazyDiamond","steam_id":76561198849406790,"connected_time":962000000000,"state":"active","ping":72},{"user_id":455,"name":"Takllin","steam_id":76561199289103007,"connected_time":960000000000,"state":"active","ping":74},{"user_id":398,"name":"Chuckled","steam_id":76561198217425919,"connected_time":4847000000000,"state":"active","ping":76},{"user_id":463,"name":"movement shooter enthusiast","steam_id":76561198841593464,"connected_time":561000000000,"state":"active","ping":67},{"user_id":457,"name":"My OC, Jean Snow","steam_id":76561198028362871,"connected_time":805000000000,"state":"active","ping":33},{"user_id":470,"name":"Skrungly","steam_id":76561198072550443,"connected_time":311000000000,"state":"active","ping":64},{"user_id":474,"name":"Goeffrey Portillo","steam_id":76561198162117215,"connected_time":138000000000,"state":"active","ping":67},{"user_id":475,"name":"unfunnytool","steam_id":76561198060560359,"connected_time":65000000000,"state":"active","ping":47},{"user_id":476,"name":"BILL NYE THE FAMILY GUY","steam_id":76561198380926090,"connected_time":60000000000,"state":"active","ping":49},{"user_id":460,"name":"Crack Fiend","steam_id":76561198149124786,"connected_time":743000000000,"state":"active","ping":61},{"user_id":472,"name":"Unionized Gnoll","steam_id":76561198005577021,"connected_time":217000000000,"state":"active","ping":71},{"user_id":464,"name":"PheebsyDeebsy","steam_id":76561198101509436,"connected_time":552000000000,"state":"active","ping":102},{"user_id":477,"name":"Ronald McDonald","steam_id":76561198282721343,"connected_time":44000000000,"state":"active","ping":90},{"user_id":466,"name":"Spring Beans","steam_id":76561197978546259,"connected_time":519000000000,"state":"active","ping":57}]},{"server_id":402,"name":"Uncletopia | Chicago | 3 | All Maps","name_short":"chi-3","host":"chi-1.us.uncletopia.com","port":27035,"enabled":true,"region":"us-central","cc":"us","latitude":41.881832,"longitude":-87.62318,"reserved":0,"last_update":"0001-01-01T00:00:00Z","name_a2s":"Uncletopia | Chicago | 3 | All Maps","protocol":17,"map":"koth_lakeside_final","folder":"tf","game":"Team Fortress","app_id":440,"player_count":24,"max_players":24,"Bots":0,"server_type":"Dedicated","server_os":"Linux","password":true,"vac":true,"version":"7757534","steam_id":85568392924515191,"keywords":["cp","nocrits","nodmgspread","uncletopia"],"game_id":440,"stv_port":27036,"stv_name":"Uncletopia | Chicago | 3 | All Maps | STV","players":[{"user_id":943,"name":"Jack from Jack in The Box","steam_id":76561199083594971,"connected_time":938000000000,"state":"active","ping":106},{"user_id":879,"name":"biofio","steam_id":76561198019094571,"connected_time":6291000000000,"state":"active","ping":114},{"user_id":938,"name":"Rowrel","steam_id":76561198394319452,"connected_time":968000000000,"state":"active","ping":94},{"user_id":945,"name":"fisherman's friend","steam_id":76561199159928133,"connected_time":854000000000,"state":"active","ping":69},{"user_id":929,"name":"Orc","steam_id":76561198982645378,"connected_time":2146000000000,"state":"active","ping":116},{"user_id":860,"name":"Foreskin","steam_id":76561198353569408,"connected_time":7754000000000,"state":"active","ping":99},{"user_id":899,"name":"morningstar","steam_id":76561199129953021,"connected_time":4633000000000,"state":"active","ping":129},{"user_id":954,"name":"mommy","steam_id":76561198129195009,"connected_time":134000000000,"state":"active","ping":73},{"user_id":933,"name":"kimmy howell","steam_id":76561198128164970,"connected_time":1672000000000,"state":"active","ping":114},{"user_id":934,"name":"Platino","steam_id":76561198410957728,"connected_time":1662000000000,"state":"active","ping":44},{"user_id":953,"name":"Ciel*","steam_id":76561198010243113,"connected_time":395000000000,"state":"active","ping":90},{"user_id":937,"name":"UnsettlingVoice","steam_id":76561198036614583,"connected_time":1112000000000,"state":"active","ping":69},{"user_id":947,"name":"HanakoToast","steam_id":76561198045233131,"connected_time":780000000000,"state":"active","ping":101},{"user_id":845,"name":"I LOVE GAMBIT","steam_id":76561198058752131,"connected_time":9758000000000,"state":"active","ping":114},{"user_id":948,"name":"sweaterfan","steam_id":76561199389567214,"connected_time":759000000000,"state":"active","ping":66},{"user_id":949,"name":"dig","steam_id":76561198050061475,"connected_time":757000000000,"state":"active","ping":74},{"user_id":920,"name":"Anononomous Dumbo Octopus","steam_id":76561198252522394,"connected_time":2975000000000,"state":"active","ping":69},{"user_id":942,"name":"Mancer","steam_id":76561198002825637,"connected_time":953000000000,"state":"active","ping":104},{"user_id":936,"name":"Totes Adorbs!","steam_id":76561197994655618,"connected_time":1196000000000,"state":"active","ping":72},{"user_id":846,"name":"Pyromanncer TF","steam_id":76561198018508494,"connected_time":9753000000000,"state":"active","ping":86},{"user_id":927,"name":"graggle","steam_id":76561198840210218,"connected_time":2665000000000,"state":"active","ping":107},{"user_id":950,"name":"Wug","steam_id":76561198084112264,"connected_time":734000000000,"state":"active","ping":75},{"user_id":951,"name":"Corn Bin","steam_id":76561198044954795,"connected_time":691000000000,"state":"active","ping":61}]},{"server_id":403,"name":"Uncletopia | Chicago | 4 | All Maps","name_short":"chi-4","host":"chi-1.us.uncletopia.com","port":27045,"enabled":true,"region":"us-central","cc":"us","latitude":41.881832,"longitude":-87.62318,"reserved":0,"last_update":"0001-01-01T00:00:00Z","name_a2s":"Uncletopia | Chicago | 4 | All Maps","protocol":17,"map":"koth_viaduct","folder":"tf","game":"Team Fortress","app_id":440,"player_count":0,"max_players":24,"Bots":0,"server_type":"Dedicated","server_os":"Linux","password":true,"vac":true,"version":"7757534","steam_id":85568392924515193,"keywords":["cp","nocrits","nodmgspread","uncletopia"],"game_id":440,"stv_port":27046,"stv_name":"Uncletopia | Chicago | 4 | All Maps | STV","players":null},{"server_id":36,"name":"Uncletopia | Chicago | 5 | All Maps","name_short":"chi-5","host":"chi-2.us.uncletopia.com","port":27015,"enabled":true,"region":"us-central","cc":"us","latitude":41.881832,"longitude":-87.62318,"reserved":0,"last_update":"0001-01-01T00:00:00Z","name_a2s":"Uncletopia | Chicago | 5 | All Maps","protocol":17,"map":"koth_nucleus","folder":"tf","game":"Team Fortress","app_id":440,"player_count":19,"max_players":24,"Bots":0,"server_type":"Dedicated","server_os":"Linux","password":true,"vac":true,"version":"7757534","steam_id":85568392924866362,"keywords":["cp","nocrits","nodmgspread","uncletopia"],"game_id":440,"stv_port":27016,"stv_name":"Uncletopia | Chicago | 5 | All Maps | STV","players":[{"user_id":213,"name":"GONE GRUSTLIN'","steam_id":76561198209881263,"connected_time":1320000000000,"state":"active","ping":92},{"user_id":182,"name":"Sirius","steam_id":76561198031295225,"connected_time":3096000000000,"state":"active","ping":45},{"user_id":166,"name":"Candy Sparkles","steam_id":76561198126871264,"connected_time":5045000000000,"state":"active","ping":87},{"user_id":181,"name":"HTA","steam_id":76561198043879140,"connected_time":3112000000000,"state":"active","ping":46},{"user_id":208,"name":"Sapphireblitz","steam_id":76561198272635379,"connected_time":1792000000000,"state":"active","ping":75},{"user_id":218,"name":"Discipline","steam_id":76561198019206178,"connected_time":539000000000,"state":"active","ping":74},{"user_id":179,"name":"Dynamo","steam_id":76561198057875639,"connected_time":3448000000000,"state":"active","ping":94},{"user_id":184,"name":"BlackPanzer","steam_id":76561198234765392,"connected_time":3000000000000,"state":"active","ping":84},{"user_id":195,"name":"matkaster","steam_id":76561197998546486,"connected_time":2467000000000,"state":"active","ping":57},{"user_id":215,"name":"mrBoi","steam_id":76561198012015536,"connected_time":1146000000000,"state":"active","ping":63},{"user_id":220,"name":"kametro4","steam_id":76561198835430429,"connected_time":456000000000,"state":"active","ping":75},{"user_id":222,"name":"Crimp","steam_id":76561198191079450,"connected_time":292000000000,"state":"active","ping":48},{"user_id":142,"name":"Dot.","steam_id":76561198149463984,"connected_time":7322000000000,"state":"active","ping":71},{"user_id":216,"name":"Elias","steam_id":76561198106431732,"connected_time":651000000000,"state":"active","ping":54},{"user_id":211,"name":"Pepsi-Man","steam_id":76561198052061790,"connected_time":1701000000000,"state":"active","ping":74},{"user_id":227,"name":"Grub","steam_id":76561198400664165,"connected_time":126000000000,"state":"active","ping":62},{"user_id":223,"name":"Fablor","steam_id":76561198175644926,"connected_time":255000000000,"state":"active","ping":100},{"user_id":224,"name":"i am scout gameplay","steam_id":76561198102681457,"connected_time":175000000000,"state":"active","ping":71},{"user_id":207,"name":"󠀡󠀡","steam_id":76561198202704364,"connected_time":1854000000000,"state":"active","ping":103}]},{"server_id":37,"name":"Uncletopia | Chicago | 6 | All Maps","name_short":"chi-6","host":"chi-2.us.uncletopia.com","port":27025,"enabled":true,"region":"us-central","cc":"us","latitude":41.881832,"longitude":-87.62318,"reserved":0,"last_update":"0001-01-01T00:00:00Z","name_a2s":"Uncletopia | Chicago | 6 | All Maps","protocol":17,"map":"cp_altitude","folder":"tf","game":"Team Fortress","app_id":440,"player_count":23,"max_players":24,"Bots":0,"server_type":"Dedicated","server_os":"Linux","password":true,"vac":true,"version":"7757534","steam_id":85568392924866363,"keywords":["cp","nocrits","nodmgspread","uncletopia"],"game_id":440,"stv_port":27026,"stv_name":"Uncletopia | Chicago | 6 | All Maps | STV","players":[{"user_id":575,"name":"Aunty Frazzle","steam_id":76561198145596626,"connected_time":1294000000000,"state":"active","ping":117},{"user_id":546,"name":"MantisTobboggan","steam_id":76561197969447887,"connected_time":4222000000000,"state":"active","ping":138},{"user_id":539,"name":"-BRH- Tangled up in Bluegrass","steam_id":76561197987181139,"connected_time":5580000000000,"state":"active","ping":66},{"user_id":592,"name":"Tychini","steam_id":76561198116915706,"connected_time":222000000000,"state":"active","ping":87},{"user_id":531,"name":"Раскур","steam_id":76561199467678674,"connected_time":5748000000000,"state":"active","ping":190},{"user_id":576,"name":"Mr. Sandman","steam_id":76561198065870487,"connected_time":1283000000000,"state":"active","ping":56},{"user_id":589,"name":"Dr. Loubert  [SG]","steam_id":76561198085442522,"connected_time":501000000000,"state":"active","ping":44},{"user_id":555,"name":"Snoopy","steam_id":76561198273735974,"connected_time":3514000000000,"state":"active","ping":101},{"user_id":590,"name":"Dumpy","steam_id":76561198067167895,"connected_time":436000000000,"state":"active","ping":73},{"user_id":564,"name":"$3.99 Shrimps","steam_id":76561198077272494,"connected_time":2125000000000,"state":"active","ping":49},{"user_id":587,"name":"Dr. Pleasant","steam_id":76561198111945101,"connected_time":858000000000,"state":"active","ping":69},{"user_id":579,"name":"Makako :)","steam_id":76561198309235459,"connected_time":1246000000000,"state":"active","ping":94},{"user_id":581,"name":"Happy Yaoi Tuesday","steam_id":76561198111290441,"connected_time":1161000000000,"state":"active","ping":51},{"user_id":522,"name":"Mokaaaa","steam_id":76561198043659301,"connected_time":6563000000000,"state":"active","ping":56},{"user_id":582,"name":"phyonic","steam_id":76561198059183301,"connected_time":1136000000000,"state":"active","ping":54},{"user_id":583,"name":"SN0W","steam_id":76561198153665468,"connected_time":1134000000000,"state":"active","ping":60},{"user_id":591,"name":"bergschneider1997","steam_id":76561198096139321,"connected_time":422000000000,"state":"active","ping":127},{"user_id":574,"name":"Prophet","steam_id":76561198134948582,"connected_time":1323000000000,"state":"active","ping":95},{"user_id":552,"name":"dmdr1969","steam_id":76561198080469611,"connected_time":3914000000000,"state":"active","ping":72},{"user_id":573,"name":"CTRL","steam_id":76561198236517016,"connected_time":1409000000000,"state":"active","ping":80},{"user_id":566,"name":"KyGuy","steam_id":76561198087056639,"connected_time":1885000000000,"state":"active","ping":67},{"user_id":584,"name":"ElBentz","steam_id":76561199059582221,"connected_time":1132000000000,"state":"active","ping":100},{"user_id":586,"name":"a crazy hobo","steam_id":76561198289650060,"connected_time":911000000000,"state":"active","ping":81}]},{"server_id":38,"name":"Uncletopia | Chicago | 7 | Stopwatch Beta","name_short":"chi-7","host":"chi-2.us.uncletopia.com","port":27035,"enabled":true,"region":"us-central","cc":"us","latitude":41.881832,"longitude":-87.62318,"reserved":0,"last_update":"0001-01-01T00:00:00Z","name_a2s":"Uncletopia | Chicago | 7 | Stopwatch Beta","protocol":17,"map":"pl_upward","folder":"tf","game":"Team Fortress","app_id":440,"player_count":0,"max_players":24,"Bots":0,"server_type":"Dedicated","server_os":"Linux","password":true,"vac":true,"version":"7757534","steam_id":85568392924866364,"keywords":["nocrits","nodmgspread","payload","uncletopia"],"game_id":440,"stv_port":27036,"stv_name":"Uncletopia | Chicago | 7 | Stopwatch Beta | STV","players":null},{"server_id":39,"name":"Uncletopia | Chicago | 8 | Community","name_short":"chi-8","host":"chi-2.us.uncletopia.com","port":27045,"enabled":true,"region":"us-central","cc":"us","latitude":41.881832,"longitude":-87.62318,"reserved":0,"last_update":"0001-01-01T00:00:00Z","name_a2s":"Uncletopia | Chicago | 8 | Community","protocol":17,"map":"workshop/koth_ashville_final.ugc2130459942","folder":"tf","game":"Team Fortress","app_id":440,"player_count":0,"max_players":24,"Bots":0,"server_type":"Dedicated","server_os":"Linux","password":true,"vac":true,"version":"7757534","steam_id":85568392924866365,"keywords":["cp","nocrits","nodmgspread","uncletopia"],"game_id":440,"stv_port":27046,"stv_name":"Uncletopia | Chicago | 8 | Community | STV","players":null},{"server_id":8,"name":"Uncletopia | Dallas | 1 | All Maps","name_short":"dal-1","host":"dal-1.us.uncletopia.com","port":27015,"enabled":true,"region":"us-central","cc":"us","latitude":32.779167,"longitude":-96.80889,"reserved":0,"last_update":"0001-01-01T00:00:00Z","name_a2s":"Uncletopia | Dallas | 1 | All Maps","protocol":17,"map":"cp_dustbowl","folder":"tf","game":"Team Fortress","app_id":440,"player_count":21,"max_players":24,"Bots":0,"server_type":"Dedicated","server_os":"Linux","password":true,"vac":true,"version":"7757534","steam_id":85568392924469986,"keywords":["cp","nocrits","nodmgspread","uncletopia"],"game_id":440,"stv_port":27016,"stv_name":"Uncletopia | Dallas | 1 | All Maps | STV","players":[{"user_id":725,"name":"DarkLink909","steam_id":76561198084139172,"connected_time":2215000000000,"state":"active","ping":86},{"user_id":750,"name":"hahahXDXDjajXD","steam_id":76561198166868617,"connected_time":27000000000,"state":"active","ping":88},{"user_id":746,"name":"Racial Seeking Missile","steam_id":76561198069220874,"connected_time":122000000000,"state":"active","ping":79},{"user_id":747,"name":"geggory","steam_id":76561198381462258,"connected_time":120000000000,"state":"active","ping":73},{"user_id":656,"name":"Cagnus Marlsen","steam_id":76561198063341193,"connected_time":5981000000000,"state":"active","ping":43},{"user_id":751,"name":"hatsune miku #1 fan","steam_id":76561198082907729,"connected_time":21000000000,"state":"active","ping":47},{"user_id":726,"name":"SyncDog","steam_id":76561198004683687,"connected_time":2212000000000,"state":"active","ping":59},{"user_id":698,"name":"standard issue gaming female","steam_id":76561198137197751,"connected_time":3351000000000,"state":"active","ping":44},{"user_id":748,"name":"Captain Huggy Face","steam_id":76561198070670054,"connected_time":78000000000,"state":"active","ping":74},{"user_id":749,"name":"Phrickshun","steam_id":76561197995239132,"connected_time":47000000000,"state":"active","ping":75},{"user_id":735,"name":"Alonzo Falcon de aspecto piola","steam_id":76561199203482850,"connected_time":1654000000000,"state":"active","ping":134},{"user_id":712,"name":"Krow","steam_id":76561198010392099,"connected_time":2788000000000,"state":"active","ping":50},{"user_id":752,"name":"Xmas","steam_id":76561198106187383,"connected_time":11000000000,"state":"active","ping":77},{"user_id":728,"name":"★CyberMario★","steam_id":76561198045798329,"connected_time":2173000000000,"state":"active","ping":45},{"user_id":662,"name":"ShredMaan","steam_id":76561198429982138,"connected_time":5929000000000,"state":"active","ping":83},{"user_id":743,"name":"Toxic Medic Main","steam_id":76561198009314845,"connected_time":230000000000,"state":"active","ping":69},{"user_id":742,"name":"Ricardo M. M.","steam_id":76561199226017223,"connected_time":686000000000,"state":"active","ping":124},{"user_id":691,"name":"Redd Guy","steam_id":76561198041034155,"connected_time":3828000000000,"state":"active","ping":77},{"user_id":740,"name":"rlty","steam_id":76561198009395055,"connected_time":965000000000,"state":"active","ping":74},{"user_id":739,"name":"Painkiller","steam_id":76561198049787400,"connected_time":1427000000000,"state":"active","ping":68},{"user_id":730,"name":"2STAR","steam_id":76561198126709382,"connected_time":2141000000000,"state":"active","ping":91}]},{"server_id":108,"name":"Uncletopia | Dallas | 2 | All Maps","name_short":"dal-2","host":"dal-1.us.uncletopia.com","port":27025,"enabled":true,"region":"us-central","cc":"us","latitude":32.779167,"longitude":-96.80889,"reserved":0,"last_update":"0001-01-01T00:00:00Z","name_a2s":"Uncletopia | Dallas | 2 | All Maps","protocol":17,"map":"cp_sunshine","folder":"tf","game":"Team Fortress","app_id":440,"player_count":19,"max_players":24,"Bots":0,"server_type":"Dedicated","server_os":"Linux","password":true,"vac":true,"version":"7757534","steam_id":85568392924469988,"keywords":["cp","nocrits","nodmgspread","uncletopia"],"game_id":440,"stv_port":27026,"stv_name":"Uncletopia | Dallas | 2 | All Maps | STV","players":[{"user_id":444,"name":"Faust main","steam_id":76561198971799149,"connected_time":1005000000000,"state":"active","ping":65},{"user_id":457,"name":"Vagrant","steam_id":76561198242536886,"connected_time":205000000000,"state":"active","ping":120},{"user_id":451,"name":"Polkanis","steam_id":76561198048905198,"connected_time":461000000000,"state":"active","ping":60},{"user_id":449,"name":"coobs","steam_id":76561198118591226,"connected_time":520000000000,"state":"active","ping":61},{"user_id":409,"name":"Hoxatron","steam_id":76561198136288818,"connected_time":3065000000000,"state":"active","ping":38},{"user_id":410,"name":"the smiling zombie","steam_id":76561199246231090,"connected_time":3054000000000,"state":"active","ping":83},{"user_id":432,"name":"Savaqa","steam_id":76561198158016688,"connected_time":1545000000000,"state":"active","ping":83},{"user_id":433,"name":"Militant Anarcho-Capitalist","steam_id":76561198079735253,"connected_time":1545000000000,"state":"active","ping":99},{"user_id":443,"name":"Chan","steam_id":76561198319764811,"connected_time":1123000000000,"state":"active","ping":93},{"user_id":447,"name":"pigswill","steam_id":76561197999081865,"connected_time":739000000000,"state":"active","ping":89},{"user_id":459,"name":"spurnt","steam_id":76561198058948008,"connected_time":28000000000,"state":"active","ping":95},{"user_id":446,"name":"VixianUwU","steam_id":76561198948815060,"connected_time":761000000000,"state":"active","ping":74},{"user_id":456,"name":"pudl","steam_id":76561198043726592,"connected_time":279000000000,"state":"active","ping":43},{"user_id":452,"name":"strangeaura","steam_id":76561199417907044,"connected_time":406000000000,"state":"active","ping":76},{"user_id":360,"name":"deathstar0611","steam_id":76561198120476410,"connected_time":5456000000000,"state":"active","ping":85},{"user_id":399,"name":"cixcin","steam_id":76561199215821942,"connected_time":3539000000000,"state":"active","ping":50},{"user_id":455,"name":"invb","steam_id":76561197998263914,"connected_time":309000000000,"state":"active","ping":61},{"user_id":400,"name":"jambert","steam_id":76561198038291026,"connected_time":3539000000000,"state":"active","ping":32},{"user_id":379,"name":"Kelpy G","steam_id":76561198105330587,"connected_time":4527000000000,"state":"active","ping":54}]},{"server_id":5,"name":"Uncletopia | Frankfurt | 1 | All Maps","name_short":"frk-1","host":"frk-1.de.uncletopia.com","port":27015,"enabled":true,"region":"eu","cc":"de","latitude":50.110924,"longitude":8.682127,"reserved":0,"last_update":"0001-01-01T00:00:00Z","name_a2s":"Uncletopia | Frankfurt | 1 | All Maps","protocol":17,"map":"pl_badwater","folder":"tf","game":"Team Fortress","app_id":440,"player_count":0,"max_players":24,"Bots":0,"server_type":"Dedicated","server_os":"Linux","password":true,"vac":true,"version":"7757534","steam_id":85568392924469989,"keywords":["nocrits","nodmgspread","payload","uncletopia"],"game_id":440,"stv_port":27016,"stv_name":"Uncletopia | Frankfurt | 1 | All Maps | STV","players":null},{"server_id":110,"name":"Uncletopia | Frankfurt | 2 | All Maps","name_short":"frk-2","host":"frk-1.de.uncletopia.com","port":27025,"enabled":true,"region":"eu","cc":"de","latitude":50.110924,"longitude":8.682127,"reserved":0,"last_update":"0001-01-01T00:00:00Z","name_a2s":"Uncletopia | Frankfurt | 2 | All Maps","protocol":17,"map":"pl_snowycoast","folder":"tf","game":"Team Fortress","app_id":440,"player_count":0,"max_players":24,"Bots":0,"server_type":"Dedicated","server_os":"Linux","password":true,"vac":true,"version":"7757534","steam_id":85568392924469990,"keywords":["nocrits","nodmgspread","payload","uncletopia"],"game_id":440,"stv_port":27026,"stv_name":"Uncletopia | Frankfurt | 2 | All Maps | STV","players":null},{"server_id":308,"name":"Uncletopia | Frankfurt | 3 | All Maps","name_short":"frk-3","host":"frk-1.de.uncletopia.com","port":27035,"enabled":true,"region":"eu","cc":"de","latitude":50.110924,"longitude":8.682127,"reserved":0,"last_update":"0001-01-01T00:00:00Z","name_a2s":"Uncletopia | Frankfurt | 3 | All Maps","protocol":17,"map":"pl_barnblitz","folder":"tf","game":"Team Fortress","app_id":440,"player_count":0,"max_players":24,"Bots":0,"server_type":"Dedicated","server_os":"Linux","password":true,"vac":true,"version":"7757534","steam_id":85568392924504274,"keywords":["nocrits","nodmgspread","payload","uncletopia"],"game_id":440,"stv_port":27036,"stv_name":"Uncletopia | Frankfurt | 3 | All Maps | STV","players":null},{"server_id":309,"name":"Uncletopia | Frankfurt | 4 | All Maps","name_short":"frk-4","host":"frk-1.de.uncletopia.com","port":27045,"enabled":true,"region":"eu","cc":"de","latitude":50.110924,"longitude":8.682127,"reserved":0,"last_update":"0001-01-01T00:00:00Z","name_a2s":"Uncletopia | Frankfurt | 4 | All Maps","protocol":17,"map":"pl_snowycoast","folder":"tf","game":"Team Fortress","app_id":440,"player_count":0,"max_players":24,"Bots":0,"server_type":"Dedicated","server_os":"Linux","password":true,"vac":true,"version":"7757534","steam_id":85568392924504275,"keywords":["nocrits","nodmgspread","payload","uncletopia"],"game_id":440,"stv_port":27046,"stv_name":"Uncletopia | Frankfurt | 4 | All Maps | STV","players":null},{"server_id":310,"name":"Uncletopia | Frankfurt | 5 | All Maps","name_short":"frk-5","host":"frk-1.de.uncletopia.com","port":27055,"enabled":true,"region":"eu","cc":"de","latitude":50.110924,"longitude":8.682127,"reserved":0,"last_update":"0001-01-01T00:00:00Z","name_a2s":"Uncletopia | Frankfurt | 5 | All Maps","protocol":17,"map":"cp_mountainlab","folder":"tf","game":"Team Fortress","app_id":440,"player_count":0,"max_players":24,"Bots":0,"server_type":"Dedicated","server_os":"Linux","password":true,"vac":true,"version":"7757534","steam_id":85568392924504277,"keywords":["cp","nocrits","nodmgspread","uncletopia"],"game_id":440,"stv_port":27056,"stv_name":"Uncletopia | Frankfurt | 5 | All Maps | STV","players":null},{"server_id":311,"name":"Uncletopia | Frankfurt | 6 | All Maps","name_short":"frk-6","host":"frk-1.de.uncletopia.com","port":27065,"enabled":true,"region":"eu","cc":"de","latitude":50.110924,"longitude":8.682127,"reserved":0,"last_update":"0001-01-01T00:00:00Z","name_a2s":"Uncletopia | Frankfurt | 6 | All Maps","protocol":17,"map":"koth_highpass","folder":"tf","game":"Team Fortress","app_id":440,"player_count":0,"max_players":24,"Bots":0,"server_type":"Dedicated","server_os":"Linux","password":true,"vac":true,"version":"7757534","steam_id":85568392924504278,"keywords":["cp","nocrits","nodmgspread","uncletopia"],"game_id":440,"stv_port":27066,"stv_name":"Uncletopia | Frankfurt | 6 | All Maps | STV","players":null},{"server_id":23,"name":"Uncletopia | Frankfurt | 7 | Stopwatch Beta","name_short":"frk-7","host":"frk-1.de.uncletopia.com","port":27075,"enabled":true,"region":"eu","cc":"de","latitude":50.110924,"longitude":8.682127,"reserved":0,"last_update":"0001-01-01T00:00:00Z","name_a2s":"Uncletopia | Frankfurt | 7 | Stopwatch Beta","protocol":17,"map":"pl_borneo","folder":"tf","game":"Team Fortress","app_id":440,"player_count":0,"max_players":24,"Bots":0,"server_type":"Dedicated","server_os":"Linux","password":true,"vac":true,"version":"7757534","steam_id":85568392924742827,"keywords":["nocrits","nodmgspread","payload","uncletopia"],"game_id":440,"stv_port":27076,"stv_name":"Uncletopia | Frankfurt | 7 | Stopwatch Beta | STV","players":null},{"server_id":24,"name":"Uncletopia | Frankfurt | 8 | Community","name_short":"frk-8","host":"frk-1.de.uncletopia.com","port":27085,"enabled":true,"region":"eu","cc":"de","latitude":50.110924,"longitude":8.682127,"reserved":0,"last_update":"0001-01-01T00:00:00Z","name_a2s":"Uncletopia | Frankfurt | 8 | Community","protocol":17,"map":"koth_cascade","folder":"tf","game":"Team Fortress","app_id":440,"player_count":0,"max_players":24,"Bots":0,"server_type":"Dedicated","server_os":"Linux","password":true,"vac":true,"version":"7757534","steam_id":85568392924742828,"keywords":["cp","nocrits","nodmgspread","uncletopia"],"game_id":440,"stv_port":27086,"stv_name":"Uncletopia | Frankfurt | 8 | Community | STV","players":null},{"server_id":202,"name":"Uncletopia | Hong Kong | 1 | All Maps","name_short":"hgk-1","host":"hgk-1.hk.uncletopia.com","port":27015,"enabled":true,"region":"asia","cc":"hk","latitude":22.302711,"longitude":114.177216,"reserved":0,"last_update":"0001-01-01T00:00:00Z","name_a2s":"Uncletopia | Hong Kong | 1 | All Maps","protocol":17,"map":"cp_snakewater_final1","folder":"tf","game":"Team Fortress","app_id":440,"player_count":0,"max_players":24,"Bots":0,"server_type":"Dedicated","server_os":"Linux","password":true,"vac":true,"version":"7757534","steam_id":85568392924494504,"keywords":["cp","nocrits","nodmgspread","uncletopia"],"game_id":440,"stv_port":27016,"stv_name":"Uncletopia | Hong Kong | 1 | All Maps | STV","players":null},{"server_id":1,"name":"Uncletopia | Los Angeles | 1 | All Maps","name_short":"lax-1","host":"lax-1.us.uncletopia.com","port":27015,"enabled":true,"region":"us-west","cc":"us","latitude":33.94279,"longitude":-118.41004,"reserved":0,"last_update":"0001-01-01T00:00:00Z","name_a2s":"Uncletopia | Los Angeles | 1 | All Maps","protocol":17,"map":"koth_viaduct","folder":"tf","game":"Team Fortress","app_id":440,"player_count":0,"max_players":24,"Bots":0,"server_type":"Dedicated","server_os":"Linux","password":true,"vac":true,"version":"7757534","steam_id":85568392924469991,"keywords":["cp","nocrits","nodmgspread","uncletopia"],"game_id":440,"stv_port":27016,"stv_name":"Uncletopia | Los Angeles | 1 | All Maps | STV","players":null},{"server_id":112,"name":"Uncletopia | Los Angeles | 2 | All Maps","name_short":"lax-2","host":"lax-1.us.uncletopia.com","port":27025,"enabled":true,"region":"us-west","cc":"us","latitude":33.94279,"longitude":-118.41004,"reserved":0,"last_update":"0001-01-01T00:00:00Z","name_a2s":"Uncletopia | Los Angeles | 2 | All Maps","protocol":17,"map":"koth_lakeside_final","folder":"tf","game":"Team Fortress","app_id":440,"player_count":18,"max_players":24,"Bots":0,"server_type":"Dedicated","server_os":"Linux","password":true,"vac":true,"version":"7757534","steam_id":85568392924469992,"keywords":["cp","nocrits","nodmgspread","uncletopia"],"game_id":440,"stv_port":27026,"stv_name":"Uncletopia | Los Angeles | 2 | All Maps | STV","players":[{"user_id":316,"name":"Zelumie","steam_id":76561198147335801,"connected_time":47000000000,"state":"active","ping":100},{"user_id":317,"name":"i have teeth","steam_id":76561198014008520,"connected_time":37000000000,"state":"spawning","ping":44},{"user_id":301,"name":"fulices","steam_id":76561198420163702,"connected_time":1126000000000,"state":"active","ping":32},{"user_id":315,"name":"truck freak [literate]","steam_id":76561198062712676,"connected_time":76000000000,"state":"active","ping":69},{"user_id":261,"name":"shooter guy","steam_id":76561198151135298,"connected_time":4530000000000,"state":"active","ping":30},{"user_id":318,"name":"Seabird","steam_id":76561198891152046,"connected_time":14000000000,"state":"active","ping":124},{"user_id":276,"name":"weed","steam_id":76561199128192017,"connected_time":3473000000000,"state":"active","ping":91},{"user_id":284,"name":"hotpockette","steam_id":76561198007621815,"connected_time":3258000000000,"state":"active","ping":95},{"user_id":319,"name":"Tofu","steam_id":76561198083778611,"connected_time":5000000000,"state":"spawning","ping":46},{"user_id":252,"name":"Schmorgus","steam_id":76561198097144923,"connected_time":5274000000000,"state":"active","ping":56},{"user_id":304,"name":"oil","steam_id":76561198099980149,"connected_time":783000000000,"state":"active","ping":45},{"user_id":305,"name":"Flustered Flamingo","steam_id":76561198114252634,"connected_time":756000000000,"state":"active","ping":61},{"user_id":253,"name":"NukaDude391","steam_id":76561198278991511,"connected_time":5263000000000,"state":"active","ping":77},{"user_id":309,"name":"Fungus","steam_id":76561198390297486,"connected_time":632000000000,"state":"active","ping":30},{"user_id":307,"name":"BigGoose","steam_id":76561198833281392,"connected_time":698000000000,"state":"active","ping":96},{"user_id":214,"name":"Firething","steam_id":76561198016168993,"connected_time":7869000000000,"state":"active","ping":79},{"user_id":308,"name":"||:♩♩♩♪:|| Opplydead","steam_id":76561198028630334,"connected_time":694000000000,"state":"active","ping":45},{"user_id":312,"name":"Charles","steam_id":76561198155322277,"connected_time":623000000000,"state":"active","ping":59}]},{"server_id":324,"name":"Uncletopia | Los Angeles | 3 | All Maps","name_short":"lax-3","host":"lax-1.us.uncletopia.com","port":27035,"enabled":true,"region":"us-west","cc":"us","latitude":33.94279,"longitude":-118.41004,"reserved":0,"last_update":"0001-01-01T00:00:00Z","name_a2s":"Uncletopia | Los Angeles | 3 | All Maps","protocol":17,"map":"koth_highpass","folder":"tf","game":"Team Fortress","app_id":440,"player_count":0,"max_players":24,"Bots":0,"server_type":"Dedicated","server_os":"Linux","password":true,"vac":true,"version":"7757534","steam_id":85568392924510198,"keywords":["cp","nocrits","nodmgspread","uncletopia"],"game_id":440,"stv_port":27036,"stv_name":"Uncletopia | Los Angeles | 3 | All Maps | STV","players":null},{"server_id":25,"name":"Uncletopia | Los Angeles | 4 | Stopwatch Beta","name_short":"lax-4","host":"lax-1.us.uncletopia.com","port":27045,"enabled":true,"region":"us-west","cc":"us","latitude":33.94279,"longitude":-118.41004,"reserved":0,"last_update":"0001-01-01T00:00:00Z","name_a2s":"Uncletopia | Los Angeles | 4 | Stopwatch Beta","protocol":17,"map":"koth_viaduct","folder":"tf","game":"Team Fortress","app_id":440,"player_count":0,"max_players":24,"Bots":0,"server_type":"Dedicated","server_os":"Linux","password":true,"vac":true,"version":"7757534","steam_id":85568392924510199,"keywords":["cp","nocrits","nodmgspread","uncletopia"],"game_id":440,"stv_port":27046,"stv_name":"Uncletopia | Los Angeles | 4 | Stopwatch Beta | STV","players":null},{"server_id":11,"name":"Uncletopia | London | 1 | All Maps","name_short":"lon-1","host":"lon-1.uk.uncletopia.com","port":27015,"enabled":true,"region":"eu","cc":"gb","latitude":51.509865,"longitude":-0.118092,"reserved":0,"last_update":"0001-01-01T00:00:00Z","name_a2s":"Uncletopia | London | 1 | All Maps","protocol":17,"map":"pl_barnblitz","folder":"tf","game":"Team Fortress","app_id":440,"player_count":24,"max_players":24,"Bots":0,"server_type":"Dedicated","server_os":"Linux","password":true,"vac":true,"version":"7757534","steam_id":85568392924367362,"keywords":["nocrits","nodmgspread","payload","uncletopia"],"game_id":440,"stv_port":27016,"stv_name":"Uncletopia | London | 1 | All Maps | STV","players":[{"user_id":73,"name":"Zombi3","steam_id":76561198326290621,"connected_time":281000000000,"state":"active","ping":60},{"user_id":4,"name":"sev//","steam_id":76561198797730418,"connected_time":3299000000000,"state":"active","ping":70},{"user_id":64,"name":"savage","steam_id":76561199156438971,"connected_time":1210000000000,"state":"active","ping":128},{"user_id":72,"name":"Green Banana","steam_id":76561198055480280,"connected_time":436000000000,"state":"active","ping":91},{"user_id":61,"name":"autistic luigi","steam_id":76561199218285040,"connected_time":1362000000000,"state":"active","ping":91},{"user_id":18,"name":"Dræghy","steam_id":76561198252417898,"connected_time":3124000000000,"state":"active","ping":48},{"user_id":9,"name":"MtnDew","steam_id":76561199100059743,"connected_time":3268000000000,"state":"active","ping":107},{"user_id":41,"name":"DocTwoEight","steam_id":76561198153488940,"connected_time":2153000000000,"state":"active","ping":75},{"user_id":69,"name":"ricky pee pee","steam_id":76561198152620745,"connected_time":683000000000,"state":"active","ping":56},{"user_id":12,"name":"Rave Robber","steam_id":76561199414716848,"connected_time":3243000000000,"state":"active","ping":70},{"user_id":56,"name":"angry person (shwo ur fear)","steam_id":76561198259268001,"connected_time":1610000000000,"state":"active","ping":83},{"user_id":65,"name":"vert2spooky // RAT TRAP","steam_id":76561198914976373,"connected_time":1114000000000,"state":"active","ping":46},{"user_id":67,"name":"joona","steam_id":76561198156305446,"connected_time":712000000000,"state":"active","ping":87},{"user_id":71,"name":"333res","steam_id":76561198148106704,"connected_time":599000000000,"state":"active","ping":93},{"user_id":33,"name":"Sputnik","steam_id":76561198138660241,"connected_time":2577000000000,"state":"active","ping":57},{"user_id":68,"name":"Tata Cobraz0r","steam_id":76561198017693962,"connected_time":701000000000,"state":"active","ping":78},{"user_id":39,"name":"Ian","steam_id":76561198159334435,"connected_time":2343000000000,"state":"active","ping":177},{"user_id":27,"name":"Warlord Of Nations","steam_id":76561198417999443,"connected_time":2814000000000,"state":"active","ping":105},{"user_id":63,"name":"men snus","steam_id":76561198311864757,"connected_time":1272000000000,"state":"active","ping":77},{"user_id":29,"name":"consoomer of the new product","steam_id":76561198084469863,"connected_time":2758000000000,"state":"active","ping":68},{"user_id":66,"name":"desu!","steam_id":76561198052878585,"connected_time":985000000000,"state":"active","ping":133},{"user_id":40,"name":"Daoloth, Render of the Veils","steam_id":76561198115106008,"connected_time":2284000000000,"state":"active","ping":47},{"user_id":59,"name":"Lowi","steam_id":76561198139177372,"connected_time":1473000000000,"state":"active","ping":101},{"user_id":51,"name":"cropper","steam_id":76561198047728149,"connected_time":1718000000000,"state":"active","ping":48}]},{"server_id":114,"name":"Uncletopia | London | 2 | All Maps","name_short":"lon-2","host":"lon-1.uk.uncletopia.com","port":27025,"enabled":true,"region":"eu","cc":"gb","latitude":51.509865,"longitude":-0.118092,"reserved":0,"last_update":"0001-01-01T00:00:00Z","name_a2s":"Uncletopia | London | 2 | All Maps","protocol":17,"map":"pl_borneo","folder":"tf","game":"Team Fortress","app_id":440,"player_count":0,"max_players":24,"Bots":0,"server_type":"Dedicated","server_os":"Linux","password":true,"vac":true,"version":"7757534","steam_id":85568392924470941,"keywords":["nocrits","nodmgspread","payload","uncletopia"],"game_id":440,"stv_port":27026,"stv_name":"Uncletopia | London | 2 | All Maps | STV","players":null},{"server_id":320,"name":"Uncletopia | London | 3 | All Maps","name_short":"lon-3","host":"lon-1.uk.uncletopia.com","port":27035,"enabled":true,"region":"eu","cc":"gb","latitude":51.509865,"longitude":-0.118092,"reserved":0,"last_update":"0001-01-01T00:00:00Z","name_a2s":"Uncletopia | London | 3 | All Maps","protocol":17,"map":"pl_badwater","folder":"tf","game":"Team Fortress","app_id":440,"player_count":0,"max_players":24,"Bots":0,"server_type":"Dedicated","server_os":"Linux","password":true,"vac":true,"version":"7757534","steam_id":85568392924510192,"keywords":["nocrits","nodmgspread","payload","uncletopia"],"game_id":440,"stv_port":27036,"stv_name":"Uncletopia | London | 3 | All Maps | STV","players":null},{"server_id":321,"name":"Uncletopia | London | 4 | All Maps","name_short":"lon-4","host":"lon-1.uk.uncletopia.com","port":27045,"enabled":true,"region":"eu","cc":"gb","latitude":51.509865,"longitude":-0.118092,"reserved":0,"last_update":"0001-01-01T00:00:00Z","name_a2s":"Uncletopia | London | 4 | All Maps","protocol":17,"map":"cp_snakewater_final1","folder":"tf","game":"Team Fortress","app_id":440,"player_count":0,"max_players":24,"Bots":0,"server_type":"Dedicated","server_os":"Linux","password":true,"vac":true,"version":"7757534","steam_id":85568392924510193,"keywords":["cp","nocrits","nodmgspread","uncletopia"],"game_id":440,"stv_port":27046,"stv_name":"Uncletopia | London | 4 | All Maps | STV","players":null},{"server_id":21,"name":"Uncletopia | London | 5 | All Maps","name_short":"lon-5","host":"lon-1.uk.uncletopia.com","port":27055,"enabled":true,"region":"eu","cc":"gb","latitude":51.509865,"longitude":-0.118092,"reserved":0,"last_update":"0001-01-01T00:00:00Z","name_a2s":"Uncletopia | London | 5 | All Maps","protocol":17,"map":"pl_snowycoast","folder":"tf","game":"Team Fortress","app_id":440,"player_count":0,"max_players":24,"Bots":0,"server_type":"Dedicated","server_os":"Linux","password":true,"vac":true,"version":"7757534","steam_id":85568392924742829,"keywords":["nocrits","nodmgspread","payload","uncletopia"],"game_id":440,"stv_port":27056,"stv_name":"Uncletopia | London | 5 | All Maps | STV","players":null},{"server_id":22,"name":"Uncletopia | London | 6 | All Maps","name_short":"lon-6","host":"lon-1.uk.uncletopia.com","port":27065,"enabled":true,"region":"eu","cc":"gb","latitude":51.509865,"longitude":-0.118092,"reserved":0,"last_update":"0001-01-01T00:00:00Z","name_a2s":"Uncletopia | London | 6 | All Maps","protocol":17,"map":"pl_snowycoast","folder":"tf","game":"Team Fortress","app_id":440,"player_count":0,"max_players":24,"Bots":0,"server_type":"Dedicated","server_os":"Linux","password":true,"vac":true,"version":"7757534","steam_id":85568392924742830,"keywords":["nocrits","nodmgspread","payload","uncletopia"],"game_id":440,"stv_port":27066,"stv_name":"Uncletopia | London | 6 | All Maps | STV","players":null},{"server_id":40,"name":"Uncletopia | London | 7 | No Payload","name_short":"lon-7","host":"lon-1.uk.uncletopia.com","port":27075,"enabled":true,"region":"eu","cc":"gb","latitude":51.509865,"longitude":-0.118092,"reserved":0,"last_update":"0001-01-01T00:00:00Z","name_a2s":"Uncletopia | London | 7 | No Payload","protocol":17,"map":"pl_upward","folder":"tf","game":"Team Fortress","app_id":440,"player_count":0,"max_players":24,"Bots":0,"server_type":"Dedicated","server_os":"Linux","password":true,"vac":true,"version":"7757534","steam_id":85568392924964314,"keywords":["nocrits","nodmgspread","payload","uncletopia"],"game_id":440,"stv_port":27076,"stv_name":"Uncletopia | London | 7 | No Payload | STV","players":null},{"server_id":41,"name":"Uncletopia | London | 8 | Community","name_short":"lon-8","host":"lon-1.uk.uncletopia.com","port":27085,"enabled":true,"region":"eu","cc":"gb","latitude":51.509865,"longitude":-0.118092,"reserved":0,"last_update":"0001-01-01T00:00:00Z","name_a2s":"Uncletopia | London | 8 | Community","protocol":17,"map":"cp_snakewater_final1","folder":"tf","game":"Team Fortress","app_id":440,"player_count":0,"max_players":24,"Bots":0,"server_type":"Dedicated","server_os":"Linux","password":true,"vac":true,"version":"7757534","steam_id":85568392924964315,"keywords":["cp","nocrits","nodmgspread","uncletopia"],"game_id":440,"stv_port":27086,"stv_name":"Uncletopia | London | 8 | Community | STV","players":null},{"server_id":300,"name":"Uncletopia | Montréal | 1 | All Maps","name_short":"mtl-1","host":"mtl-1.ca.uncletopia.com","port":27015,"enabled":true,"region":"us-east","cc":"ca","latitude":45.50889,"longitude":-73.56167,"reserved":0,"last_update":"0001-01-01T00:00:00Z","name_a2s":"Uncletopia | Montréal | 1 | All Maps","protocol":17,"map":"koth_cascade","folder":"tf","game":"Team Fortress","app_id":440,"player_count":0,"max_players":24,"Bots":0,"server_type":"Dedicated","server_os":"Linux","password":true,"vac":true,"version":"7757534","steam_id":85568392924500087,"keywords":["cp","nocrits","nodmgspread","uncletopia"],"game_id":440,"stv_port":27016,"stv_name":"Uncletopia | Montréal | 1 | All Maps | STV","players":null},{"server_id":301,"name":"Uncletopia | Montréal | 2 | All Maps","name_short":"mtl-2","host":"mtl-1.ca.uncletopia.com","port":27025,"enabled":true,"region":"us-east","cc":"ca","latitude":45.50889,"longitude":-73.56167,"reserved":0,"last_update":"0001-01-01T00:00:00Z","name_a2s":"Uncletopia | Montréal | 2 | All Maps","protocol":17,"map":"koth_viaduct","folder":"tf","game":"Team Fortress","app_id":440,"player_count":0,"max_players":24,"Bots":0,"server_type":"Dedicated","server_os":"Linux","password":true,"vac":true,"version":"7757534","steam_id":85568392924500088,"keywords":["cp","nocrits","nodmgspread","uncletopia"],"game_id":440,"stv_port":27026,"stv_name":"Uncletopia | Montréal | 2 | All Maps | STV","players":null},{"server_id":302,"name":"Uncletopia | Montréal | 3 | All Maps","name_short":"mtl-3","host":"mtl-1.ca.uncletopia.com","port":27035,"enabled":true,"region":"us-east","cc":"ca","latitude":45.50889,"longitude":-73.56167,"reserved":0,"last_update":"0001-01-01T00:00:00Z","name_a2s":"Uncletopia | Montréal | 3 | All Maps","protocol":17,"map":"pl_swiftwater_final1","folder":"tf","game":"Team Fortress","app_id":440,"player_count":0,"max_players":24,"Bots":0,"server_type":"Dedicated","server_os":"Linux","password":true,"vac":true,"version":"7757534","steam_id":85568392924500089,"keywords":["nocrits","nodmgspread","payload","uncletopia"],"game_id":440,"stv_port":27036,"stv_name":"Uncletopia | Montréal | 3 | All Maps | STV","players":null},{"server_id":303,"name":"Uncletopia | Montréal | 4 | No Payload","name_short":"mtl-4","host":"mtl-1.ca.uncletopia.com","port":27045,"enabled":true,"region":"us-east","cc":"ca","latitude":45.50889,"longitude":-73.56167,"reserved":0,"last_update":"0001-01-01T00:00:00Z","name_a2s":"Uncletopia | Montréal | 4 | No Payload","protocol":17,"map":"koth_lakeside_final","folder":"tf","game":"Team Fortress","app_id":440,"player_count":0,"max_players":24,"Bots":0,"server_type":"Dedicated","server_os":"Linux","password":true,"vac":true,"version":"7757534","steam_id":85568392924500090,"keywords":["cp","nocrits","nodmgspread","uncletopia"],"game_id":440,"stv_port":27046,"stv_name":"Uncletopia | Montréal | 4 | No Payload | STV","players":null},{"server_id":13,"name":"Uncletopia | New York City | 1 | All Maps","name_short":"nyc-1","host":"nyc-1.us.uncletopia.com","port":27015,"enabled":true,"region":"us-east","cc":"us","latitude":40.73061,"longitude":-73.93524,"reserved":0,"last_update":"0001-01-01T00:00:00Z","name_a2s":"Uncletopia | New York City | 1 | All Maps","protocol":17,"map":"cp_sunshine","folder":"tf","game":"Team Fortress","app_id":440,"player_count":24,"max_players":24,"Bots":0,"server_type":"Dedicated","server_os":"Linux","password":true,"vac":true,"version":"7757534","steam_id":85568392924469993,"keywords":["cp","nocrits","nodmgspread","uncletopia"],"game_id":440,"stv_port":27016,"stv_name":"Uncletopia | New York City | 1 | All Maps | STV","players":[{"user_id":474,"name":"GatorAIDS","steam_id":76561198043220092,"connected_time":1136000000000,"state":"active","ping":81},{"user_id":449,"name":"Braamklauw","steam_id":76561198283287697,"connected_time":2448000000000,"state":"active","ping":144},{"user_id":366,"name":"Horrizan","steam_id":76561197965028480,"connected_time":10445000000000,"state":"active","ping":90},{"user_id":472,"name":"Dmitry Kerman","steam_id":76561198300020540,"connected_time":1247000000000,"state":"active","ping":173},{"user_id":489,"name":"HE’S IN THE GODDAMN WALLS","steam_id":76561198363267009,"connected_time":303000000000,"state":"active","ping":81},{"user_id":473,"name":"Albino","steam_id":76561198131565604,"connected_time":1221000000000,"state":"active","ping":132},{"user_id":455,"name":"Elliot","steam_id":76561198052843856,"connected_time":2212000000000,"state":"active","ping":59},{"user_id":448,"name":"TLG, Certified Gamer Mom","steam_id":76561198076669951,"connected_time":2513000000000,"state":"active","ping":48},{"user_id":484,"name":"Dandy Clam","steam_id":76561198074845107,"connected_time":562000000000,"state":"active","ping":107},{"user_id":456,"name":"Squeegi","steam_id":76561198039613161,"connected_time":2207000000000,"state":"active","ping":36},{"user_id":429,"name":"the keithvinci kode","steam_id":76561198056622157,"connected_time":4381000000000,"state":"active","ping":50},{"user_id":457,"name":"Sir Quacksalot","steam_id":76561198048942777,"connected_time":2205000000000,"state":"active","ping":98},{"user_id":477,"name":"Primitive","steam_id":76561198060500671,"connected_time":1078000000000,"state":"active","ping":43},{"user_id":465,"name":"dangerous republican","steam_id":76561197993279095,"connected_time":2091000000000,"state":"active","ping":50},{"user_id":490,"name":"Laelaps","steam_id":76561198100061416,"connected_time":7000000000,"state":"spawning","ping":57},{"user_id":479,"name":"Baconator","steam_id":76561198941700660,"connected_time":1044000000000,"state":"active","ping":78},{"user_id":480,"name":"StrangeSaus","steam_id":76561198147790758,"connected_time":1000000000000,"state":"active","ping":60},{"user_id":466,"name":"ArtDealer","steam_id":76561197961880834,"connected_time":1860000000000,"state":"active","ping":34},{"user_id":481,"name":"HARD AS FUCK","steam_id":76561198812086921,"connected_time":963000000000,"state":"active","ping":36},{"user_id":482,"name":":)","steam_id":76561198093921290,"connected_time":913000000000,"state":"active","ping":59},{"user_id":462,"name":"reii","steam_id":76561198134442912,"connected_time":2147000000000,"state":"active","ping":90},{"user_id":487,"name":"[Metal Fingers - Myrtle Leaf]","steam_id":76561198294013916,"connected_time":430000000000,"state":"active","ping":47},{"user_id":463,"name":"yeah right","steam_id":76561198301127098,"connected_time":2128000000000,"state":"active","ping":134},{"user_id":488,"name":"blindcinema_","steam_id":76561198026908105,"connected_time":405000000000,"state":"active","ping":145}]},{"server_id":14,"name":"Uncletopia | New York City | 2 | All Maps","name_short":"nyc-2","host":"nyc-1.us.uncletopia.com","port":27025,"enabled":true,"region":"us-east","cc":"us","latitude":40.73061,"longitude":-73.93524,"reserved":0,"last_update":"0001-01-01T00:00:00Z","name_a2s":"Uncletopia | New York City | 2 | All Maps","protocol":17,"map":"koth_cascade","folder":"tf","game":"Team Fortress","app_id":440,"player_count":6,"max_players":24,"Bots":0,"server_type":"Dedicated","server_os":"Linux","password":true,"vac":true,"version":"7757534","steam_id":85568392924469994,"keywords":["cp","nocrits","nodmgspread","uncletopia"],"game_id":440,"stv_port":27026,"stv_name":"Uncletopia | New York City | 2 | All Maps | STV","players":[{"user_id":305,"name":"Crazy face","steam_id":76561198035251337,"connected_time":4231000000000,"state":"active","ping":75},{"user_id":306,"name":"TheUKnowWho","steam_id":76561198181418159,"connected_time":4218000000000,"state":"active","ping":66},{"user_id":322,"name":"EIL0SCe","steam_id":76561199081865326,"connected_time":53000000000,"state":"active","ping":174},{"user_id":312,"name":"Bijou","steam_id":76561198962767201,"connected_time":3713000000000,"state":"active","ping":85},{"user_id":320,"name":"jonjonpeanut","steam_id":76561199221592165,"connected_time":1472000000000,"state":"active","ping":76},{"user_id":315,"name":"tellence","steam_id":76561198057681894,"connected_time":3600000000000,"state":"active","ping":70}]},{"server_id":15,"name":"Uncletopia | New York City | 3 | Stopwatch Beta","name_short":"nyc-3","host":"nyc-1.us.uncletopia.com","port":27035,"enabled":true,"region":"us-east","cc":"us","latitude":40.73061,"longitude":-73.93524,"reserved":0,"last_update":"0001-01-01T00:00:00Z","name_a2s":"Uncletopia | New York City | 3 | Stopwatch Beta","protocol":17,"map":"workshop/pl_barnblitz_pro7.ugc582280235","folder":"tf","game":"Team Fortress","app_id":440,"player_count":0,"max_players":24,"Bots":0,"server_type":"Dedicated","server_os":"Linux","password":true,"vac":true,"version":"7757534","steam_id":85568392924742820,"keywords":["nocrits","nodmgspread","payload","uncletopia"],"game_id":440,"stv_port":27036,"stv_name":"Uncletopia | New York City | 3 | Stopwatch Beta | STV","players":null},{"server_id":16,"name":"Uncletopia | New York City | 4 | Community","name_short":"nyc-4","host":"nyc-1.us.uncletopia.com","port":27045,"enabled":true,"region":"us-east","cc":"us","latitude":40.73061,"longitude":-73.93524,"reserved":0,"last_update":"0001-01-01T00:00:00Z","name_a2s":"Uncletopia | New York City | 4 | Community","protocol":17,"map":"workshop/koth_ashville_final.ugc2130459942","folder":"tf","game":"Team Fortress","app_id":440,"player_count":0,"max_players":24,"Bots":0,"server_type":"Dedicated","server_os":"Linux","password":true,"vac":true,"version":"7757534","steam_id":85568392924742821,"keywords":["cp","nocrits","nodmgspread","uncletopia"],"game_id":440,"stv_port":27046,"stv_name":"Uncletopia | New York City | 4 | Community | STV","players":null},{"server_id":142,"name":"Uncletopia | São Paulo | 1 | All Maps","name_short":"sao-1","host":"sao-1.br.uncletopia.com","port":27015,"enabled":true,"region":"sa","cc":"br","latitude":-23.533773,"longitude":-46.62529,"reserved":0,"last_update":"0001-01-01T00:00:00Z","name_a2s":"Uncletopia | São Paulo | 1 | All Maps","protocol":17,"map":"koth_highpass","folder":"tf","game":"Team Fortress","app_id":440,"player_count":0,"max_players":24,"Bots":0,"server_type":"Dedicated","server_os":"Linux","password":true,"vac":true,"version":"7757534","steam_id":85568392924469996,"keywords":["cp","nocrits","nodmgspread","uncletopia"],"game_id":440,"stv_port":27016,"stv_name":"Uncletopia | São Paulo | 1 | All Maps | STV","players":null},{"server_id":143,"name":"Uncletopia | São Paulo | 2 | All Maps","name_short":"sao-2","host":"sao-2.br.uncletopia.com","port":27015,"enabled":true,"region":"sa","cc":"br","latitude":-23.533773,"longitude":-46.62529,"reserved":0,"last_update":"0001-01-01T00:00:00Z","name_a2s":"Uncletopia | São Paulo | 2 | All Maps","protocol":17,"map":"koth_highpass","folder":"tf","game":"Team Fortress","app_id":440,"player_count":0,"max_players":24,"Bots":0,"server_type":"Dedicated","server_os":"Linux","password":true,"vac":true,"version":"7757534","steam_id":85568392924485349,"keywords":["cp","nocrits","nodmgspread","uncletopia"],"game_id":440,"stv_port":27016,"stv_name":"Uncletopia | São Paulo | 2 | All Maps | STV","players":null},{"server_id":7,"name":"Uncletopia | Seattle | 1 | All Maps","name_short":"sea-1","host":"sea-1.us.uncletopia.com","port":27015,"enabled":true,"region":"us-west","cc":"us","latitude":47.608013,"longitude":-122.33517,"reserved":0,"last_update":"0001-01-01T00:00:00Z","name_a2s":"Uncletopia | Seattle | 1 | All Maps","protocol":17,"map":"cp_dustbowl","folder":"tf","game":"Team Fortress","app_id":440,"player_count":24,"max_players":24,"Bots":0,"server_type":"Dedicated","server_os":"Linux","password":true,"vac":true,"version":"7757534","steam_id":85568392924469997,"keywords":["cp","nocrits","nodmgspread","uncletopia"],"game_id":440,"stv_port":27016,"stv_name":"Uncletopia | Seattle | 1 | All Maps | STV","players":[{"user_id":774,"name":"Beeveelution","steam_id":76561198331526301,"connected_time":1542000000000,"state":"active","ping":72},{"user_id":775,"name":"Battery_Included","steam_id":76561198067164431,"connected_time":1486000000000,"state":"active","ping":62},{"user_id":726,"name":"Mom","steam_id":76561198207936000,"connected_time":5845000000000,"state":"active","ping":60},{"user_id":782,"name":"Luca","steam_id":76561198125087140,"connected_time":1290000000000,"state":"active","ping":46},{"user_id":751,"name":"Zizen","steam_id":76561199011832069,"connected_time":3589000000000,"state":"active","ping":89},{"user_id":755,"name":"WannaSeeA","steam_id":76561198097701042,"connected_time":2495000000000,"state":"active","ping":91},{"user_id":777,"name":"Brass beast heavy","steam_id":76561198274197623,"connected_time":1448000000000,"state":"active","ping":193},{"user_id":778,"name":"gorlab","steam_id":76561198025089694,"connected_time":1426000000000,"state":"active","ping":61},{"user_id":792,"name":"lustful for Pokémon","steam_id":76561198063713049,"connected_time":385000000000,"state":"active","ping":139},{"user_id":789,"name":"makcmik2","steam_id":76561198242544518,"connected_time":677000000000,"state":"active","ping":66},{"user_id":721,"name":"Ayayahuasca","steam_id":76561199002906056,"connected_time":6080000000000,"state":"active","ping":50},{"user_id":760,"name":"That Guy","steam_id":76561197997444126,"connected_time":2299000000000,"state":"active","ping":45},{"user_id":790,"name":"Username","steam_id":76561198855586261,"connected_time":565000000000,"state":"active","ping":60},{"user_id":788,"name":"Astroa","steam_id":76561199190565830,"connected_time":840000000000,"state":"active","ping":175},{"user_id":795,"name":"pumba","steam_id":76561198207881077,"connected_time":300000000000,"state":"active","ping":107},{"user_id":748,"name":"Femboy Leaves","steam_id":76561198125084613,"connected_time":3685000000000,"state":"active","ping":91},{"user_id":784,"name":"Sweets","steam_id":76561198998446307,"connected_time":1191000000000,"state":"active","ping":70},{"user_id":796,"name":"Sniff","steam_id":76561198010270922,"connected_time":260000000000,"state":"active","ping":42},{"user_id":785,"name":"Papa Noël","steam_id":76561198168487158,"connected_time":1145000000000,"state":"active","ping":59},{"user_id":765,"name":"twitch.tv/ladyloki_ch","steam_id":76561198280150602,"connected_time":2184000000000,"state":"active","ping":57},{"user_id":770,"name":"warewarewa","steam_id":76561197965022076,"connected_time":1758000000000,"state":"active","ping":105},{"user_id":787,"name":"boatz (huntsman gaming)","steam_id":76561198046851181,"connected_time":1058000000000,"state":"active","ping":59},{"user_id":797,"name":"avant-goth","steam_id":76561198325306660,"connected_time":254000000000,"state":"active","ping":54},{"user_id":798,"name":"rat gets the cheese","steam_id":76561198031234032,"connected_time":238000000000,"state":"active","ping":132}]},{"server_id":119,"name":"Uncletopia | Seattle | 2 | All Maps","name_short":"sea-2","host":"sea-1.us.uncletopia.com","port":27025,"enabled":true,"region":"us-west","cc":"us","latitude":47.608013,"longitude":-122.33517,"reserved":0,"last_update":"0001-01-01T00:00:00Z","name_a2s":"Uncletopia | Seattle | 2 | All Maps","protocol":17,"map":"pl_barnblitz","folder":"tf","game":"Team Fortress","app_id":440,"player_count":3,"max_players":24,"Bots":0,"server_type":"Dedicated","server_os":"Linux","password":true,"vac":true,"version":"7757534","steam_id":85568392924469998,"keywords":["nocrits","nodmgspread","payload","uncletopia"],"game_id":440,"stv_port":27026,"stv_name":"Uncletopia | Seattle | 2 | All Maps | STV","players":[{"user_id":580,"name":"Cheeseoid","steam_id":76561198073836524,"connected_time":226000000000,"state":"active","ping":99},{"user_id":568,"name":"Windows Vista Home Premium","steam_id":76561198043764863,"connected_time":1501000000000,"state":"active","ping":80},{"user_id":557,"name":"Wutville Enjoyer","steam_id":76561198059313367,"connected_time":2323000000000,"state":"active","ping":45}]},{"server_id":406,"name":"Uncletopia | Seattle | 3 | Stopwatch Beta","name_short":"sea-3","host":"sea-1.us.uncletopia.com","port":27035,"enabled":true,"region":"us-west","cc":"us","latitude":47.608013,"longitude":-122.33517,"reserved":0,"last_update":"0001-01-01T00:00:00Z","name_a2s":"Uncletopia | Seattle | 3 | Stopwatch Beta","protocol":17,"map":"workshop/koth_ramjam_rc1.ugc459778887","folder":"tf","game":"Team Fortress","app_id":440,"player_count":0,"max_players":24,"Bots":0,"server_type":"Dedicated","server_os":"Linux","password":true,"vac":true,"version":"7757534","steam_id":85568392924515217,"keywords":["cp","nocrits","nodmgspread","uncletopia"],"game_id":440,"stv_port":27036,"stv_name":"Uncletopia | Seattle | 3 | Stopwatch Beta | STV","players":null},{"server_id":17,"name":"Uncletopia | San Francisco | 1 | All Maps","name_short":"sfo-1","host":"sfo-1.us.uncletopia.com","port":27015,"enabled":true,"region":"us-west","cc":"us","latitude":37.77397,"longitude":-122.4313,"reserved":0,"last_update":"0001-01-01T00:00:00Z","name_a2s":"Uncletopia | San Francisco | 1 | All Maps","protocol":17,"map":"pl_borneo","folder":"tf","game":"Team Fortress","app_id":440,"player_count":0,"max_players":24,"Bots":0,"server_type":"Dedicated","server_os":"Linux","password":true,"vac":true,"version":"7757534","steam_id":85568392924469999,"keywords":["nocrits","nodmgspread","payload","uncletopia"],"game_id":440,"stv_port":27016,"stv_name":"Uncletopia | San Francisco | 1 | All Maps | STV","players":null},{"server_id":18,"name":"Uncletopia | San Francisco | 2 | All Maps","name_short":"sfo-2","host":"sfo-1.us.uncletopia.com","port":27025,"enabled":true,"region":"us-west","cc":"us","latitude":37.77397,"longitude":-122.4313,"reserved":0,"last_update":"0001-01-01T00:00:00Z","name_a2s":"Uncletopia | San Francisco | 2 | All Maps","protocol":17,"map":"pl_hoodoo_final","folder":"tf","game":"Team Fortress","app_id":440,"player_count":24,"max_players":24,"Bots":0,"server_type":"Dedicated","server_os":"Linux","password":true,"vac":true,"version":"7757534","steam_id":85568392924470000,"keywords":["nocrits","nodmgspread","payload","uncletopia"],"game_id":440,"stv_port":27026,"stv_name":"Uncletopia | San Francisco | 2 | All Maps | STV","players":[{"user_id":393,"name":"Sauce Hut","steam_id":76561198151922248,"connected_time":3335000000000,"state":"active","ping":130},{"user_id":399,"name":"Feel the bern","steam_id":76561198078824519,"connected_time":2235000000000,"state":"active","ping":59},{"user_id":312,"name":"Lack of skelebone","steam_id":76561198102175328,"connected_time":9759000000000,"state":"active","ping":58},{"user_id":386,"name":"bronk","steam_id":76561198181109553,"connected_time":4142000000000,"state":"active","ping":50},{"user_id":416,"name":"Jax O'Gaytor","steam_id":76561198288922168,"connected_time":368000000000,"state":"active","ping":67},{"user_id":401,"name":"BeanieBomber","steam_id":76561198128337215,"connected_time":2224000000000,"state":"active","ping":57},{"user_id":412,"name":"weed man","steam_id":76561198334044006,"connected_time":1503000000000,"state":"active","ping":57},{"user_id":421,"name":"Fargo","steam_id":76561198044703931,"connected_time":75000000000,"state":"active","ping":75},{"user_id":422,"name":"Buttocks Fewhairs","steam_id":76561198072200952,"connected_time":37000000000,"state":"active","ping":67},{"user_id":423,"name":"frozenwasanokmovie","steam_id":76561198157407952,"connected_time":6000000000,"state":"spawning","ping":41},{"user_id":394,"name":"Gigos","steam_id":76561198066317089,"connected_time":3327000000000,"state":"active","ping":131},{"user_id":374,"name":"SpockterWho","steam_id":76561198146653460,"connected_time":5049000000000,"state":"active","ping":51},{"user_id":408,"name":"Neowudan","steam_id":76561198136850867,"connected_time":1989000000000,"state":"active","ping":128},{"user_id":392,"name":"SpinnerSpecial","steam_id":76561198065661869,"connected_time":3805000000000,"state":"active","ping":94},{"user_id":403,"name":"Sterling Nano","steam_id":76561198048580088,"connected_time":2141000000000,"state":"active","ping":105},{"user_id":247,"name":"the pizza","steam_id":76561198221331476,"connected_time":14790000000000,"state":"active","ping":40},{"user_id":404,"name":"Stev the Prurient Oxymoron","steam_id":76561197999442625,"connected_time":2122000000000,"state":"active","ping":79},{"user_id":414,"name":"ULTRACOCK","steam_id":76561198022967929,"connected_time":786000000000,"state":"active","ping":64},{"user_id":420,"name":"en.wikipedia.org/wiki/Nae_Nae","steam_id":76561198418288939,"connected_time":84000000000,"state":"active","ping":57},{"user_id":406,"name":"Jacky","steam_id":76561198097043127,"connected_time":2109000000000,"state":"active","ping":50},{"user_id":407,"name":"Finder","steam_id":76561198964948886,"connected_time":2059000000000,"state":"active","ping":63},{"user_id":419,"name":"MinusSoup918","steam_id":76561198060902773,"connected_time":161000000000,"state":"active","ping":75},{"user_id":411,"name":"Infentdegree211","steam_id":76561198385234127,"connected_time":1602000000000,"state":"active","ping":72},{"user_id":391,"name":"SvicidalBug","steam_id":76561198221390504,"connected_time":3920000000000,"state":"active","ping":87}]},{"server_id":19,"name":"Uncletopia | San Francisco | 3 | Stopwatch Beta","name_short":"sfo-3","host":"sfo-1.us.uncletopia.com","port":27035,"enabled":true,"region":"us-west","cc":"us","latitude":37.77397,"longitude":-122.4313,"reserved":0,"last_update":"0001-01-01T00:00:00Z","name_a2s":"Uncletopia | San Francisco | 3 | Stopwatch Beta","protocol":17,"map":"koth_viaduct","folder":"tf","game":"Team Fortress","app_id":440,"player_count":2,"max_players":24,"Bots":0,"server_type":"Dedicated","server_os":"Linux","password":true,"vac":true,"version":"7757534","steam_id":85568392924742824,"keywords":["cp","nocrits","nodmgspread","uncletopia"],"game_id":440,"stv_port":27036,"stv_name":"Uncletopia | San Francisco | 3 | Stopwatch Beta | STV","players":[{"user_id":11,"name":"Zomen","steam_id":76561198134901918,"connected_time":367000000000,"state":"active","ping":47},{"user_id":12,"name":"Leonard","steam_id":76561198276200628,"connected_time":360000000000,"state":"active","ping":61}]},{"server_id":20,"name":"Uncletopia | San Francisco | 4 | Community","name_short":"sfo-4","host":"sfo-1.us.uncletopia.com","port":27045,"enabled":true,"region":"us-west","cc":"us","latitude":37.77397,"longitude":-122.4313,"reserved":0,"last_update":"0001-01-01T00:00:00Z","name_a2s":"Uncletopia | San Francisco | 4 | Community","protocol":17,"map":"workshop/rd_asteroid_redux_b1.ugc2154902912","folder":"tf","game":"Team Fortress","app_id":440,"player_count":0,"max_players":24,"Bots":0,"server_type":"Dedicated","server_os":"Linux","password":true,"vac":true,"version":"7757534","steam_id":85568392924742826,"keywords":["beta","nocrits","nodmgspread","rd","uncletopia"],"game_id":440,"stv_port":27046,"stv_name":"Uncletopia | San Francisco | 4 | Community | STV","players":null},{"server_id":141,"name":"Uncletopia | Sydney | 1 | All Maps","name_short":"syd-1","host":"syd-1.au.uncletopia.com","port":27015,"enabled":true,"region":"au","cc":"au","latitude":-33.865143,"longitude":151.2099,"reserved":0,"last_update":"0001-01-01T00:00:00Z","name_a2s":"Uncletopia | Sydney | 1 | All Maps","protocol":17,"map":"cp_process_final","folder":"tf","game":"Team Fortress","app_id":440,"player_count":0,"max_players":24,"Bots":0,"server_type":"Dedicated","server_os":"Linux","password":true,"vac":true,"version":"7757534","steam_id":85568392924470001,"keywords":["cp","nocrits","nodmgspread","uncletopia"],"game_id":440,"stv_port":27016,"stv_name":"Uncletopia | Sydney | 1 | All Maps | STV","players":null},{"server_id":123,"name":"Uncletopia | Sydney | 2 | All Maps","name_short":"syd-2","host":"syd-1.au.uncletopia.com","port":27025,"enabled":true,"region":"au","cc":"au","latitude":-33.865143,"longitude":151.2099,"reserved":0,"last_update":"0001-01-01T00:00:00Z","name_a2s":"Uncletopia | Sydney | 2 | All Maps","protocol":17,"map":"pl_pier","folder":"tf","game":"Team Fortress","app_id":440,"player_count":22,"max_players":24,"Bots":0,"server_type":"Dedicated","server_os":"Linux","password":true,"vac":true,"version":"7757534","steam_id":85568392924470002,"keywords":["nocrits","nodmgspread","payload","uncletopia"],"game_id":440,"stv_port":27026,"stv_name":"Uncletopia | Sydney | 2 | All Maps | STV","players":[{"user_id":206,"name":"hobo","steam_id":76561199046481213,"connected_time":1570000000000,"state":"active","ping":70},{"user_id":197,"name":"pants money","steam_id":76561198066256359,"connected_time":1801000000000,"state":"active","ping":54},{"user_id":209,"name":"Y0shua3","steam_id":76561199381627916,"connected_time":1458000000000,"state":"active","ping":97},{"user_id":192,"name":"LightningBlock","steam_id":76561198289997742,"connected_time":2097000000000,"state":"active","ping":43},{"user_id":227,"name":"Owlenstein™","steam_id":76561198093983826,"connected_time":272000000000,"state":"active","ping":109},{"user_id":200,"name":"wse.","steam_id":76561198272148020,"connected_time":1690000000000,"state":"active","ping":50},{"user_id":230,"name":"Abraham Lincoln","steam_id":76561198095292515,"connected_time":75000000000,"state":"active","ping":70},{"user_id":226,"name":"Absol","steam_id":76561199045059964,"connected_time":451000000000,"state":"active","ping":108},{"user_id":198,"name":"Snowy","steam_id":76561198255720598,"connected_time":1779000000000,"state":"active","ping":44},{"user_id":199,"name":"Greg","steam_id":76561198133966374,"connected_time":1749000000000,"state":"active","ping":55},{"user_id":231,"name":"E is for Exist","steam_id":76561198133651195,"connected_time":41000000000,"state":"active","ping":78},{"user_id":181,"name":"Slammer","steam_id":76561198322313582,"connected_time":2779000000000,"state":"active","ping":96},{"user_id":187,"name":"Jy","steam_id":76561198104427524,"connected_time":2367000000000,"state":"active","ping":44},{"user_id":207,"name":"ron","steam_id":76561198072560017,"connected_time":1553000000000,"state":"active","ping":57},{"user_id":214,"name":"Teenyman5","steam_id":76561198326425017,"connected_time":1276000000000,"state":"active","ping":68},{"user_id":215,"name":"ziah","steam_id":76561198159375596,"connected_time":1267000000000,"state":"active","ping":59},{"user_id":164,"name":"The Cake Is A Pie","steam_id":76561198043068402,"connected_time":4738000000000,"state":"active","ping":83},{"user_id":225,"name":"Degenerate With Standards","steam_id":76561199174449723,"connected_time":542000000000,"state":"active","ping":155},{"user_id":229,"name":"Atlas","steam_id":76561198069332870,"connected_time":156000000000,"state":"active","ping":44},{"user_id":232,"name":"Jacob","steam_id":76561198059341907,"connected_time":5000000000,"state":"spawning","ping":51},{"user_id":219,"name":"SWAG DRAGON","steam_id":76561197960279341,"connected_time":1045000000000,"state":"active","ping":57},{"user_id":228,"name":"Del Davis","steam_id":76561199365669004,"connected_time":251000000000,"state":"active","ping":58}]},{"server_id":395,"name":"Uncletopia | Sydney | 3 | All Maps","name_short":"syd-3","host":"syd-1.au.uncletopia.com","port":27035,"enabled":true,"region":"au","cc":"au","latitude":-33.865143,"longitude":151.2099,"reserved":0,"last_update":"0001-01-01T00:00:00Z","name_a2s":"Uncletopia | Sydney | 3 | All Maps","protocol":17,"map":"pl_snowycoast","folder":"tf","game":"Team Fortress","app_id":440,"player_count":5,"max_players":24,"Bots":0,"server_type":"Dedicated","server_os":"Linux","password":true,"vac":true,"version":"7757534","steam_id":85568392925194467,"keywords":["nocrits","nodmgspread","payload","uncletopia"],"game_id":440,"stv_port":27036,"stv_name":"Uncletopia | Sydney | 3 | All Maps | STV","players":[{"user_id":33,"name":"(Weird ahh gaming)","steam_id":76561199222041792,"connected_time":33000000000,"state":"active","ping":70},{"user_id":32,"name":"engineer gaming","steam_id":76561199218582893,"connected_time":145000000000,"state":"active","ping":180},{"user_id":22,"name":"KurtinatorX","steam_id":76561198366040408,"connected_time":1471000000000,"state":"active","ping":60},{"user_id":27,"name":"Submissive and Bee-dable","steam_id":76561198023818494,"connected_time":501000000000,"state":"active","ping":391},{"user_id":29,"name":"Artyom","steam_id":76561198152149679,"connected_time":463000000000,"state":"active","ping":337}]},{"server_id":396,"name":"Uncletopia | Sydney | 4 | All Maps","name_short":"syd-4","host":"syd-1.au.uncletopia.com","port":27045,"enabled":true,"region":"au","cc":"au","latitude":-33.865143,"longitude":151.2099,"reserved":0,"last_update":"0001-01-01T00:00:00Z","name_a2s":"Uncletopia | Sydney | 4 | All Maps","protocol":17,"map":"pl_upward","folder":"tf","game":"Team Fortress","app_id":440,"player_count":6,"max_players":24,"Bots":0,"server_type":"Dedicated","server_os":"Linux","password":true,"vac":true,"version":"7757534","steam_id":85568392925397958,"keywords":["nocrits","nodmgspread","payload","uncletopia"],"game_id":440,"stv_port":27046,"stv_name":"Uncletopia | Sydney | 4 | All Maps | STV","players":[{"user_id":40,"name":"osiris","steam_id":76561198172640226,"connected_time":2729000000000,"state":"spawning","ping":132},{"user_id":24,"name":"Autistic Raptor","steam_id":76561198354523762,"connected_time":4843000000000,"state":"spawning","ping":60},{"user_id":44,"name":"sydney (total bitch, amirite?)","steam_id":76561199057568663,"connected_time":1000000000,"state":"spawning","ping":32},{"user_id":43,"name":"Loona","steam_id":76561199467441570,"connected_time":293000000000,"state":"spawning","ping":88},{"user_id":20,"name":"GUNCON","steam_id":76561198848287180,"connected_time":5454000000000,"state":"spawning","ping":69},{"user_id":37,"name":"Tiger_Tan","steam_id":76561198221733844,"connected_time":3332000000000,"state":"spawning","ping":104}]},{"server_id":58,"name":"Uncletopia | Sydney | 5 | Stopwatch Beta","name_short":"syd-5","host":"syd-1.au.uncletopia.com","port":27055,"enabled":true,"region":"au","cc":"au","latitude":-33.865143,"longitude":151.2099,"reserved":0,"last_update":"0001-01-01T00:00:00Z","name_a2s":"Uncletopia | Sydney | 5 | Stopwatch Beta","protocol":17,"map":"pl_barnblitz","folder":"tf","game":"Team Fortress","app_id":440,"player_count":0,"max_players":24,"Bots":0,"server_type":"Dedicated","server_os":"Linux","password":true,"vac":true,"version":"7757534","steam_id":85568392925397959,"keywords":["nocrits","nodmgspread","payload","uncletopia"],"game_id":440,"stv_port":27056,"stv_name":"Uncletopia | Sydney | 5 | Stopwatch Beta | STV","players":null},{"server_id":59,"name":"Uncletopia | Sydney | 6 | Community","name_short":"syd-6","host":"syd-1.au.uncletopia.com","port":27065,"enabled":true,"region":"au","cc":"au","latitude":-33.865143,"longitude":151.2099,"reserved":0,"last_update":"0001-01-01T00:00:00Z","name_a2s":"Uncletopia | Sydney | 6 | Community","protocol":17,"map":"workshop/cp_logjam_rc12.ugc454812035","folder":"tf","game":"Team Fortress","app_id":440,"player_count":0,"max_players":24,"Bots":0,"server_type":"Dedicated","server_os":"Linux","password":true,"vac":true,"version":"7757534","steam_id":85568392925397960,"keywords":["cp","nocrits","nodmgspread","uncletopia"],"game_id":440,"stv_port":27066,"stv_name":"Uncletopia | Sydney | 6 | Community | STV","players":null},{"server_id":49,"name":"Uncletopia | Warsaw | 1 | All Maps","name_short":"waw-1","host":"waw-1.pl.uncletopia.com","port":27015,"enabled":true,"region":"eu","cc":"pl","latitude":52.2297,"longitude":21.017532,"reserved":0,"last_update":"0001-01-01T00:00:00Z","name_a2s":"","protocol":0,"map":"","folder":"","game":"","app_id":0,"player_count":0,"max_players":0,"Bots":0,"server_type":"","server_os":"","password":false,"vac":false,"version":"","steam_id":0,"keywords":null,"game_id":0,"stv_port":0,"stv_name":"","players":null},{"server_id":50,"name":"Uncletopia | Warsaw | 2 | All Maps","name_short":"waw-2","host":"waw-1.pl.uncletopia.com","port":27025,"enabled":true,"region":"eu","cc":"pl","latitude":52.2297,"longitude":21.017532,"reserved":0,"last_update":"0001-01-01T00:00:00Z","name_a2s":"Uncletopia | Warsaw | 2 | All Maps","protocol":17,"map":"cp_snakewater_final1","folder":"tf","game":"Team Fortress","app_id":440,"player_count":0,"max_players":24,"Bots":0,"server_type":"Dedicated","server_os":"Linux","password":true,"vac":true,"version":"7757534","steam_id":85568392925397851,"keywords":["cp","nocrits","nodmgspread","uncletopia"],"game_id":440,"stv_port":27026,"stv_name":"Uncletopia | Warsaw | 2 | All Maps | STV","players":null},{"server_id":51,"name":"Uncletopia | Warsaw | 3 | All Maps","name_short":"waw-3","host":"waw-1.pl.uncletopia.com","port":27035,"enabled":true,"region":"eu","cc":"pl","latitude":52.2297,"longitude":21.017532,"reserved":0,"last_update":"0001-01-01T00:00:00Z","name_a2s":"Uncletopia | Warsaw | 3 | All Maps","protocol":17,"map":"cp_sunshine","folder":"tf","game":"Team Fortress","app_id":440,"player_count":0,"max_players":24,"Bots":0,"server_type":"Dedicated","server_os":"Linux","password":true,"vac":true,"version":"7757534","steam_id":85568392925397852,"keywords":["cp","nocrits","nodmgspread","uncletopia"],"game_id":440,"stv_port":27036,"stv_name":"Uncletopia | Warsaw | 3 | All Maps | STV","players":null},{"server_id":52,"name":"Uncletopia | Warsaw | 4 | All Maps","name_short":"waw-4","host":"waw-1.pl.uncletopia.com","port":27045,"enabled":true,"region":"eu","cc":"pl","latitude":52.2297,"longitude":21.017532,"reserved":0,"last_update":"0001-01-01T00:00:00Z","name_a2s":"Uncletopia | Warsaw | 4 | All Maps","protocol":17,"map":"pl_borneo","folder":"tf","game":"Team Fortress","app_id":440,"player_count":0,"max_players":24,"Bots":0,"server_type":"Dedicated","server_os":"Linux","password":true,"vac":true,"version":"7757534","steam_id":85568392925397853,"keywords":["nocrits","nodmgspread","payload","uncletopia"],"game_id":440,"stv_port":27046,"stv_name":"Uncletopia | Warsaw | 4 | All Maps | STV","players":null},{"server_id":53,"name":"Uncletopia | Warsaw | 5 | Stopwatch Beta","name_short":"waw-5","host":"waw-1.pl.uncletopia.com","port":27055,"enabled":true,"region":"eu","cc":"pl","latitude":52.2297,"longitude":21.017532,"reserved":0,"last_update":"0001-01-01T00:00:00Z","name_a2s":"Uncletopia | Warsaw | 5 | Stopwatch Beta","protocol":17,"map":"pl_upward","folder":"tf","game":"Team Fortress","app_id":440,"player_count":0,"max_players":24,"Bots":0,"server_type":"Dedicated","server_os":"Linux","password":true,"vac":true,"version":"7757534","steam_id":85568392925397854,"keywords":["nocrits","nodmgspread","payload","uncletopia"],"game_id":440,"stv_port":27056,"stv_name":"Uncletopia | Warsaw | 5 | Stopwatch Beta | STV","players":null},{"server_id":54,"name":"Uncletopia | Warsaw | 6 | Community","name_short":"waw-6","host":"waw-1.pl.uncletopia.com","port":27065,"enabled":true,"region":"eu","cc":"pl","latitude":52.2297,"longitude":21.017532,"reserved":0,"last_update":"0001-01-01T00:00:00Z","name_a2s":"Uncletopia | Warsaw | 6 | Community","protocol":17,"map":"pl_barnblitz","folder":"tf","game":"Team Fortress","app_id":440,"player_count":0,"max_players":24,"Bots":0,"server_type":"Dedicated","server_os":"Linux","password":true,"vac":true,"version":"7757534","steam_id":85568392925397856,"keywords":["nocrits","nodmgspread","payload","uncletopia"],"game_id":440,"stv_port":27066,"stv_name":"Uncletopia | Warsaw | 6 | Community | STV","players":null}]}